~VERSION INFORMATION
 VERS.                2.0:   CWLS LOG ASCII STANDARD - VERSION 2.0
 WRAP.                 NO:   ONE LINE PER DEPTH STEP
~WELL INFORMATION
#MNEM.UNIT      DATA TYPE    INFORMATION
#----------   ------------   ------------------------------
 STRT.F            0.0000:   START DEPTH
 STOP.F         1064.0000:   STOP DEPTH
 STEP.F            0.5000:   STEP LENGTH
 NULL.          -999.2500:   NO VALUE
 COMP.  JOHN BROWN E. & C:   COMPANY
 WELL. JOHN BROWN NPR 3-1 "X" #68-2:   WELL
 FLD .                NPR:   FIELD
 LOC .       S2 T38N R78W:   LOCATION
 CNTY.            NATRONA:   COUNTY
 STAT.            WYOMING:   STATE
 CTRY. UNITED STATES OF AMERICA:   COUNTRY
 SRVC.     ATLAS WIRELINE:   SERVICE COMPANY
 DATE.        25-JAN-1992:   LOGDATE
 API .     49025224850000:   API NUMBER
~CURVE INFORMATION
#MNEM.UNIT       API CODE    CURVE DESCRIPTION
#----------   ------------   ------------------------------
 DEPT.F                  :   
 GRR .GAPI   07 310 01 00:   GAMMA RAY FROM RESISTIVITY
 TENR.LBS    07 635 01 00:   TENSION
 RILD.OHMM   07 120 46 00:   INDUCTION LOG DEEP RESISTIVITY
 RILM.OHMM   07 120 44 00:   INDUCTION LOG MEDIUM RESISTIVITY
~PARAMETER INFORMATION
#MNEM.UNIT          VALUE    DESCRIPTION
#----------   ------------   ------------------------------
 EKB .F         5197.0000:   Kelly bushing
 EGL .F         5187.0000:   Ground level
 TD  .F         1060.0000:   Total depth
 DATE.        25-JAN-1992:   Date logged
 CLNT.            A2DTECH:   Client Code
 PD  .                 GL:   Permanent Datum
 EPD .F               518:   Elevation Permanent Datum
 LMF .                 KB:   Log Measured From
 DMF .                 KB:   Drilling Measured From
 DAPD.F                10:   Feet Above Permanent Datum
 DD  .F              1060:   Depth driller
 DL  .F              1057:   Depth logger
 BLI .F              1055:   Bottom log interval
 CS1 .IN            10.75:   Casing size
 CBD1.       10.75" @ 50':   Casing driller 1
 CBL1.F                50:   Casing logger 1
 BS1 .IN             8.75:   Bit size
 BSD1.F              1060:   Depth drilled with bit1
 DFT .                AIR:   Type fluid in hole
 LUN .            HL-6307:   Logging unit number
 LUL .             CASPER:   Logging unit location
 ENGI.             ZIEGER:   Recorded By
 WITN.             STRONG:   Witnessed by
 ORIG.           5" PRINT:   Origin of data
 UWI .     49025224850000:   Unique Well ID
 DICO. A2D TECHNOLOGIES, INC.:   Digitizing Company
~OTHER INFORMATION
~A    DEPT      GRR      TENR       RILD       RILM   
# ...
  292.0000   130.4710   -44.3830     5.0400     5.0410
  292.5000   130.6760   -44.3830     5.0630     5.0540
  293.0000   128.5030   -44.3830     5.0850     5.0670
  293.5000   125.9350   -44.3830     5.1080     5.0810
  294.0000   123.2650   -44.3830     5.1310     5.0940
  294.5000   122.3690   -44.3830     5.1830     5.1330
  295.0000   122.1370   -44.3830     5.2690     5.2150
  295.5000   122.2870   -44.3830     5.3550     5.2960
  296.0000   123.8440   -44.3830     5.4410     5.3780
  296.5000   127.9340   -44.3830     5.5270     5.4590
  297.0000   134.4090   -44.3830     5.6130     5.5410
  297.5000   138.6760   -44.3830     5.6990     5.6220
  298.0000   139.2140   -44.3830     5.7850     5.7040
  298.5000   134.0090   -44.3830     5.8710     5.7850
  299.0000   128.7860   -44.3830     5.9570     5.8670
  299.5000   125.3500   -44.3830     6.0180     5.9080
  300.0000   124.8180   -44.3830     5.9630     5.8230
  300.5000   124.3540   -44.3830     5.9250     5.7610
  301.0000   123.2250   -44.3830     5.7840     5.6940
  301.5000   120.1800   -44.3830     5.5430     5.4840
  302.0000   117.5310   -44.3830     5.3020     5.2460
  302.5000   118.1950   -44.3830     5.0260     4.9440
  303.0000   121.9460   -44.3830     4.7390     4.6420
  303.5000   125.6000   -43.6680     4.4520     4.3390
  304.0000   125.9210   -42.7300     4.1590     4.0370
  304.5000   126.0210   -41.7920     4.1210     3.9350
  305.0000   129.3890   -40.8540     4.1210     4.0550
  305.5000   134.1920   -39.9160     4.1990     4.2070
  306.0000   136.9850   -38.9780     4.3320     4.3560
  306.5000   136.6800   -38.0400     4.5880     4.5660
  307.0000   136.1230   -37.1020     4.8440     4.7720
  307.5000   135.1610   -36.1640     5.1000     4.9780
  308.0000   133.5890   -35.2260     5.3560     5.2540
  308.5000   128.4470   -34.3530     5.6120     5.5660
  309.0000   123.3370   -34.3530     5.8110     5.8540
  309.5000   122.5270   -34.3530     5.9690     6.0690
  310.0000   127.4560   -34.3530     6.1380     6.2690
  310.5000   132.7860   -34.3530     6.3070     6.4690
  311.0000   132.9710   -34.3530     6.4760     6.6680
  311.5000   131.0290   -34.3530     6.6450     6.7580
  312.0000   128.9690   -34.3530     6.7330     6.8490
  312.5000   126.9190   -34.3530     6.7490     6.7360
  313.0000   124.9410   -34.3530     6.7660     6.6160
  313.5000   124.2980   -34.3530     6.7860     6.4960
  314.0000   124.2140   -34.3530     6.7480     6.3760
  314.5000   124.3940   -34.3530     6.6990     6.3030
  315.0000   125.0100   -34.3530     6.6490     6.3030
  315.5000   126.2060   -34.3530     6.6010     6.3030
  316.0000   126.3820   -34.3530     6.4600     6.3030
  316.5000   121.5250   -34.3530     6.2870     6.1810
  317.0000   116.3240   -34.3530     6.1140     5.8970
  317.5000   111.9060   -34.3530     5.8530     5.6120
  318.0000   110.1450   -34.3530     5.4830     5.3270
  318.5000   111.1770   -34.3530     5.1120     5.0430
  319.0000   114.5370   -34.3530     4.7420     4.7580
  319.5000   118.1280   -34.3530     4.4040     4.4730
  320.0000   121.6410   -34.3530     4.1490     4.1880
  320.5000   125.1040   -34.3530     3.9410     3.9350
  321.0000   128.5200   -34.3530     3.8430     3.8630
  321.5000   128.4320   -34.3530     3.7640     3.8630
  322.0000   123.1500   -34.3530     3.8140     4.0540
  322.5000   118.0810   -34.3530     3.9790     4.2230
  323.0000   116.3590   -34.3530     4.2120     4.3930
  323.5000   117.0660   -34.3530     4.4440     4.5620
  324.0000   118.5380   -34.3530     4.6760     4.7310
  324.5000   120.0650   -34.3530     4.9090     4.9010
  325.0000   119.2600   -34.3530     5.0640     5.0030
  325.5000   117.6040   -34.3530     5.1010     5.0110
  326.0000   116.4830   -34.3530     5.1380     5.0300
  326.5000   117.8800   -34.3530     5.1750     5.0490
  327.0000   121.6250   -34.3530     5.2120     4.9480
  327.5000   125.2740   -34.3530     5.2390     4.9100
  328.0000   126.4810   -34.3530     5.0030     4.8710
  328.5000   125.4020   -34.3530     4.7250     4.6460
  329.0000   121.6480   -34.3530     4.3080     4.3150
  329.5000   117.8400   -34.3530     3.8140     3.8580
  330.0000   116.3250   -34.3530     3.2680     3.3840
  330.5000   116.1450   -34.3530     2.7370     2.9100
  331.0000   116.0330   -34.3530     2.3670     2.4360
  331.5000   117.3040   -34.3530     2.2960     2.0230
  332.0000   120.4260   -34.3530     2.2430     2.0230
  332.5000   123.2400   -34.3530     2.2190     2.2530
  333.0000   123.3060   -34.3530     2.3200     2.4780
  333.5000   120.1070   -34.3530     2.4240     2.7750
  334.0000   112.6270   -34.3530     2.5260     3.1980
  334.5000   106.4910   -34.3530     2.9450     3.5660
  335.0000   108.6910   -34.3530     3.4520     3.8470
  335.5000   113.1630   -34.3530     3.9590     4.1280
  336.0000   117.5950   -34.3530     4.4170     4.3160
  336.5000   119.9770   -34.3530     4.6900     4.3510
  337.0000   118.5540   -34.3530     4.8210     4.3950
  337.5000   117.2260   -34.3530     4.7520     4.4370
  338.0000   116.7420   -34.3530     4.6700     4.4190
  338.5000   116.0220   -34.3530     4.5880     4.4020
  339.0000   114.1940   -34.3530     4.5610     4.3560
  339.5000   113.8290   -34.3530     4.5610     4.2980
  340.0000   116.0030   -34.3530     4.4680     4.2450
  340.5000   118.7040   -34.3530     4.3360     4.1810
  341.0000   117.0870   -34.3530     4.1400     4.0300
  341.5000   115.6520   -34.3530     3.9260     3.8620
  342.0000   116.5530   -34.3530     3.5720     3.5820
  342.5000   116.9280   -34.3530     3.2190     3.3020
  343.0000   115.8500   -34.3530     2.8660     3.0220
  343.5000   114.8520   -34.3530     2.5020     2.7420
  344.0000   116.5000   -34.3530     2.2900     2.4610
  344.5000   122.1450   -34.3530     2.0990     2.1780
  345.0000   126.9170   -34.3530     2.1440     2.1780
  345.5000   125.5780   -34.3530     2.2570     2.3440
  346.0000   119.8280   -34.3530     2.3710     2.5100
  346.5000   113.9780   -34.3530     2.4840     2.8360
  347.0000   112.1070   -34.3530     2.8510     3.2580
  347.5000   112.9800   -34.3530     3.3650     3.6810
  348.0000   116.2040   -34.3530     3.8790     4.0880
  348.5000   120.0700   -34.3530     4.3930     4.4880
  349.0000   121.7830   -34.3530     4.8660     4.8220
  349.5000   121.9730   -34.3530     5.1630     4.9850
  350.0000   120.5260   -34.3530     5.2880     5.0960
  350.5000   119.1130   -34.3530     5.2180     5.0960
  351.0000   116.1310   -34.3530     5.1180     4.9560
  351.5000   111.5120   -34.3530     4.9700     4.7330
  352.0000   110.5900   -34.3530     4.6470     4.4420
  352.5000   115.1670   -34.3530     4.1710     4.0340
  353.0000   121.4650   -34.3530     3.6510     3.6260
  353.5000   127.2940   -34.3530     3.0950     3.2170
  354.0000   127.7420   -34.3530     2.8420     2.8090
  354.5000   126.9470   -34.3530     2.6990     2.4340
  355.0000   129.0010   -34.3530     2.5960     2.4810
  355.5000   134.8160   -34.3530     2.5960     2.5730
  356.0000   135.9140   -34.3530     2.5960     2.8090
  356.5000   123.5690   -34.3530     2.6650     3.0600
  357.0000   112.6610   -34.3530     2.7960     3.3110
  357.5000   112.3370   -34.3530     3.1810     3.5620
  358.0000   117.8510   -34.3530     3.5830     3.8120
  358.5000   118.2600   -34.3530     3.9860     4.0490
  359.0000   117.0140   -34.3530     4.2200     4.2630
  359.5000   115.9560   -34.3530     4.3260     4.4070
  360.0000   115.9980   -34.3530     4.4330     4.4370
  360.5000   116.2170   -34.3530     4.5200     4.4660
  361.0000   117.8740   -34.3530     4.5200     4.4960
  361.5000   121.3900   -34.3530     4.5200     4.5200
  362.0000   124.7760   -34.3530     4.4640     4.4180
  362.5000   124.4320   -34.3530     4.3710     4.3330
  363.0000   124.6030   -34.3530     4.3160     4.3160
  363.5000   127.1760   -34.3530     4.2610     4.3160
  364.0000   125.6260   -34.3530     3.9990     4.1240
  364.5000   120.3130   -34.3530     3.7370     3.8860
