~VERSION INFORMATION
 VERS.                2.0:   CWLS LOG ASCII STANDARD - VERSION 2.0
 WRAP.                 NO:   ONE LINE PER DEPTH STEP
~WELL INFORMATION
#MNEM.UNIT      DATA TYPE    INFORMATION
#----------   ------------   ------------------------------
 STRT.F          200.0000:   START DEPTH
 STOP.F         3038.0000:   STOP DEPTH
 STEP.F            0.5000:   STEP LENGTH
 NULL.          -999.2500:   NO VALUE
 COMP.    FENIX & SCISSON:   COMPANY
 WELL. FENIX NPR 3 "A" #63-28:   WELL
 FLD .            WILDCAT:   FIELD
 LOC .      S28 T39N R78W:   LOCATION
 CNTY.            NATRONA:   COUNTY
 STAT.            WYOMING:   STATE
 CTRY. UNITED STATES OF AMERICA:   COUNTRY
 SRVC.              WELEX:   SERVICE COMPANY
 DATE.        29-MAY-1977:   LOGDATE
 API .     49025103740000:   API NUMBER
~CURVE INFORMATION
#MNEM.UNIT       API CODE    CURVE DESCRIPTION
#----------   ------------   ------------------------------
 DEPT.F                  :   
 SPR .MV     07 010 01 00:   SPONTANEOUS POTENTIAL
 ILM .OHMM   07 120 44 00:   INDUCTION LOG MEDIUM RESISTIVITY
 ILD .OHMM   07 120 46 00:   DEEP INDUCTION RESISTIVITY
 SGRD.OHMM   07 220 05 00:   SHALLOW SHORT GUARD RESISTIVITY
 GRD .GAPI   45 310 01 00:   GAMMA RAY FROM DENSITY LOG
 CALD.IN     45 280 60 00:   CALIPER FROM DENSITY LOG
 RHOB.G/C3   45 350 01 00:   BULK DENSITY
 CORR.G/C3   45 356 01 00:   DENSITY CORRECTION
~PARAMETER INFORMATION
#MNEM.UNIT          VALUE    DESCRIPTION
#----------   ------------   ------------------------------
 EKB .F         5040.0000:   Kelly bushing
 EGL .F         5029.0000:   Ground level
 EDF .F            0.0000:   Drilling floor
 EPD .F         5029.0000:   Permanent datum
 TD  .F         3040.0000:   Total depth
 DATE.        29-MAY-1977:   Date logged
 CLNT.            A2DTECH:   Client Code
 SL  . 1650' FNL & 1650' FEL:   Surface Location
 PD  .                 GL:   Permanent Datum
 LMF .                 KB:   Log Measured From
 DMF .                 KB:   Drilling Measured From
 DD  .F              3040:   Depth driller
 DL  .F              3038:   Depth logger
 BLI .F              3036:   Bottom log interval
 TLI .F               200:   Top log interval
 CS1 .IN            8.625:   Casing size
 BSD1.F              3040:   Depth drilled with bit1
 DFT .            KCL MUD:   Type fluid in hole
 ORIG.     2.5", 5" PRINT:   Origin of data
 UWI .     49025103740000:   Unique Well ID
 DICO. A2D TECHNOLOGIES, INC.:   Digitizing Company
 DAPD.                 11:   Feet Above Permanent Datum
 CBD1.      8.625" @ 220':   Casing driller 1
 BS1 .              7.875:   Bit size
 DFD .                8.7:   Density
 MRT .                108:   Maximum recorded temp.
 ENGI.            C. DOAK:   Recorded By
 WITN.      W. PETTINGILL:   Witnessed by
~OTHER INFORMATION
~A   DEPT      SPR        ILM          ILD     SGRD         GRD        CALD       RHOB      CORR  
# ...
  402.5000   -31.5960    11.7880    10.5580    10.1770    65.3370    12.2210     2.3390     0.0390
  403.0000   -32.0490    11.8130    10.2710    10.1770    66.6830    12.2210     2.3370     0.0380
  403.5000   -32.9810    11.8380    10.2710    10.1770    66.8040    12.2210     2.3370     0.0370
  404.0000   -34.2460    11.8630    10.2710    10.4840    65.8820    12.2200     2.3360     0.0360
  404.5000   -35.5800    11.8870    10.2710    10.7540    65.8280    12.1890     2.3430     0.0350
  405.0000   -36.6590    11.9790    10.3460    10.1770    66.8900    12.1480     2.3560     0.0360
  405.5000   -37.6120    12.5560    10.4470    10.1770    67.8220    12.1080     2.3690     0.0390
  406.0000   -38.4310    13.1640    10.5490    10.6610    68.7920    12.0670     2.3830     0.0420
  406.5000   -39.2780    13.9760    10.6560    11.5120    69.7830    12.0260     2.3960     0.0440
  407.0000   -40.1520    14.6990    10.7420    12.2310    70.7130    11.9700     2.4010     0.0460
  407.5000   -41.0550    14.1680    10.8570    12.2310    71.6870    11.9140     2.4050     0.0470
  408.0000   -41.4640    13.7830    10.9540    12.2310    71.2960    11.8570     2.4050     0.0450
  408.5000   -41.8320    13.9190    10.9780    12.2310    70.5090    11.8000     2.4050     0.0410
  409.0000   -42.4750    14.0390    11.0030    12.2310    69.7610    11.7570     2.4020     0.0370
  409.5000   -43.2570    13.8900    11.0290    12.2240    69.0400    11.7480     2.3960     0.0340
  410.0000   -43.7590    13.4900    11.0550    12.1820    68.2160    11.7360     2.3900     0.0300
  410.5000   -44.2540    13.1640    11.0220    12.1410    67.9390    11.7260     2.3840     0.0270
  411.0000   -44.8690    13.1640    10.9360    12.0990    68.3960    11.7150     2.3780     0.0270
  411.5000   -45.3110    13.1640    10.8500    12.0580    68.7410    11.7040     2.3750     0.0280
  412.0000   -45.7050    12.9280    10.7640    12.0080    69.1800    11.6930     2.3780     0.0280
  412.5000   -45.9150    12.9620    10.6780    12.0240    69.4660    11.6830     2.3840     0.0280
  413.0000   -46.0800    12.9900    10.5920    12.0640    70.5160    11.6720     2.3890     0.0290
  413.5000   -46.4040    13.0170    10.5580    12.1130    71.6270    11.6610     2.3950     0.0290
  414.0000   -46.9480    13.0440    10.5050    12.0600    72.7800    11.6500     2.3990     0.0300
  414.5000   -46.8620    12.7930    10.4380    11.9620    73.9110    11.6400     2.4010     0.0300
  415.0000   -46.6980    12.5460    10.3720    11.8650    74.7980    11.6440     2.4040     0.0310
  415.5000   -46.6160    12.2980    10.3060    11.7890    74.9480    11.6480     2.4070     0.0300
  416.0000   -46.8700    12.0080    10.2400    11.7470    75.0850    11.6530     2.4020     0.0270
  416.5000   -46.9530    12.0460    10.1740    11.6960    75.2040    11.6570     2.3980     0.0250
  417.0000   -47.0060    12.0910    10.1080    11.6440    75.3310    11.6610     2.3940     0.0220
  417.5000   -48.2730    12.1370    10.0840    11.5800    75.4570    11.6660     2.3930     0.0200
  418.0000   -49.8570    12.1820    10.1170    11.6320    75.5810    11.6700     2.3970     0.0190
  418.5000   -51.3000    12.2280    10.1480    11.7220    75.7070    11.6740     2.4050     0.0210
  419.0000   -55.0200    12.2740    10.1790    11.7890    75.8320    11.6790     2.4120     0.0230
  419.5000   -59.0510    12.3440    10.2110    11.8340    75.9570    11.6830     2.4200     0.0250
  420.0000   -62.3880    12.2550    10.2420    11.8760    76.0810    11.6870     2.4270     0.0270
  420.5000   -66.3960    12.0600    10.2740    12.0700    76.2080    11.6920     2.4340     0.0290
  421.0000   -68.1270    11.8660    10.3050    12.3440    76.3540    11.6960     2.4400     0.0310
  421.5000   -68.0620    11.6720    10.3370    12.0370    76.7550    11.7000     2.4480     0.0320
  422.0000   -67.9970    11.4770    10.3660    11.6250    77.2680    11.7050     2.4390     0.0330
  422.5000   -67.9210    11.2830    10.3380    11.4690    77.7730    11.7090     2.4200     0.0340
  423.0000   -67.8440    11.4360    10.2980    11.2600    78.2780    11.7130     2.4180     0.0360
  423.5000   -67.7700    11.6360    10.2570    10.9540    78.7830    11.7180     2.4180     0.0370
  424.0000   -67.5850    11.8980    10.2170    11.0160    79.2880    11.7220     2.4170     0.0380
  424.5000   -67.3550    11.7320    10.1770    11.1060    79.8000    11.7260     2.4170     0.0380
  425.0000   -67.1200    11.4910    10.1360    11.1970    80.2880    11.7310     2.4120     0.0350
  425.5000   -66.8240    11.2510    10.0960    11.2600    80.8200    11.7350     2.4080     0.0330
  426.0000   -66.3210    11.0100     9.9720    11.0550    81.0620    11.7390     2.4030     0.0310
  426.5000   -65.5230    10.7700     9.7910    10.7140    81.5060    11.7440     2.4030     0.0330
  427.0000   -64.6070    10.5290     9.6100    10.3390    81.8960    11.7480     2.4030     0.0360
  427.5000   -63.6960    10.4490     9.4290    10.0840    82.3200    11.7520     2.4080     0.0380
  428.0000   -62.1510    10.4090     9.2480    10.0840    82.7180    11.7560     2.4150     0.0410
  428.5000   -60.3560    10.3690     9.0350    10.1380    83.1290    11.7560     2.4220     0.0440
  429.0000   -59.3120    10.3290     8.8100    10.1770    83.5440    11.7560     2.4290     0.0460
  429.5000   -58.9230    10.2890     8.5840     9.6060    83.9180    11.7560     2.4360     0.0490
  430.0000   -58.9220    10.0280     8.3900     9.3470    84.5750    11.7560     2.4410     0.0520
  430.5000   -58.9260     9.5750     8.1310     9.1870    85.5010    11.7560     2.4460     0.0550
  431.0000   -58.7510     9.1220     7.7800     9.1140    86.3700    11.7560     2.4490     0.0600
  431.5000   -58.5270     8.6700     7.4300     9.1440    87.0610    11.7550     2.4490     0.0650
  432.0000   -58.2860     8.2650     7.0790     9.2290    88.4250    11.7570     2.4460     0.0710
  432.5000   -58.0310     7.8980     6.7230     9.2830    90.9690    11.7550     2.4360     0.0760
  433.0000   -57.7740     7.5320     6.3570     8.4860    92.4750    11.7430     2.4200     0.0820
  433.5000   -57.5010     7.2160     5.9920     7.3690    93.4940    11.5930     2.4020     0.0870
  434.0000   -57.1580     6.6570     5.6260     6.7570    93.3460    11.4100     2.3570     0.0930
  434.5000   -56.5810     6.1950     5.2020     6.2980    92.5510    11.2120     2.3400     0.0970
  435.0000   -56.0120     6.2890     4.6280     4.3690    91.4290    11.0190     2.3180     0.0980
  435.5000   -55.5480     6.3100     3.1370     5.1710    90.2260    10.8290     2.3130     0.0990
  436.0000   -54.7960     6.6080     5.0380     7.5140    88.3950    10.6180     2.2980     0.0920
  436.5000   -54.1940     6.9880     6.4550     8.4890    86.5840    10.5040     2.3630     0.0800
  437.0000   -53.6440     7.3680     6.8560     9.3040    87.0330    10.4260     2.3860     0.0690
  437.5000   -53.6240     7.6420     7.2480     9.4130    87.5790    10.3990     2.3980     0.0570
  438.0000   -53.6260     8.1350     7.6040     9.5220    88.1800    10.3960     2.4000     0.0460
  438.5000   -53.5820     8.6250     7.9610     9.5730    88.7440    10.4090     2.4070     0.0350
  439.0000   -53.3480     8.5060     8.3140     9.6100    88.7420    10.4500     2.4110     0.0350
  439.5000   -53.1160     8.3900     8.3330     9.6470    89.5370    10.5560     2.4160     0.0360
  440.0000   -52.8820     8.7650     8.3520     9.6840    88.8900    10.6490     2.4200     0.0370
  440.5000   -52.8810     9.1340     8.3720     9.7200    87.6770    10.7480     2.4240     0.0380
  441.0000   -52.9240     9.2420     8.3900     9.9440    86.5000    10.8520     2.4260     0.0390
  441.5000   -52.9690     9.2960     8.6650    10.1630    85.3540    10.9050     2.4250     0.0340
  442.0000   -53.0130     9.3490     8.9320    10.3820    84.1960    10.9380     2.4200     0.0280
  442.5000   -52.9670     9.5390     9.1990    10.6000    83.0000    11.0130     2.4150     0.0230
