~VERSION INFORMATION
 VERS.                2.0:   CWLS LOG ASCII STANDARD - VERSION 2.0
 WRAP.                 NO:   ONE LINE PER DEPTH STEP
~WELL INFORMATION
#MNEM.UNIT      DATA TYPE    INFORMATION
#----------   ------------   ------------------------------
 STRT.F          172.0000:   START DEPTH
 STOP.F         3376.0000:   STOP DEPTH
 STEP.F            0.5000:   STEP LENGTH
 NULL.          -999.2500:   NO VALUE
 COMP.    FENIX & SCISSON:   COMPANY
 WELL. FENIX NPR 3 "AX" #23-2:   WELL
 FLD .                NPR:   FIELD
 LOC .       S2 T38N R78W:   LOCATION
 CNTY.            NATRONA:   COUNTY
 STAT.            WYOMING:   STATE
 CTRY. UNITED STATES OF AMERICA:   COUNTRY
 SRVC.              WELEX:   SERVICE COMPANY
 DATE.        02-DEC-1980:   LOGDATE
 API .     49025108740000:   API NUMBER
~CURVE INFORMATION
#MNEM.UNIT       API CODE    CURVE DESCRIPTION
#----------   ------------   ------------------------------
 DEPT.F                  :   
 CALD.IN     45 280 60 00:   CALIPER FROM DENSITY LOG
 CORR.G/C3   45 356 01 00:   DENSITY CORRECTION
 GRD .GAPI   45 310 01 00:   GAMMA RAY FROM DENSITY LOG
 RHOB.G/C3   45 350 01 00:   BULK DENSITY
 TENR.LBS    07 635 01 00:   TENSION
 SPR .MV     07 010 01 00:   SPONTANEOUS POTENTIAL
 SGRD.OHMM   07 220 05 00:   SHALLOW GUARD
 ILD .OHMM   07 120 46 00:   INDUCTION LOG DEEP RESISTIVITY
 ILM .OHMM   07 120 44 00:   INDUCTION LOG MEDIUM RESISTIVITY
~PARAMETER INFORMATION
#MNEM.UNIT          VALUE    DESCRIPTION
#----------   ------------   ------------------------------
 EKB .F         5133.0000:   Kelly bushing
 EGL .F         5123.0000:   Ground level
 EDF .F            0.0000:   Drilling floor
 TD  .F         3375.0000:   Total depth
 DATE.        02-DEC-1980:   Date logged
 CLNT.            A2DTECH:   Client Code
 SL  . 3800' FSL & 827' FWL:   Surface Location
 PD  .                 GL:   Permanent Datum
 EPD .F              5123:   Elevation Permanent Datum
 LMF .                 KB:   Log Measured From
 DMF .                 KB:   Drilling Measured From
 DAPD.F                10:   Feet Above Permanent Datum
 DD  .F              3375:   Depth driller
 DL  .F              3373:   Depth logger
 BLI .F              3371:   Bottom log interval
 TLI .F               181:   Top log interval
 CS1 .IN            8.625:   Casing size
 CBD1.      8.625" @ 181':   Casing driller 1
 CBL1.F               181:   Casing logger 1
 BS1 .IN            7.875:   Bit size
 BSD1.F              3375:   Depth drilled with bit1
 DFT .           CHEM/GEL:   Type fluid in hole
 DFD .                8.8:   Density
 DFV .                 45:   Viscosity
 DFPH.                  9:   pH
 DFL .                 16:   Fluid loss
 MSS .           FLOWLINE:   Source of sample
 RMS .OHMM           1.25:   Rm
 MST .F                64:   Rm Meas. temp.
 RMF .OHMM           1.17:   Rmf
 MFST.F                64:   Rmf Meas. temp.
 RMC .OHMM            1.1:   Rmc
 MCST.F                64:   Rmc Meas. temp.
 MFSS.               MEAS:   Source Rmf.
 MCSS.               MEAS:   Source Rmc.
 RMB .OHMM            .67:   Rm. at BHT
 BHT .F               120:   BHT.
 TCS .HRS               2:   Time Circ. stopped
 MRT .F               120:   Maximum recorded temp.
 LUN .               1892:   Logging unit number
 LUL .             CASPER:   Logging unit location
 ENGI.  PFRIMMER/MONNAHAN:   Recorded By
 WITN.              FIVAS:   Witnessed by
 ORIG.           5" PRINT:   Origin of data
 UWI .     49025108740000:   Unique Well ID
 DICO. A2D TECHNOLOGIES, INC.:   Digitizing Company
~OTHER INFORMATION
~A   DEPT     CALD       CORR         GRD      RHOB       TENR        SPR       SGRD        ILD        ILM   
# ...
 2909.5000     9.2260     0.0300   115.4810     2.4850   -95.5010   -18.4350    14.4890    11.0520    11.4670
 2910.0000     9.2140     0.0290   116.1760     2.4740   -95.3920   -18.5000    14.4890    11.0800    11.4950
 2910.5000     9.2010     0.0280   115.3940     2.4630   -95.2840   -18.5710    15.2460    11.1070    11.5230
 2911.0000     9.1890     0.0270   112.0840     2.4560   -95.1760   -18.5920    16.1820    11.1340    11.5510
 2911.5000     9.1760     0.0260   108.4930     2.4660   -95.0670   -18.5660    15.0320    11.1600    11.5790
 2912.0000     9.1640     0.0250   107.1980     2.4770   -94.9590   -18.5460    15.6880    11.1870    11.6070
 2912.5000     9.1510     0.0240   107.3160     2.4880   -94.8510   -18.5240    16.4830    11.1950    11.6150
 2913.0000     9.1390     0.0240   110.8550     2.4780   -94.7430   -18.5020    15.4370    11.1040    11.5210
 2913.5000     9.1260     0.0230   112.4350     2.4830   -94.6340   -18.4810    14.2740    11.0040    11.4170
 2914.0000     9.1140     0.0220   113.3520     2.4920   -94.5260   -18.4590    13.2140    10.9030    11.3120
 2914.5000     9.1010     0.0220   111.8420     2.4910   -94.4180   -18.4370    14.2670    10.5930    10.9910
 2915.0000     9.0890     0.0210   110.1510     2.4880   -94.3100   -18.4160    15.2350    10.6740    11.0750
 2915.5000     9.0760     0.0210   108.4930     2.4840   -94.2010   -18.3940    16.2030    10.8420    11.2490
 2916.0000     9.0640     0.0220   107.4800     2.4900   -94.0930   -18.3720    17.1010    11.0100    11.4240
 2916.5000     9.0510     0.0230   106.6240     2.4990   -93.9850   -18.3510    15.0320    11.1790    11.5980
 2917.0000     9.0390     0.0270   105.7610     2.5090   -93.8770   -18.3290    15.7690    11.3470    11.7720
 2917.5000     9.0260     0.0320   104.9120     2.5250   -93.7680   -18.3070    16.6180    11.4030    11.8310
 2918.0000     9.0140     0.0380   104.1640     2.5450   -93.6600   -18.2860    17.4190    11.3060    11.7300
 2918.5000     9.0010     0.0440   103.5800     2.5650   -93.5520   -18.2630    23.6810    11.1920    11.6120
 2919.0000     8.9890     0.0440   106.3180     2.5720   -93.4430   -18.2450    19.5800    11.0790    11.4940
 2919.5000     8.9760     0.0450   110.9590     2.5530   -93.3350   -18.2190    16.0990    10.9650    11.3760
 2920.0000     8.9640     0.0400   115.6630     2.5390   -93.2270   -18.1880    13.9650    10.8510    11.2590
 2920.5000     8.9500     0.0360   120.4780     2.5250   -93.1190   -17.9900    14.7130    10.7380    11.1410
 2921.0000     8.9260     0.0350   118.6530     2.5110   -93.0100   -17.7950    15.8850    10.6240    11.0230
 2921.5000     8.9110     0.0350   115.9540     2.4960   -92.9020   -17.5940    16.7890    10.5110    10.9050
 2922.0000     8.9000     0.0340   114.5850     2.4940   -92.7940   -17.3940    16.1120    10.4000    10.7900
 2922.5000     8.8890     0.0330   113.5620     2.4970   -92.6860   -17.1980    15.2940    10.4570    10.8500
 2923.0000     8.8770     0.0320   112.5290     2.5030   -92.5770   -17.0110    14.4890    10.5490    10.9450
 2923.5000     8.8660     0.0320   110.3980     2.5090   -92.4690   -17.0020    16.4830    10.6410    11.0400
 2924.0000     8.8540     0.0310   108.2460     2.5110   -92.3610   -16.9980    13.4600    10.7330    11.1360
 2924.5000     8.8430     0.0300   105.6530     2.5120   -92.2520   -17.0010    18.4090    10.8250    11.2310
 2925.0000     8.8310     0.0310   103.2050     2.5170   -92.1440   -17.0000    22.9890    10.9170    11.3270
 2925.5000     8.8200     0.0330   100.8460     2.5310   -92.0360   -17.0000    28.6900    10.9910    11.4030
 2926.0000     8.8090     0.0340    98.5240     2.5440   -91.9280   -17.0000    34.4370    10.8030    11.7330
 2926.5000     8.8020     0.0360   100.5060     2.5560   -91.8190   -16.9990    22.9560    10.5660    12.1480
 2927.0000     8.8100     0.0330   105.4910     2.5420   -91.7110   -17.0010    11.1950    10.3300    12.7360
 2927.5000     8.8180     0.0300   112.8330     2.5270   -91.6030   -17.0010    11.8910    10.0930    12.5030
 2928.0000     8.8250     0.0280   118.0900     2.5150   -91.4950   -17.0790    13.0850     9.8570    11.6200
 2928.5000     8.8320     0.0260   119.0520     2.5060   -91.3860   -17.1830    14.2790     9.6610    10.8720
 2929.0000     8.8400     0.0250   117.2260     2.4980   -91.2780   -17.2870    15.2050     9.6240    10.4000
 2929.5000     8.8470     0.0250   115.3810     2.4940   -91.1700   -17.3890    15.5970     9.5930    10.2770
 2930.0000     8.8550     0.0250   113.5130     2.4990   -91.0620   -17.4930    12.9730     9.5620    10.1510
 2930.5000     8.8620     0.0260   112.7770     2.5040   -90.9530   -17.5950    15.0320     9.5300    10.0240
 2931.0000     8.8700     0.0260   113.0950     2.5090   -90.8450   -17.6980    14.7120     9.4980     9.8980
 2931.5000     8.8770     0.0270   113.4220     2.5140   -90.7370   -17.8020    13.2140     9.4840     9.8410
 2932.0000     8.8820     0.0270   113.7820     2.5120   -90.6280   -17.9040    13.7620     9.4840     9.8410
 2932.5000     8.8590     0.0270   113.1440     2.5100   -90.5200   -18.0080    14.4890     9.4850     9.8410
 2933.0000     8.8540     0.0270   111.3640     2.5130   -90.4120   -18.1110    14.2240     9.4850     9.8410
 2933.5000     8.8460     0.0280   106.2230     2.5130   -90.3610   -18.1970    14.4890     9.4850     9.8410
 2934.0000     8.8390     0.0270   101.1890     2.5080   -90.3610   -18.1990    12.2750     9.4860     9.8410
 2934.5000     8.8310     0.0250    94.8480     2.4990   -90.3610   -18.2010    17.7130     9.4870     9.8410
 2935.0000     8.8240     0.0230    87.4150     2.4840   -90.3610   -18.2000    22.1320     9.5300     9.8880
 2935.5000     8.8160     0.0210    82.7340     2.4680   -90.3610   -18.2000    25.1790     9.5930     9.9530
 2936.0000     8.8090     0.0190    85.4360     2.4540   -90.3610   -18.2000    22.6510     9.6610    10.0240
 2936.5000     8.8010     0.0180    94.6680     2.4700   -90.3610   -18.2000    16.0490     9.4850     9.8410
 2937.0000     8.8060     0.0180   106.7110     2.4870   -90.3610   -18.2000     8.8110     9.1860     9.5300
 2937.5000     8.8130     0.0140   118.7840     2.4960   -90.3610   -18.2000    10.2100     8.7620     9.0910
 2938.0000     8.8190     0.0090   130.9550     2.4870   -90.3610   -18.2000     9.8150     8.3390     8.6520
 2938.5000     8.8260     0.0080   135.0060     2.4780   -90.3610   -18.2000     8.9750     7.9160     8.2130
 2939.0000     8.8320     0.0080   137.1070     2.4880   -90.3610   -18.2000     8.7620     7.4920     7.7740
 2939.5000     8.8380     0.0080   139.1670     2.5000   -90.3610   -18.2000     8.5940     7.0690     7.3340
 2940.0000     8.8450     0.0080   141.3180     2.5060   -90.3610   -18.2000     8.3370     6.8490     7.1700
 2940.5000     8.8510     0.0080   142.2860     2.5090   -90.3610   -18.2000     8.5900     6.7250     7.1340
 2941.0000     8.8580     0.0070   143.2400     2.5030   -90.3610   -18.2000     8.9750     6.6630     7.0980
 2941.5000     8.8640     0.0070   144.1760     2.4970   -90.3610   -18.1990     8.8340     6.5870     7.0620
 2942.0000     8.8710     0.0100   144.2250     2.4960   -90.3610   -18.2010     8.4920     6.4830     7.0260
 2942.5000     8.8770     0.0110   144.2230     2.5040   -90.3610   -18.1990     8.3370     6.3650     6.9900
 2943.0000     8.8820     0.0130   141.2360     2.5050   -90.3610   -18.1960     7.9500     6.3150     6.9540
 2943.5000     8.8760     0.0160   135.9030     2.5120   -90.3610   -18.0840     7.6040     6.2790     6.9350
 2944.0000     8.8710     0.0180   126.0040     2.5380   -90.3610   -17.9480     6.0960     6.2430     7.1010
 2944.5000     8.8650     0.0210   112.8080     2.5650   -90.3610   -17.8120     9.6110     6.2090     7.2600
 2945.0000     8.8600     0.0220    99.7130     2.5800   -90.3610   -17.6770    23.3900     6.4470     7.4180
 2945.5000     8.8540     0.0250    87.7880     2.6020   -90.3610   -17.5400    20.6840     6.6740     7.5770
