~VERSION INFORMATION
 VERS.                2.0:   CWLS LOG ASCII STANDARD - VERSION 2.0
 WRAP.                 NO:   ONE LINE PER DEPTH STEP
~WELL INFORMATION
#MNEM.UNIT      DATA TYPE    INFORMATION
#----------   ------------   ------------------------------
 STRT.F          634.0000:   START DEPTH
 STOP.F         3464.0000:   STOP DEPTH
 STEP.F            0.5000:   STEP LENGTH
 NULL.          -999.2500:   NO VALUE
 COMP. LAWRENCE-ALLISON & ASSOCIATES W:   COMPANY
 WELL. LAWRENCE "TX" #44-27:   WELL
 FLD .   NAVAL RESERVE #3:   FIELD
 LOC .      S27 T39N R78W:   LOCATION
 CNTY.            NATRONA:   COUNTY
 STAT.            WYOMING:   STATE
 CTRY. UNITED STATES OF AMERICA:   COUNTRY
 SRVC.       SCHLUMBERGER:   SERVICE COMPANY
 DATE.        13-MAR-1982:   LOGDATE
 API .     49025108870000:   API NUMBER
~CURVE INFORMATION
#MNEM.UNIT       API CODE    CURVE DESCRIPTION
#----------   ------------   ------------------------------
 DEPT.F                  :   
 TENR.LBS    07 635 01 00:   TENSION FROM RESISTIVITY
 ILD .OHMM   07 120 46 00:   DEEP INDUCTION RESISTIVITY
 ILM .OHMM   07 120 44 00:   INDUCTION LOG MEDIUM RESISTIVITY
 SFLU.OHMM   07 220 01 00:   SPHERICALLY FOCUSED LOG UNAVERAGED RESISTIVITY
 SPR .MV     07 010 01 00:   SPONTANEOUS POTENTIAL
 TENN.LBS    42 635 01 00:   TENSION FROM COMPENSATE NEUTRON
 CALD.IN     45 280 60 00:   CALIPER FROM DENSITY LOG
 GRD .GAPI   45 310 01 00:   GAMMA RAY FROM DENSITY LOG
 RHOB.G/C3   45 350 01 00:   BULK DENSITY
 DRHO.G/C3   45 356 01 00:   DENSITY CORRECTION
 NPHI.DEC    42 890 03 00:   NEUTRON POROSITY SANDSTONE
~PARAMETER INFORMATION
#MNEM.UNIT          VALUE    DESCRIPTION
#----------   ------------   ------------------------------
 EKB .F         5049.0000:   Kelly bushing
 EGL .F         5039.0000:   Ground level
 EDF .F            0.0000:   Drilling floor
 EPD .F            0.0000:   Permanent datum
 TD  .F         3440.0000:   Total depth
 DATE.        13-MAR-1982:   Date logged
 CLNT.            A2DTECH:   Client Code
 PD  .                 GL:   Permanent Datum
 DD  .F              3440:   Depth driller
 DL  .F              3439:   Depth logger
 BLI .F              3433:   Bottom log interval
 CS1 .IN            9.625:   Casing size
 CBD1.      9.625" @ 650':   Casing driller 1
 CBL1.F               647:   Casing logger 1
 BS1 .IN            7.875:   Bit size
 DFT .                GEL:   Type fluid in hole
 DFD .                9.3:   Density
 DFV .                 48:   Viscosity
 DFPH.                 10:   pH
 DFL .                  8:   Fluid loss
 MSS .                PIT:   Source of sample
 RMS .OHMM           1.82:   Rm
 MST .F                67:   Rm Meas. temp.
 RMF .OHMM           1.32:   Rmf
 MFST.F                67:   Rmf Meas. temp.
 MFSS.               MEAS:   Source Rmf.
 RMB .OHMM           1.09:   Rm. at BHT
 BHT .F               112:   BHT.
 TCS .HRS            1300:   Time Circ. stopped
 MRT .F               112:   Maximum recorded temp.
 LUN .               8039:   Logging unit number
 LUL .               CSPR:   Logging unit location
 ENGI.   WAGNER/CONOSENTI:   Recorded By
 WITN.           JENNINGS:   Witnessed by
 ORIG.           5" PRINT:   Origin of data
 UWI .     49025108870000:   Unique Well ID
 DICO. A2D TECHNOLOGIES, INC.:   Digitizing Company
 DAPD.                 10:   Feet Above Permanent Datum
 BSD1.F              3440:   Depth drilled with bit1
 TLI .F               647:   Top log interval
 TLAB.HRS            1800:   Time logger at bottom
~OTHER INFORMATION
~A   DEPT     TENR        ILD        ILM       SFLU        SPR       TENN       CALD         GRD      RHOB       DRHO       NPHI   
# ...
 2677.5000  1327.3450     5.2750     4.9630     6.4860   -24.7060  1775.7939     9.9060   120.8420     2.5390     0.0100     0.2710
 2678.0000  1327.3450     5.3170     4.9930     6.3800   -24.7450  1775.7939     9.9020   122.1040     2.5370     0.0110     0.2780
 2678.5000  1327.3450     5.3600     5.0230     6.2990   -24.7850  1775.6541     9.8860   121.9420     2.5440     0.0150     0.2780
 2679.0000  1327.3450     5.3920     5.0610     6.2180   -24.8430  1774.8879     9.8860   122.6850     2.5540     0.0250     0.2770
 2679.5000  1327.3450     5.3390     5.0450     6.1380   -24.9570  1774.1219     9.8840   124.0750     2.5630     0.0350     0.2720
 2680.0000  1326.0890     5.2880     5.0170     6.0570   -25.0670  1773.3550     9.8830   125.4630     2.5670     0.0390     0.2650
 2680.5000  1322.3770     5.2370     4.9880     5.9710   -25.1770  1772.5890     9.8810   125.6320     2.5600     0.0330     0.2630
 2681.0000  1318.6660     5.1860     4.9590     5.9320   -25.2870  1771.8220     9.8790   123.6230     2.5490     0.0250     0.2630
 2681.5000  1314.9550     5.1350     4.9300     5.8900   -25.3970  1771.0560     9.8780   121.6750     2.5360     0.0160     0.2640
 2682.0000  1311.2440     5.0830     4.9020     5.8420   -25.5070  1770.2900     9.8760   120.1150     2.5260     0.0120     0.2720
 2682.5000  1307.3850     5.0380     4.8730     5.7110   -25.6170  1769.5229     9.8750   120.9850     2.5260     0.0080     0.2810
 2683.0000  1307.8890     4.9960     4.8440     5.5150   -25.7270  1768.7570     9.8730   123.3300     2.5380     0.0120     0.2870
 2683.5000  1308.4139     4.9540     4.8150     5.6090   -25.8360  1767.9900     9.8710   126.0230     2.5520     0.0210     0.2880
 2684.0000  1308.9390     4.9130     4.7860     5.8630   -25.9470  1767.2240     9.8700   128.1670     2.5550     0.0200     0.2840
 2684.5000  1309.4640     4.8780     4.7450     5.3480   -26.0660  1766.4580     9.8680   130.1230     2.5490     0.0160     0.2870
 2685.0000  1309.9890     5.1200     4.8780     5.2020   -26.3540  1765.6910     9.8660   131.7900     2.5410     0.0130     0.2930
 2685.5000  1310.5140     5.3680     5.1070     5.6060   -26.6400  1764.9250     9.8650   131.0520     2.5390     0.0110     0.2970
 2686.0000  1311.0389     5.6160     5.3360     6.1240   -26.7260  1764.1580     9.8630   127.6320     2.5380     0.0110     0.2920
 2686.5000  1311.5640     5.8640     5.5660     6.6410   -26.1890  1763.3920     9.8620   122.6640     2.5380     0.0190     0.2760
 2687.0000  1312.0890     6.1120     5.7950     7.1580   -25.6610  1762.6260     9.8600   117.7100     2.5430     0.0200     0.2600
 2687.5000  1312.6140     6.3600     6.0240     7.6750   -25.1340  1761.8590     9.8580   113.8400     2.5490     0.0190     0.2450
 2688.0000  1313.1390     6.6080     6.2520     8.0880   -24.7480  1761.0930     9.8570   111.6530     2.5540     0.0180     0.2330
 2688.5000  1313.6639     6.8540     6.2470     8.0880   -24.4080  1760.3270     9.8550   113.4840     2.5590     0.0210     0.2250
 2689.0000  1314.1890     6.9250     6.2410     8.0880   -24.0700  1759.5601     9.8540   115.5080     2.5640     0.0230     0.2270
 2689.5000  1314.7140     7.0420     6.2350     7.7780   -23.7550  1758.7939     9.8520   116.9250     2.5630     0.0230     0.2390
 2690.0000  1315.2380     7.0230     6.2290     7.3970   -23.5630  1758.0270     9.8500   116.5380     2.5580     0.0230     0.2520
 2690.5000  1315.7629     6.9860     6.2230     7.1770   -23.4970  1757.2610     9.8490   117.0010     2.5540     0.0260     0.2630
 2691.0000  1316.2880     6.9490     6.2170     7.2130   -23.9770  1756.4950     9.8470   117.3300     2.5570     0.0310     0.2650
 2691.5000  1316.8130     6.9120     6.2110     7.2480   -24.4470  1756.1780     9.8450   117.3190     2.5690     0.0470     0.2650
 2692.0000  1317.3380     6.8540     6.2050     7.2830   -24.9160  1756.9470     9.8450   117.2610     2.5800     0.0650     0.2630
 2692.5000  1317.8630     6.8630     6.1990     7.3100   -25.3850  1757.7170     9.8450   119.5520     2.5840     0.0800     0.2600
 2693.0000  1318.3879     6.8830     6.1950     7.2800   -25.8540  1758.4871     9.8320   122.5060     2.5740     0.0740     0.2590
 2693.5000  1318.9130     6.9030     6.1950     7.2450   -26.3220  1759.2570     9.8170   125.5200     2.5570     0.0580     0.2660
 2694.0000  1319.4380     6.9230     6.1560     7.2100   -26.7910  1760.0260     9.8020   126.4120     2.5410     0.0330     0.2730
 2694.5000  1319.9630     6.9430     6.1240     7.1770   -27.2830  1760.7960     9.7870   125.3800     2.5270     0.0150     0.2730
 2695.0000  1320.4880     6.9630     6.0930     7.3470   -27.2190  1761.5660     9.7730   125.7530     2.5320     0.0090     0.2600
 2695.5000  1321.0129     6.9810     6.0610     7.5090   -26.9260  1762.3361     9.7580   126.5580     2.5380     0.0060     0.2460
 2696.0000  1321.5380     6.8490     6.0300     7.6710   -26.6260  1763.1050     9.7450   127.1120     2.5450     0.0080     0.2370
 2696.5000  1322.0630     6.7240     5.9980     7.7240   -26.3250  1763.8750     9.7450   127.4160     2.5540     0.0170     0.2350
 2697.0000  1322.5880     6.5990     5.9670     7.5150   -26.0250  1764.6450     9.7410   128.0490     2.5650     0.0260     0.2400
 2697.5000  1323.1130     6.4740     5.9350     7.3200   -25.7250  1765.4150     9.7370   128.9900     2.5740     0.0350     0.2460
 2698.0000  1323.6379     6.3100     5.9040     7.1250   -25.4280  1766.1851     9.7330   129.9000     2.5720     0.0400     0.2520
 2698.5000  1324.1620     6.3230     5.8630     6.9300   -25.2060  1766.9540     9.7290   129.9960     2.5590     0.0360     0.2580
 2699.0000  1324.6870     6.3430     5.8660     6.7920   -25.0190  1767.7240     9.7250   127.7680     2.5540     0.0330     0.2640
 2699.5000  1325.2120     6.3630     5.8700     6.8840   -24.8030  1768.4940     9.7210   125.6210     2.5530     0.0280     0.2690
 2700.0000  1325.7371     6.3820     5.8750     6.9560   -24.5840  1769.2640     9.7170   124.6050     2.5510     0.0230     0.2710
 2700.5000  1326.2620     6.4020     5.8790     7.0280   -24.3670  1770.0330     9.7120   125.0270     2.5490     0.0180     0.2700
 2701.0000  1326.7870     6.4210     5.8840     7.1000   -24.1550  1770.8030     9.7080   123.1680     2.5440     0.0140     0.2650
 2701.5000  1327.3450     6.4410     5.8880     7.1770   -24.1380  1771.5730     9.7050   119.3700     2.5400     0.0150     0.2600
 2702.0000  1327.3450     6.4600     5.8930     7.1190   -24.6050  1772.3430     9.7050   118.1950     2.5470     0.0250     0.2630
 2702.5000  1327.3450     6.4800     5.8970     7.0570   -25.0500  1773.1130     9.7000   121.4550     2.5530     0.0350     0.2680
 2703.0000  1327.3450     6.4990     5.9020     6.9810   -25.4250  1773.8820     9.6870   123.8370     2.5540     0.0370     0.2710
 2703.5000  1327.3450     6.5190     5.9060     7.0900   -25.6370  1774.6520     9.6740   122.8130     2.5510     0.0310     0.2680
 2704.0000  1327.3450     6.5390     5.9110     7.3770   -25.6800  1775.4220     9.6600   121.6160     2.5470     0.0250     0.2600
 2704.5000  1327.3450     6.5820     5.9150     7.3100   -25.7380  1775.7939     9.6470   120.4350     2.5430     0.0190     0.2520
 2705.0000  1327.3450     6.6400     5.9420     7.2260   -25.7800  1775.7939     9.6340   119.4980     2.5500     0.0170     0.2450
 2705.5000  1327.3450     6.6990     5.9840     7.1430   -26.2710  1775.7939     9.6210   118.9230     2.5600     0.0170     0.2420
 2706.0000  1327.3450     6.7580     6.0250     7.0460   -26.6590  1775.7939     9.6070   118.8330     2.5690     0.0210     0.2440
 2706.5000  1327.3450     6.8160     6.0670     7.1210   -27.0130  1775.7939     9.5940   118.7890     2.5720     0.0280     0.2480
 2707.0000  1327.3450     6.8750     6.1080     7.2090   -26.6700  1775.7939     9.5840   118.1640     2.5620     0.0240     0.2520
 2707.5000  1327.3450     6.9180     6.1380     7.2970   -26.2700  1775.7939     9.5840   116.8010     2.5520     0.0170     0.2470
