~VERSION INFORMATION
 VERS.                2.0:   CWLS LOG ASCII STANDARD - VERSION 2.0
 WRAP.                 NO:   ONE LINE PER DEPTH STEP
~WELL INFORMATION
#MNEM.UNIT      DATA TYPE    INFORMATION
#----------   ------------   ------------------------------
 STRT.F          200.0000:   START DEPTH
 STOP.F         3060.0000:   STOP DEPTH
 STEP.F            0.5000:   STEP LENGTH
 NULL.          -999.2500:   NO VALUE
 COMP.    FENIX & SCISSON:   COMPANY
 WELL. FENIX NPR 3 "AX" #58-21:   WELL
 FLD .      NPR - WILDCAT:   FIELD
 LOC .      S21 T39N R78W:   LOCATION
 CNTY.            NATRONA:   COUNTY
 STAT.            WYOMING:   STATE
 CTRY. UNITED STATES OF AMERICA:   COUNTRY
 SRVC.              WELEX:   SERVICE COMPANY
 DATE.        12-JUN-1977:   LOGDATE
 API .     49025103790000:   API NUMBER
~CURVE INFORMATION
#MNEM.UNIT       API CODE    CURVE DESCRIPTION
#----------   ------------   ------------------------------
 DEPT.F                  :   
 CALD.IN     45 280 60 00:   CALIPER FROM DENSITY LOG
 GRD .GAPI   45 310 01 00:   GAMMA RAY FROM DENSITY LOG
 CORR.G/C3   45 356 01 00:   DENSITY CORRECTION
 RHOB.G/C3   45 350 01 00:   BULK DENSITY
 SPR .MV     07 010 01 00:   SPONTANEOUS POTENTIAL
 ILD .OHMM   07 120 46 00:   DEEP INDUCTION RESISTIVITY
 GURD.OHMM   07 220 05 00:   GUARD LOG RESISTIVITY
 ILM .OHMM   07 120 44 00:   INDUCTION LOG MEDIUM RESISTIVITY
 DT  .US/F   60 520 00 00:   DELTA TIME
 SPHI.DEC    60 890 00 00:   SONIC POROSITY
~PARAMETER INFORMATION
#MNEM.UNIT          VALUE    DESCRIPTION
#----------   ------------   ------------------------------
 EKB .F         5016.0000:   Kelly bushing
 EGL .F         5006.0000:   Ground level
 EDF .F            0.0000:   Drilling floor
 EPD .F            0.0000:   Permanent datum
 TD  .F         3062.0000:   Total depth
 DATE.        12-JUN-1977:   Date logged
 CLNT.            A2DTECH:   Client Code
 SL  . 280' FSL & 2160' FEL:   Surface Location
 PD  .                 GL:   Permanent Datum
 DD  .F              3060:   Depth driller
 DL  .F              3062:   Depth logger
 BLI .F              3060:   Bottom log interval
 TLI .F              2450:   Top log interval
 CS1 .IN            8.625:   Casing size
 CBD1.      8.625" @ 200':   Casing driller 1
 CBL1.F               218:   Casing logger 1
 BS1 .IN            7.875:   Bit size
 BSD1.F              3060:   Depth drilled with bit1
 DFT .            KCL/MUD:   Type fluid in hole
 DFD .                8.7:   Density
 DFV .                 33:   Viscosity
 DFPH.                7.5:   pH
 DFL .                 36:   Fluid loss
 MSS .           FLOWLINE:   Source of sample
 TCS .HRS             4.5:   Time Circ. stopped
 MRT .F               110:   Maximum recorded temp.
 LUN .               8611:   Logging unit number
 LUL .           GILLETTE:   Logging unit location
 ENGI.            C. DOAK:   Recorded By
 WITN.            RHOADES:   Witnessed by
 ORIG.           5" PRINT:   Origin of data
 UWI .     49025103790000:   Unique Well ID
 DICO. A2D TECHNOLOGIES, INC.:   Digitizing Company
 DAPD.                 10:   Feet Above Permanent Datum
 RMS .OHMM            1.3:   Rm
 MST .F                84:   Rm Meas. temp.
 RMF .OHMM            .52:   Rmf
 MFST.F                84:   Rmf Meas. temp.
 MFSS.               FANN:   Source Rmf.
 RMC .OHMM           1.43:   Rmc
 MCST.F                84:   Rmc Meas. temp.
 MCSS.                KIT:   Source Rmc.
 RMB .OHMM            .99:   Rm. at BHT
 BHT .F               110:   BHT.
~OTHER INFORMATION
~A   DEPT     CALD         GRD      CORR       RHOB        SPR        ILD       GURD        ILM         DT       SPHI   
# ...
 2076.0000     8.7450    93.3660     0.0030     2.4320   -65.6140     7.2480     9.6000     8.0360  -999.2500  -999.2500
 2076.5000     8.7460    94.1150     0.0010     2.4290   -65.6200     7.1170    10.0930     8.0360  -999.2500  -999.2500
 2077.0000     8.7470    94.3290    -0.0020     2.4280   -65.6260     6.9860    10.5870     8.0360  -999.2500  -999.2500
 2077.5000     8.7470    92.1330    -0.0050     2.4350   -65.6330     6.8550    10.9910     7.8190  -999.2500  -999.2500
 2078.0000     8.7470    90.1220    -0.0060     2.4410   -65.6390     6.7240    10.0730     7.5990  -999.2500  -999.2500
 2078.5000     8.7470    88.7480    -0.0050     2.4480   -65.6450     6.5930     9.2950     7.3790  -999.2500  -999.2500
 2079.0000     8.7470    89.7420    -0.0010     2.4530   -65.6520     6.4620     8.4920     7.1590  -999.2500  -999.2500
 2079.5000     8.7470    92.0720     0.0000     2.4530   -65.6580     6.3310     8.3370     7.0640  -999.2500  -999.2500
 2080.0000     8.7470    92.9390     0.0020     2.4510   -65.6640     6.2000     8.4920     7.1600  -999.2500  -999.2500
 2080.5000     8.7470    92.8770     0.0020     2.4490   -65.6700     6.0690     8.2350     7.2420  -999.2500  -999.2500
 2081.0000     8.7470    92.8710     0.0010     2.4470   -65.6770     5.9850     7.7730     7.3290  -999.2500  -999.2500
 2081.5000     8.7470    93.0130     0.0000     2.4460   -65.6830     6.0960     7.1950     7.2520  -999.2500  -999.2500
 2082.0000     8.7470    93.2810    -0.0020     2.4460   -65.6890     6.2040     7.4650     7.1710  -999.2500  -999.2500
 2082.5000     8.7470    93.5890    -0.0020     2.4530   -65.6960     6.3490     7.7450     7.0910  -999.2500  -999.2500
 2083.0000     8.7470    91.9690    -0.0010     2.4600   -65.7020     6.4940     9.3030     7.0100  -999.2500  -999.2500
 2083.5000     8.7470    89.9670     0.0030     2.4670   -65.7080     6.5620    10.8160     6.9290  -999.2500  -999.2500
 2084.0000     8.7470    88.0660     0.0070     2.4740   -65.7140     6.4420    11.8310     6.8490  -999.2500  -999.2500
 2084.5000     8.7470    85.9530     0.0110     2.4810   -65.7210     6.2750     9.6610     6.7680  -999.2500  -999.2500
 2085.0000     8.7470    85.7260     0.0140     2.4890   -65.7270     6.0960     9.6610     6.6870  -999.2500  -999.2500
 2085.5000     8.7470    86.4320     0.0140     2.4910   -65.7330     5.9160     9.4850     6.6070  -999.2500  -999.2500
 2086.0000     8.7470    88.4630     0.0110     2.4800   -65.7390     5.7360     8.4510     6.5260  -999.2500  -999.2500
 2086.5000     8.7470    90.7180     0.0080     2.4690   -65.7460     5.5560     7.4840     6.4450  -999.2500  -999.2500
 2087.0000     8.7470    93.0980     0.0050     2.4580   -65.7520     5.3760     6.5180     6.3650  -999.2500  -999.2500
 2087.5000     8.7470    95.2450     0.0030     2.4470   -65.7580     5.1970     5.2610     6.3250  -999.2500  -999.2500
 2088.0000     8.7470    97.3530     0.0000     2.4360   -65.7650     5.0700     6.1220     6.3300  -999.2500  -999.2500
 2088.5000     8.7470    94.4160    -0.0030     2.4240   -65.7710     5.0700     7.3540     6.3500  -999.2500  -999.2500
 2089.0000     8.7470    93.0840    -0.0060     2.4190   -65.7770     5.1650     8.5870     6.3690  -999.2500  -999.2500
 2089.5000     8.7470    93.0560    -0.0090     2.4220   -65.7830     5.1650    10.2100     6.3890  -999.2500  -999.2500
 2090.0000     8.7470    95.5970    -0.0100     2.4240   -65.7900     5.2610     8.8950     6.4080  -999.2500  -999.2500
 2090.5000     8.7470    97.8110    -0.0090     2.4270   -65.7960     5.3390     5.5590     6.4280  -999.2500  -999.2500
 2091.0000     8.7470    98.4460    -0.0060     2.4280   -65.8020     5.5020     6.7320     6.4420  -999.2500  -999.2500
 2091.5000     8.7470    98.4340    -0.0020     2.4400   -65.8080     5.6660     8.1850     6.4420  -999.2500  -999.2500
 2092.0000     8.7470    98.5140     0.0010     2.4480   -65.7840     5.8290     7.8510     6.6080  -999.2500  -999.2500
 2092.5000     8.7470   100.5100     0.0020     2.4590   -65.7460     5.9920     7.1950     6.7630  -999.2500  -999.2500
 2093.0000     8.7470   102.6780     0.0020     2.4590   -65.7080     6.1560     7.4650     6.9180  -999.2500  -999.2500
 2093.5000     8.7470   104.9940     0.0000     2.4580   -65.6710     6.3190     8.1550     7.0730  -999.2500  -999.2500
 2094.0000     8.7470   103.7760    -0.0010     2.4560   -65.6340     6.5620     9.3710     7.2280  -999.2500  -999.2500
 2094.5000     8.7470   100.8300    -0.0030     2.4540   -65.5970     6.6840    10.5860     7.3830  -999.2500  -999.2500
 2095.0000     8.7470   101.2040    -0.0050     2.4520   -65.5600     6.9270    11.8010     7.5380  -999.2500  -999.2500
 2095.5000     8.7470   101.8920    -0.0060     2.4510   -65.5220     7.1120    12.9730     7.6930  -999.2500  -999.2500
 2096.0000     8.7470   102.4710    -0.0080     2.4460   -65.4850     7.3290    11.1830     7.8480  -999.2500  -999.2500
 2096.5000     8.7470   101.2220    -0.0090     2.4420   -65.4480     7.3290     8.8110     8.0030  -999.2500  -999.2500
 2097.0000     8.7470    98.4630    -0.0100     2.4520   -65.4110     7.3020     8.8460     8.1850  -999.2500  -999.2500
 2097.5000     8.7460    95.7680    -0.0090     2.4600   -65.3730     7.2770     9.0020     8.3950  -999.2500  -999.2500
 2098.0000     8.7560    93.1450    -0.0060     2.4710   -65.3360     7.2510     9.1580     8.4920  -999.2500  -999.2500
 2098.5000     8.7740    90.6410    -0.0060     2.4690   -65.2990     7.2260     9.3120     8.4920  -999.2500  -999.2500
 2099.0000     8.7910    90.5570    -0.0100     2.4580   -65.2620     7.1950     9.2770     8.4920  -999.2500  -999.2500
 2099.5000     8.8060    91.0010    -0.0130     2.4480   -65.2250     7.2640     9.0250     8.4920  -999.2500  -999.2500
 2100.0000     8.8250    91.3060    -0.0170     2.4380   -65.1870     7.3490     9.1430     8.4290  -999.2500  -999.2500
 2100.5000     8.8260    90.3850    -0.0210     2.4250   -65.1500     7.4340     9.9740     8.3650  -999.2500  -999.2500
 2101.0000     8.8240    89.1220    -0.0220     2.4290   -65.1130     7.5190    10.8590     8.3020  -999.2500  -999.2500
 2101.5000     8.8220    89.7730    -0.0220     2.4400   -65.0760     7.6040    10.6180     8.2390  -999.2500  -999.2500
 2102.0000     8.8200    92.1820    -0.0220     2.4430   -65.0380     7.6890    10.1370     8.1850  -999.2500  -999.2500
 2102.5000     8.8180    94.4990    -0.0260     2.4280   -65.0010     7.7450     9.6550     8.1850  -999.2500  -999.2500
 2103.0000     8.8160    96.7840    -0.0300     2.4160   -64.9640     7.6650     9.1730     8.1850  -999.2500  -999.2500
 2103.5000     8.8140    99.2020    -0.0330     2.4040   -64.9270     7.5140     8.6500     8.1460  -999.2500  -999.2500
 2104.0000     8.8120   100.3480    -0.0330     2.3960   -64.8900     7.3630    10.9590     8.0250  -999.2500  -999.2500
 2104.5000     8.8100   100.9270    -0.0260     2.4150   -64.8520     7.2120    12.7360     7.9030  -999.2500  -999.2500
 2105.0000     8.8070   101.5400    -0.0220     2.4310   -64.8150     7.0610    12.2510     7.7820  -999.2500  -999.2500
 2105.5000     8.8050   102.0040    -0.0170     2.4480   -64.7780     6.9100    11.2540     7.6600  -999.2500  -999.2500
 2106.0000     8.8030   103.7390    -0.0130     2.4660   -64.7410     6.7590    10.2560     7.5390  -999.2500  -999.2500
 2106.5000     8.8010   106.5500    -0.0090     2.4760   -64.7030     6.6080     9.2580     7.4170  -999.2500  -999.2500
 2107.0000     8.7990   109.1830    -0.0040     2.4770   -64.6670     6.4570     8.2610     7.2960  -999.2500  -999.2500
 2107.5000     8.7970   111.9030    -0.0020     2.4770   -64.6290     6.3070     7.6040     7.1740  -999.2500  -999.2500
 2108.0000     8.7950   114.4960    -0.0020     2.4770   -64.6510     6.1560     7.4110     7.0530  -999.2500  -999.2500
 2108.5000     8.7930   117.1840    -0.0030     2.4680   -64.6810     6.0960     7.1750     6.9310  -999.2500  -999.2500
 2109.0000     8.7910   116.7580    -0.0050     2.4580   -64.7120     5.9850     6.9350     6.8100  -999.2500  -999.2500
