~VERSION INFORMATION
 VERS.                2.0:   CWLS LOG ASCII STANDARD - VERSION 2.0
 WRAP.                 NO:   ONE LINE PER DEPTH STEP
~WELL INFORMATION
#MNEM.UNIT      DATA TYPE    INFORMATION
#----------   ------------   ------------------------------
 STRT.F          200.0000:   START DEPTH
 STOP.F         3078.0000:   STOP DEPTH
 STEP.F            0.5000:   STEP LENGTH
 NULL.          -999.2500:   NO VALUE
 COMP.   FENIX & SCISSION:   COMPANY
 WELL. FENIX NPR 72 "A" #3-28:   WELL
 FLD .              NPR-3:   FIELD
 LOC .      S28 T39N R78W:   LOCATION
 CNTY.            NATRONA:   COUNTY
 STAT.            WYOMING:   STATE
 CTRY. UNITED STATES OF AMERICA:   COUNTRY
 SRVC.              WELEX:   SERVICE COMPANY
 DATE.        06-JUN-1977:   LOGDATE
 API .     49025103770000:   API NUMBER
~CURVE INFORMATION
#MNEM.UNIT       API CODE    CURVE DESCRIPTION
#----------   ------------   ------------------------------
 DEPT.F                  :   
 CORR.G/C3   45 356 01 00:   DENSITY CORRECTION
 RHOB.G/C3   45 350 01 00:   BULK DENSITY
 CALD.IN     45 280 60 00:   CALIPER FROM DENSITY LOG
 SPR .MV     07 010 01 00:   SPONTANEOUS POTENTIAL
 GURD.OHMM   07 220 05 00:   GUARD LOG RESISTIVITY
 ILM .OHMM   07 120 44 00:   INDUCTION LOG MEDIUM RESISTIVITY
 ILD .OHMM   07 120 46 00:   DEEP INDUCTION RESISTIVITY
 GRD .GAPI   45 310 01 00:   GAMMA RAY FROM DENSITY LOG
~PARAMETER INFORMATION
#MNEM.UNIT          VALUE    DESCRIPTION
#----------   ------------   ------------------------------
 EKB .F         5022.0000:   Kelly bushing
 EGL .F         5011.0000:   Ground level
 EDF .F            0.0000:   Drilling floor
 EPD .F         5011.0000:   Permanent datum
 TD  .F         3081.0000:   Total depth
 DATE.        06-JUN-1977:   Date logged
 CLNT.            A2DTECH:   Client Code
 SL  . 990' FNL & 990' FEL:   Surface Location
 PD  .                 GL:   Permanent Datum
 DAPD.F                11:   Feet Above Permanent Datum
 DD  .F              3041:   Depth driller
 DL  .F              3081:   Depth logger
 BLI .F              3079:   Bottom log interval
 TLI .F               200:   Top log interval
 CS1 .IN            8.625:   Casing size
 CBD1.      8.625" @ 200':   Casing driller 1
 CBL1.F               218:   Casing logger 1
 BS1 .IN            7.875:   Bit size
 BSD1.F              3041:   Depth drilled with bit1
 DFT .            KCL MUD:   Type fluid in hole
 DFD .                8.8:   Density
 DFV .                 38:   Viscosity
 DFPH.                7.5:   pH
 DFL .                5.8:   Fluid loss
 MSS .           FLOWLINE:   Source of sample
 RMS .OHMM           1.19:   Rm
 MST .F                89:   Rm Meas. temp.
 RMF .OHMM           1.05:   Rmf
 MFST.F                89:   Rmf Meas. temp.
 RMC .OHMM           2.17:   Rmc
 MCST.F                89:   Rmc Meas. temp.
 MFSS.               FANN:   Source Rmf.
 MCSS.                KIT:   Source Rmc.
 RMB .OHMM           0.98:   Rm. at BHT
 BHT .F               108:   BHT.
 TCS .HRS             2.5:   Time Circ. stopped
 MRT .F               108:   Maximum recorded temp.
 LUN .               8611:   Logging unit number
 LUL .             CASPER:   Logging unit location
 ENGI.          T. JOYNER:   Recorded By
 WITN.      W. PETTINGILL:   Witnessed by
 ORIG.           5" PRINT:   Origin of data
 UWI .     49025103770000:   Unique Well ID
 DICO. A2D TECHNOLOGIES, INC.:   Digitizing Company
~OTHER INFORMATION
~A   DEPT     CORR       RHOB         CALD      SPR       GURD        ILM        ILD         GRD  
# ...
 1536.5000    -0.0010     2.4770     8.8790   -51.2220     9.2470     8.8530     8.4170   109.9410
 1537.0000     0.0000     2.4840     8.8830   -51.2250     9.2410     8.8530     8.3840   110.2560
 1537.5000     0.0020     2.4920     8.8880   -51.2270     9.2350     8.8530     8.3510   110.2470
 1538.0000     0.0060     2.4990     8.8920   -51.2290     9.2290     8.8530     8.3190   109.9670
 1538.5000     0.0090     2.5070     8.8950   -51.2310     9.2230     8.8530     8.2860   108.8570
 1539.0000     0.0090     2.5070     8.8950   -51.2340     9.2170     8.8530     8.2540   107.7800
 1539.5000     0.0080     2.5060     8.8950   -51.2360     9.2110     8.7360     8.2100   106.7030
 1540.0000     0.0080     2.5080     8.8950   -51.2380     9.2040     8.6250     8.0770   105.5560
 1540.5000     0.0090     2.5120     8.8950   -51.2400     9.1980     8.7400     8.1700   103.5030
 1541.0000     0.0110     2.5160     8.8950   -51.2430     9.1920     8.8530     8.3060   101.2500
 1541.5000     0.0130     2.5190     8.8890   -51.2450     9.1860     8.8330     8.3220    98.9300
 1542.0000     0.0150     2.5210     8.8810   -51.2470     9.1780     8.8070     8.3390    99.7290
 1542.5000     0.0150     2.5190     8.8720   -51.2490     9.1690     8.7810     8.3550   100.7780
 1543.0000     0.0140     2.5170     8.8640   -51.2520     9.1590     8.7550     8.3790   101.8200
 1543.5000     0.0130     2.5170     8.8560   -51.2540     9.1500     8.7300     8.3590   102.8550
 1544.0000     0.0120     2.5140     8.8480   -51.2560     9.1400     8.7040     8.3230   103.8900
 1544.5000     0.0110     2.5090     8.8390   -51.2590     9.1310     8.6850     8.2870   104.9270
 1545.0000     0.0100     2.5100     8.8310   -51.2610     9.1210     8.6720     8.2510   105.9760
 1545.5000     0.0090     2.5110     8.8230   -51.2630     9.1120     8.6590     8.2270   107.0440
 1546.0000     0.0090     2.5120     8.8150   -51.2650     9.1020     8.6450     8.2470   106.2230
 1546.5000     0.0090     2.5100     8.8060   -51.2680     9.1000     8.6320     8.2620   105.2300
 1547.0000     0.0090     2.5070     8.7980   -51.2700     9.1000     8.6190     8.2770   104.2410
 1547.5000     0.0090     2.5040     8.8040   -51.2720     9.1000     8.6130     8.2920   103.2550
 1548.0000     0.0100     2.5020     8.8110   -51.2740     9.1810     8.9390     8.3380   102.2630
 1548.5000     0.0110     2.5050     8.8090   -51.2720     9.4370     9.1850     8.6440   101.2650
 1549.0000     0.0110     2.5070     8.7810   -51.2690     9.9260     9.4320     8.9490   100.4940
 1549.5000     0.0120     2.5100     8.7530   -51.2650    10.7670     9.7030     9.1000   102.5290
 1550.0000     0.0120     2.5060     8.7470   -51.2620    10.1580     9.5090     8.9950   104.5210
 1550.5000     0.0130     2.5030     8.7640   -51.2590     9.6070     9.2340     8.8990   106.4620
 1551.0000     0.0130     2.5070     8.7800   -51.2560     9.5380     9.0380     8.7690   105.8970
 1551.5000     0.0110     2.5020     8.7960   -51.2530     9.4680     8.9170     8.6060   104.9800
 1552.0000     0.0100     2.4960     8.8130   -51.2500     9.3990     8.7960     8.4430   104.0570
 1552.5000     0.0090     2.4970     8.8290   -51.2470     9.3390     8.7050     8.3070   103.1370
 1553.0000     0.0070     2.4980     8.8460   -51.2440     9.2960     8.9340     8.3360   102.2170
 1553.5000     0.0060     2.4970     8.8570   -51.2410     9.2540     8.8350     8.3790   101.2940
 1554.0000     0.0060     2.4970     8.8590   -51.2370     9.2110     8.6130     8.1520   100.3850
 1554.5000     0.0060     2.4990     8.8620   -51.2340     9.1690     8.6170     8.2030    99.7520
 1555.0000     0.0070     2.5000     8.8640   -51.2310     9.1260     8.6250     8.2930   100.8990
 1555.5000     0.0070     2.4990     8.8670   -51.2280     9.1000     8.6330     8.3840   102.0240
 1556.0000     0.0070     2.4940     8.8690   -51.2250     9.1000     8.6410     8.4560   103.1420
 1556.5000     0.0040     2.4900     8.8710   -51.2220     9.1000     8.6490     8.4560   104.2670
 1557.0000     0.0020     2.4910     8.8740   -51.2190     9.1000     8.6560     8.4560   105.3770
 1557.5000     0.0000     2.4880     8.8700   -51.2160     9.1000     8.6640     8.4560   105.1340
 1558.0000    -0.0020     2.4840     8.8580   -51.2120     9.1000     8.6720     8.4560   104.6910
 1558.5000     0.0020     2.4880     8.8470   -51.2090     9.1000     8.6800     8.4560   104.2450
 1559.0000     0.0060     2.4920     8.8350   -51.2060     9.1000     8.6880     8.4560   103.8000
 1559.5000     0.0070     2.4970     8.8240   -51.2030     9.1000     8.7320     8.4940   103.3550
 1560.0000     0.0070     2.5010     8.8190   -51.2000     9.1000     8.8210     8.5290   102.9100
 1560.5000     0.0070     2.4990     8.8250   -51.1970     9.1000     8.9110     8.6330   102.4650
 1561.0000     0.0070     2.4970     8.8310   -51.1940     9.1750     9.0000     8.7480   102.0200
 1561.5000     0.0070     2.4940     8.8370   -51.1910     9.3420     9.0890     8.8530   101.5750
 1562.0000     0.0060     2.4910     8.8430   -51.1870     9.2780     9.0270     8.6770   101.2180
 1562.5000     0.0050     2.4910     8.8480   -51.1840     9.1830     8.9440     8.4780   101.4800
 1563.0000     0.0070     2.4950     8.8540   -51.1810     9.2010     8.8620     8.3660   101.7500
 1563.5000     0.0100     2.4950     8.8600   -51.1780     9.2200     8.7720     8.3400   102.0180
 1564.0000     0.0120     2.4950     8.8660   -51.1750     9.2400     8.8550     8.3030   102.2840
 1564.5000     0.0110     2.5010     8.8720   -51.1720     9.2680     8.9340     8.3970   102.5570
 1565.0000     0.0100     2.5010     8.8760   -51.1690     9.2450     8.9340     8.5750   103.0050
 1565.5000     0.0080     2.4990     8.8790   -51.1660     9.1830     8.9040     8.6920   104.1570
 1566.0000     0.0070     2.4970     8.8820   -51.1630     9.2790     8.6920     8.3790   105.3010
 1566.5000     0.0060     2.4990     8.8850   -51.1590     9.4520     9.0010     8.5550   106.4420
 1567.0000     0.0080     2.5010     8.8880   -51.1560     9.5350     9.2680     8.7380   107.5840
 1567.5000     0.0120     2.4990     8.8910   -51.1530     9.5510     9.1200     8.8530   108.7260
 1568.0000     0.0120     2.4950     8.8940   -51.1500     9.5670     9.0170     8.8050   109.8570
 1568.5000     0.0100     2.4920     8.8760   -51.1470     9.5830     9.1420     8.7720   110.5490
 1569.0000     0.0080     2.4920     8.8510   -51.1440     9.5990     9.2680     8.9060   110.0960
 1569.5000     0.0060     2.4910     8.8260   -51.1410     9.6140     9.2250     9.0170   109.6740
 1570.0000     0.0040     2.4850     8.8010   -51.1380     9.4770     9.1830     8.8540   109.2550
 1570.5000     0.0050     2.4810     8.7930   -51.1340     9.3410     9.0420     8.6930   108.8230
 1571.0000     0.0060     2.4820     8.7880   -51.1310     9.1830     8.8680     8.5330   109.0180
 1571.5000     0.0070     2.4830     8.7840   -51.1280     9.2670     8.9350     8.3790   109.5340
 1572.0000     0.0060     2.4840     8.7790   -51.1250     9.3660     9.0630     8.6710   109.5160
 1572.5000     0.0030     2.4790     8.7740   -51.1220     9.4390     9.1830     8.9340   108.6500
 1573.0000     0.0010     2.4730     8.7680   -51.1190     9.3490     9.0740     8.7930   107.7890
 1573.5000    -0.0020     2.4670     8.7630   -51.1160     9.2780     8.9700     8.6600   106.8960
 1574.0000    -0.0040     2.4620     8.7580   -51.1130     9.1830     8.8660     8.5270   107.1700
 1574.5000    -0.0030     2.4650     8.7520   -51.1090     9.2230     8.7720     8.3930   107.7720
 1575.0000    -0.0010     2.4690     8.7470   -51.1060     9.2800     8.6920     8.3530   108.3910
 1575.5000     0.0010     2.4730     8.7420   -51.1030     9.3370     8.8190     8.3230   109.0060
 1576.0000     0.0030     2.4770     8.7320   -51.1000     9.6010     9.0700     8.3030   109.0310
 1576.5000     0.0050     2.4810     8.7190   -51.0970     9.9490     9.3210     9.0170   107.9510
