~VERSION INFORMATION
 VERS.                2.0:   CWLS LOG ASCII STANDARD - VERSION 2.0
 WRAP.                 NO:   ONE LINE PER DEPTH STEP
~WELL INFORMATION
#MNEM.UNIT      DATA TYPE    INFORMATION
#----------   ------------   ------------------------------
 STRT.F           60.0000:   START DEPTH
 STOP.F         3758.0000:   STOP DEPTH
 STEP.F            0.5000:   STEP LENGTH
 NULL.          -999.2500:   NO VALUE
 COMP. LAWRENCE ALLISON & ASSOCIATES:   COMPANY
 WELL. LAWRENCE "MX" #72-10:   WELL
 FLD .            N P R 3:   FIELD
 LOC .      S10 T38N R78W:   LOCATION
 CNTY.            NATRONA:   COUNTY
 STAT.            WYOMING:   STATE
 CTRY. UNITED STATES OF AMERICA:   COUNTRY
 SRVC.       SCHLUMBERGER:   SERVICE COMPANY
 DATE.        03-JUL-1982:   LOGDATE
 API .     49025108910000:   API NUMBER
~CURVE INFORMATION
#MNEM.UNIT       API CODE    CURVE DESCRIPTION
#----------   ------------   ------------------------------
 DEPT.F                  :   
 GRD .GAPI   45 310 01 00:   GAMMA RAY FROM DENSITY LOG
 NPHI.DEC    42 890 03 00:   NEUTRON POROSITY SANDSTONE
 CALD.IN     45 280 60 00:   CALIPER FROM DENSITY LOG
 RHOB.G/C3   45 350 01 00:   BULK DENSITY
 DRHO.G/C3   45 356 01 00:   DENSITY CORRECTION
 TEND.LBS    45 635 01 00:   TENSION FROM DENSITY LOG
 SPR .MV     07 010 01 00:   SPONTANEOUS POTENTIAL
 SFL .OHMM   07 220 01 00:   SHALLOW FOCUSED LOG RESISTIVITY
 ILD .OHMM   07 120 46 00:   DEEP INDUCTION RESISTIVITY
 ILM .OHMM   07 120 44 00:   INDUCTION LOG MEDIUM RESISTIVITY
 TENR.LBS    07 635 01 00:   TENSION FROM RESISTIVITY
~PARAMETER INFORMATION
#MNEM.UNIT          VALUE    DESCRIPTION
#----------   ------------   ------------------------------
 EKB .F         5182.0000:   Kelly bushing
 EGL .F         5172.0000:   Ground level
 EDF .F            0.0000:   Drilling floor
 EPD .F            0.0000:   Permanent datum
 TD  .F         3770.0000:   Total depth
 DATE.        03-JUL-1982:   Date logged
 CLNT.            A2DTECH:   Client Code
 SL  . 1119' FNL & 21' FEL:   Surface Location
 PD  .                 GL:   Permanent Datum
 DD  .F              3770:   Depth driller
 DL  .F              3750:   Depth logger
 BLI .F              3744:   Bottom log interval
 CS1 .IN            9.625:   Casing size
 CBD1.      9.625" @ 473':   Casing driller 1
 CBL1.F               482:   Casing logger 1
 BS1 .IN            7.875:   Bit size
 DFT .                GEL:   Type fluid in hole
 DFD .                9.1:   Density
 DFV .                 34:   Viscosity
 DFPH.               10.5:   pH
 DFL .                 12:   Fluid loss
 MSS .            MUD PIT:   Source of sample
 RMS .OHMM           1.50:   Rm
 MST .F                84:   Rm Meas. temp.
 RMF .OHMM           1.37:   Rmf
 MFST.F                83:   Rmf Meas. temp.
 RMC .OHMM           1.20:   Rmc
 MCST.F                83:   Rmc Meas. temp.
 MFSS.               MEAS:   Source Rmf.
 RMB .OHMM              1:   Rm. at BHT
 BHT .F               130:   BHT.
 TCS .HRS            1500:   Time Circ. stopped
 MRT .F               130:   Maximum recorded temp.
 LUN .               8039:   Logging unit number
 LUL .               CSPR:   Logging unit location
 ENGI. CONOSCENTI/PIRAKIS:   Recorded By
 WITN.             STRONG:   Witnessed by
 ORIG.       2.5"5" PRINT:   Origin of data
 UWI .     49025108910000:   Unique Well ID
 DICO. A2D TECHNOLOGIES, INC.:   Digitizing Company
 DAPD.                 10:   Feet Above Permanent Datum
 BSD1.               3770:   Depth drilled with bit1
 MCSS.               CALC:   Source Rmc.
 TLI .                482:   Top log interval
 TLAB.HR             1800:   Time logger at bottom
~OTHER INFORMATION
~A   DEPT      GRD       NPHI       CALD       RHOB       DRHO       TEND        SPR        SFL        ILD        ILM       TENR   
# ...
 2866.0000   110.7620     0.2390    10.9680     2.5400     0.0320  1655.1899   -49.1110     9.7820     7.9170     8.1550  1560.5800
 2866.5000   109.5220     0.2280    10.9340     2.5410     0.0250  1655.5649   -49.1370    10.3330     8.2990     8.4330  1560.7371
 2867.0000   109.6320     0.2250    10.9020     2.5290     0.0090  1655.9399   -49.1640    10.7130     8.5950     8.7110  1560.8929
 2867.5000   111.2170     0.2250    10.8690     2.5230     0.0120  1656.3160   -49.1900    10.6640     8.8410     8.9890  1561.0500
 2868.0000   112.5810     0.2250    10.8370     2.5340     0.0150  1656.6910   -49.2120    10.5660     9.0870     9.2680  1561.2070
 2868.5000   114.0510     0.2250    10.8040     2.5420     0.0190  1657.0660   -49.1600    10.4680     9.2840     9.5460  1561.3640
 2869.0000   115.4630     0.2250    10.7770     2.5320     0.0190  1657.4410   -49.1080    10.3380     9.4270     9.6920  1561.5210
 2869.5000   117.0060     0.2250    10.7490     2.5240     0.0160  1657.8160   -49.0560    10.5840     9.4270     9.7820  1561.6780
 2870.0000   118.7200     0.2240    10.7220     2.5180     0.0140  1658.1910   -49.0050    10.9440     9.4270     9.6550  1561.8340
 2870.5000   120.6810     0.2240    10.6950     2.5130     0.0120  1658.5670   -48.9530    11.3040     9.3930     9.4000  1561.9910
 2871.0000   122.3580     0.2240    10.6680     2.5140     0.0060  1658.9420   -48.9020    11.5490     9.0810     9.1450  1562.1479
 2871.5000   122.0420     0.2200    10.6410     2.5140     0.0020  1659.3170   -48.8500    11.0690     8.7680     8.8890  1562.3051
 2872.0000   118.8280     0.2260    10.6130     2.5150    -0.0040  1659.6920   -48.7990     9.9360     8.4560     8.6340  1562.4620
 2872.5000   120.3630     0.2430    10.5860     2.5170     0.0050  1660.0000   -48.7470     8.4250     8.1430     8.3790  1562.6180
 2873.0000   122.5440     0.2600    10.5590     2.5200     0.0300  1660.0000   -48.6960     7.8070     7.8310     8.1230  1562.7750
 2873.5000   124.5730     0.2750    10.5320     2.5230     0.0500  1660.0000   -48.6440     7.4780     7.6620     7.8380  1562.9320
 2874.0000   126.8870     0.2660    10.5040     2.5240     0.0630  1660.0000   -48.5930     8.1480     7.6240     7.8650  1563.0890
 2874.5000   127.5130     0.2550    10.4770     2.5150     0.0550  1660.0000   -48.5410     8.6850     7.6800     7.9110  1563.2460
 2875.0000   125.6520     0.2450    10.4500     2.5090     0.0410  1660.0000   -48.4890     9.2210     7.7760     7.9570  1563.4030
 2875.5000   124.1480     0.2390    10.4230     2.5080     0.0320  1660.0000   -48.4290     9.7570     7.8710     8.0580  1563.5590
 2876.0000   122.4700     0.2370    10.4030     2.5080     0.0270  1660.0000   -48.6760    10.1090     7.9670     8.2200  1563.7159
 2876.5000   120.8580     0.2380    10.3880     2.5060     0.0260  1660.0000   -48.9760    10.3380     8.0950     8.3610  1563.8730
 2877.0000   119.2470     0.2420    10.3730     2.5160     0.0260  1660.0000   -49.2800    10.1160     8.2290     8.5030  1564.0300
 2877.5000   117.6060     0.2490    10.3590     2.5360     0.0480  1660.0000   -49.5840     9.8990     8.3630     8.6450  1564.1870
 2878.0000   116.7590     0.2470    10.3440     2.5420     0.0930  1660.0000   -49.8870     9.7820     8.4980     8.7860  1564.3440
 2878.5000   116.3270     0.2430    10.3300     2.4990     0.1690  1660.0000   -50.1900     9.7820     8.6320     8.9280  1564.5000
 2879.0000   115.9540     0.2390    10.3140     2.4270     0.1790  1660.0000   -50.4920     9.7820     9.0340     9.1700  1564.6570
 2879.5000   115.4940     0.2390    10.3020     2.3880     0.1670  1660.0000   -51.1240     9.8620     9.5650    10.7170  1564.8140
 2880.0000   114.7940     0.2410    10.2660     2.3950     0.1400  1660.0000   -51.9050    11.2210    10.1490    12.1510  1564.9709
 2880.5000   109.1570     0.2440    10.2110     2.4250     0.1100  1660.0000   -52.6860    13.1960    11.6970    13.5850  1565.1281
 2881.0000   102.3510     0.2240    10.1600     2.4580     0.1160  1660.0000   -53.4680    18.3800    13.4140    15.0190  1565.2850
 2881.5000    95.4750     0.2010    10.1080     2.4900     0.1350  1660.0000   -54.2490    24.8570    14.1900    16.7060  1565.4410
 2882.0000    89.0490     0.1780    10.0570     2.5130     0.1560  1660.0000   -55.0320    31.5810    14.5460    16.2250  1565.5980
 2882.5000    81.3000     0.1540    10.0050     2.5020     0.1710  1660.0000   -55.8780    27.9210    14.5460    15.3240  1565.7550
 2883.0000    78.1640     0.1430     9.9530     2.4700     0.1690  1660.0000   -57.1050    21.2010    14.3430    14.4240  1565.9120
 2883.5000    83.2670     0.1540     9.9010     2.3940     0.1500  1660.0000   -58.3310    14.2800    13.9760    13.5230  1566.0690
 2884.0000    87.3200     0.1940     9.8280     2.3650     0.1100  1660.0000   -59.5330    12.9110    13.6100    12.7830  1566.2250
 2884.5000    90.9840     0.2330     9.7310     2.3240     0.0570  1660.0000   -61.1530    10.9270    13.2430    12.7830  1566.3820
 2885.0000    90.0820     0.2540     9.6110     2.3290     0.0240  1660.0000   -62.8440    11.4430    13.0210    12.7830  1566.5389
 2885.5000    88.7660     0.2550     9.4950     2.3500     0.0190  1660.0000   -64.5420    12.7440    13.0210    13.1200  1566.6960
 2886.0000    83.8410     0.2550     9.3760     2.3640     0.0160  1660.0000   -66.2390    14.7490    13.4670    14.1670  1566.8530
 2886.5000    79.5690     0.2510     9.2600     2.3720     0.0140  1660.0000   -67.9350    19.2770    14.1760    15.2150  1567.0100
 2887.0000    74.9510     0.2360     9.1400     2.3780     0.0120  1660.0000   -69.6400    23.6130    15.4280    16.0840  1567.1660
 2887.5000    72.2300     0.2210     9.0250     2.3800     0.0170  1660.0000   -70.8180    27.4980    16.6810    16.6350  1567.3230
 2888.0000    70.7000     0.2140     8.8940     2.3800     0.0200  1660.0000   -71.7310    27.4980    17.9340    17.1870  1567.4800
 2888.5000    69.0700     0.2150     8.8430     2.3560     0.0170  1660.0000   -72.5750    23.5160    19.1870    17.7380  1567.6370
 2889.0000    67.5440     0.2200     8.7930     2.3290     0.0130  1660.0000   -73.2280    17.8210    20.3080    18.2890  1567.7939
 2889.5000    65.8700     0.2300     8.7480     2.3220     0.0070  1660.0000   -73.8840    17.9020    21.0860    18.8410  1567.9510
 2890.0000    64.4030     0.2400     8.6930     2.3370     0.0120  1660.0000   -74.5400    19.0030    21.6320    19.4470  1568.1071
 2890.5000    62.7010     0.2400     8.6360     2.3550     0.0170  1660.0000   -75.1950    21.0570    22.0930    20.3300  1568.2640
 2891.0000    60.9780     0.2280     8.5750     2.3630     0.0210  1660.0000   -75.8510    23.1100    22.5570    21.2130  1568.4210
 2891.5000    55.8910     0.2130     8.5530     2.3440     0.0200  1660.0000   -76.5070    25.3070    23.4920    21.7210  1568.5780
 2892.0000    57.3720     0.2120     8.5330     2.3230     0.0210  1660.0000   -77.1630    25.5410    24.4270    21.8330  1568.7350
 2892.5000    59.9710     0.2120     8.5140     2.3030     0.0220  1660.0000   -77.8190    23.8270    25.3620    21.8330  1568.8920
 2893.0000    62.3340     0.2200     8.4920     2.2920     0.0220  1660.0000   -78.4750    22.2390    25.9270    21.8330  1569.0480
 2893.5000    63.5020     0.2290     8.4850     2.2860     0.0250  1660.0000   -79.1300    22.4460    26.1970    21.8330  1569.2050
 2894.0000    54.4640     0.2380     8.4770     2.2850     0.0300  1660.0000   -79.7900    21.6320    26.2580    21.8330  1569.3621
 2894.5000    43.4670     0.2400     8.4710     2.2870     0.0370  1660.0000   -80.1170    21.7260    26.2580    21.8330  1569.5190
 2895.0000    41.4770     0.2380     8.4630     2.2890     0.0400  1660.0000   -80.2200    21.7850    26.2580    21.9170  1569.6760
 2895.5000    43.1920     0.2360     8.4570     2.2920     0.0380  1660.0000   -80.3220    21.8630    26.8230    22.3410  1569.8330
 2896.0000    46.7550     0.2340     8.4520     2.2940     0.0380  1660.0000   -80.4240    22.0090    27.5270    22.7640  1569.9890
