~VERSION INFORMATION
 VERS.                2.0:   CWLS LOG ASCII STANDARD - VERSION 2.0
 WRAP.                 NO:   ONE LINE PER DEPTH STEP
~WELL INFORMATION
#MNEM.UNIT      DATA TYPE    INFORMATION
#----------   ------------   ------------------------------
 STRT.F           48.5000:   START DEPTH
 STOP.F         3509.0000:   STOP DEPTH
 STEP.F            0.5000:   STEP LENGTH
 NULL.          -999.2500:   NO VALUE
 COMP.   TESORO PETROLEUM:   COMPANY
 WELL. TESORO "TX" #45-33:   WELL
 FLD .        TEAPOT DOME:   FIELD
 LOC .      S33 T39N R78W:   LOCATION
 CNTY.            NATRONA:   COUNTY
 STAT.            WYOMING:   STATE
 CTRY. UNITED STATES OF AMERICA:   COUNTRY
 SRVC.      DRESSER ATLAS:   SERVICE COMPANY
 DATE.        03-OCT-1976:   LOGDATE
 API .     49025102700000:   API NUMBER
~CURVE INFORMATION
#MNEM.UNIT       API CODE    CURVE DESCRIPTION
#----------   ------------   ------------------------------
 DEPT.F                  :   
 SPR .MV     07 010 01 00:   SPONTANEOUS POTENTIAL
 TENR.LBS    07 635 01 00:   TENSION FROM RESISTIVITY
 SFL .OHMM   07 220 01 00:   SHALLOW FOCUSED LOG RESISTIVITY
 ILM .OHMM   07 120 44 00:   INDUCTION LOG MEDIUM RESISTIVITY
 ILD .OHMM   07 120 46 00:   DEEP INDUCTION RESISTIVITY
 GRD .GAPI   45 310 01 00:   GAMMA RAY FROM DENSITY LOG
 CALD.IN     45 280 60 00:   CALIPER FROM DENSITY LOG
 NPHI.DEC    42 890 03 00:   NEUTRON POROSITY SANDSTONE
 DPHI.DEC    45 890 12 00:   DENSITY POROSITY SANDSTONE
 TEND.LBS    45 635 01 00:   TENSION FROM DENSITY LOG
~PARAMETER INFORMATION
#MNEM.UNIT          VALUE    DESCRIPTION
#----------   ------------   ------------------------------
 EKB .F         5217.0000:   Kelly bushing
 EGL .F         5206.0000:   Ground level
 EDF .F         5216.0000:   Drilling floor
 EPD .F         5206.0000:   Permanent datum
 TD  .F         3491.0000:   Total depth
 DATE.        03-OCT-1976:   Date logged
 CLNT.            A2DTECH:   Client Code
 SL  . 2030' FWL & 2145' FSL:   Surface Location
 PD  .                 GL:   Permanent Datum
 DD  .F              3491:   Depth driller
 DL  .F              3487:   Depth logger
 BLI .F              3485:   Bottom log interval
 TLI .F               813:   Top log interval
 CS1 .IN            8.625:   Casing size
 CBD1.      8.625" @ 823':   Casing driller 1
 CBL1.F               819:   Casing logger 1
 BS1 .IN            7.875:   Bit size
 BSD1.F              3491:   Depth drilled with bit1
 DFT .           CHEM GEL:   Type fluid in hole
 DFD .                9.4:   Density
 DFV .                 47:   Viscosity
 DFPH.                 10:   pH
 DFL .                5.8:   Fluid loss
 MSS .           FLOWLINE:   Source of sample
 RMS .OHMM           1.09:   Rm
 MST .F                68:   Rm Meas. temp.
 RMF .OHMM              1:   Rmf
 MFST.F                68:   Rmf Meas. temp.
 RMC .OHMM           1.24:   Rmc
 MCST.F                68:   Rmc Meas. temp.
 MFSS.               MEAS:   Source Rmf.
 MCSS.               MEAS:   Source Rmc.
 RMB .OHMM            .62:   Rm. at BHT
 BHT .F               119:   BHT.
 TCS .HRS              12:   Time Circ. stopped
 MRT .F               119:   Maximum recorded temp.
 LUN .               6134:   Logging unit number
 LUL .              GLTTE:   Logging unit location
 ENGI.            VAUGHIN:   Recorded By
 WITN.        WOLF-CARTER:   Witnessed by
 ORIG.     2.5", 5" PRINT:   Origin of data
 UWI .     49025102700000:   Unique Well ID
 DICO. A2D TECHNOLOGIES, INC.:   Digitizing Company
 DAPD.                 11:   Feet Above Permanent Datum
~OTHER INFORMATION
~A   DEPT      SPR        TENR       SFL        ILM        ILD        GRD       CALD       NPHI       DPHI       TEND   
# ...
   82.0000   -26.7630   140.0000     7.9750     5.5410     5.2930  -999.2500  -999.2500  -999.2500  -999.2500  -999.2500
   82.5000   -26.8540   140.0000     7.8820     5.6330     5.4590  -999.2500  -999.2500  -999.2500  -999.2500  -999.2500
   83.0000   -26.9460   140.0000     7.7450     5.7250     5.6240  -999.2500  -999.2500  -999.2500  -999.2500  -999.2500
   83.5000   -27.0380   140.0000     7.7680     5.8160     5.7680  -999.2500  -999.2500  -999.2500  -999.2500  -999.2500
   84.0000   -27.1290   140.0000     7.8100     5.9080     5.7960  -999.2500  -999.2500  -999.2500  -999.2500  -999.2500
   84.5000   -27.2200   140.0000     7.8530     6.0000     5.8210  -999.2500  -999.2500  -999.2500  -999.2500  -999.2500
   85.0000   -27.3130   140.0000     7.8960     6.0960     5.8450  -999.2500  -999.2500  -999.2500  -999.2500  -999.2500
   85.5000   -27.4020   140.0000     7.9380     5.9830     5.8700  -999.2500  -999.2500  -999.2500  -999.2500  -999.2500
   86.0000   -27.4970   140.0000     7.9810     5.8660     5.7940  -999.2500  -999.2500  -999.2500  -999.2500  -999.2500
   86.5000   -27.5840   140.0000     8.0240     5.7490     5.6890  -999.2500  -999.2500  -999.2500  -999.2500  -999.2500
   87.0000   -27.6780   140.0000     8.0660     5.6320     5.5840  -999.2500  -999.2500  -999.2500  -999.2500  -999.2500
   87.5000   -27.6280   140.0000     8.1090     5.5150     5.4580  -999.2500  -999.2500  -999.2500  -999.2500  -999.2500
   88.0000   -27.5630   140.0000     8.1730     5.3970     5.3420  -999.2500  -999.2500  -999.2500  -999.2500  -999.2500
   88.5000   -27.4930   140.0000     8.1230     5.2800     5.1970  -999.2500  -999.2500  -999.2500  -999.2500  -999.2500
   89.0000   -27.4280   140.0000     7.8320     5.1630     5.0520  -999.2500  -999.2500  -999.2500  -999.2500  -999.2500
   89.5000   -27.3600   140.0000     7.5410     5.0460     4.9070  -999.2500  -999.2500  -999.2500  -999.2500  -999.2500
   90.0000   -27.2930   140.0000     7.2500     4.8870     4.7100  -999.2500  -999.2500  -999.2500  -999.2500  -999.2500
   90.5000   -27.2270   140.0000     6.9590     4.9170     4.7860  -999.2500  -999.2500  -999.2500  -999.2500  -999.2500
   91.0000   -27.1590   140.0000     6.6840     5.0390     4.9040  -999.2500  -999.2500  -999.2500  -999.2500  -999.2500
   91.5000   -27.0970   140.0000     7.0580     5.1610     5.0210  -999.2500  -999.2500  -999.2500  -999.2500  -999.2500
   92.0000   -27.0170   140.0000     7.4110     5.2840     5.1390  -999.2500  -999.2500  -999.2500  -999.2500  -999.2500
   92.5000   -26.9710   140.0000     7.7650     5.4060     5.2570  -999.2500  -999.2500  -999.2500  -999.2500  -999.2500
   93.0000   -26.8880   140.0000     8.1190     5.5280     5.4580  -999.2500  -999.2500  -999.2500  -999.2500  -999.2500
   93.5000   -26.8800   140.0000     8.6500     5.6630     5.4330  -999.2500  -999.2500  -999.2500  -999.2500  -999.2500
   94.0000   -27.0570   140.0000     8.4420     5.5760     5.3490  -999.2500  -999.2500  -999.2500  -999.2500  -999.2500
   94.5000   -27.7670   140.0000     8.0260     5.4790     5.2650  -999.2500  -999.2500  -999.2500  -999.2500  -999.2500
   95.0000   -27.6500   140.0000     7.3290     5.3820     5.1810  -999.2500  -999.2500  -999.2500  -999.2500  -999.2500
   95.5000   -27.7060   140.0000     7.3810     5.2850     5.0970  -999.2500  -999.2500  -999.2500  -999.2500  -999.2500
   96.0000   -27.6850   140.0000     7.5430     5.1880     5.0130  -999.2500  -999.2500  -999.2500  -999.2500  -999.2500
   96.5000   -27.6870   140.0000     7.7050     5.0910     4.9290  -999.2500  -999.2500  -999.2500  -999.2500  -999.2500
   97.0000   -27.7060   140.0000     7.8670     4.9940     4.8450  -999.2500  -999.2500  -999.2500  -999.2500  -999.2500
   97.5000   -27.7370   141.0070     8.0360     4.8970     4.7610  -999.2500  -999.2500  -999.2500  -999.2500  -999.2500
   98.0000   -27.7710   141.8820     7.9390     4.8000     4.6760  -999.2500  -999.2500  -999.2500  -999.2500  -999.2500
   98.5000   -27.8030   142.7570     7.8390     4.7030     4.5920  -999.2500  -999.2500  -999.2500  -999.2500  -999.2500
   99.0000   -27.8360   143.6320     7.7390     4.6240     4.5080  -999.2500  -999.2500  -999.2500  -999.2500  -999.2500
   99.5000   -27.8680   144.5070     7.6380     4.6890     4.3760  -999.2500  -999.2500  -999.2500  -999.2500  -999.2500
  100.0000   -27.9000   145.3830     7.5380     4.7450     4.4920  -999.2500  -999.2500  -999.2500  -999.2500  -999.2500
  100.5000   -27.9320   146.2580     7.4370     4.8000     4.6090  -999.2500  -999.2500  -999.2500  -999.2500  -999.2500
  101.0000   -27.9650   147.1330     7.3370     4.8550     4.7980  -999.2500  -999.2500  -999.2500  -999.2500  -999.2500
  101.5000   -27.9960   148.0080     7.2370     4.9100     4.7840  -999.2500  -999.2500  -999.2500  -999.2500  -999.2500
  102.0000   -28.0290   148.8830     7.1810     4.9650     4.7470  -999.2500  -999.2500  -999.2500  -999.2500  -999.2500
  102.5000   -28.0640   149.7580     7.1560     4.9410     4.7110  -999.2500  -999.2500  -999.2500  -999.2500  -999.2500
  103.0000   -28.0500   150.6330     7.1320     4.8950     4.6750  -999.2500  -999.2500  -999.2500  -999.2500  -999.2500
  103.5000   -27.9020   151.5080     7.1070     4.8490     4.6390  -999.2500  -999.2500  -999.2500  -999.2500  -999.2500
  104.0000   -27.7550   152.3830     7.0830     4.8020     4.6020  -999.2500  -999.2500  -999.2500  -999.2500  -999.2500
  104.5000   -27.6040   153.2580     7.0580     4.7560     4.5660  -999.2500  -999.2500  -999.2500  -999.2500  -999.2500
  105.0000   -27.4540   154.1340     7.0340     4.7100     4.5300  -999.2500  -999.2500  -999.2500  -999.2500  -999.2500
  105.5000   -27.3060   155.0090     7.0090     4.6640     4.4940  -999.2500  -999.2500  -999.2500  -999.2500  -999.2500
  106.0000   -27.1560   155.8840     6.9850     4.6170     4.4570  -999.2500  -999.2500  -999.2500  -999.2500  -999.2500
  106.5000   -26.9990   156.7590     6.9600     4.5710     4.4210  -999.2500  -999.2500  -999.2500  -999.2500  -999.2500
  107.0000   -26.9440   157.6340     6.9360     4.5250     4.3850  -999.2500  -999.2500  -999.2500  -999.2500  -999.2500
  107.5000   -27.1220   158.5090     6.9110     4.4570     4.3680  -999.2500  -999.2500  -999.2500  -999.2500  -999.2500
  108.0000   -27.3040   159.3840     6.8870     4.4640     4.3580  -999.2500  -999.2500  -999.2500  -999.2500  -999.2500
  108.5000   -27.4800   160.2590     6.8620     4.4780     4.3480  -999.2500  -999.2500  -999.2500  -999.2500  -999.2500
  109.0000   -27.6680   161.1340     6.8380     4.4920     4.3380  -999.2500  -999.2500  -999.2500  -999.2500  -999.2500
  109.5000   -27.5860   162.0090     6.8140     4.5060     4.3290  -999.2500  -999.2500  -999.2500  -999.2500  -999.2500
  110.0000   -27.4710   162.8850     6.7890     4.5190     4.3190  -999.2500  -999.2500  -999.2500  -999.2500  -999.2500
  110.5000   -27.3480   163.7600     6.7650     4.5400     4.3100  -999.2500  -999.2500  -999.2500  -999.2500  -999.2500
  111.0000   -27.2350   164.6350     6.7400     4.5070     4.2990  -999.2500  -999.2500  -999.2500  -999.2500  -999.2500
  111.5000   -27.1150   165.5100     6.7160     4.4430     4.2540  -999.2500  -999.2500  -999.2500  -999.2500  -999.2500
  112.0000   -26.9990   166.3850     6.6910     4.3790     4.1950  -999.2500  -999.2500  -999.2500  -999.2500  -999.2500
  112.5000   -26.8990   167.2600     6.6570     4.3150     4.1360  -999.2500  -999.2500  -999.2500  -999.2500  -999.2500
  113.0000   -26.8950   168.1350     6.6190     4.2510     4.0770  -999.2500  -999.2500  -999.2500  -999.2500  -999.2500
  113.5000   -26.8930   169.0100     6.5810     4.1870     4.0190  -999.2500  -999.2500  -999.2500  -999.2500  -999.2500
  114.0000   -26.8960   169.8850     6.5430     4.1230     3.9600  -999.2500  -999.2500  -999.2500  -999.2500  -999.2500
  114.5000   -26.8880   170.7600     6.5050     4.0590     3.9010  -999.2500  -999.2500  -999.2500  -999.2500  -999.2500
  115.0000   -26.9640   171.6360     6.4660     3.9950     3.8420  -999.2500  -999.2500  -999.2500  -999.2500  -999.2500
