~VERSION INFORMATION
 VERS.                2.0:   CWLS LOG ASCII STANDARD - VERSION 2.0
 WRAP.                 NO:   ONE LINE PER DEPTH STEP
~WELL INFORMATION
#MNEM.UNIT      DATA TYPE    INFORMATION
#----------   ------------   ------------------------------
 STRT.F          150.0000:   START DEPTH
 STOP.F         2929.0000:   STOP DEPTH
 STEP.F            0.5000:   STEP LENGTH
 NULL.          -999.2500:   NO VALUE
 COMP.    FENIX & SCISSON:   COMPANY
 WELL.    FENIX AX #12-28:   WELL
 FLD .        TEAPOT DOME:   FIELD
 LOC .      S28 T39N R78W:   LOCATION
 CNTY.            NATRONA:   COUNTY
 STAT.            WYOMING:   STATE
 CTRY. UNITED STATES OF AMERICA:   COUNTRY
 SRVC.           BIRDWELL:   SERVICE COMPANY
 DATE.        06-JUN-1978:   LOGDATE
 API .     49025106420000:   API NUMBER
~CURVE INFORMATION
#MNEM.UNIT       API CODE    CURVE DESCRIPTION
#----------   ------------   ------------------------------
 DEPT.F                  :   
 SPR .MV     05 010 01 00:   SPONTANEOUS POTENTIAL
 SN  .OHMM   05 040 16 00:   SHORT NORMAL 16"
 ILD .OHMM   05 120 46 00:   INDUCTION LOG DEEP RESISTIVITY
 RHOB.G/C3   45 350 01 00:   BULK DENSITY
 CORR.G/C3   45 356 01 00:   DENSITY CORRECTION
 GRD .GAPI   45 310 01 00:   GAMMA RAY FROM DENSITY LOG
 CALD.IN     45 280 60 00:   CALIPER FROM DENSITY LOG
~PARAMETER INFORMATION
#MNEM.UNIT          VALUE    DESCRIPTION
#----------   ------------   ------------------------------
 EKB .F         5000.0000:   Kelly bushing
 EGL .F         4990.0000:   Ground level
 EDF .F            0.0000:   Drilling floor
 EPD .F         5005.0000:   Permanent datum
 TD  .F         2911.0000:   Total depth
 DATE.        06-JUN-1978:   Date logged
 CLNT.            A2DTECH:   Client Code
 SL  . 1250' FNL & 225' FWL:   Surface Location
 PD  .                 GL:   Permanent Datum
 LMF .                 KB:   Log Measured From
 DMF .                 KB:   Drilling Measured From
 DAPD.F                10:   Feet Above Permanent Datum
 DD  .F              2911:   Depth driller
 DL  .F              2912:   Depth logger
 BLI .F              2906:   Bottom log interval
 TLI .F               200:   Top log interval
 CS1 .IN            8.625:   Casing size
 CBD1.      8.625" @ 225':   Casing driller 1
 CBL1.F               225:   Casing logger 1
 BS1 .IN            7.875:   Bit size
 BSD1.F              2911:   Depth drilled with bit1
 DFT .       OIL BASE MUD:   Type fluid in hole
 DFD .                9.2:   Density
 DFV .                 35:   Viscosity
 DFPH.               10.5:   pH
 DFL .                  2:   Fluid loss
 TCS .HRS             3.5:   Time Circ. stopped
 LUN .               2958:   Logging unit number
 LUL .               CASP:   Logging unit location
 ENGI.            POINTER:   Recorded By
 WITN.           MCGINLEY:   Witnessed by
 ORIG.           5" PRINT:   Origin of data
 UWI .     49025106420000:   Unique Well ID
 DICO. A2D TECHNOLOGIES, INC.:   Digitizing Company
~OTHER INFORMATION
~A   DEPT      SPR         SN        ILD       RHOB       CORR         GRD      CALD   
# ...
 1287.5000   -31.0270     7.4810     6.3360     2.5560     0.0410    82.3280    10.0560
 1288.0000   -30.3660     7.4870     6.3400     2.5520     0.0390    83.1690    10.0560
 1288.5000   -30.2400     7.4920     6.2660     2.5460     0.0380    84.0480    10.0560
 1289.0000   -30.4620     7.4980     6.1690     2.5430     0.0360    82.5120    10.0560
 1289.5000   -30.4560     7.5040     6.1110     2.5460     0.0340    82.2000    10.0560
 1290.0000   -30.4500     7.5100     6.1370     2.5450     0.0310    82.4840    10.0560
 1290.5000   -30.0560     7.5160     6.1580     2.5400     0.0280    79.5680    10.0560
 1291.0000   -29.9350     7.5210     6.1790     2.5380     0.0240    79.5310    10.0560
 1291.5000   -30.0230     7.5270     6.2000     2.5370     0.0220    80.5790    10.0560
 1292.0000   -30.1170     7.5330     6.2210     2.5350     0.0190    81.5950    10.0560
 1292.5000   -30.2100     7.5390     6.2420     2.5320     0.0170    82.6310    10.0560
 1293.0000   -30.3020     7.5450     6.2630     2.5290     0.0190    83.2380    10.0560
 1293.5000   -30.3900     7.5520     6.2850     2.5320     0.0200    83.7460    10.0560
 1294.0000   -30.3790     7.5420     6.3060     2.5330     0.0210    84.2530    10.0560
 1294.5000   -30.0880     7.5220     6.3270     2.5300     0.0230    84.7740    10.0560
 1295.0000   -29.7950     7.5030     6.3380     2.5370     0.0240    84.2980    10.0560
 1295.5000   -30.1830     7.4830     6.3040     2.5460     0.0260    83.6380    10.0560
 1296.0000   -30.3840     7.4640     6.2780     2.5540     0.0270    83.9510    10.0560
 1296.5000   -30.6180     7.4440     6.2510     2.5550     0.0280    84.6410    10.0560
 1297.0000   -30.8360     7.4250     6.2250     2.5530     0.0290    85.3490    10.0400
 1297.5000   -30.4690     7.4050     6.1980     2.5520     0.0290    86.0500    10.0180
 1298.0000   -30.0830     7.3860     6.1680     2.5550     0.0230    86.4440     9.9970
 1298.5000   -30.0420     7.3660     6.1780     2.5490     0.0260    85.4040     9.9750
 1299.0000   -30.4460     7.3470     6.1890     2.5500     0.0290    84.3960     9.9530
 1299.5000   -30.8470     7.3270     6.2010     2.5520     0.0310    84.0990     9.9390
 1300.0000   -31.1940     7.3080     6.2120     2.5540     0.0340    84.6540     9.9730
 1300.5000   -31.4930     7.2790     6.2250     2.5560     0.0360    85.2020    10.0070
 1301.0000   -30.7560     7.3860     6.2250     2.5580     0.0370    85.7510    10.0400
 1301.5000   -29.7230     7.5880     6.2250     2.5600     0.0330    86.1610    10.0740
 1302.0000   -30.0330     7.7900     6.2250     2.5580     0.0280    85.6460    10.1080
 1302.5000   -30.3020     7.9250     6.2250     2.5490     0.0220    85.1390    10.1330
 1303.0000   -30.5740     7.9690     6.2250     2.5400     0.0200    84.6520    10.0270
 1303.5000   -30.8490     8.0130     6.2250     2.5340     0.0210    84.6060     9.9210
 1304.0000   -31.0360     8.0550     6.2250     2.5400     0.0270    84.5790     9.9270
 1304.5000   -30.3830     8.0480     6.2250     2.5460     0.0310    84.5500     9.9400
 1305.0000   -29.7420     8.0370     6.2250     2.5510     0.0310    84.5210     9.9520
 1305.5000   -29.8830     8.0260     6.2250     2.5570     0.0310    84.4920     9.9640
 1306.0000   -30.1360     8.0150     6.2250     2.5540     0.0310    84.4590     9.9760
 1306.5000   -30.3920     8.0040     6.2250     2.5580     0.0310    84.2080     9.9880
 1307.0000   -30.6420     7.9930     6.2250     2.5600     0.0310    83.3950    10.0000
 1307.5000   -30.8140     7.9820     6.2260     2.5530     0.0320    82.5930    10.0120
 1308.0000   -30.5180     7.9710     6.2280     2.5460     0.0360    81.7990    10.0240
 1308.5000   -30.2330     7.9600     6.2300     2.5480     0.0400    81.3440    10.0370
 1309.0000   -30.2180     7.9490     6.2330     2.5540     0.0360    81.5470    10.0490
 1309.5000   -30.5990     7.9380     6.2350     2.5530     0.0290    81.7380    10.0580
 1310.0000   -30.9710     7.9270     6.2370     2.5470     0.0220    81.9280    10.0640
 1310.5000   -31.1630     7.9160     6.2390     2.5400     0.0210    82.1260    10.0700
 1311.0000   -30.7670     7.9050     6.2410     2.5460     0.0250    82.5800    10.0760
 1311.5000   -30.3880     7.8940     6.2440     2.5520     0.0300    84.0470    10.0810
 1312.0000   -30.0820     7.8840     6.2460     2.5540     0.0250    85.4660    10.0870
 1312.5000   -30.2480     7.8730     6.2480     2.5460     0.0190    85.4890    10.0930
 1313.0000   -30.4180     7.8620     6.2500     2.5380     0.0180    85.3290    10.0990
 1313.5000   -30.5860     7.8510     6.2520     2.5300     0.0170    85.1670    10.1050
 1314.0000   -30.7510     7.8400     6.2540     2.5290     0.0150    85.0760    10.1100
 1314.5000   -30.6710     7.7590     6.2570     2.5280     0.0140    85.4150    10.1150
 1315.0000   -30.2250     7.6350     6.2590     2.5260     0.0130    85.7500    10.1100
 1315.5000   -29.7900     7.5110     6.2610     2.5250     0.0200    86.0030    10.1060
 1316.0000   -29.5490     7.3470     6.2630     2.5350     0.0280    85.8510    10.1010
 1316.5000   -29.9480     7.4120     6.2650     2.5460     0.0300    85.6930    10.0970
 1317.0000   -30.3260     7.5090     6.2680     2.5550     0.0310    84.8230    10.0930
 1317.5000   -30.5720     7.6050     6.2700     2.5550     0.0290    82.9530    10.0890
 1318.0000   -29.9770     7.7020     6.2720     2.5540     0.0260    81.1030    10.0840
 1318.5000   -29.5090     7.7670     6.2740     2.5440     0.0230    81.2800    10.0800
 1319.0000   -29.9170     7.7780     6.2760     2.5420     0.0200    81.8350    10.0760
 1319.5000   -30.3010     7.7880     6.2780     2.5400     0.0200    80.7460    10.0710
 1320.0000   -30.7440     7.7990     6.2810     2.5350     0.0210    78.5240    10.0670
 1320.5000   -30.0950     7.8090     6.2820     2.5320     0.0220    77.7880    10.0630
 1321.0000   -30.6080     7.8200     6.2820     2.5410     0.0230    78.1780    10.0580
 1321.5000   -30.5580     7.8300     6.2820     2.5490     0.0250    78.6670    10.0540
 1322.0000   -30.4900     7.8410     6.2820     2.5570     0.0260    76.4170    10.0500
 1322.5000   -30.6080     7.8510     6.2820     2.5540     0.0270    77.0410    10.0450
 1323.0000   -30.9060     7.8620     6.2820     2.5490     0.0280    77.5320    10.0410
 1323.5000   -31.1980     7.8720     6.2820     2.5470     0.0290    79.4900    10.0370
 1324.0000   -31.3550     7.8830     6.2820     2.5450     0.0300    82.1700    10.0320
 1324.5000   -30.6980     7.8930     6.2820     2.5450     0.0310    84.5940    10.0280
 1325.0000   -30.0550     7.9040     6.2820     2.5470     0.0330    83.6630    10.0240
 1325.5000   -29.7800     8.0550     6.2820     2.5490     0.0310    81.6610    10.0190
 1326.0000   -30.0610     8.0110     6.2820     2.5490     0.0290    80.1360    10.0160
 1326.5000   -30.3410     7.9580     6.2820     2.5470     0.0260    81.0070    10.0160
 1327.0000   -30.6180     7.9080     6.2820     2.5450     0.0240    82.2220    10.0160
 1327.5000   -30.3030     7.6810     6.2820     2.5440     0.0210    83.4520    10.0160
 1328.0000   -29.8950     7.3470     6.2820     2.5420     0.0180    84.6780    10.0160
 1328.5000   -29.4740     7.3610     6.2820     2.5330     0.0050    85.8930    10.0160
 1329.0000   -29.7080     7.3810     6.2820     2.5230     0.0060    86.3410    10.0160
 1329.5000   -30.0460     7.4000     6.2820     2.5150     0.0080    85.6600    10.0160
 1330.0000   -30.3830     7.4200     6.2820     2.5150     0.0090    84.9930    10.0160
 1330.5000   -30.7240     7.4400     6.2820     2.5220     0.0100    84.3270    10.0160
 1331.0000   -30.6880     7.4600     6.2830     2.5290     0.0110    83.8290    10.0160
 1331.5000   -30.4220     7.4800     6.2900     2.5360     0.0120    84.3610    10.0160
 1332.0000   -30.1390     7.7480     6.3090     2.5430     0.0130    85.4070    10.0160
 1332.5000   -30.2020     7.9810     6.3270     2.5470     0.0150    86.4550    10.0160
