~VERSION INFORMATION
 VERS.                2.0:   CWLS LOG ASCII STANDARD - VERSION 2.0
 WRAP.                 NO:   ONE LINE PER DEPTH STEP
~WELL INFORMATION
#MNEM.UNIT      DATA TYPE    INFORMATION
#----------   ------------   ------------------------------
 STRT.F            0.0000:   START DEPTH
 STOP.F         4134.5000:   STOP DEPTH
 STEP.F            0.5000:   STEP LENGTH
 NULL.          -999.2500:   NO VALUE
 COMP. LAWRENCE ALLISON & ASSOCIATES:   COMPANY
 WELL. LAWRENCE NPR 3 "X" #72-10:   WELL
 FLD .            WILDCAT:   FIELD
 LOC .      S10 T38N R78W:   LOCATION
 CNTY.            NATRONA:   COUNTY
 STAT.            WYOMING:   STATE
 CTRY. UNITED STATES OF AMERICA:   COUNTRY
 SRVC.      DRESSER ATLAS:   SERVICE COMPANY
 DATE.        29-JUL-1983:   LOGDATE
 API .     49025109390000:   API NUMBER
~CURVE INFORMATION
#MNEM.UNIT       API CODE    CURVE DESCRIPTION
#----------   ------------   ------------------------------
 DEPT.F                  :   
 CALD.IN     45 280 60 00:   CALIPER FROM DENSITY LOG
 DEN .G/C3   45 350 01 00:   BULK DENSITY
 CORR.G/C3   45 356 01 00:   DENSITY CORRECTION
 TEND.LBS    45 635 01 00:   TENSION FROM DENSITY LOG
 NPHI.DEC    42 890 03 00:   NEUTRON POROSITY SANDSTONE
 GRD .GAPI   45 310 01 00:   GAMMA RAY FROM DENSITY LOG
 SPR .MV     07 010 01 00:   SPONTANEOUS POTENTIAL
 RILD.OHMM   07 120 46 00:   DEEP INDUCTION RESISTIVITY
 RILM.OHMM   07 120 44 00:   INDUCTION LOG MEDIUM RESISTIVITY
 RFOC.OHMM   07 220 04 00:   RESISTIVITY FOCUSED LOG RES.
 TENR.LBS    07 635 01 00:   TENSION FROM RESISTIVITY
 AC  .US/F   60 250 00 00:   ACCOUSTIC
 TENS.LBS    60 635 01 00:   TENSION FROM SONIC
 GRR .GAPI   07 310 01 00:   GAMMA RAY FROM RESISTIVITY
~PARAMETER INFORMATION
#MNEM.UNIT          VALUE    DESCRIPTION
#----------   ------------   ------------------------------
 EKB .F         5182.0000:   Kelly bushing
 EGL .F         5172.0000:   Ground level
 EDF .F            0.0000:   Drilling floor
 TD  .F         4139.0000:   Total depth
 DATE.        29-JUL-1983:   Date logged
 CLNT.            A2DTECH:   Client Code
 SL  . 900' FNL & 900' FEL:   Surface Location
 PD  .                 GL:   Permanent Datum
 EPD .F              5172:   Elevation Permanent Datum
 LMF .                 KB:   Log Measured From
 DMF .                 KB:   Drilling Measured From
 DAPD.F                10:   Feet Above Permanent Datum
 DD  .F              4139:   Depth driller
 DL  .F              4134:   Depth logger
 BLI .F              4132:   Bottom log interval
 CS1 .IN            9.625:   Casing size
 CBD1.      9.625" @ 476':   Casing driller 1
 BS1 .IN            7.875:   Bit size
 BSD1.F              4139:   Depth drilled with bit1
 DFT .               LSND:   Type fluid in hole
 DFD .                6.6:   Density
 DFV .                 41:   Viscosity
 DFPH.                8.5:   pH
 DFL .                 10:   Fluid loss
 MSS .           FLOWLINE:   Source of sample
 RMS .OHMM            .27:   Rm
 MST .F                91:   Rm Meas. temp.
 RMF .OHMM            .19:   Rmf
 MFST.F                87:   Rmf Meas. temp.
 RMC .OHMM            .34:   Rmc
 MCST.F                87:   Rmc Meas. temp.
 MFSS.               MEAS:   Source Rmf.
 MCSS.               CALC:   Source Rmc.
 RMB .OHMM            .19:   Rm. at BHT
 BHT .F               130:   BHT.
 TCS .HRS               3:   Time Circ. stopped
 MRT .F               130:   Maximum recorded temp.
 LUN .               6274:   Logging unit number
 LUL .               GLTF:   Logging unit location
 ENGI.             RAUTIC:   Recorded By
 WITN.             STRONG:   Witnessed by
 ORIG.           5" PRINT:   Origin of data
 UWI .     49025109390000:   Unique Well ID
 DICO. A2D TECHNOLOGIES, INC.:   Digitizing Company
~OTHER INFORMATION
~A    DEPT    CALD        DEN       CORR       TEND       NPHI        GRD        SPR       RILD       RILM       RFOC       TENR         AC       TENS         GRR  
# ...
 3871.0000     8.7670     2.4730     0.0220   -32.2180     0.2890   127.4710   -25.7810     2.9400     3.1590     3.4960   -42.9140    91.3790   -38.4510    98.4290
 3871.5000     8.7660     2.4840     0.0120   -28.0140     0.2800   128.7440   -26.6370     2.9810     3.2380     3.6350   -42.9140    91.2100   -37.7120    99.1540
 3872.0000     8.7650     2.4940     0.0380   -23.8100     0.2690   130.2510   -27.4940     3.0810     3.3170     3.7710   -42.9140    91.0420   -32.7170    99.6810
 3872.5000     8.7640     2.5050     0.0630   -22.7270     0.2620   135.0180   -28.2820     3.1960     3.3960     3.7260   -42.9140    90.8740   -34.1630   103.8700
 3873.0000     8.7630     2.5150     0.0620   -23.1880     0.2570   139.6450   -28.9350     3.3410     3.5990     3.7140   -42.9140    90.6990   -36.8180   109.1700
 3873.5000     8.7610     2.5260     0.0530   -23.6730     0.2520   142.5660   -29.3340     3.5620     3.8240     3.7020   -43.7860    89.5090   -39.4740   111.1980
 3874.0000     8.7600     2.5360     0.0250   -24.1590     0.2460   140.5740   -29.6890     3.7830     4.0500     4.0700   -45.1150    87.3510   -42.1290   109.4690
 3874.5000     8.7590     2.5450    -0.0010   -24.6440     0.2380   136.6950   -29.9230     3.9850     4.2760     4.4160   -46.4440    85.1930   -41.7330   107.8340
 3875.0000     8.7580     2.5500    -0.0130   -25.1290     0.2300   136.9290   -30.1120     4.2500     4.5010     4.7240   -47.9040    83.0350   -39.2110   110.1930
 3875.5000     8.7560     2.5530    -0.0080   -25.6140     0.2260   146.8910   -30.4090     4.4690     4.7060     4.9690   -41.9160    82.3380   -36.6880   115.9710
 3876.0000     8.7550     2.5570     0.0030   -26.0990     0.2280   157.7360   -30.7120     4.6450     4.7460     4.9050   -35.2720    82.0080   -34.1660   124.5120
 3876.5000     8.7540     2.5690     0.0280   -26.5840     0.2310   168.2470   -31.0190     4.8220     4.7850     4.8350   -28.6270    82.0080   -37.7120   130.3600
 3877.0000     8.7530     2.5790     0.0530   -27.0690     0.2320   174.6500   -31.1800     4.9980     4.8240     4.7890   -22.9540    82.0080   -42.7070   129.5990
 3877.5000     8.7520     2.5850     0.0570   -27.5540     0.2270   176.9890   -31.2990     5.1740     5.0050     5.0150   -29.2750    81.4710   -45.5380   127.3170
 3878.0000     8.7500     2.5810     0.0290   -24.0590     0.2220   173.5700   -31.4160     5.2990     5.2330     5.2210   -37.6910    80.2660   -48.9010   124.6340
 3878.5000     8.7490     2.5730     0.0100   -18.4540     0.2190   164.0670   -31.4990     5.3480     5.4610     5.4350   -46.1080    79.0610   -52.2640   119.9300
 3879.0000     8.7480     2.5650     0.0210   -12.8480     0.2170   150.6570   -31.5460     5.4470     5.5990     5.6510   -52.5680    77.8550   -52.6970   112.2520
 3879.5000     8.7400     2.5620     0.0320    -7.2430     0.2190   136.1490   -31.5950     5.4190     5.5680     5.6510   -50.8850    77.7120   -51.0660   104.0450
 3880.0000     8.7320     2.5560     0.0420    -1.6370     0.2260   128.5050   -31.6430     5.3480     5.4910     5.5570   -49.2020    78.1180   -47.7020    98.0590
 3880.5000     8.7240     2.5480     0.0440     3.9680     0.2360   125.7640   -31.6880     4.9670     5.3200     5.4880   -47.5180    78.4910   -44.3390    95.4630
 3881.0000     8.7160     2.5370     0.0300     9.5740     0.2460   125.1990   -31.6870     4.4500     4.7670     5.4190   -45.8350    78.8640   -43.2070    95.7920
 3881.5000     8.7080     2.5180     0.0160    10.5560     0.2550   125.4890   -31.6150     3.9030     4.2130     5.3500   -44.1520    79.2370   -44.1770    98.7740
 3882.0000     8.7000     2.5000     0.0030     5.4080     0.2660   126.5390   -31.5420     3.3070     3.6600     5.2500   -42.4680    79.4780   -45.1470   101.9020
 3882.5000     8.6920     2.4820     0.0450     0.2600     0.2800   136.3990   -31.4700     2.7590     3.1060     4.7020   -40.7850    81.6830   -46.1170   107.7860
 3883.0000     8.6680     2.4560     0.0920    -4.8880     0.2950   148.1720   -31.3990     2.4680     2.5530     3.6850   -39.1020    84.6090   -47.0880   111.5510
 3883.5000     8.6350     2.4150     0.1390   -10.0360     0.3100   146.1460   -31.3270     2.2240     2.2910     2.7420   -37.4180    91.4590   -47.7020   110.6220
 3884.0000     8.6070     2.3740     0.1570   -15.1840     0.3270   140.4660   -31.3730     2.0370     2.0640     2.0940   -35.7350    99.5300   -47.7020   106.0110
 3884.5000     8.6030     2.3800     0.0100   -20.3320     0.3190   131.6910   -31.5310     1.8890     1.9810     2.1410   -34.0520   104.9060   -47.7020   100.2940
 3885.0000     8.5970     2.3900     0.0070   -25.4800     0.3110   123.9790   -31.6890     1.7340     1.9540     2.2060   -32.3690   106.7830   -47.7020    97.4190
 3885.5000     8.5920     2.3920     0.0010   -30.6280     0.3090   120.0530   -31.8450     1.6490     1.9270     2.2710   -30.6850   106.1920   -42.7070    95.9700
 3886.0000     8.5910     2.3910    -0.0020   -35.7750     0.3150   119.7190   -32.1000     1.6340     1.9100     2.3380   -29.0020   105.4550   -42.7070    95.0420
 3886.5000     8.5960     2.3950     0.0020   -42.7070     0.3160   122.1010   -32.3810     1.6530     1.9160     2.3530   -27.3190   104.7750   -40.6340    94.1320
 3887.0000     8.6000     2.4020     0.0070   -42.1360     0.3100   124.4400   -32.6640     1.6690     1.9230     2.3680   -25.6350   104.2910   -38.1120    94.1000
 3887.5000     8.6050     2.4060     0.0120   -41.2360     0.3000   126.7690   -32.9460     1.6850     1.9290     2.3840   -23.9520   103.8060   -32.7170    94.7170
 3888.0000     8.6090     2.4040     0.0160   -40.3350     0.2990   129.1150   -33.2210     1.7010     1.9360     2.3990   -22.9540   103.3220   -32.7170    96.6610
 3888.5000     8.6130     2.4010    -0.0090   -39.4340     0.3040   131.8970   -33.1290     1.7170     1.9420     2.4140   -24.5110   102.8380   -31.3230    99.0790
 3889.0000     8.6180     2.3990    -0.0160   -38.5330     0.3170   136.5980   -32.7210     1.7260     1.9480     2.4260   -27.0360   102.5410   -29.2210   101.4730
 3889.5000     8.6220     2.3990    -0.0050   -37.6320     0.3330   141.4940   -32.3010     1.7260     1.9550     2.3810   -29.5610   102.7350   -27.7220   102.8420
 3890.0000     8.6270     2.3990     0.0080   -36.7310     0.3260   139.2050   -31.8750     1.7260     1.9610     2.3440   -32.0860   102.9290   -27.7220   103.2900
 3890.5000     8.6310     2.3970     0.0220   -35.8300     0.3200   136.1950   -31.4470     1.7260     1.9680     2.3080   -30.2870   103.2660   -27.7220   105.3430
 3891.0000     8.6350     2.3920     0.0350   -34.9290     0.3190   137.9380   -31.0200     1.7260     1.9740     2.2750   -26.3000   103.6620   -22.2280   108.8530
 3891.5000     8.6400     2.3870     0.0360   -34.0280     0.3190   141.1370   -30.5950     1.7100     1.9800     2.2750   -22.3130   104.0860   -18.0240   112.2720
 3892.0000     8.6440     2.3810     0.0350   -33.1280     0.3360   142.6110   -30.2900     1.7120     1.9870     2.3070   -18.3270   104.5950   -13.8200   114.6240
 3892.5000     8.6490     2.3830     0.0360   -32.2270     0.3560   143.5650   -30.3070     1.7140     1.9930     2.3380   -14.3400   105.1410    -9.6150   115.5430
 3893.0000     8.6530     2.3860     0.0270   -31.3260     0.3480   146.9720   -30.4600     1.7190     2.0000     2.3140   -10.3530   105.4410    -7.7420   115.5950
 3893.5000     8.6570     2.3890     0.0160   -30.4250     0.3300   150.4870   -30.4690     1.7250     2.0180     2.2870    -6.3660   105.5410    -2.7470   118.7610
 3894.0000     8.6620     2.3990     0.0060   -29.5240     0.3090   168.4410   -30.2340     1.7420     2.0360     2.2610    -4.9400   105.4760    -5.6440   127.9910
 3894.5000     8.6660     2.4100    -0.0050   -28.6230     0.2970   188.3910   -29.9980     1.7910     2.0560     2.2330   -17.5650   105.2850   -10.6890   152.5780
 3895.0000     8.6670     2.4270    -0.0170   -27.7220     0.3000   208.6870   -29.8990     1.8530     2.2370     2.3380   -30.1900   104.7850   -15.7340   176.9300
