~VERSION INFORMATION
 VERS.                2.0:   CWLS LOG ASCII STANDARD - VERSION 2.0
 WRAP.                 NO:   ONE LINE PER DEPTH STEP
~WELL INFORMATION
#MNEM.UNIT      DATA TYPE    INFORMATION
#----------   ------------   ------------------------------
 STRT.F          906.0000:   START DEPTH
 STOP.F         3426.0000:   STOP DEPTH
 STEP.F            0.5000:   STEP LENGTH
 NULL.          -999.2500:   NO VALUE
 COMP.    FENIX & SCISSON:   COMPANY
 WELL. FENIX NPR 3 "AX" #46-11:   WELL
 FLD .                NPR:   FIELD
 LOC .      S11 T38N R78W:   LOCATION
 CNTY.            NATRONA:   COUNTY
 STAT.            WYOMING:   STATE
 CTRY. UNITED STATES OF AMERICA:   COUNTRY
 SRVC.       SCHLUMBERGER:   SERVICE COMPANY
 DATE.        16-MAY-1981:   LOGDATE
 API .     49025108720000:   API NUMBER
~CURVE INFORMATION
#MNEM.UNIT       API CODE    CURVE DESCRIPTION
#----------   ------------   ------------------------------
 DEPT.F                  :   
 SPR .MV     07 010 01 00:   SPONTANEOUS POTENTIAL
 ILD .OHMM   07 120 46 00:   INDUCTION LOG DEEP RESISTIVITY
 SFL .OHMM   07 220 01 00:   SHALLOW FOCUSED LOG RESISTIVITY
 TENR.LBS    07 635 01 00:   TENSION
 ILM .OHMM   07 120 44 00:   INDUCTION LOG MEDIUM RESISTIVITY
 CALD.IN     45 280 60 00:   CALIPER FROM DENSITY LOG
 GRD .GAPI   45 310 01 00:   GAMMA RAY FROM DENSITY LOG
 RHOB.G/C3   45 350 01 00:   BULK DENSITY
 TEND.LBS    45 635 01 00:   TENSION FROM DENSITY LOG
 CORR.G/C3   45 356 01 00:   DENSITY CORRECTION
~PARAMETER INFORMATION
#MNEM.UNIT          VALUE    DESCRIPTION
#----------   ------------   ------------------------------
 EKB .F         5199.0000:   Kelly bushing
 EGL .F         5189.0000:   Ground level
 EDF .F            0.0000:   Drilling floor
 TD  .F         3422.0000:   Total depth
 DATE.        16-MAY-1981:   Date logged
 CLNT.            A2DTECH:   Client Code
 SL  . 1867' FSL & 2100' FWL:   Surface Location
 PD  .                 GL:   Permanent Datum
 EPD .F              5189:   Elevation Permanent Datum
 LMF .                 KB:   Log Measured From
 DMF .                 KB:   Drilling Measured From
 DAPD.F                10:   Feet Above Permanent Datum
 DD  .F              3421:   Depth driller
 DL  .F              3422:   Depth logger
 BLI .F              3416:   Bottom log interval
 TLI .F               926:   Top log interval
 CS1 .IN            8.625:   Casing size
 CBD1.      8.625" @ 925':   Casing driller 1
 CBL1.F               926:   Casing logger 1
 BS1 .IN            7.875:   Bit size
 BSD1.F              3421:   Depth drilled with bit1
 DFT .                FGM:   Type fluid in hole
 DFD .                8.5:   Density
 DFV .                 60:   Viscosity
 DFPH.                  9:   pH
 DFL .                 12:   Fluid loss
 MSS .               PITS:   Source of sample
 RMS .OHMM           1.17:   Rm
 MST .F                73:   Rm Meas. temp.
 RMF .OHMM           1.03:   Rmf
 MFST.F                73:   Rmf Meas. temp.
 MFSS.               MEAS:   Source Rmf.
 RMB .OHMM            .71:   Rm. at BHT
 BHT .F               120:   BHT.
 TCS .HRS            1200:   Time Circ. stopped
 TLAB.HRS            1745:   Time logger at bottom
 MRT .F               120:   Maximum recorded temp.
 LUN .               8133:   Logging unit number
 LUL .               CSPR:   Logging unit location
 ENGI.             TAYLOR:   Recorded By
 WITN.              RIVAS:   Witnessed by
 ORIG.           5" PRINT:   Origin of data
 UWI .     49025108720000:   Unique Well ID
 DICO. A2D TECHNOLOGIES, INC.:   Digitizing Company
~OTHER INFORMATION
~A   DEPT      SPR        ILD        SFL       TENR        ILM       CALD         GRD        RHOB     TEND        CORR  
# ...
 1911.0000   -31.7550     6.9200     8.3250   808.9080     6.6660     8.2040   123.0770     2.5450   848.3940     0.0030
 1911.5000   -31.7040     6.9310     8.3730   809.0250     6.6770     8.2040   126.8020     2.5460   848.3940     0.0090
 1912.0000   -31.6790     6.9420     8.4210   809.1410     6.6930     8.2050   126.9240     2.5410   848.3940     0.0150
 1912.5000   -31.6370     6.9530     8.4690   809.2570     6.7090     8.2060   124.8450     2.5370   848.3940     0.0110
 1913.0000   -31.6030     6.9630     8.5170   809.3730     6.7260     8.2060   122.5560     2.5380   848.3940     0.0050
 1913.5000   -31.5670     6.9740     8.5650   809.4890     6.7420     8.2070   120.2330     2.5410   848.3940     0.0000
 1914.0000   -31.5300     6.9850     8.6140   809.6050     6.7580     8.2080   120.0880     2.5440   848.3940     0.0040
 1914.5000   -31.4940     6.9960     8.3540   809.7220     6.7750     8.2080   121.3970     2.5430   848.3940     0.0060
 1915.0000   -31.4580     7.0070     8.0870   809.8380     6.7910     8.2090   122.7160     2.5380   848.3940     0.0030
 1915.5000   -31.4220     7.0180     7.8610   809.9540     6.8080     8.2090   122.6870     2.5330   848.3940    -0.0010
 1916.0000   -31.3860     7.0290     7.9750   810.0700     6.8240     8.2100   120.7240     2.5280   848.3940    -0.0040
 1916.5000   -31.3500     7.0380     8.0730   810.1860     6.8400     8.2110   118.7600     2.5220   848.3940    -0.0010
 1917.0000   -31.3130     7.0300     8.1720   810.3030     6.8570     8.2110   117.1080     2.5200   848.3940     0.0010
 1917.5000   -31.2770     7.0120     8.2710   810.4190     6.8730     8.2120   116.0250     2.5270   848.3940    -0.0010
 1918.0000   -31.2410     6.9950     8.3700   810.5350     6.8900     8.2130   114.8500     2.5350   848.3940    -0.0040
 1918.5000   -31.2050     6.9780     8.4580   810.6510     6.9060     8.2130   111.2060     2.5350   848.3940    -0.0060
 1919.0000   -31.1690     6.9600     8.3540   810.7670     6.9220     8.2140   108.7960     2.5340   848.3940    -0.0070
 1919.5000   -31.1330     6.9430     8.2600   810.8830     6.9390     8.2140   108.9100     2.5350   848.3940    -0.0070
 1920.0000   -31.0960     6.9250     8.1540   811.0000     6.9550     8.2150   114.0330     2.5390   848.3940    -0.0050
 1920.5000   -31.0600     6.9080     8.1540   811.1160     6.9710     8.2160   120.3770     2.5460   848.1840    -0.0020
 1921.0000   -31.0290     6.8910     8.3160   811.2320     6.9880     8.2160   118.4980     2.5530   847.9930     0.0000
 1921.5000   -31.0280     6.8730     8.4580   811.3480     7.0040     8.2170   114.8410     2.5600   847.8030     0.0020
 1922.0000   -31.0270     6.8560     8.3880   811.4640     7.0210     8.2180   116.2340     2.5610   847.6120     0.0050
 1922.5000   -31.0280     6.8380     8.2800   811.5800     7.0370     8.2180   119.6300     2.5560   847.4220     0.0070
 1923.0000   -31.0280     6.8210     8.1540   811.6970     7.0430     8.2190   122.7740     2.5500   847.2310     0.0090
 1923.5000   -31.0280     6.7950     8.1540   811.8130     7.0430     8.2190   120.4710     2.5510   847.0400     0.0160
 1924.0000   -31.0280     6.8040     8.4580   811.9290     7.0430     8.2200   117.4260     2.5570   846.8500     0.0220
 1924.5000   -31.0280     6.8670     8.3280   812.0450     7.0430     8.2210   114.6140     2.5620   846.6590     0.0270
 1925.0000   -31.0280     6.9310     8.1670   812.1610     7.0430     8.2210   114.3090     2.5630   846.4690     0.0220
 1925.5000   -31.0280     6.9940     8.0060   812.2780     7.0430     8.2220   115.1950     2.5570   846.2780     0.0160
 1926.0000   -31.0280     7.0570     8.3980   812.3940     7.0430     8.2230   116.0770     2.5500   846.0870     0.0100
 1926.5000   -31.0280     7.1200     8.7930   812.5100     7.0430     8.2230   116.4390     2.5440   845.8970     0.0040
 1927.0000   -31.0280     7.1720     9.4400   812.6260     7.0430     8.2240   116.2980     2.5410   845.7060    -0.0010
 1927.5000   -31.0280     7.1730     9.2690   812.7420     7.0430     8.2250   116.0040     2.5480   845.5160    -0.0040
 1928.0000   -31.0280     7.1730     9.2690   812.8580     7.0430     8.2250   115.7390     2.5530   845.3250    -0.0050
 1928.5000   -31.0280     7.1730     9.0240   812.9750     7.0430     8.2260   116.5430     2.5500   845.1340    -0.0020
 1929.0000   -31.0280     7.1730     8.8110   813.0910     7.0430     8.2260   118.0600     2.5480   844.9440     0.0010
 1929.5000   -31.0280     7.1730     8.5980   813.2070     7.0430     8.2270   119.9300     2.5520   844.7530     0.0050
 1930.0000   -31.0280     7.1730     8.3860   813.3230     7.0430     8.2280   120.6290     2.5570   844.5620     0.0080
 1930.5000   -31.0280     7.1730     8.1540   813.4390     7.0430     8.2280   121.3440     2.5620   844.3720     0.0120
 1931.0000   -31.0280     7.1730     8.1540   813.5560     7.0430     8.2290   123.3040     2.5660   844.1810     0.0120
 1931.5000   -31.0280     7.1730     8.1540   813.6720     7.0430     8.2300   125.5330     2.5650   843.9910     0.0080
 1932.0000   -31.0280     7.1730     8.2660   813.7880     7.0440     8.2300   126.4870     2.5600   843.8000     0.0090
 1932.5000   -31.0280     7.1720     8.4580   813.9040     7.0410     8.2310   123.4430     2.5550   843.6090     0.0120
 1933.0000   -31.0280     7.1750     8.3860   814.0200     6.9950     8.2310   119.3720     2.5610   843.4190     0.0150
 1933.5000   -31.0280     7.1550     8.2350   814.1360     6.9400     8.2320   114.5480     2.5720   843.2280     0.0180
 1934.0000   -31.0280     7.1240     8.0060   814.2530     6.8860     8.2330   109.7360     2.5840   843.0380     0.0200
 1934.5000   -31.0280     7.0950     8.3830   814.3690     6.8310     8.2330   109.1050     2.5960   842.8470     0.0230
 1935.0000   -31.0280     7.0650     8.9360   814.4850     6.7770     8.2340   116.2140     2.5940   842.6560     0.0250
 1935.5000   -31.0280     7.0360     8.4980   814.6010     6.7220     8.2350   122.7090     2.5760   842.4660     0.0230
 1936.0000   -31.0280     7.0070     8.0770   814.7170     6.6670     8.2350   125.5880     2.5570   842.2750     0.0220
 1936.5000   -31.0280     6.9770     7.5780   814.8330     6.6130     8.2360   126.5420     2.5540   842.0850     0.0220
 1937.0000   -31.0280     6.9480     7.7400   814.9500     6.5580     8.2360   126.7830     2.5630   841.8940     0.0290
 1937.5000   -31.0280     6.9180     7.9380   815.0660     6.5040     8.2370   124.1550     2.5820   841.7030     0.0300
 1938.0000   -31.0280     6.8890     8.1360   815.1820     6.4270     8.2380   120.6640     2.5760   841.5130     0.0230
 1938.5000   -31.0280     6.8600     8.4580   815.2980     6.4320     8.2380   117.0540     2.5630   841.3220     0.0160
 1939.0000   -31.0280     6.8300     8.4150   815.4140     6.4430     8.2390   115.7990     2.5510   841.1310     0.0150
 1939.5000   -31.0280     6.8010     8.3010   815.5310     6.4530     8.2400   114.6280     2.5400   840.9410     0.0190
 1940.0000   -31.0280     6.7720     8.1870   815.6470     6.4640     8.2400   113.5000     2.5400   840.7500     0.0270
 1940.5000   -31.0280     6.7420     8.0730   815.7630     6.4750     8.2410   112.8600     2.5500   840.5600     0.0350
 1941.0000   -31.0280     6.7130     7.9590   815.8790     6.4850     8.2410   117.8320     2.5590   840.3690     0.0400
 1941.5000   -31.0280     6.6840     7.8610   815.9950     6.4960     8.2420   119.6480     2.5690   840.1780     0.0360
 1942.0000   -31.0280     6.6540     7.9860   816.1110     6.5070     8.2430   121.4070     2.5770   839.9880     0.0310
 1942.5000   -31.0280     6.6250     8.0960   816.2280     6.5170     8.2430   123.2320     2.5820   839.7970     0.0280
 1943.0000   -31.0280     6.5950     8.2060   816.3440     6.5280     8.2440   122.6870     2.5820   839.6070     0.0270
 1943.5000   -31.0280     6.5660     8.3050   816.4600     6.5390     8.2450   121.6120     2.5660   839.4160     0.0260
 1944.0000   -31.0280     6.5450     8.0090   816.5760     6.5470     8.2450   120.5240     2.5510   839.2250     0.0140
