~VERSION INFORMATION
 VERS.                2.0:   CWLS LOG ASCII STANDARD - VERSION 2.0
 WRAP.                 NO:   ONE LINE PER DEPTH STEP
~WELL INFORMATION
#MNEM.UNIT      DATA TYPE    INFORMATION
#----------   ------------   ------------------------------
 STRT.F          517.0000:   START DEPTH
 STOP.F         3222.0000:   STOP DEPTH
 STEP.F            0.5000:   STEP LENGTH
 NULL.          -999.2500:   NO VALUE
 COMP.    FENIX & SCISSON:   COMPANY
 WELL.  FENIX "TX" #53-33:   WELL
 FLD .             NPR #3:   FIELD
 LOC .      S33 T39N R78W:   LOCATION
 CNTY.            NATRONA:   COUNTY
 STAT.            WYOMING:   STATE
 CTRY. UNITED STATES OF AMERICA:   COUNTRY
 SRVC.              WELEX:   SERVICE COMPANY
 DATE.        24-AUG-1980:   LOGDATE
 API .     49025108460000:   API NUMBER
~CURVE INFORMATION
#MNEM.UNIT       API CODE    CURVE DESCRIPTION
#----------   ------------   ------------------------------
 DEPT.F                  :   
 CALD.IN     45 280 60 00:   CALIPER FROM DENSITY LOG
 GRD .GAPI   45 310 01 00:   GAMMA RAY FROM DENSITY LOG
 CORR.G/C3   45 356 01 00:   DENSITY CORRECTION
 RHOB.G/C3   45 350 01 00:   BULK DENSITY
 SPR .MV     07 010 01 00:   SPONTANEOUS POTENTIAL
 ILD .OHMM   07 120 46 00:   DEEP INDUCTION RESISTIVITY
 ILM .OHMM   07 120 44 00:   INDUCTION LOG MEDIUM RESISTIVITY
 SGRD.OHMM   07 220 05 00:   SHALLOW SHORT GUARD RESISTIVITY
~PARAMETER INFORMATION
#MNEM.UNIT          VALUE    DESCRIPTION
#----------   ------------   ------------------------------
 EKB .F         5173.0000:   Kelly bushing
 EGL .F         5163.0000:   Ground level
 EDF .F            0.0000:   Drilling floor
 EPD .F            0.0000:   Permanent datum
 TD  .F         3224.0000:   Total depth
 CLNT.            A2DTECH:   Client Code
 SL  . 1650' FNL & 2500' FEL:   Surface Location
 PD  .                 GL:   Permanent Datum
 DAPD.F                10:   Feet Above Permanent Datum
 DATE.        24-AUG-1980:   Date Logged [DD-MMM-YYYY]
 DD  .F              3190:   Depth driller
 DL  .F              3224:   Depth logger
 BLI .F              3222:   Bottom log interval
 TLI .F               528:   Top log interval
 CS1 .IN            8.625:   Casing size
 CBD1.      8.625" @ 532':   Casing driller 1
 CBL1.F               528:   Casing logger 1
 BS1 .IN            7.875:   Bit size
 BSD1.F              3190:   Depth drilled with bit1
 DFT .     WATER BASE MUD:   Type fluid in hole
 DFD .                8.8:   Density
 DFV .                 45:   Viscosity
 DFL .                9.4:   Fluid loss
 MSS .            MUD PIT:   Source of sample
 RMS .OHMM           2.10:   Rm
 MST .F                65:   Rm Meas. temp.
 RMF .OHMM           1.68:   Rmf
 MFST.F                65:   Rmf Meas. temp.
 MFSS.               CALC:   Source Rmf.
 RMC .OHMM           2.52:   Rmc
 MCST.F                65:   Rmc Meas. temp.
 MCSS.               CALC:   Source Rmc.
 RMB .OHMM           1.14:   Rm. at BHT
 BHT .F               120:   BHT.
 TCS .HRS               3:   Time Circ. stopped
 MRT .F               120:   Maximum recorded temp.
 LUN .               1892:   Logging unit number
 LUL .             CASPER:   Logging unit location
 ENGI.           WACHTEIL:   Recorded By
 ORIG.         2.5" PRINT:   Origin of data
 UWI .     49025108460000:   Unique Well ID
 DICO. A2D TECHNOLOGIES, INC.:   Digitizing Company
~OTHER INFORMATION
~A   DEPT     CALD         GRD      CORR       RHOB        SPR        ILD        ILM       SGRD   
# ...
 2137.0000     9.0958   120.8669     0.1478     2.3800   -22.6978     6.8200     8.3956    10.4012
 2137.5000     9.0949   124.0209     0.1023     2.4583   -22.2723     6.7100     7.9807    10.2513
 2138.0000     9.0938   122.2048     0.0841     2.4960   -22.1201     6.5120     7.8906     9.9647
 2138.5000     9.0930   122.1958     0.1021     2.5187   -21.8303     6.2951     7.9193     9.4204
 2139.0000     9.0921   123.3285     0.1232     2.5345   -22.1426     6.0491     7.8022     9.0200
 2139.5000     9.0912   124.7667     0.1427     2.5496   -22.4530     5.8279     7.5819     8.9013
 2140.0000     9.0924   126.6255     0.1737     2.5585   -22.7634     5.6190     7.1666     8.5277
 2140.5000     9.1247   128.4850     0.1929     2.5656   -22.7735     5.5023     6.5592     7.7344
 2141.0000     9.1571   127.5709     0.2097     2.5687   -22.8611     5.2734     6.0580     7.2728
 2141.5000     9.2498   126.2069     0.2148     2.5557   -23.0279     5.1961     6.2223     7.3181
 2142.0000     9.3269   125.2946     0.2283     2.5209   -23.2842     4.9800     6.2156     7.8299
 2142.5000     9.3870   123.9306     0.2251     2.4756   -23.4159     4.9030     6.2095     8.0445
 2143.0000     9.4764   123.4003     0.1525     2.4720   -23.4264     4.6947     6.2035     7.9286
 2143.5000     9.4755   122.0252     0.1434     2.5362   -23.5686     4.6334     6.1123     7.9233
 2144.0000     9.4144   120.4877     0.1644     2.5538   -23.7477     4.6289     6.0214     7.9180
 2144.5000     9.3831   121.4215     0.1832     2.5512   -23.4580     4.5608     6.0158     7.7988
 2145.0000     9.2886   124.1040     0.2005     2.5265   -23.1698     4.6200     6.0102     7.6912
 2145.5000     9.2310   123.8747     0.1753     2.5070   -22.8784     4.6146     6.0046     7.5801
 2146.0000     9.2000   123.7260     0.1784     2.5022   -22.8897     4.6103     5.9991     7.5749
 2146.5000     9.2292   124.7611     0.1938     2.4991   -22.2992     4.6703     6.0771     7.6112
 2147.0000     9.2584   126.1080     0.2035     2.4929   -22.3093     4.7310     6.1561     7.9381
 2147.5000     9.3477   127.0030     0.2180     2.4808   -22.0191     4.8594     6.1496     8.2791
 2148.0000     9.3469   125.5542     0.2240     2.4626   -22.0300     4.8549     6.1723     8.4390
 2148.5000     9.2557   123.0179     0.2178     2.4426   -22.3408     4.9273     6.2245     8.0893
 2149.0000     9.1946   119.3448     0.1875     2.4263   -22.4525     5.0515     6.3040     7.4393
 2149.5000     9.1636   117.7507     0.1753     2.4352   -22.7879     5.1172     6.6554     7.6432
 2150.0000     9.1677   118.3735     0.2115     2.4165   -22.9730     5.1115     7.2253     8.2999
 2150.5000     9.2302   120.6218     0.2114     2.4157   -22.9835     5.1066     7.5249     8.7882
 2151.0000     9.2815   120.1614     0.1986     2.4034   -22.9957     5.1718     7.5359     9.3280
 2151.5000     9.2659   117.4419     0.1373     2.4439   -23.3061     5.1670     7.2052     9.5139
 2152.0000     9.2191   116.5297     0.0619     2.4710   -23.3162     5.2342     7.0018     9.1164
 2152.5000     9.1580   118.3283     0.0659     2.4860   -23.3536     5.1574     6.5956     8.4702
 2153.0000     9.1270   116.9142     0.0900     2.4874   -23.3363     5.1527     6.1274     7.7090
 2153.5000     9.0659   116.5039     0.1020     2.4811   -23.0462     5.1433     5.7717     7.1906
 2154.0000     9.0347   118.4430     0.1170     2.4767   -23.0571     5.0503     5.5376     6.7985
 2154.5000     9.0039   119.1976     0.1294     2.4797   -22.7661     4.7456     5.2821     6.4279
 2155.0000     9.0095   117.1307     0.1479     2.4740   -22.3826     4.4889     5.0627     6.0774
 2155.5000     9.0720   114.2062     0.1650     2.4711   -21.8854     4.3167     4.9182     5.8262
 2156.0000     9.1217   111.4867     0.1831     2.4719   -21.8979     4.2787     4.9821     5.6633
 2156.5000     9.1970   112.8336     0.1994     2.4672   -21.7398     4.2151     5.0469     6.6627
 2157.0000     9.2402   113.2768     0.2116     2.4566   -21.3201     4.2111     5.2561     7.8711
 2157.5000     9.3297   113.2565     0.1706     2.3859   -21.3302     4.1494     5.2512     8.6829
 2158.0000     9.3590   111.3377     0.0648     2.3459   -21.3403     4.1455     5.3937     8.5844
 2158.5000     9.2678   109.5322     0.0888     2.4263   -21.0495     4.0847     5.3645     7.7260
 2159.0000     9.1112   108.7243     0.1340     2.5067   -20.7599     3.9561     4.7967     6.7324
 2159.5000     8.9949   110.9729     0.1430     2.5088   -20.7703     3.7339     4.6505     5.8742
 2160.0000     8.9639   109.7892     0.1218     2.4787   -20.7808     3.5824     4.4258     4.9714
 2160.5000     8.9328   108.0790     0.1261     2.4605   -20.7913     3.4767     4.4215     4.5091
 2161.0000     8.9620   109.1374     0.1447     2.4601   -20.8909     3.3741     4.4481     4.3227
 2161.5000     8.9911   110.9361     0.1719     2.4591   -21.3397     3.2745     4.3514     4.6941
 2162.0000     8.9902   113.1865     0.1926     2.4356   -22.0240     3.2055     3.8914     5.5641
 2162.5000     9.0797   112.1442     0.1756     2.4331   -22.0345     3.1150     3.5778     5.8509
 2163.0000     9.0820   107.1654     0.1755     2.4451   -22.6476     3.0271     3.3818     5.3631
 2163.5000     8.9875   105.4789     0.1361     2.4329   -22.6576     2.9827     3.3322     4.8124
 2164.0000     8.8932   105.4699     0.1313     2.4634   -22.6677     2.8983     3.2381     4.8289
 2164.5000     8.8654   107.0190     0.1662     2.4859   -22.6778     2.8559     3.1905     4.9410
 2165.0000     8.8740   110.0598     0.1781     2.4522   -22.6879     2.8531     3.2321     4.6066
 2165.5000     8.9365   112.6702     0.1478     2.4778   -22.6982     2.8616     3.2852     4.2364
 2166.0000     8.9990   114.0170     0.1836     2.5004   -22.7087     2.9839     3.3316     4.7956
 2166.5000     9.0724   114.9120     0.2444     2.5169   -22.6609     3.0687     3.5220     5.8179
 2167.0000     9.1018   115.8267     0.2439     2.4902   -22.4280     3.1559     3.7495     5.8952
 2167.5000     9.1008   114.3899     0.1715     2.4775   -22.3324     3.2606     4.0568     5.8048
 2168.0000     9.1602   112.6272     0.1441     2.5040   -22.1502     3.3957     4.6052     5.7265
 2168.5000     9.1593   114.4456     0.1955     2.5135   -22.1607     3.5368     4.9308     6.2048
 2169.0000     9.1236   117.1673     0.1772     2.4604   -21.8729     3.7345     5.1352     6.9028
 2169.5000     9.0973   119.3450     0.1348     2.4555   -21.8300     4.0570     5.2746     7.4694
 2170.0000     9.0853   122.8465     0.0925     2.5178   -21.6842     4.2951     5.4177     7.7526
 2170.5000     9.0512   123.4247     0.1147     2.5614   -21.3026     4.5471     5.4943     7.5748
 2171.0000     9.0042   122.9629     0.1623     2.5734   -21.3127     4.7477     5.6497     7.6275
 2171.5000     8.9731   121.5988     0.1779     2.5764   -21.1710     4.9297     5.8094     8.0557
 2172.0000     8.9722   120.2348     0.1721     2.5726   -21.0326     5.1405     5.9737     8.9936
 2172.5000     9.0015   119.2884     0.1463     2.5506   -21.0435     5.1720     6.1427     9.4996
 2173.0000     9.0307   118.3296     0.1069     2.5293   -21.4315     5.1662     6.4045     9.8961
 2173.5000     8.9696   117.6974     0.0857     2.5202   -21.7668     5.1615     6.6394     9.6094
 2174.0000     8.9261   116.4127     0.0704     2.5320   -22.2763     5.2289     6.8019     9.0744
 2174.5000     8.8473   115.0190     0.0915     2.5407   -22.4374     5.2966     6.8912     8.5691
 2175.0000     8.8037   116.1127     0.1040     2.5456   -22.8979     5.3685     6.9805     8.4742
 2175.5000     8.7394   117.9113     0.1207     2.5486   -23.2104     5.4353     6.8776     8.5682
 2176.0000     8.7239   119.2581     0.1412     2.5485   -23.5208     5.5228     6.6834     9.0718
 2176.5000     8.7231   118.7977     0.1455     2.5484   -23.5309     5.6797     6.6693     9.7115
 2177.0000     8.6921   117.4337     0.1138     2.5419   -23.5410     5.7607     6.5787    10.2579
