~VERSION INFORMATION
 VERS.                2.0:   CWLS LOG ASCII STANDARD - VERSION 2.0
 WRAP.                 NO:   ONE LINE PER DEPTH STEP
~WELL INFORMATION
#MNEM.UNIT      DATA TYPE    INFORMATION
#----------   ------------   ------------------------------
 STRT.F           31.5000:   START DEPTH
 STOP.F         4204.0000:   STOP DEPTH
 STEP.F            0.5000:   STEP LENGTH
 NULL.          -999.2500:   NO VALUE
 COMP.   LAWRENCE ALLISON:   COMPANY
 WELL. LAWRENCE 3 "X" #32-10:   WELL
 FLD .                NPR:   FIELD
 LOC .      S10 T38N R78W:   LOCATION
 CNTY.            NATRONA:   COUNTY
 STAT.            WYOMING:   STATE
 CTRY. UNITED STATES OF AMERICA:   COUNTRY
 SRVC.      DRESSER ATLAS:   SERVICE COMPANY
 DATE.        05-NOV-1983:   LOGDATE
 API .     49025109460000:   API NUMBER
~CURVE INFORMATION
#MNEM.UNIT       API CODE    CURVE DESCRIPTION
#----------   ------------   ------------------------------
 DEPT.F                  :   
 CALD.IN     45 280 60 00:   CALIPER FROM DENSITY LOG
 CNC .DEC    42 890 01 00:   NEUTRON POROSITY LIMESTONE
 CORR.G/C3   45 356 01 00:   DENSITY CORRECTION
 TEND.LBS    45 635 01 00:   TENSION FORM DENSITY LOG
 RHOB.G/C3   45 350 01 00:   BULK DENSITY
 DT  .US/F   60 520 00 00:   DELTA TIME
 TENS.LBS    60 635 01 00:   TENSION FROM SONIC
 GRR .GAPI   07 310 01 00:   GAMMA RAY FROM RESISTIVITY
 TENR.LBS    06 635 01 00:   TENSION FROM RESISTIVITY
 RFOC.OHMM   07 220 04 00:   RESISTIVITY FOCUSED LOG RES.
 RILM.OHMM   07 120 44 00:   INDUCTION LOG MEDIUM RESISTIVITY
 RILD.OHMM   07 120 46 00:   DEEP INDUCTION RESISTIVITY
 SPR .MV     07 010 01 00:   SPONTANEOUS POTENTIAL
~PARAMETER INFORMATION
#MNEM.UNIT          VALUE    DESCRIPTION
#----------   ------------   ------------------------------
 EKB .F         5237.0000:   Kelly bushing
 EGL .F         5227.0000:   Ground level
 TD  .F         4202.0000:   Total depth
 CLNT.            A2DTECH:   Client Code
 SL  . 1871' FWL & 1152' FNL:   Surface Location
 PD  .                 GL:   Permanent Datum
 EPD .F              5227:   Elevation Permanent Datum
 LMF .                 KB:   Log Measured From
 DMF .                 KB:   Drilling Measured From
 DAPD.F                10:   Feet Above Permanent Datum
 DATE.        05-NOV-1983:   Date Logged [DD-MMM-YYYY]
 DD  .F              4200:   Depth driller
 DL  .F              4202:   Depth logger
 BLI .F              4200:   Bottom log interval
 TLI .F                30:   Top log interval
 CS1 .IN            8.625:   Casing size
 CBD1.      8.625" @ 545':   Casing driller 1
 CBL1.F               545:   Casing logger 1
 BS1 .IN            7.875:   Bit size
 BSD1.F              4200:   Depth drilled with bit1
 DFT .            GEL KCL:   Type fluid in hole
 DFD .                8.9:   Density
 DFV .                 42:   Viscosity
 DFPH.                8.5:   pH
 DFL .               12.4:   Fluid loss
 MSS .           FLOWLINE:   Source of sample
 RMS .OHMM           0.43:   Rm
 MST .F                97:   Rm Meas. temp.
 RMF .OHMM           0.42:   Rmf
 MFST.F                74:   Rmf Meas. temp.
 MFSS.               MEAS:   Source Rmf.
 RMC .OHMM           0.53:   Rmc
 MCST.F                97:   Rmc Meas. temp.
 MCSS.               CALC:   Source Rmc.
 RMB .OHMM           0.32:   Rm. at BHT
 BHT .F               131:   BHT.
 TCS .HRS               3:   Time Circ. stopped
 MRT .F               131:   Maximum recorded temp.
 LUN .               6307:   Logging unit number
 LUL .               GLTE:   Logging unit location
 ENGI.            DEYOUNG:   Recorded By
 WITN.             STRONG:   Witnessed by
 ORIG.        2" 5" PRINT:   Origin of data
 UWI .     49025109460000:   Unique Well ID
 DICO. A2D TECHNOLOGIES, INC.:   Digitizing Company
~OTHER INFORMATION
~A   DEPT     CALD        CNC       CORR       TEND       RHOB         DT       TENS         GRR      TENR       RFOC       RILM       RILD        SPR   
# ...
 1773.5000     9.6538     0.3309    -0.0312   -24.9395     2.5217  -999.2500  -999.2500   122.7269   -24.1803     8.0463     6.7354     6.6941   -34.1583
 1774.0000     9.6538     0.3144    -0.0190   -21.7110     2.5247  -999.2500  -999.2500   123.9257   -24.1803     7.8750     6.6872     6.6932   -34.1691
 1774.5000     9.6538     0.2983    -0.0084   -21.5643     2.5269  -999.2500  -999.2500   122.3587   -24.1803     7.7074     6.7155     6.6455   -34.1777
 1775.0000     9.6538     0.2954    -0.0223   -21.4176     2.5261  -999.2500  -999.2500   121.1881   -24.1803     7.4906     6.7329     6.6914   -34.1885
 1775.5000     9.6538     0.2938    -0.0331   -21.2341     2.5329  -999.2500  -999.2500   121.7804   -24.1803     7.3828     6.7793     6.7148   -34.4984
 1776.0000     9.6538     0.2948     0.0390   -23.2051     2.5474  -999.2500  -999.2500   122.8245   -24.1803     7.4835     6.8264     6.7844   -34.9589
 1776.5000     9.6538     0.2976     0.0527   -24.0468     2.5573  -999.2500  -999.2500   122.8144   -24.1803     7.5857     6.8737     6.8315   -35.4193
 1777.0000     9.6538     0.2904     0.0542   -26.9646     2.5604  -999.2500  -999.2500   118.2302   -24.1803     7.5812     6.9248     6.8789   -35.7292
 1777.5000     9.6538     0.2831     0.0479   -26.7860     2.5541  -999.2500  -999.2500   113.7556   -24.1803     7.5247     7.0680     6.9757   -36.0467
 1778.0000     9.6539     0.2780     0.0401   -26.6564     2.5386  -999.2500  -999.2500   113.8961   -24.1803     7.4686     7.1673     7.0244   -36.5017
 1778.5000     9.6533     0.2736     0.0293   -26.5023     2.5333  -999.2500  -999.2500   115.0908   -24.1803     7.4650     7.3712     7.2242   -36.6609
 1779.0000     9.6524     0.2723     0.0108   -29.4397     2.5332  -999.2500  -999.2500   115.6832   -24.1803     7.5818     7.6345     7.4299   -36.8202
 1779.5000     9.6515     0.2720    -0.0031   -29.2563     2.5354  -999.2500  -999.2500   115.6731   -24.1803     8.0553     7.6877     7.6415   -37.1300
 1780.0000     9.6505     0.2753    -0.0171   -29.1217     2.5369  -999.2500  -999.2500   115.0403   -24.1803     8.3976     7.7408     7.6404   -37.1387
 1780.5000     9.6496     0.2793    -0.0187   -25.8566     2.5414  -999.2500  -999.2500   113.5419   -24.1803     8.6933     7.7397     7.6935   -37.2982
 1781.0000     9.6487     0.2869    -0.0034   -25.7319     2.5453  -999.2500  -999.2500   111.8752   -24.1803     8.8740     7.7387     7.6922   -37.3088
 1781.5000     9.6478     0.2948    -0.0081   -25.5778     2.5505  -999.2500  -999.2500   112.4676   -24.1803     8.9323     7.7376     7.6911   -37.1647
 1782.0000     9.6468     0.2989    -0.0205   -25.4164     2.5535  -999.2500  -999.2500   113.2108   -24.1803     8.9279     7.7363     7.6901   -36.7237
 1782.5000     9.6459     0.2961     0.0070   -25.2697     2.5550  -999.2500  -999.2500   113.0498   -24.1803     8.7984     7.7352     7.6890   -35.9793
 1783.0000     9.6450     0.2945     0.0116   -25.0862     2.5526  -999.2500  -999.2500   114.8444   -24.1803     8.4912     7.7342     7.6880   -34.9338
 1783.5000     9.6441     0.2999     0.0146   -24.9615     2.5449  -999.2500  -999.2500   117.2439   -24.1803     8.1374     7.6249     7.6329   -33.7397
 1784.0000     9.6432     0.3104     0.0145   -24.7927     2.5355  -999.2500  -999.2500   119.0411   -24.1803     7.8532     7.4120     7.4194   -33.1438
 1784.5000     9.6422     0.3148     0.0237   -24.6460     2.5332  -999.2500  -999.2500   118.5792   -24.1803     7.6860     7.2050     7.2118   -32.7007
 1785.0000     9.6413     0.3099     0.0312   -24.4992     2.5393  -999.2500  -999.2500   117.2137   -24.1803     7.6286     7.0524     7.0102   -32.5587
 1785.5000     9.6404     0.2901     0.0234   -27.3974     2.5446  -999.2500  -999.2500   114.7254   -24.1803     7.6779     6.8496     6.8624   -32.5695
 1786.0000     9.6395     0.3004     0.0095   -27.2507     2.5499  -999.2500  -999.2500   112.9741   -24.1803     7.7836     6.4794     6.6237   -32.5783
 1786.5000     9.6385     0.3142     0.0278   -27.1040     2.5560  -999.2500  -999.2500   113.7170   -24.1803     7.9445     6.1233     6.3037   -32.5890
 1787.0000     9.6376     0.3452     0.0525   -26.9572     2.5652  -999.2500  -999.2500   114.7612   -24.1803     8.1667     5.3553     5.7505   -32.5977
 1787.5000     9.6367     0.3766     0.0706   -23.7288     2.5742  -999.2500  -999.2500   114.6005   -24.1803     8.3951     4.6180     4.9231   -32.6063
 1788.0000     9.6358     0.3878     0.0783   -23.5454     2.5711  -999.2500  -999.2500   112.6265   -24.1805     8.8138     3.6852     4.0703   -32.6150
 1788.5000     9.6348     0.3817     0.0213   -20.3170     2.5158  -999.2500  -999.2500   111.2645   -24.1808     6.0311     3.3621     3.3625   -32.3224
 1789.0000     9.6339     0.3766     0.0243   -20.1702     2.4443  -999.2500  -999.2500   112.3087   -24.1854     4.4274     3.2453     3.2685   -32.0299
 1789.5000     9.6336     0.3579     0.0489   -20.0235     2.3744  -999.2500  -999.2500   114.4070   -23.8739     3.1602     3.0622     3.1106   -31.4383
 1790.0000     9.6336     0.3234     0.1132   -22.9584     2.3475  -999.2500  -999.2500   115.9029   -23.1589     3.4082     3.1320     3.0025   -31.5975
 1790.5000     9.6336     0.3230     0.0839   -22.7750     2.4810  -999.2500  -999.2500   115.8929   -22.4440     4.4831     3.4807     3.2672   -32.0580
 1791.0000     9.6336     0.3198     0.0593   -22.6282     2.5341  -999.2500  -999.2500   114.9506   -21.7290     5.7279     4.1215     3.7617   -32.6691
 1791.5000     9.6336     0.3028     0.0576   -25.5998     2.5668  -999.2500  -999.2500   113.1593   -21.0140     6.4053     4.7113     4.4238   -33.2801
 1792.0000     9.6336     0.2965     0.0684   -28.4981     2.5736  -999.2500  -999.2500   112.5493   -20.2990     6.7718     5.3102     4.9644   -34.3452
 1792.5000     9.6336     0.2946     0.0713   -28.3513     2.5789  -999.2500  -999.2500   114.4946   -19.5840     6.9126     5.8600     5.6610   -34.9562
 1793.0000     9.6336     0.2968     0.0666   -28.1679     2.5812  -999.2500  -999.2500   115.2375   -18.8691     6.9092     6.3315     6.2039   -35.2661
 1793.5000     9.6336     0.2914     0.0711   -28.0211     2.5811  -999.2500  -999.2500   115.9804   -18.1541     6.9052     6.4659     6.4260   -35.5759
 1794.0000     9.6336     0.2723     0.0727   -27.8744     2.5795  -999.2500  -999.2500   116.5727   -17.4391     6.9020     6.5565     6.4706   -35.1328
 1794.5000     9.6336     0.2632     0.0474   -27.7276     2.5740  -999.2500  -999.2500   115.6565   -16.7241     6.9962     6.6489     6.5616   -34.6813
 1795.0000     9.6336     0.2619     0.0385   -27.5809     2.5740  -999.2500  -999.2500   114.7428   -16.0091     7.0917     6.7421     6.6072   -34.2465
 1795.5000     9.6336     0.2654     0.0408   -27.3975     2.5739  -999.2500  -999.2500   115.7869   -15.2942     7.1885     6.8371     6.7473   -33.9539
 1796.0000     9.6336     0.2711     0.0460   -27.2507     2.5700  -999.2500  -999.2500   117.4335   -14.5792     7.3392     6.8359     6.7942   -33.9647
 1796.5000     9.6336     0.2737     0.0460   -27.1040     2.5607  -999.2500  -999.2500   118.1764   -13.8642     7.5422     6.9320     6.8413   -33.9734
 1797.0000     9.6336     0.2737     0.0300   -26.9572     2.5376  -999.2500  -999.2500   117.2602   -13.1492     7.6990     6.9801     6.9376   -33.9821
 1797.5000     9.6336     0.2724     0.0043   -29.8921     2.5422  -999.2500  -999.2500   116.1959   -12.4342     7.7505     7.0285     6.9857   -33.8401
 1798.0000     9.6336     0.2718     0.0011   -26.6271     2.5436  -999.2500  -999.2500   116.1858   -14.7930     7.8013     7.0319     6.9846   -33.8509
 1798.5000     9.6336     0.2803     0.0103   -23.3986     2.5449  -999.2500  -999.2500   116.4769   -17.7467     7.7967     7.1263     7.0333   -33.7068
 1799.0000     9.6336     0.2873     0.0225   -26.3335     2.5487  -999.2500  -999.2500   117.3704   -20.1411     7.7931     7.0750     7.0821   -33.2658
