~VERSION INFORMATION
 VERS.                2.0:   CWLS LOG ASCII STANDARD - VERSION 2.0
 WRAP.                 NO:   ONE LINE PER DEPTH STEP
~WELL INFORMATION
#MNEM.UNIT      DATA TYPE    INFORMATION
#----------   ------------   ------------------------------
 STRT.F           96.5000:   START DEPTH
 STOP.F         2720.0000:   STOP DEPTH
 STEP.F            0.5000:   STEP LENGTH
 NULL.          -999.2500:   NO VALUE
 COMP.          INTEX OIL:   COMPANY
 WELL. INTEX NPR 65 "AX" #3-20:   WELL
 FLD .             TEAPOT:   FIELD
 LOC .      S20 T39N R78W:   LOCATION
 CNTY.            NATRONA:   COUNTY
 STAT.            WYOMING:   STATE
 CTRY. UNITED STATES OF AMERICA:   COUNTRY
 SRVC.       SCHLUMBERGER:   SERVICE COMPANY
 DATE.        04-MAY-1966:   LOGDATE
 API .     49025094910000:   API NUMBER
~CURVE INFORMATION
#MNEM.UNIT       API CODE    CURVE DESCRIPTION
#----------   ------------   ------------------------------
 DEPT.F                  :   
 SPR .MV     05 010 01 00:   SPONTANEOUS POTENTIAL FROM RES.
 SN  .OHMM   05 040 16 00:   SHORT NORMAL 16"
 ILD .OHMM   05 120 46 00:   INDUCTION LOG DEEP
 CALD.IN     45 280 60 00:   CALIPER FROM DENSITY LOG
 CORR.G/C3   45 356 01 00:   DENSITY CORRECTION
 GRD .GAPI   45 310 01 00:   GAMMA RAY FROM DENSITY LOG
 RHOB.G/C3   45 350 01 00:   BULK DENSITY
~PARAMETER INFORMATION
#MNEM.UNIT          VALUE    DESCRIPTION
#----------   ------------   ------------------------------
 EKB .F         5053.3000:   Kelly bushing
 EGL .F         5043.0000:   Ground level
 EDF .F            0.0000:   Drilling floor
 TD  .F         2720.0000:   Total depth
 DATE.        04-MAY-1966:   Date logged
 CLNT.            A2DTECH:   Client Code
 PD  .                 GL:   Permanent Datum
 EPD .F              5043:   Elevation Permanent Datum
 LMF .                 KB:   Log Measured From
 DMF .                 KB:   Drilling Measured From
 DAPD.F              10.3:   Feet Above Permanent Datum
 DD  .F              2720:   Depth driller
 DL  .F              2720:   Depth logger
 BLI .F              2719:   Bottom log interval
 TLI .F                97:   Top log interval
 CS1 .IN            10.75:   Casing size
 CBD1.       10.75" @ 30':   Casing driller 1
 BS1 .IN            7.875:   Bit size
 BSD1.F              2720:   Depth drilled with bit1
 DFT . GEL/Q-BROX/OIL/DAKOLITE:   Type fluid in hole
 DFD .               10.3:   Density
 DFV .                 41:   Viscosity
 DFPH.                7.2:   pH
 DFL .                8.8:   Fluid loss
 MSS .           FLOWLINE:   Source of sample
 RMS .OHMM              2:   Rm
 MST .F                61:   Rm Meas. temp.
 RMF .OHMM           1.31:   Rmf
 MFST.F                65:   Rmf Meas. temp.
 MFSS.                 FP:   Source Rmf.
 RMB .OHMM           1.15:   Rm. at BHT
 BHT .F               110:   BHT.
 TCS .HRS               2:   Time Circ. stopped
 MRT .F               110:   Maximum recorded temp.
 LUN .               4507:   Logging unit number
 LUL .               CSPR:   Logging unit location
 ENGI.            MANGOLD:   Recorded By
 WITN.             TUTTLE:   Witnessed by
 ORIG.       2", 5" PRINT:   Origin of data
 UWI .     49025094910000:   Unique Well ID
 DICO. A2D TECHNOLOGIES, INC.:   Digitizing Company
~OTHER INFORMATION
~A   DEPT      SPR         SN         ILD      CALD       CORR        GRD       RHOB   
# ...
 2690.0000   -57.4260    68.2810    35.6010     7.7020     0.0060    70.7660     2.5170
 2690.5000   -56.5810    66.2330    33.3580     7.6760     0.0210    71.4030     2.4830
 2691.0000   -56.0210    58.6030    31.1260     7.6270     0.0340    72.9320     2.4480
 2691.5000   -56.2140    45.3110    28.6980     7.5830     0.0420    74.8390     2.4130
 2692.0000   -57.2230    37.5280    26.0170     7.5370     0.0330    76.6100     2.3790
 2692.5000   -58.5830    35.1160    23.6420     7.4910     0.0240    78.5400     2.3440
 2693.0000   -59.6420    30.8310    22.2250     7.4470     0.0150    77.2200     2.3220
 2693.5000   -60.0520    27.9870    21.6480     7.4010     0.0070    75.5920     2.3090
 2694.0000   -60.0290    27.5360    21.1120     7.3860     0.0130    75.2610     2.3090
 2694.5000   -60.0090    25.3700    20.0850     7.3870     0.0190    74.8100     2.3190
 2695.0000   -60.0350    23.2350    18.5700     7.3870     0.0150    74.2230     2.3230
 2695.5000   -59.6500    21.9870    16.8860     7.3870     0.0110    74.8880     2.3090
 2696.0000   -58.5440    20.3460    15.6350     7.3870     0.0180    76.9240     2.3060
 2696.5000   -57.1620    18.7060    14.1280     7.3870     0.0210    78.7440     2.3200
 2697.0000   -56.3300    17.3530    12.5310     7.3870     0.0160    80.8080     2.3190
 2697.5000   -56.0540    15.9070    11.4670     7.3860     0.0120    81.8810     2.3160
 2698.0000   -55.0600    14.6760    10.3650     7.3890     0.0070    83.8170     2.3160
 2698.5000   -52.0160    13.4460     9.1510     7.3810     0.0150    87.6610     2.3320
 2699.0000   -47.1900    12.4510     8.4410     7.4480     0.0260    91.9210     2.3450
 2699.5000   -42.3960    11.5090     7.9170     7.5640     0.0310    94.3620     2.3590
 2700.0000   -39.1330    10.7180     7.1730     7.6800     0.0250    95.9190     2.3740
 2700.5000   -37.2320     9.9270     6.6060     7.7410     0.0210    98.2620     2.3820
 2701.0000   -35.5390     9.1370     6.4140     7.7280     0.0170   101.0550     2.3790
 2701.5000   -33.4510     8.3330     6.3010     7.7250     0.0120   101.3210     2.3780
 2702.0000   -31.3560     8.1370     6.1420     7.7190     0.0110    95.3680     2.3760
 2702.5000   -29.8730     8.0970     6.0090     7.7140     0.0140    83.2070     2.3770
 2703.0000   -29.1710     8.0440     5.8390     7.7090     0.0160    58.8600     2.3880
 2703.5000   -29.0020     7.8610     5.7030     7.7030     0.0180  -999.2500     2.3990
 2704.0000   -29.0040     7.6650     5.5890  -999.2500     0.0180  -999.2500     2.4100
 2704.5000   -28.8740     7.5640     5.4720  -999.2500     0.0160  -999.2500     2.4110
 2705.0000   -28.4720     7.5020     5.3540  -999.2500     0.0200  -999.2500     2.4070
 2705.5000   -27.8260     7.3830     5.2480  -999.2500     0.0160  -999.2500     2.4150
 2706.0000   -27.0160     7.2190     5.1450  -999.2500     0.0070  -999.2500     2.4260
 2706.5000   -26.1100     7.0820     5.0400  -999.2500     0.0100  -999.2500     2.4340
 2707.0000   -25.2610     6.9850     4.9310  -999.2500     0.0140  -999.2500     2.4280
 2707.5000   -24.6950     6.8900     4.8230  -999.2500     0.0090  -999.2500     2.4220
 2708.0000   -24.5360     6.7770     4.7170  -999.2500     0.0050  -999.2500     2.4190
 2708.5000   -24.6090     6.6620     4.6140  -999.2500     0.0070  -999.2500     2.4200
 2709.0000   -24.6080     6.5560     4.5070  -999.2500     0.0100  -999.2500     2.4200
 2709.5000   -24.4060     6.4490     4.3930  -999.2500     0.0140  -999.2500     2.4240
 2710.0000   -24.1440     6.3390     4.2900  -999.2500     0.0170  -999.2500     2.4340
 2710.5000   -24.0030     6.2330     4.2260  -999.2500     0.0280  -999.2500     2.4440
 2711.0000   -23.9380     6.1280     4.2080  -999.2500     0.0470  -999.2500     2.4520
 2711.5000   -23.7410     6.0130     4.2150  -999.2500     0.0740  -999.2500     2.4660
 2712.0000   -23.3760     5.8940     4.2180  -999.2500     0.0630  -999.2500     2.4420
 2712.5000   -23.0910     5.8060     4.2160  -999.2500     0.0260  -999.2500     2.4060
 2713.0000   -23.1040     5.7740     4.2150  -999.2500     0.0100  -999.2500     2.4100
 2713.5000   -23.3050     5.7800     4.2170  -999.2500     0.0100  -999.2500     2.4200
 2714.0000   -23.4400     5.7880     4.2140  -999.2500     0.0140  -999.2500     2.4310
 2714.5000   -23.4580     5.7860     4.2120  -999.2500     0.0160  -999.2500     2.4390
 2715.0000   -23.4620     5.7850     4.2190  -999.2500     0.0090  -999.2500     2.4330
 2715.5000   -23.4270     5.7860     4.2220  -999.2500     0.0010  -999.2500     2.4230
 2716.0000   -23.2290     5.7810     4.2090  -999.2500    -0.0010  -999.2500     2.4190
 2716.5000   -22.8940     5.7800     4.2000  -999.2500     0.0020  -999.2500     2.4210
 2717.0000   -22.5980     5.7910     4.2530  -999.2500     0.0050  -999.2500     2.4210
 2717.5000   -22.4470     5.7950     4.3930  -999.2500     0.0030  -999.2500     2.4210
 2718.0000   -22.4210     5.7720     4.5770  -999.2500     0.0000  -999.2500     2.4210
 2718.5000   -22.4760     5.7600     4.7250  -999.2500    -0.0030  -999.2500     2.4260
 2719.0000   -22.5770     5.8340     4.7950  -999.2500     0.0040  -999.2500     2.4280
 2719.5000  -999.2500     5.9960     4.8080  -999.2500     0.0040  -999.2500     2.4290
 2720.0000  -999.2500     6.1470  -999.2500  -999.2500  -999.2500  -999.2500  -999.2500
