~VERSION INFORMATION
 VERS.                2.0:   CWLS LOG ASCII STANDARD - VERSION 2.0
 WRAP.                 NO:   ONE LINE PER DEPTH STEP
~WELL INFORMATION
#MNEM.UNIT      DATA TYPE    INFORMATION
#----------   ------------   ------------------------------
 STRT.F          240.0000:   START DEPTH
 STOP.F         2876.0000:   STOP DEPTH
 STEP.F            0.5000:   STEP LENGTH
 NULL.          -999.2500:   NO VALUE
 COMP.    FENIX & SCISSON:   COMPANY
 WELL. FENIX & SCISSON "A" #23-21:   WELL
 FLD .               NPR3:   FIELD
 LOC .      S21 T39N R78W:   LOCATION
 CNTY.            NATRONA:   COUNTY
 STAT.            WYOMING:   STATE
 CTRY. UNITED STATES OF AMERICA:   COUNTRY
 SRVC.              WELEX:   SERVICE COMPANY
 DATE.        05-MAR-1977:   LOGDATE
 API .     49025103030000:   API NUMBER
~CURVE INFORMATION
#MNEM.UNIT       API CODE    CURVE DESCRIPTION
#----------   ------------   ------------------------------
 DEPT.F                  :   
 GRD .GAPI   45 310 01 00:   GAMMA RAY FROM DENSITY LOG
 CALD.IN     45 280 60 00:   CALIPER FROM DENSITY LOG
 CORR.G/C3   45 356 01 00:   DENSITY CORRECTION
 RHOB.G/C3   45 350 01 00:   BULK DENSITY
 SPR .MV     07 010 01 00:   SPONTANEOUS POTENTIAL
 ILD .OHMM   07 120 46 00:   DEEP INDUCTION RESISTIVITY
 ILM .OHMM   07 120 44 00:   INDUCTION LOG MEDIUM RESISTIVITY
 SGRD.OHMM   07 220 05 00:   SHALLOW SHORT GUARD RESISTIVITY
~PARAMETER INFORMATION
#MNEM.UNIT          VALUE    DESCRIPTION
#----------   ------------   ------------------------------
 EKB .F         4986.0000:   Kelly bushing
 EGL .F         4976.0000:   Ground level
 TD  .F         2885.0000:   Total depth
 CLNT.            A2DTECH:   Client Code
 SL  . 990' FWL & 1650' FNL:   Surface Location
 DATE.        05-MAR-1977:   Date Logged [DD-MMM-YYYY]
 DD  .F              2885:   Depth driller
 DL  .F              2882:   Depth logger
 BLI .F              2876:   Bottom log interval
 TLI .F               238:   Top log interval
 CS1 .IN            8.625:   Casing size
 CBD1.      8.625" @ 251':   Casing driller 1
 CBL1.IN              251:   Casing logger 1
 BS1 .IN            7.875:   Bit size
 BSD1.F              2885:   Depth drilled with bit1
 DFT .                KCL:   Type fluid in hole
 DFD .                9.5:   Density
 TCS .HRS               3:   Time Circ. stopped
 MRT .F                78:   Maximum recorded temp.
 ENGI.          D. LAWSON:   Recorded By
 WITN.            K. JAPP:   Witnessed by
 ORIG.         2.5" PRINT:   Origin of data
 UWI .     49025103030000:   Unique Well ID
 DICO. A2D TECHNOLOGIES,INC.:   Digitizing Company
 PD  .                 GL:   Permanent Datum
 EPD .               4976:   Elevation Permanent Datum
 LMF .                 KB:   Log Measured From
 DMF .                 KB:   Drilling Measured From
 DAPD.                 10:   Feet Above Permanent Datum
 DFL .                8.8:   Fluid loss
 MSS .           FLOWLINE:   Source of sample
 RMS .OHMM            .40:   Rm
 MST .F                58:   Rm Meas. temp.
 RMF .OHMM            .37:   Rmf
 MFST.F                58:   Rmf Meas. temp.
 MFSS.OHMM            .67:   Source Rmf.
 MCST.F                58:   Rmc Meas. temp.
 MCSS.               MEAS:   Source Rmc.
 RMB .OHMM            .30:   Rm. at BHT
 BHT .F                78:   BHT.
~OTHER INFORMATION
~A   DEPT       GRD        CALD      CORR        RHOB      SPR        ILD        ILM       SGRD   
  240.0000    73.0502     7.7589    -0.4371     1.9338  -999.2500  -999.2500  -999.2500  -999.2500
  240.5000    73.9359     7.7592    -0.4401     1.9343  -999.2500  -999.2500  -999.2500  -999.2500
  241.0000    75.1147     7.7595    -0.4431     1.9403  -999.2500  -999.2500  -999.2500  -999.2500
  241.5000    75.7071     7.7598    -0.4431     1.9531  -999.2500  -999.2500  -999.2500  -999.2500
  242.0000    74.8332     7.7600    -0.4371     1.9812  -999.2500  -999.2500  -999.2500  -999.2500
  242.5000    74.2525     7.7603    -0.4222     2.0338  -999.2500  -999.2500  -999.2500  -999.2500
  243.0000    74.5516     7.7606    -0.4042     2.0488  -999.2500  -999.2500  -999.2500  -999.2500
  243.5000    76.0237     7.7609    -0.3832     2.0697  -999.2500  -999.2500  -999.2500  -999.2500
  244.0000    78.0824     7.7612    -0.3593     2.0831  -999.2500  -999.2500  -999.2500  -999.2500
  244.5000    78.1311     7.7909    -0.3353     2.0951  -999.2500  -999.2500  -999.2500  -999.2500
  245.0000    76.9210     7.7912    -0.3144     2.1070  -999.2500  -999.2500  -999.2500  -999.2500
  245.5000    78.0999     7.7915    -0.2994     2.1175  -999.2500  -999.2500  -999.2500  -999.2500
  246.0000    81.3315     7.7918    -0.2665     2.1309  -999.2500  -999.2500  -999.2500  -999.2500
  246.5000    83.6834     7.8215    -0.2455     2.1488  -999.2500  -999.2500  -999.2500  -999.2500
  247.0000    84.5690     7.8512    -0.2216     2.1653  -999.2500  -999.2500  -999.2500  -999.2500
  247.5000    85.7479     7.8809    -0.1886     2.1876  -999.2500  -999.2500  -999.2500  -999.2500
  248.0000    86.0470     7.9106    -0.1407     2.2100  -999.2500  -999.2500  -999.2500  -999.2500
  248.5000    86.0528     7.9403    -0.0898     2.2369  -999.2500  -999.2500  -999.2500  -999.2500
  249.0000    86.9385     7.9700    -0.0419     2.2652  -999.2500  -999.2500  -999.2500  -999.2500
  249.5000    91.3431     8.0292     0.0060     2.2593  -999.2500  -999.2500  -999.2500  -999.2500
  250.0000    96.6276     8.4412     0.0719     2.2548  -999.2500  -999.2500  -999.2500  -999.2500
  250.5000    98.6882     8.8533     0.0749     2.2757  -999.2500  -999.2500  -999.2500  -999.2500
  251.0000    99.2863     9.1183     0.0719     2.2966   -42.0118     8.6738  1378.0116     5.3760
  251.5000   100.1701     9.3833     0.0689     2.3190   -41.7160     9.6870   242.4775     5.5672
  252.0000   100.7565     9.6483     0.0689     2.3384   -41.1243     0.5954    12.5079     5.7609
  252.5000   100.4691     9.7368     0.0689     2.3489   -40.5325     0.5712     5.0904     6.8008
  253.0000   100.7918     9.7371     0.0719     2.3623   -39.6450     0.4907     5.6058     7.4921
  253.5000   101.6812     9.7374     0.0719     2.3609   -38.7574     0.3222     6.9980     7.7022
  254.0000   102.5396     9.8259     0.0719     2.3371   -38.1657     0.2755     7.5642     8.0285
  254.5000   102.5278     9.9733     0.0689     2.3445   -37.2781     0.3066     7.6090     8.9677
  255.0000   101.6325    10.3853     0.0569     2.3591   -36.6864     0.4764     7.6080     9.4778
  255.5000   100.7974    10.7680     0.0210     2.3904   -36.3905     1.8276     8.6179     9.7436
  256.0000   102.0468    11.0036     0.0210     2.4152   -36.0947     3.2539    13.5118     9.7436
  256.5000   103.5504    10.8274     0.0240     2.4271   -35.7988     6.1874    17.0359     9.7436
  257.0000   105.5622    10.3865     0.0269     2.4367   -35.7988     7.1093    16.3950    10.0168
  257.5000   106.3930    10.1221     0.0269     2.4449   -35.7988     7.6644    13.5966    10.5865
  258.0000   106.0743    10.0636     0.0299     2.4537   -35.7988     8.2687    12.2583    10.8834
  258.5000   105.4585    10.0639     0.0299     2.4534   -35.7988     8.8560    11.4464    10.8834
  259.0000   104.2874    10.0642     0.0269     2.4481   -35.7988     9.7508    10.9628    10.8834
  259.5000   103.1534    10.0939     0.0269     2.4378   -35.7988    11.4208    10.6651    10.8834
  260.0000   104.0566    10.1236     0.0240     2.4304   -36.0947    13.5708    10.5196    10.8834
  260.5000   107.4312    10.1827     0.0210     2.4246   -36.3905    13.9759    10.4312    10.7340
  261.0000   107.8999    10.2124     0.0240     2.4270   -36.6864    13.2486    10.4298    10.5865
  261.5000   108.3343    10.2715     0.0269     2.4366   -36.9823    11.5959    10.3769    10.4411
  262.0000   110.0587    10.3306     0.0299     2.4374   -36.9823     9.8092    10.0952    10.4411
  262.5000   109.8730    10.3603     0.0299     2.4367   -36.9823     8.3634     9.9574    10.4411
  263.0000   108.5098    10.3900     0.0299     2.4352   -37.2781     7.5338     9.6449    10.4411
  263.5000   110.0056    10.4198     0.0299     2.4315   -37.8698     7.1102     9.4239    10.2977
  264.0000   113.1946    10.4200     0.0329     2.4278   -38.1657     6.7868     9.1315     9.8792
  264.5000   115.7928    10.4498     0.0389     2.4249   -39.0533     6.3591     8.7969     9.7436
  265.0000   118.0938    10.4500     0.0479     2.4212   -39.5266     5.6971     8.4409     9.6097
  265.5000   119.2180    10.4798     0.0539     2.4140   -40.1144     5.1285     8.1834     9.4778
  266.0000   120.0450    10.5095     0.0539     2.3984   -40.5325     4.7884     7.8284     9.3476
  266.5000   120.3460    10.5098     0.0449     2.3999   -40.5325     4.6381     7.3099     9.2192
  267.0000   120.5800    10.5395     0.0329     2.4206   -40.5325     4.4505     6.7515     8.9677
  267.5000   119.7264    10.5398     0.0269     2.4418   -40.2367     4.4092     6.2863     8.3686
  268.0000   115.5014    10.5695     0.0299     2.4507   -40.2367     4.4280     5.6415     6.1733
  268.5000   109.5307    10.5698     0.0329     2.4599   -39.9408     4.5514     4.6782     5.0168
  269.0000   108.8732    10.5700     0.0329     2.4616   -39.9408     4.6782     5.8044     5.5268
  269.5000   110.8680    10.5703     0.0329     2.4599   -39.9408     4.8272     6.3734     6.0885
  270.0000   112.6392    10.5706     0.0299     2.4519   -39.9408     5.0300     6.8366    11.0350
  270.5000   113.7439    10.5709     0.0269     2.4570   -40.0749     5.2224     7.2054    11.2313
  271.0000   114.8446    10.5712     0.0210     2.4609   -40.3668     5.4425     7.5971    10.4411
  271.5000   115.4389    10.5715     0.0210     2.4639   -40.5325     5.7507     8.0132     9.8792
  272.0000   115.9464    10.5718     0.0240     2.4663   -40.9507     6.0123     8.3489     9.8792
  272.5000   113.5780    10.5426     0.0299     2.4657   -41.5385     6.3519     8.5877    10.1563
  273.0000   110.3208    10.5430     0.0359     2.4649   -41.7160     6.7108     8.9325    10.1563
  273.5000   108.7429    10.5433     0.0389     2.4724   -41.7160     7.1686     9.1912     9.8792
  274.0000   109.9880    10.5141     0.0389     2.4823   -41.4201     7.5747     9.5708     9.4778
  274.5000   110.9902    10.4556     0.0389     2.4893   -41.0218     7.8051     9.8353     9.8792
  275.0000   109.7263    10.3971     0.0389     2.4993   -40.5325     8.1140     9.9686    10.4411
  275.5000   109.2424    10.3092     0.0389     2.5067   -40.4379     8.4560    10.2459    10.8834
  276.0000   110.1408    10.2212     0.0389     2.5097   -40.1459     8.5549    10.3867    11.0350
  276.5000   111.9120    10.1627     0.0389     2.4960   -39.9408     8.5711    10.5295    11.5024
  277.0000   114.1876    10.1335     0.0389     2.4904   -39.9408     8.6891    10.6742    11.6626
  277.5000   116.9209    10.0750     0.0389     2.4919   -39.6450     8.9167    10.6727    11.6626
  278.0000   118.3636    10.0459     0.0359     2.4916   -39.6450     9.0407    10.8194    12.1566
  278.5000   117.2258    10.0168     0.0329     2.4862   -39.6450     9.0529    10.9680    12.4976
  279.0000   114.5827    10.0465     0.0299     2.4750   -39.3491     9.2939    11.1189    12.6716
  279.5000   112.2328    10.0762     0.0240     2.4611   -39.3491     9.4231    11.5867    12.6716
  280.0000   110.1172    10.1059     0.0210     2.4544   -39.3491     9.5541    11.9090    12.3946
