~VERSION INFORMATION
 VERS.                2.0:   CWLS LOG ASCII STANDARD - VERSION 2.0
 WRAP.                 NO:   ONE LINE PER DEPTH STEP
~WELL INFORMATION
#MNEM.UNIT      DATA TYPE    INFORMATION
#----------   ------------   ------------------------------
 STRT.F          388.0000:   START DEPTH
 STOP.F         3166.0000:   STOP DEPTH
 STEP.F            0.5000:   STEP LENGTH
 NULL.          -999.2500:   NO VALUE
 COMP.    PENIX & SCISSON:   COMPANY
 WELL. PENIX NPR 3 "AX" #34-28:   WELL
 FLD .                NPR:   FIELD
 LOC .      S28 T39N R78W:   LOCATION
 CNTY.            NATRONA:   COUNTY
 STAT.            WYOMING:   STATE
 CTRY. UNITED STATES OF AMERICA:   COUNTRY
 SRVC.              WELEX:   SERVICE COMPANY
 DATE.        15-DEC-1978:   LOGDATE
 API .     49025107950000:   API NUMBER
~CURVE INFORMATION
#MNEM.UNIT       API CODE    CURVE DESCRIPTION
#----------   ------------   ------------------------------
 DEPT.F                  :   
 CALD.IN     45 280 60 00:   CALIPER FROM DENSITY LOG
 GRD .GAPI   45 310 01 00:   GAMMA RAY FROM DENSITY LOG
 RHOB.G/C3   45 350 01 00:   BULK DENSITY
 CORR.G/C3   45 356 01 00:   DENSITY CORRECTION
 NPHI.DEC    42 890 03 00:   NEUTRON POROSITY SANDSTONE
 SPR .MV     07 010 01 00:   SPONTANEOUS POTENTIAL
 SGRD.OHMM   07 220 05 00:   SHALLOW GUARD
 ILD .OHMM   07 120 46 00:   DEEP INDUCTION RESISTIVITY
 ILM .OHMM   07 120 44 00:   INDUCTION LOG MEDIUM RESISTIVITY
 TENR.LBS    07 635 01 00:   TENSION FROM RESISTIVITY
~PARAMETER INFORMATION
#MNEM.UNIT          VALUE    DESCRIPTION
#----------   ------------   ------------------------------
 EKB .F         5039.0000:   Kelly bushing
 EGL .F         5029.0000:   Ground level
 EDF .F            0.0000:   Drilling floor
 TD  .F         3159.0000:   Total depth
 DATE.        15-DEC-1978:   Date logged
 CLNT.            A2DTECH:   Client Code
 SL  . 2434' FNL & 1651' FWL:   Surface Location
 PD  .                 GL:   Permanent Datum
 EPD .F              5029:   Elevation Permanent Datum
 LMF .                 KB:   Log Measured From
 DMF .                 KB:   Drilling Measured From
 DAPD.F                10:   Feet Above Permanent Datum
 DD  .F              3155:   Depth driller
 DL  .F              3159:   Depth logger
 BLI .F              3157:   Bottom log interval
 TLI .F               350:   Top log interval
 CS1 .IN            8.625:   Casing size
 CBD1.      8.625" @ 383':   Casing driller 1
 CBL1.F               398:   Casing logger 1
 BS1 .IN            7.875:   Bit size
 BSD1.F              3155:   Depth drilled with bit1
 DFT .           CHEM/GEL:   Type fluid in hole
 DFD .                8.5:   Density
 DFV .                 55:   Viscosity
 DFPH.                 10:   pH
 DFL .               10.8:   Fluid loss
 MSS .           FLOWLINE:   Source of sample
 RMS .OHMM           1.65:   Rm
 MST .F                65:   Rm Meas. temp.
 RMF .OHMM           1.32:   Rmf
 MFST.F                65:   Rmf Meas. temp.
 RMC .OHMM           1.98:   Rmc
 MCST.F                65:   Rmc Meas. temp.
 MFSS.               CALC:   Source Rmf.
 RMB .OHMM              1:   Rm. at BHT
 BHT .F               107:   BHT.
 TCS .HRS               8:   Time Circ. stopped
 MRT .F               107:   Maximum recorded temp.
 LUN .               1892:   Logging unit number
 LUL .             CASPER:   Logging unit location
 ENGI.               REIN:   Recorded By
 WITN.              AMEND:   Witnessed by
 ORIG.           5" PRINT:   Origin of data
 UWI .     49025107950000:   Unique Well ID
 DICO. A2D TECHNOLOGIES, INC.:   Digitizing Company
~OTHER INFORMATION
~A   DEPT     CALD         GRD      RHOB       CORR       NPHI        SPR       SGRD        ILD        ILM       TENR   
# ...
 2230.5000     9.2959   158.7931     2.4775     0.0842     0.2329   -48.1166     4.0325     3.3635     3.6243  1604.6165
 2231.0000     9.2950   162.4040     2.4755     0.0882     0.2329   -48.1183     3.8489     3.2402     3.5241  1604.9709
 2231.5000     9.2946   165.2149     2.4734     0.1001     0.2309   -48.1204     3.6058     2.9239     3.3320  1605.3254
 2232.0000     9.3941   162.3686     2.4653     0.1022     0.2284   -48.1225     3.5063     2.7645     3.1800  1605.6801
 2232.5000     9.4741   153.8654     2.4602     0.0879     0.2244   -48.1246     3.4414     2.6881     3.0634  1606.0345
 2233.0000     9.5141   155.4611     2.4592     0.0553     0.2228   -48.1267     3.6054     2.5894     3.0066  1606.3892
 2233.5000     9.5330   156.6530     2.4773     0.0329     0.2220   -48.1284     3.8482     2.5653     3.0089  1606.7437
 2234.0000     9.4913   158.2525     2.4863     0.0389     0.2224   -47.9298     3.8481     2.5413     2.9815  1607.0981
 2234.5000     9.4911   151.7685     2.4792     0.0368     0.2224   -48.1326     3.8479     2.5412     2.9813  1607.4526
 2235.0000     9.5102   151.3453     2.4832     0.0509     0.2224   -48.1347     3.8478     2.6132     3.0638  1607.8073
 2235.5000     9.5287   155.3558     2.4912     0.0650     0.2273   -48.1368     3.8120     2.6132     3.0637  1608.1617
 2236.0000     9.5480   151.7101     2.4892     0.0568     0.2289   -48.1390     3.8836     2.6376     3.0916  1608.5162
 2236.5000     9.5678   146.0378     2.4800     0.0486     0.2349   -48.1411     3.9198     2.6619     3.1195  1608.8707
 2237.0000     9.5665   146.8260     2.4830     0.0587     0.2366   -48.3438     3.9563     2.6622     3.1198  1609.2253
 2237.5000     9.5654   146.4028     2.4961     0.0748     0.2402   -48.7475     3.8832     2.7376     3.2061  1609.5798
 2238.0000     9.5650   146.7871     2.4960     0.0605     0.2418   -49.5512     3.8830     2.7632     3.2353  1609.9343
 2238.5000     9.5637   140.7114     2.4768     0.0564     0.2418   -49.5532     3.9193     2.7891     3.2648  1610.2888
 2239.0000     9.5626   143.1146     2.4798     0.0664     0.2414   -49.3547     3.8828     2.7889     3.2646  1610.6433
 2239.5000     9.5616   143.9027     2.4918     0.0704     0.2390   -49.3568     3.8466     2.8150     3.2944  1610.9979
 2240.0000     9.5607   145.9020     2.4858     0.0723     0.2337   -49.3588     3.8825     2.8148     3.2943  1611.3524
 2240.5000     9.6607   144.2676     2.4787     0.0621     0.2293   -48.9594     3.8824     2.8412     3.3243  1611.7069
 2241.0000     9.6799   142.2296     2.4816     0.0640     0.2285   -48.5603     3.8823     2.8410     3.3242  1612.0614
 2241.5000     9.6794   143.4175     2.4977     0.0660     0.2281   -48.3619     3.8821     2.8409     3.3240  1612.4159
 2242.0000     9.6983   145.0130     2.5027     0.0740     0.2257   -48.3644     3.8460     2.8408     3.3239  1612.7705
 2242.5000     9.7377   143.3787     2.5108     0.0658     0.2269   -48.3657     3.8459     2.8406     3.3237  1613.1250
 2243.0000     9.7371   146.5891     2.5026     0.0495     0.2261   -48.9689     3.9181     2.8406     3.3237  1613.4795
 2243.5000     9.7360   148.1882     2.5046     0.0473     0.2229   -49.1723     3.9917     2.8404     3.3235  1613.8340
 2244.0000     9.6943   144.5317     2.5086     0.0594     0.2221   -49.3749     3.9915     2.8670     3.3539  1614.1886
 2244.5000     9.6941   144.1086     2.5358     0.0776     0.2209   -49.1765     4.0288     2.8938     3.3844  1614.5431
 2245.0000     9.6728   144.0892     2.5277     0.0796     0.2201   -49.1785     4.1428     2.9208     3.4153  1614.7275
 2245.5000     9.6715   144.4696     2.5034     0.0389     0.2172   -49.1806     4.3000     2.9481     3.4464  1614.5565
 2246.0000     9.6704   150.5095     2.4983     0.0449     0.2156   -49.3831     4.3809     2.9480     3.4463  1614.3855
 2246.5000     9.6541   151.2974     2.5013     0.0509     0.2144   -49.3852     4.0282     2.9479     3.4461  1634.4949
 2247.0000     9.6485   152.0854     2.4952     0.0548     0.2104   -49.1868     3.7040     2.9477     3.4460  1634.3243
 2247.5000     9.6676   150.8548     2.4841     0.0568     0.2092   -49.1889     3.5683     2.8662     3.3529  1634.1537
 2248.0000     9.6667   155.2678     2.4739     0.0546     0.2096   -49.3910     3.4057     2.7353     3.1174  1633.9832
 2248.5000     9.6859   150.4084     2.4668     0.0525     0.2112   -49.1926     3.4697     2.7098     3.0312  1633.8125
 2249.0000     9.6850   143.9341     2.4627     0.0402     0.2140   -49.3951     3.6014     2.6348     2.9750  1633.6418
 2249.5000     9.6646   147.1402     2.4778     0.0482     0.2156   -49.3971     3.7034     2.5618     2.9472  1633.4713
 2250.0000     9.7033   153.5793     2.4818     0.0502     0.2144   -49.5996     3.4693     2.5618     2.9197  1653.5840
 2250.5000     9.6824   153.5637     2.4959     0.0643     0.2123   -49.6018     3.4421     2.5257     2.9195  1653.4062
 2251.0000     9.6812   159.9988     2.4989     0.0602     0.2104   -49.6096     3.6011     2.5143     2.9196  1653.5699
 2251.5000     9.7009   162.0011     2.5019     0.0621     0.2104   -49.4143     3.8082     2.4909     2.9238  1633.2860
 2252.0000     9.7196   156.7305     2.5240     0.0701     0.2076   -49.2190     3.9899     2.4909     3.0880  1653.5699
 2252.5000     9.7186   151.4676     2.5250     0.0721     0.2060   -49.4235     4.0273     2.6100     3.2356  1633.2860
 2253.0000     9.7184   148.2190     2.5148     0.0537     0.2048   -49.6291     4.2194     2.6842     3.2966  1633.2860
 2253.5000     9.6769   145.7778     2.5057     0.0435     0.2044   -49.6342     4.2589     2.8104     3.3903  1653.5699
 2254.0000     9.6353   134.8489     2.5208     0.0495     0.2068   -49.8398     4.7188     2.9425     3.5194  1633.2860
 2254.5000     9.6153   131.6121     2.5177     0.0372     0.2084   -49.6445     4.9439     3.0808     3.7223  1633.2860
 2255.0000     9.5954   136.4363     2.5227     0.0290     0.2121   -49.8501     5.1798     3.2257     3.9002  1633.2860
 2255.5000     9.5517   133.1842     2.5378     0.0370     0.2161   -50.0556     5.3766     3.3773     4.2029  1633.2860
 2256.0000     9.5304   135.9861     2.5438     0.0532     0.2189   -50.0597     5.1798     3.5361     4.3223  1633.2860
 2256.5000     9.5504   139.1998     2.5488     0.0673     0.2194   -50.0649     5.0369     3.7023     4.3045  1633.2860
 2257.0000     9.5489   140.3913     2.5266     0.0530     0.2210   -50.0700     4.9439     3.9002     4.5290  1633.2860
 2257.5000     9.5680   147.2292     2.5195     0.0488     0.2210   -50.0751     4.8980     3.9368     4.5705  1633.2860
 2258.0000     9.5676   140.7562     2.5164     0.0528     0.2194   -50.0803     4.8526     3.9738     4.6124  1633.2860
 2258.5000     9.5663   133.4722     2.5244     0.0466     0.2214   -50.0854     4.8076     3.9738     4.6124  1633.2860
 2259.0000     9.5844   133.0493     2.5456     0.0405     0.2234   -50.0906     5.2283     4.0156     4.6597  1633.2860
 2259.5000     9.5852   132.6264     2.5667     0.0465     0.2242   -50.0957     5.6331     4.0578     4.7075  1633.2860
 2260.0000     9.5633   137.8498     2.5828     0.0585     0.2226   -50.0998     5.7928     4.0867     4.7403  1633.2860
 2260.5000     9.5222   138.2341     2.5858     0.0645     0.2206   -50.1049     5.5808     4.0867     4.7403  1633.2860
 2261.0000     9.5009   132.1535     2.5898     0.0583     0.2198   -50.1101     5.3267     4.0818     4.7347  1633.2860
 2261.5000     9.5008   135.7740     2.5625     0.0420     0.2210   -49.9148     5.2772     4.0769     4.7291  1633.2860
 2262.0000     9.4791   143.4183     2.5534     0.0358     0.2230   -50.3228     5.6858     4.0720     4.7236  1613.0020
 2262.5000     9.4778   141.3853     2.5463     0.0317     0.2239   -50.1255     5.6331     4.0671     4.7180  1613.0020
 2263.0000     9.4776   135.3126     2.5432     0.0336     0.2247   -50.1306     5.4269     4.0622     4.7125  1613.0020
 2263.5000     9.4765   132.0726     2.5563     0.0518     0.2206   -50.1358     5.3267     4.0573     4.7069  1633.2860
