~VERSION INFORMATION
 VERS.                2.0:   CWLS LOG ASCII STANDARD - VERSION 2.0
 WRAP.                 NO:   ONE LINE PER DEPTH STEP
~WELL INFORMATION
#MNEM.UNIT      DATA TYPE    INFORMATION
#----------   ------------   ------------------------------
 STRT.F            0.0000:   START DEPTH
 STOP.F         4700.0000:   STOP DEPTH
 STEP.F            0.5000:   STEP LENGTH
 NULL.          -999.2500:   NO VALUE
 COMP. LAWRENCE ALLISON & ASSOCIATES:   COMPANY
 WELL. LAWRENCE NPR 3 "X" #33-23:   WELL
 FLD .                NPR:   FIELD
 LOC .      S23 T38N R78W:   LOCATION
 CNTY.            NATRONA:   COUNTY
 STAT.            WYOMING:   STATE
 CTRY. UNITED STATES OF AMERICA:   COUNTRY
 SRVC.      DRESSER ATLAS:   SERVICE COMPANY
 DATE.        12-NOV-1984:   LOGDATE
 API .     49025109930000:   API NUMBER
~CURVE INFORMATION
#MNEM.UNIT       API CODE    CURVE DESCRIPTION
#----------   ------------   ------------------------------
 DEPT.F                  :   
 TEND.LBS    45 635 01 00:   TENSION FROM DENSITY LOG
 CALD.IN     45 280 60 00:   CALIPER FROM DENSITY LOG
 CORR.G/C3   45 356 01 00:   DENSITY CORRECTION
 DEN .G/C3   45 350 01 00:   BULK DENSITY
 CNC .DEC    42 890 03 00:   NEUTRON PORISITY SANDSTONE
 SPR .MV     07 010 01 00:   SPONTANEOUS POTENTIAL
 GRR .GAPI   07 310 01 00:   GAMMA RAY FROM RESISTIVITY
 RFOC.OHMM   07 220 01 00:   RESISTIVITY FOCUSED LOG RES.
 ILM .OHMM   07 120 44 00:   INDUCTION LOG MEDIUM RESISTIVITY
 ILD .OHMM   07 120 46 00:   INDUCTION LOG DEEP RESISTIVITY
 TENS.LBS    60 635 01 00:   TENSION FROM SONIC LOG
 DT  .US/F   60 520 00 00:   DELTA TIME
 TENR.LBS    07 635 01 00:   TENSION
~PARAMETER INFORMATION
#MNEM.UNIT          VALUE    DESCRIPTION
#----------   ------------   ------------------------------
 EKB .F         5308.0000:   Kelly bushing
 EGL .F         5296.0000:   Ground level
 EDF .F            0.0000:   Drilling floor
 EPD .F            0.0000:   Permanent datum
 TD  .F         4695.0000:   Total depth
 DATE.        12-NOV-1984:   Date logged
 CLNT.            A2DTECH:   Client Code
 SL  . 1415' FNL & 1874' FWL:   Surface Location
 PD  .                 GL:   Permanent Datum
 LMF .                 KB:   Log Measured From
 DMF .                 KB:   Drilling Measured From
 DAPD.F                12:   Feet Above Permanent Datum
 DD  .F              4695:   Depth driller
 DL  .F              4694:   Depth logger
 BLI .F              4691:   Bottom log interval
 TLI .F              1205:   Top log interval
 CS1 .IN            8.625:   Casing size
 CBD1.     8.625" @ 1206':   Casing driller 1
 CBL1.F              1205:   Casing logger 1
 BS1 .IN            7.875:   Bit size
 BSD1.F              4695:   Depth drilled with bit1
 DFT .     GFL/KCL/STAFLO:   Type fluid in hole
 DFD .                9.2:   Density
 DFV .                 45:   Viscosity
 DFPH.                  8:   pH
 DFL .                 10:   Fluid loss
 MSS .           FLOWLINE:   Source of sample
 RMS .OHMM            .51:   Rm
 MST .F                72:   Rm Meas. temp.
 RMF .OHMM            .43:   Rmf
 MFST.F                70:   Rmf Meas. temp.
 RMC .OHMM            .64:   Rmc
 MCST.F                72:   Rmc Meas. temp.
 MFSS.               MEAS:   Source Rmf.
 MCSS.               CALC:   Source Rmc.
 RMB .OHMM           .272:   Rm. at BHT
 BHT .F               135:   BHT.
 TCS .HRS               4:   Time Circ. stopped
 MRT .F               135:   Maximum recorded temp.
 LUN .               6274:   Logging unit number
 LUL .               GLTE:   Logging unit location
 ENGI.             RAUTIO:   Recorded By
 ORIG.           5" PRINT:   Origin of data
 UWI .     49025109930000:   Unique Well ID
 DICO. A2D TECHNOLOGIES, INC.:   Digitizing Company
~OTHER INFORMATION
~A    DEPT    TEND       CALD       CORR        DEN        CNC        SPR         GRR      RFOC        ILM        ILD       TENS         DT       TENR   
# ...
 3146.0000   -46.7200    11.0110     0.0160     2.5360     0.2490   -29.9230   108.7010     5.7380     5.2820     5.3690   -77.6190    86.0120   -36.5540
 3146.5000   -46.4850    11.0100     0.0350     2.5370     0.2590   -29.9090   110.2490     5.1380     5.2820     5.4070   -78.0090    86.5230   -36.7620
 3147.0000   -46.2500    11.0100     0.0350     2.5330     0.2550   -29.8940   108.1190     5.4510     5.3400     5.4460   -78.3990    86.7810   -36.9700
 3147.5000   -46.0160    11.0090     0.0310     2.5240     0.2470   -29.8800   105.0380     5.8270     5.3980     5.4840   -78.7900    86.6200   -37.1780
 3148.0000   -45.7810    11.0090    -0.0030     2.5180     0.2380   -29.8650   104.1920     6.2040     5.4550     5.5220   -78.0200    86.1090   -37.3860
 3148.5000   -45.5460    11.0080    -0.0080     2.5260     0.2310   -29.8510   105.3120     6.4050     5.5120     5.5610   -76.2120    85.5980   -37.5940
 3149.0000   -45.3110    11.0080     0.0060     2.5310     0.2350   -29.8360   106.4520     6.2820     5.5690     5.6220   -74.4040    85.0870   -37.8020
 3149.5000   -45.0760    11.0070     0.0100     2.5280     0.2420   -29.8220   105.4520     6.1860     5.6260     5.7370   -72.5950    85.0350   -38.0100
 3150.0000   -44.8420    11.0070     0.0020     2.5260     0.2490   -29.8080   104.5130     6.1170     5.5900     5.7010   -70.7870    85.1190   -38.2180
 3150.5000   -44.6070    11.0060    -0.0080     2.5240     0.2540   -29.7930   105.5760     6.1610     5.5430     5.6500   -68.9790    85.2030   -38.4260
 3151.0000   -44.3720    11.0060    -0.0150     2.5210     0.2530   -29.7790   112.6430     6.1470     5.4960     5.5980   -67.1710    85.2870   -38.6340
 3151.5000   -44.1370    11.0050    -0.0100     2.5170     0.2470   -29.7650   116.5950     6.1330     5.4490     5.5470   -65.3630    85.3710   -38.8420
 3152.0000   -43.9020    11.0050    -0.0030     2.5160     0.2400   -29.7510   118.3640     6.1170     5.4020     5.4960   -63.5540    85.4560   -39.0500
 3152.5000   -43.6680    11.0040     0.0030     2.5250     0.2400   -29.8450   116.7190     6.0720     5.3550     5.4450   -61.7460    85.5400   -39.2580
 3153.0000   -43.4330    11.0040     0.0020     2.5240     0.2440   -30.0360   114.2160     6.0230     5.3080     5.3930   -59.9380    85.5730   -39.4660
 3153.5000   -43.1980    11.0030     0.0060     2.5240     0.2500   -30.2260   110.8270     5.9750     5.2610     5.3420   -58.8530    85.5730   -39.6740
 3154.0000   -42.9630    11.0030     0.0080     2.5240     0.2480   -30.4170   110.9810     5.9270     5.2140     5.3100   -58.8530    85.5730   -39.8820
 3154.5000   -42.7280    11.0020     0.0040     2.5300     0.2370   -30.6060   112.1120     5.8970     5.1670     5.2850   -58.8530    85.5730   -40.0900
 3155.0000   -42.4940    11.0010    -0.0010     2.5400     0.2250   -30.6860   113.2830     5.9060     5.1380     5.2590   -58.8530    85.5730   -40.2990
 3155.5000   -42.2590    11.0010    -0.0050     2.5500     0.2250   -30.3900   114.3190     5.9170     5.1560     5.2330   -58.8530    85.7750   -40.5070
 3156.0000   -42.0240    11.0000    -0.0090     2.5570     0.2360   -30.0950   113.3050     5.9290     5.1750     5.3690   -58.8530    86.0260   -40.7150
 3156.5000   -41.7890    11.0000     0.0030     2.5530     0.2580   -29.8010   111.8640     5.9400     5.3030     5.5030   -58.8530    86.2780   -40.9230
 3157.0000   -41.5550    11.0000     0.0230     2.5490     0.2540   -29.5060   111.2630     5.9510     5.5790     5.6360   -58.8530    86.5790   -41.1310
 3157.5000   -41.3200    11.0000     0.0240     2.5440     0.2480   -29.2080   111.3010     6.0060     5.8540     5.8650   -58.8530    86.7810   -41.3390
 3158.0000   -41.0850    11.0000     0.0130     2.5410     0.2470   -29.1520   110.4640     6.3950     6.1300     6.1460   -58.8530    85.6170   -41.5470
 3158.5000   -40.8500    11.0000     0.0000     2.5260     0.2470   -29.1500   104.8070     6.7650     6.4060     6.4280   -58.8530    84.4540   -41.7550
 3159.0000   -40.6150    11.0000    -0.0130     2.5320     0.2360   -29.1500    98.3080     7.1350     6.6810     6.7090   -58.8530    83.2910   -41.9630
 3159.5000   -40.3810    11.0000     0.0040     2.5500     0.2220   -29.1500    97.3940     7.5050     6.9570     6.9900   -58.8530    82.1280   -42.1710
 3160.0000   -40.1460    11.0000     0.0270     2.5580     0.2180   -29.1260   101.1660     7.8390     7.1510     7.3510   -58.8530    80.9650   -42.3790
 3160.5000   -39.9110    11.0000     0.0150     2.5510     0.2180   -29.0880   104.8200     7.5820     7.0720     7.2140   -58.8530    79.8010   -42.5870
 3161.0000   -39.6760    11.0000    -0.0050     2.5480     0.2180   -29.0500   105.8830     7.2960     7.0100     7.0210   -58.8530    79.2610   -42.7950
 3161.5000   -39.4410    11.0000    -0.0200     2.5440     0.2180   -29.0120   103.0400     7.2170     6.9570     7.0880   -58.8530    79.1350   -43.0030
 3162.0000   -39.2070    11.0000    -0.0180     2.5460     0.2240   -28.9730   100.3340     7.3260     7.0300     7.1800   -58.8530    79.7010   -43.2110
 3162.5000   -39.1570    11.0000     0.0020     2.5480     0.2310   -28.9310   102.1420     7.4430     7.1090     7.2720   -58.8530    80.2670   -43.4190
 3163.0000   -39.1570    11.0000     0.0080     2.5480     0.2290   -28.8350   105.2740     7.5590     7.1880     7.3640   -58.8530    80.9460   -43.6270
 3163.5000   -39.1570    11.0000    -0.0040     2.5460     0.2300   -28.7390   104.0080     7.6760     7.2660     7.4560   -58.8530    80.4930   -43.8350
 3164.0000   -39.1570    11.0000    -0.0200     2.5440     0.2340   -28.6450    99.5160     7.7930     7.3450     7.5480   -58.8530    79.9270   -44.0430
 3164.5000   -39.1570    11.0000    -0.0120     2.5430     0.2380   -28.5610   103.6670     7.9110     7.4240     7.6870   -58.8530    79.3610   -44.2520
 3165.0000   -39.1570    11.0000     0.0000     2.5400     0.2410   -28.6060   109.9110     7.9110     7.4870     7.6490   -58.8530    79.5370   -44.4600
 3165.5000   -39.1570    11.0000     0.0000     2.5410     0.2420   -28.6520   113.2180     7.9110     7.3680     7.5290   -58.8530    80.2410   -44.6680
 3166.0000   -39.1570    11.0000    -0.0030     2.5440     0.2390   -28.6980   111.9530     7.6680     7.2690     7.4090   -58.8530    81.1220   -44.8760
 3166.5000   -39.1570    11.0000    -0.0090     2.5470     0.2390   -28.7440   108.6630     7.2840     7.1700     7.2900   -58.8530    82.0020   -45.0840
 3167.0000   -39.1570    11.0000    -0.0140     2.5420     0.2440   -28.7900   105.0790     7.2840     7.0700     7.1700   -58.8530    82.3540   -45.2920
 3167.5000   -39.1570    11.0000    -0.0160     2.5440     0.2480   -28.8360   101.5560     7.3440     6.9710     7.1040   -58.8530    81.9960   -45.5000
 3168.0000   -39.1570    11.0000    -0.0160     2.5490     0.2420   -28.8820    97.3830     7.5880     6.8720     7.0310   -58.8530    81.5490   -45.6130
 3168.5000   -39.1570    11.0000    -0.0170     2.5540     0.2340   -28.9280    96.0470     7.7670     6.7720     6.9580   -58.8530    81.1020   -45.6130
 3169.0000   -39.1570    11.0000    -0.0120     2.5470     0.2270   -28.9740   101.7450     7.4900     6.6730     6.8850   -58.8530    80.7440   -45.6130
 3169.5000   -39.1570    11.0000     0.0000     2.5330     0.2310   -29.0200   106.0900     7.2300     6.5740     6.8120   -58.8530    81.0350   -45.6130
 3170.0000   -39.1570    11.0000     0.0510     2.5190     0.2360   -29.0650   109.6650     6.8930     6.4460     6.7390   -58.8530    81.7620   -45.6130
 3170.5000   -39.1570    11.0000     0.0710     2.5100     0.2390   -29.1110   108.7470     6.9050     6.3870     6.5840   -58.8530    82.4880   -45.6130
 3171.0000   -39.1570    11.0000     0.0510     2.5140     0.2380   -29.1520   107.7900     6.9280     6.3280     6.5950   -58.8530    83.3600   -45.6130
 3171.5000   -39.1570    11.0000     0.0240     2.5260     0.2370   -29.1760   109.7280     6.9510     6.2880     6.6180   -58.8530    83.6620   -45.6130
