~VERSION INFORMATION
 VERS.                2.0:   CWLS LOG ASCII STANDARD - VERSION 2.0
 WRAP.                 NO:   ONE LINE PER DEPTH STEP
~WELL INFORMATION
#MNEM.UNIT      DATA TYPE    INFORMATION
#----------   ------------   ------------------------------
 STRT.F          397.0000:   START DEPTH
 STOP.F         5516.0000:   STOP DEPTH
 STEP.F            0.5000:   STEP LENGTH
 NULL.          -999.2500:   NO VALUE
 COMP.  FENIX AND SCISSON:   COMPANY
 WELL.   FENIX TPX #54-10:   WELL
 FLD . NAVAL PETROLEUM RESERVE=3:   FIELD
 LOC .      S10 T38N R78W:   LOCATION
 CNTY.            NATRONA:   COUNTY
 STAT.            WYOMING:   STATE
 CTRY. UNITED STATES OF AMERICA:   COUNTRY
 SRVC.       SCHLUMBERGER:   SERVICE COMPANY
 DATE.        03-APR-1981:   LOGDATE
 API .     49025108690000:   API NUMBER
~CURVE INFORMATION
#MNEM.UNIT       API CODE    CURVE DESCRIPTION
#----------   ------------   ------------------------------
 DEPT.F                  :   
 SPR .MV     11 010 01 00:   SPONTANEOUS POTENTIAL FROM RES.
 TENR.LBS    11 635 01 00:   TENSION FROM RES.
 LLD .OHMM   11 220 10 00:   LATEROLOG DEEP
 LLS .OHMM   11 220 09 00:   LATEROLOG LOG SHALLOW
 TEND.LBS    45 635 01 00:   TENSION FORM DENSITY LOG
 GRD .GAPI   45 310 01 00:   GAMMA RAY FROM DENSITY LOG
 NPHI.DEC    42 890 03 00:   NEUTRON POROSITY SANDSTONE
 CALD.IN     45 280 60 00:   CALIPER FROM DENSITY LOG
 CORR.G/C3   45 356 01 00:   DENSITY CORRECTION
 RHOB.G/C3   45 350 01 00:   BULK DENSITY
~PARAMETER INFORMATION
#MNEM.UNIT          VALUE    DESCRIPTION
#----------   ------------   ------------------------------
 EKB .F         5206.0000:   Kelly bushing
 EGL .F         5196.0000:   Ground level
 EDF .F            0.0000:   Drilling floor
 TD  .F         5498.0000:   Total depth
 CLNT.            A2DTECH:   Client Code
 SL  . 2080' FNL & 2150' FEL:   Surface Location
 PD  .                 GL:   Permanent Datum
 EPD .F              5196:   Elevation Permanent Datum
 LMF .                 KB:   Log Measured From
 DMF .                 KB:   Drilling Measured From
 DAPD.F                10:   Feet Above Permanent Datum
 DATE.         3-APR-1981:   Date Logged [DD-MMM-YYYY]
 DD  .F              5485:   Depth driller
 DL  .F              5498:   Depth logger
 BLI .F              5496:   Bottom log interval
 TLI .F               397:   Top log interval
 CS1 .IN                7:   Casing size
 CBD1.         7" @ 3891':   Casing driller 1
 CBL1.F              3889:   Casing logger 1
 BS1 .IN            6.125:   Bit size
 BSD1.F              5485:   Depth drilled with bit1
 DFT .           CHEM GEL:   Type fluid in hole
 DFD .                9.1:   Density
 DFV .                 42:   Viscosity
 DFPH.                9.0:   pH
 DFL .                5.0:   Fluid loss
 MSS .           MUD TANK:   Source of sample
 RMS .OHMM           0.81:   Rm
 MST .F                62:   Rm Meas. temp.
 RMF .OHMM           0.64:   Rmf
 MFST.F                62:   Rmf Meas. temp.
 MFSS.               MEAS:   Source Rmf.
 RMB .OHMM          0.031:   Rm. at BHT
 BHT .F               174:   BHT.
 TCS .HRS            0830:   Time Circ. stopped
 TLAB.HRS            2130:   Time logger at bottom
 MRT .F               174:   Maximum recorded temp.
 LUN .               8035:   Logging unit number
 LUL .               CSPR:   Logging unit location
 ENGI.             BEATIE:   Recorded By
 WITN.              FIVAS:   Witnessed by
 ORIG.           5" PRINT:   Origin of data
 UWI .     49025108690000:   Unique Well ID
 DICO. A2D TECHNOLOGIES, INC:   Digitizing Company
~OTHER INFORMATION
~A   DEPT      SPR       TENR        LLD        LLS       TEND         GRD        NPHI     CALD       CORR       RHOB   
# ...
 4819.0000   -31.7208  1626.3169    40.9266    42.0125  1701.9698    83.0816     0.1043     7.1083     0.0097     2.7027
 4819.5000   -31.5466  1627.7761    43.2908    43.7752  1702.5947    83.9879     0.1025     7.0954     0.0164     2.7072
 4820.0000   -31.2766  1629.2354    44.2122    43.4688  1703.0974    90.3323     0.1087     7.0806     0.0224     2.7125
 4820.5000   -31.1905  1630.6946    42.0921    41.6745  1703.6000    95.4683     0.1236     7.0808     0.0254     2.7042
 4821.0000   -30.9787  1632.1538    38.1520    36.7241  1704.1027    99.6979     0.1300     7.0809     0.0171     2.6918
 4821.5000   -30.8296  1633.6130    34.0987    29.7452  1704.6213   103.3233     0.1351     7.0810     0.0117     2.6736
 4822.0000   -30.8332  1635.0723    31.2089    25.4855  1705.2338   107.2508     0.1388     7.0812     0.0080     2.6561
 4822.5000   -31.1400  1636.5315    28.3316    22.9365  1705.7363   112.6888     0.1491     7.0814     0.0080     2.6523
 4823.0000   -31.4469  1637.9907    25.7505    21.2307  1706.2390   117.5227     0.1629     7.0815     0.0072     2.6606
 4823.5000   -31.9277  1639.4500    24.0048    19.4750  1706.7426   121.5143     0.1726     7.0816     0.0080     2.6651
 4824.0000   -32.3652  1640.9092    22.2209    18.8406  1707.3701   124.4713     0.1883     7.0967     0.0098     2.6711
 4824.5000   -32.5200  1642.3684    21.4545    18.9735  1707.8032   125.6798     0.1928     7.1118     0.0139     2.6786
 4825.0000   -32.7381  1643.8276    22.0655    20.2119  1708.3754   122.9607     0.1940     7.1119     0.0184     2.6951
 4825.5000   -32.9106  1645.2869    23.5046    22.5003  1708.8779   115.4079     0.1723     7.1192     0.0259     2.7162
 4826.0000   -33.0039  1646.7461    27.0475    25.8461  1709.3940    95.9615     0.1575     7.1421     0.0300     2.7177
 4826.5000   -33.1402  1648.4319    31.4110    30.3788  1725.1606    90.3323     0.1388     7.1422     0.0236     2.7109
 4827.0000   -33.1429  1649.0038    40.0737    35.2082  1740.8147    89.1239     0.1219     7.1424     0.0153     2.6973
 4827.5000   -33.1459  1649.5757    49.1218    40.5197  1735.4772    87.6133     0.1153     7.1575     0.0115     2.6883
 4828.0000   -32.9975  1650.1511    54.1947    46.6325  1726.6669    83.0816     0.1091     7.1576     0.0077     2.6860
 4828.5000   -32.8477  1665.9675    56.5311    50.3791  1712.0455    78.8520     0.1050     7.1578     0.0047     2.6868
 4829.0000   -32.6988  1666.5394    59.0104    52.5481  1727.7991    76.6410     0.1014     7.1669     0.0054     2.6890
 4829.5000   -32.5501  1667.1113    60.6369    54.4268  1728.2577    73.1118     0.0975     7.1730     0.0054     2.6944
 4830.0000   -32.2492  1667.6832    62.3638    59.4374  1713.6364    70.6949     0.0927     7.1731     0.0047     2.6913
 4830.5000   -31.9481  1668.3981    65.9664    71.0812  1714.1669    67.6737     0.0880     7.1733     0.0031     2.6853
 4831.0000   -31.6477  1668.9700    80.2950    78.4278  1714.7839    64.0483     0.0824     7.1734     0.0016     2.6807
 4831.5000   -31.4986  1669.5419    82.5817    82.3811  1715.2866    63.1136     0.0782     7.1736     0.0016     2.6860
 4832.0000   -31.4216  1670.1136    83.7493    80.6026  1715.7576    64.6526     0.0716     7.1737     0.0038     2.6875
 4832.5000   -31.3524  1670.6949    82.5817    72.0870  1716.2878    68.5801     0.0706     7.1739     0.0045     2.6777
 4833.0000   -31.3560  1671.3999    71.7642    62.6375  1716.8182    73.1118     0.0748     7.1740     0.0060     2.6687
 4833.5000   -31.3588  1671.9717    58.1359    53.6674  1717.4230    76.7372     0.0873     7.1742     0.0105     2.6686
 4834.0000   -31.3617  1672.5436    47.0957    43.7752  1717.8788    80.3997     0.0966     7.1743     0.0195     2.6772
 4834.5000   -31.8212  1673.1155    38.6915    34.9617  1718.4091    93.6556     0.1069     7.1745     0.0255     2.6957
 4835.0000   -31.9761  1688.9360    29.2889    27.9227  1718.9396   109.3656     0.1259     7.1747     0.0285     2.7032
 4835.5000   -32.1309  1674.2593    21.6056    22.4581  1719.5593   120.2417     0.1483     7.1748     0.0254     2.6987
 4836.0000   -32.1337  1674.9741    21.3044    19.1072  1720.0620   124.7734     0.1824     7.1749     0.0186     2.6889
 4836.5000   -32.1368  1675.5460    21.1554    18.0630  1720.5646   125.0755     0.2090     7.1751     0.0104     2.6759
 4837.0000   -32.1131  1676.1327    21.6056    19.2419  1721.0673   122.7824     0.2168     7.1752     0.0013     2.6716
 4837.5000   -31.9909  1676.8328    22.8537    20.6424  1721.6958   118.1269     0.2177     7.1754    -0.0062     2.6724
 4838.0000   -31.8421  1677.4041    24.5157    22.1448  1722.1211   115.7100     0.2013     7.1755    -0.0017     2.6754
 4838.5000   -31.7293  1677.9760    26.1146    23.2760  1722.6516   113.2931     0.1867     7.1757     0.0028     2.6761
 4839.0000   -31.3817  1678.5496    26.8583    24.4335  1723.2036   109.9698     0.1803     7.1758     0.0020     2.6671
 4839.5000   -31.2428  1664.0139    27.2381    24.4335  1723.7124   107.2272     0.1764     7.1760    -0.0018     2.6565
 4840.0000   -31.0572  1649.4801    27.6232    24.4335  1724.3347   105.4381     0.1749     7.1761    -0.0018     2.6513
 4840.5000   -30.7933  1665.2568    28.0342    24.4335  1724.8374   105.1359     0.1731     7.1763     0.0049     2.6580
 4841.0000   -30.6442  1658.9155    28.8115    24.6058  1725.3400   112.9909     0.1695     7.1764     0.0087     2.6657
 4841.5000   -30.5752  1651.3596    26.8583    24.4335  1725.8425   117.8248     0.1822     7.1766     0.0094     2.6693
 4842.0000   -30.4982  1651.9637    23.5046    23.0982  1726.3639   121.1592     0.2054     7.1767     0.0063     2.6678
 4842.5000   -30.5016  1652.6255    20.8317    20.4979  1726.8939   125.3776     0.2169     7.1619     0.0011     2.6685
 4843.0000   -30.5046  1653.1968    19.7212    19.0775  1727.4763   127.4924     0.2205     7.1770    -0.0004     2.6708
 4843.5000   -30.5081  1653.7687    19.4462    18.7087  1727.9790   125.6798     0.2235     7.1772     0.0033     2.6775
 4844.0000   -30.5904  1637.1569    19.8863    19.5142  1728.4849   124.1692     0.2112     7.1773     0.0093     2.6850
 4844.5000   -30.6657  1624.7008    20.5768    20.0704  1729.1101   122.6586     0.2067     7.1775     0.0190     2.6942
 4845.0000   -30.6737  1625.4158    21.4545    20.7940  1729.6127   121.3709     0.2064     7.1776     0.0257     2.7038
 4845.5000   -30.8242  1625.9875    22.3774    21.5311  1730.1154   119.6375     0.2061     7.1778     0.0280     2.7113
 4846.0000   -31.1311  1626.7024    23.0147    22.1051  1730.6179   116.0121     0.2041     7.1779     0.0220     2.7097
 4846.5000   -31.2859  1627.1903    23.5046    22.9324  1731.1366   112.6888     0.1958     7.1631     0.0118     2.6978
 4847.0000   -31.4408  1627.8462    25.0375    23.9240  1731.7485   111.4804     0.1846     7.1483     0.0024     2.6828
 4847.5000   -31.4444  1628.4181    26.1146    24.7793  1716.9742   110.2521     0.1768     7.1635    -0.0021     2.6745
 4848.0000   -31.4472  1629.0029    26.8583    25.6652  1702.4512   109.0634     0.1813     7.1636    -0.0007     2.6752
 4848.5000   -31.4501  1629.7042    27.2381    25.8461  1702.9543   114.5015     0.1881     7.1637     0.0023     2.6768
 4849.0000   -31.4530  1630.2761    26.4839    25.1299  1703.5819   117.8248     0.1934     7.1639     0.0060     2.6805
 4849.5000   -31.3039  1630.8480    25.5704    24.3983  1704.0845   119.3354     0.1964     7.1790     0.0105     2.6820
 4850.0000   -31.1548  1631.4199    24.6884    23.2054  1704.5454   119.6375     0.1958     7.1791     0.0128     2.6812
 4850.5000   -31.0064  1632.1348    23.5046    22.5028  1705.0757   123.1289     0.1943     7.1793     0.0127     2.6842
 4851.0000   -30.8571  1632.6284    22.3547    21.8001  1705.6058   126.5732     0.2010     7.1794     0.0176     2.6980
 4851.5000   -30.4005  1633.2784    21.1554    21.0974  1706.2208   127.7773     0.2083     7.1796     0.0255     2.7233
 4852.0000   -30.2551  1633.8503    20.8604    20.3659  1706.7235   127.4680     0.2126     7.1797     0.0299     2.7353
