~VERSION INFORMATION
 VERS.                2.0:   CWLS LOG ASCII STANDARD - VERSION 2.0
 WRAP.                 NO:   ONE LINE PER DEPTH STEP
~WELL INFORMATION
#MNEM.UNIT      DATA TYPE    INFORMATION
#----------   ------------   ------------------------------
 STRT.F          196.5000:   START DEPTH
 STOP.F         3219.0000:   STOP DEPTH
 STEP.F            0.5000:   STEP LENGTH
 NULL.          -999.2500:   NO VALUE
 COMP.    FENIX & SCISSON:   COMPANY
 WELL.  FENIX "AX" #73-15:   WELL
 FLD .              NPR 3:   FIELD
 LOC .      S15 T38N R78W:   LOCATION
 CNTY.            NATRONA:   COUNTY
 STAT.            WYOMING:   STATE
 CTRY. UNITED STATES OF AMERICA:   COUNTRY
 SRVC.       SCHLUMBERGER:   SERVICE COMPANY
 DATE.        30-AUG-1977:   LOGDATE
 API .     49025104270000:   API NUMBER
~CURVE INFORMATION
#MNEM.UNIT       API CODE    CURVE DESCRIPTION
#----------   ------------   ------------------------------
 DEPT.F                  :   
 NPHI.DEC    42 890 03 00:   NEUTRON POROSITY SANDSTONE
 CALD.IN     45 280 60 00:   CALIPER FROM DENSITY LOG
 GRD .GAPI   45 310 01 00:   GAMMA RAY FROM DENSITY LOG
 CORR.G/C3   45 356 01 00:   DENSITY CORRECTION
 RHOB.G/C3   45 350 01 00:   BULK DENSITY
 SPR .MV     07 010 01 00:   SPONTANEOUS POTENTIAL
 RILD.OHMM   07 120 46 00:   DEEP INDUCTION RESISTIVITY
 RILM.OHMM   07 120 44 00:   INDUCTION LOG MEDIUM RESISTIVITY
 LL8 .OHMM   07 220 08 00:   LATEROLOG-8 RES.
~PARAMETER INFORMATION
#MNEM.UNIT          VALUE    DESCRIPTION
#----------   ------------   ------------------------------
 EKB .F         5263.0000:   Kelly bushing
 EGL .F         5253.0000:   Ground level
 TD  .F         3220.0000:   Total depth
 CLNT.            A2DTECH:   Client Code
 SL  . 1650' FNL & 875' FEL:   Surface Location
 PD  .                 GL:   Permanent Datum
 EPD .F              5253:   Elevation Permanent Datum
 LMF .                 KB:   Log Measured From
 DMF .                 KB:   Drilling Measured From
 DAPD.F                10:   Feet Above Permanent Datum
 DATE.        30-AUG-1977:   Date Logged [DD-MMM-YYYY]
 DD  .F              3220:   Depth driller
 DL  .F              3219:   Depth logger
 BLI .F              3209:   Bottom log interval
 TLI .F               216:   Top log interval
 CS1 .IN            8.625:   Casing size
 CBL1.F               216:   Casing logger 1
 BS1 .IN            7.875:   Bit size
 BSD1.F              3220:   Depth drilled with bit1
 DFT .                FGM:   Type fluid in hole
 DFD .                8.9:   Density
 DFPH.                 11:   pH
 MSS .            MUDTANK:   Source of sample
 RMS .OHMM           0.40:   Rm
 MST .F                82:   Rm Meas. temp.
 RMF .OHMM           0.25:   Rmf
 MFST.F                72:   Rmf Meas. temp.
 MFSS.               MEAS:   Source Rmf.
 RMC .OHMM           0.60:   Rmc
 MCST.F                82:   Rmc Meas. temp.
 MCSS.               CALC:   Source Rmc.
 RMB .OHMM           0.27:   Rm. at BHT
 BHT .F               120:   BHT.
 MRT .F               120:   Maximum recorded temp.
 LUN .               5642:   Logging unit number
 LUL .               CSPR:   Logging unit location
 ENGI.                FIX:   Recorded By
 WITN.         RETTINGILL:   Witnessed by
 ORIG.           5" PRINT:   Origin of data
 UWI .     49025104270000:   Unique Well ID
 DICO. A2D TECHNOLOGIES, INC.:   Digitizing Company
 DFV .                 35:   Viscosity
 DFL .                8.4:   Fluid loss
 CBD1.      8.625" @ 216':   Casing driller 1
~OTHER INFORMATION
~A   DEPT       NPHI     CALD        GRD       CORR       RHOB        SPR       RILD       RILM        LL8   
# ...
 2605.5000     0.2556    10.1480   114.7824     0.0100     2.5458   -56.5475     7.2621     7.7178     9.3602
 2606.0000     0.2442    10.1679   115.6996     0.0048     2.5361   -56.5310     7.2169     7.5642     9.5014
 2606.5000     0.2411    10.1962   117.0632     0.0192     2.5310   -56.6659     7.1720     7.4652     9.1934
 2607.0000     0.2483    10.2278   118.4268     0.0020     2.5206   -56.6495     7.1771     7.4179     8.5840
 2607.5000     0.2663    10.2445   119.1147     0.0179     2.5102   -56.9397     7.1830     7.3216     8.0149
 2608.0000     0.2648    10.2760   114.6808     0.0194     2.5216   -56.9192     7.1879     7.2695     7.8377
 2608.5000     0.2839    10.3076   113.5829     0.0038     2.5157   -57.0545     7.2428     7.2309     8.2500
 2609.0000     0.2827    10.3243   113.6133     0.0069     2.5134   -57.0377     7.2477     7.2369     8.5456
 2609.5000     0.2809    10.3410   115.8698     0.0145     2.5249   -57.1725     7.3104     7.2418     8.6103
 2610.0000     0.2827    10.3448   117.0041     0.0056     2.5122   -57.3071     7.3588     7.2468     8.5561
 2610.5000     0.2778    10.3598   118.1505    -0.0011     2.5139   -57.2905     7.4149     7.2518     8.5626
 2611.0000     0.2757    10.3765   120.1838     0.0072     2.5185   -57.2738     7.4715     7.3580     8.4501
 2611.5000     0.2733    10.4081   121.5474     0.0013     2.5109   -57.2540     7.4766     7.4143     8.2816
 2612.0000     0.2801    10.4396   121.5890    -0.0068     2.4999   -57.2376     7.5336     7.5229     7.9496
 2612.5000     0.2870    10.4414   119.5871     0.0008     2.4903   -57.2239     7.5388     7.6481     8.3493
 2613.0000     0.2828    10.4432   116.6746     0.0040     2.4888   -57.2089     7.6197     7.7449     8.8912
 2613.5000     0.2729    10.4296   114.0206     0.0102     2.5032   -57.3419     7.7074     7.8584     9.1464
 2614.0000     0.2659    10.4467   111.7945     0.0145     2.4958   -57.3232     7.7127     7.9867     9.3439
 2614.5000     0.2647    10.4483   111.4254     0.0004     2.4937   -57.3068     7.7180     8.0904     8.9694
 2615.0000     0.2620    10.4502   112.3486     0.0042     2.5043   -57.2903     7.7770     8.1522     8.4330
 2615.5000     0.2629    10.4669   112.8194     0.0028     2.4984   -57.2739     7.8364     8.1578     8.4968
 2616.0000     0.2655    10.4835   113.5133    -0.0121     2.4842   -57.4088     7.8428     8.1634     8.8020
 2616.5000     0.2618    10.5002   113.7608    -0.0090     2.4761   -57.2411     7.9027     8.1689     9.0539
 2617.0000     0.2567    10.5020   113.5619     0.0031     2.4905   -57.2254     7.9072     8.1746     9.0596
 2617.5000     0.2492    10.5037   112.4702     0.0144     2.5018   -57.2743     7.9121     8.1803     9.0038
 2618.0000     0.2420    10.4906   111.3723     0.0010     2.5072   -57.3434     7.8634     8.1860     8.8242
 2618.5000     0.2387    10.5073   112.0724     0.0191     2.5163   -57.3267     7.8140     8.1348     8.9526
 2619.0000     0.2327    10.5091   113.8824     0.0297     2.5344   -57.3101     7.7654     8.0855     9.3379
 2619.5000     0.2350    10.5261   114.5723     0.0253     2.5277   -57.2935     7.6639     8.0352     9.7397
 2620.0000     0.2494    10.5279   113.0341     0.0291     2.5316   -57.4287     7.5637     7.9852    10.0192
 2620.5000     0.2600    10.5297   118.1984     0.0360     2.5407   -57.4115     7.4649     7.9341     8.6096
 2621.0000     0.2743    10.5314   128.0441     0.0316     2.5423   -57.3917     7.3177     7.7238     8.0389
 2621.5000     0.2823    10.5332   132.3095     0.0234     2.5311   -57.3753     7.1723     7.5177     7.4542
 2622.0000     0.2733    10.5347   129.4321     0.0175     2.5163   -57.5102     6.9812     7.2165     7.2390
 2622.5000     0.2546    10.5367   128.1110     0.0130     2.5119   -57.4938     6.7937     6.9755     8.3371
 2623.0000     0.2438    10.5534   128.1414     0.0101     2.5089   -57.4773     6.5645     6.6960     9.2547
 2623.5000     0.2480    10.5700   128.6121     0.0196     2.5226   -57.4629     6.3431     6.4723     8.3667
 2624.0000     0.2654    10.5718   130.8686     0.0111     2.5077   -57.4445     6.1716     6.2997     7.4266
 2624.5000     0.2687    10.5736   131.5625     0.0007     2.4935   -57.2768     6.0158     6.1743     7.5347
 2625.0000     0.2665    10.5753   131.5869     0.0098     2.5004   -57.2604     5.7363     6.0933     7.8589
 2625.5000     0.2608    10.5771   132.0576     0.0264     2.5117   -57.2439     5.5067     6.0137     7.8095
 2626.0000     0.2689    10.5938   137.8855     0.0520     2.5381   -57.2275     5.3964     6.0597     6.3056
 2626.5000     0.2826    10.6104   143.2669     0.0468     2.5270   -57.0598     5.3628     6.1060     5.7269
 2627.0000     0.2922    10.6122   144.8537     0.0364     2.5143   -56.7408     5.5949     6.2820     5.5731
 2627.5000     0.2874    10.6140   142.6459     0.0500     2.5249   -56.5731     5.8766     6.4221     7.5624
 2628.0000     0.2748    10.6158   135.9738     0.0283     2.5183   -56.2541     6.0457     6.6095     8.4517
 2628.5000     0.2712    10.6179   125.4279     0.0179     2.5146   -55.9349     6.2196     6.8023     7.8927
 2629.0000     0.2699    10.6197   114.8171     0.0097     2.5035   -55.6157     6.3105     7.0390     7.6289
 2629.5000     0.2636    10.6364   106.3347     0.0038     2.4961   -55.2744     6.3149     7.1918     7.7400
 2630.0000     0.2543    10.6381   103.2290     0.0013     2.5104   -54.8227     6.2755     7.2468     8.4233
 2630.5000     0.2509    10.6399   101.9436     0.0169     2.5180   -54.3525     6.1935     7.3022     8.3965
 2631.0000     0.2560    10.6416   102.9593     0.0101     2.5109   -54.0335     6.0682     7.2555     7.4916
 2631.5000     0.2578    10.6281   105.2425     0.0094     2.4919   -53.5632     5.9911     7.1617     6.9950
 2632.0000     0.2815    10.6452   108.2726     0.0150     2.4711   -53.3955     6.7519     7.1172     6.7613
 2632.5000     0.2823    10.6618   111.4219     0.0223     2.4652   -53.0765     6.8909     7.0240     6.7177
 2633.0000     0.2814    10.6934   113.9015     0.0895     2.4863   -52.9088     6.8956     6.9791     7.1055
 2633.5000     0.2796    10.5908   115.2651     0.0639     2.4557   -52.8923     6.8527     6.8877     7.4113
 2634.0000     0.2727    10.3989   116.1823     0.0159     2.4482   -53.0313     6.7165     6.7987     7.5714
 2634.5000     0.2655    10.4006   117.5459     0.0280     2.4716   -53.1662     6.4478     6.7552     7.6286
 2635.0000     0.2578    10.4024   118.9034     0.0183     2.4672   -53.4482     6.2327     6.7610     7.3228
 2635.5000     0.2543    10.3446   114.9159     0.0049     2.4598   -53.5872     6.1078     6.8601     6.9327
 2636.0000     0.2536    10.3153   111.8153    -0.0003     2.4562   -53.7186     6.1982     7.0090     6.9370
 2636.5000     0.2518    10.2885   109.8306     0.0013     2.4735   -53.8532     6.4654     7.1611     7.3383
 2637.0000     0.2429    10.2907   107.6228     0.0044     2.4841   -53.9879     6.8380     7.3675     7.9970
 2637.5000     0.2311    10.2477   104.9685     0.0075     2.4843   -54.1225     7.1823     7.5275     8.5632
 2638.0000     0.2268    10.2043   103.2071     0.0136     2.4874   -54.1059     7.3380     7.6379     8.6191
 2638.5000     0.2328    10.1763   106.1332     0.0197     2.4972   -54.2410     7.4970     7.6963     8.6243
 2639.0000     0.2313    10.1636   109.5058     0.0222     2.5056   -54.3758     7.5542     7.7026     8.6895
 2639.5000     0.2273    10.1500   111.9854     0.0131     2.5019   -54.3585     7.5035     7.6018     8.5754
 2640.0000     0.2243    10.1220   112.2330     0.0057     2.4968   -54.4943     7.3580     7.5010     8.4043
 2640.5000     0.2255    10.1391   112.7037     0.0020     2.5007   -54.6278     7.1138     7.3517     7.6860
 2641.0000     0.2282    10.1557   113.1744     0.0014     2.5030   -54.7640     6.9712     7.2066     7.4796
 2641.5000     0.2305    10.1426   114.0916     0.0015     2.4955   -54.5922     6.7867     7.1111     8.0773
