~VERSION INFORMATION
 VERS.                2.0:   CWLS LOG ASCII STANDARD - VERSION 2.0
 WRAP.                 NO:   ONE LINE PER DEPTH STEP
~WELL INFORMATION
#MNEM.UNIT      DATA TYPE    INFORMATION
#----------   ------------   ------------------------------
 STRT.F          794.0000:   START DEPTH
 STOP.F         2828.0000:   STOP DEPTH
 STEP.F            0.5000:   STEP LENGTH
 NULL.          -999.2500:   NO VALUE
 COMP.           U S NAVY:   COMPANY
 WELL. U S NAVY NPR 3 "A" #10-33:   WELL
 FLD .        TEAPOT DOME:   FIELD
 LOC .      S33 T39N R78W:   LOCATION
 CNTY.            NATRONA:   COUNTY
 STAT.            WYOMING:   STATE
 CTRY. UNITED STATES OF AMERICA:   COUNTRY
 SRVC.         MCCULLOUGH:   SERVICE COMPANY
 DATE.        25-JUL-1968:   LOGDATE
 API .     49025102180000:   API NUMBER
~CURVE INFORMATION
#MNEM.UNIT       API CODE    CURVE DESCRIPTION
#----------   ------------   ------------------------------
 DEPT.F                  :   
 GRN .GAPI   35 310 01 00:   GAMMA RAY
 NEUT.NAPI   35 330 01 00:   NEUTRON
 TEMP.DEG    99 000 00 00:   TEMPERATURE AT TOOL
~PARAMETER INFORMATION
#MNEM.UNIT          VALUE    DESCRIPTION
#----------   ------------   ------------------------------
 EKB .F            0.0000:   Kelly bushing
 EGL .F            0.0000:   Ground level
 EDF .F            0.0000:   Drilling floor
 EPD .F            0.0000:   Permanent datum
 TD  .F         2829.0000:   Total depth
 DATE.        25-JUL-1968:   Date logged
 CLNT.            A2DTECH:   Client Code
 DL  .F              2829:   Depth logger
 BLI .F              2825:   Bottom log interval
 TLI .F               800:   Top log interval
 DFT .                DRY:   Type fluid in hole
 TCS .HRS               2:   Time Circ. stopped
 ENGI.           KIMBERRY:   Recorded By
 ORIG.        2" 5" PRINT:   Origin of data
 UWI .     49025102180000:   Unique Well ID
 DICO. A2D TECHNOLOGIES, INC.:   Digitizing Company
~OTHER INFORMATION
~A   DEPT       GRN      NEUT       TEMP   
# ...
  885.0000    65.3330   508.8140  -999.2500
  885.5000    66.1520   497.4510  -999.2500
  886.0000    66.3080   483.7490  -999.2500
  886.5000    66.0500   482.0850  -999.2500
  887.0000    66.9490   483.2510  -999.2500
  887.5000    67.2180   480.9580  -999.2500
  888.0000    66.3270   482.3590  -999.2500
  888.5000    65.2650   478.4230  -999.2500
  889.0000    65.6900   477.9030  -999.2500
  889.5000    67.2200   479.4400  -999.2500
  890.0000    68.2350   469.6190  -999.2500
  890.5000    68.8630   466.7430  -999.2500
  891.0000    68.5420   477.8290  -999.2500
  891.5000    68.5890   485.0130  -999.2500
  892.0000    69.7490   491.1780  -999.2500
  892.5000    69.4410   510.4300  -999.2500
  893.0000    69.5520   500.4840  -999.2500
  893.5000    70.9160   495.3190  -999.2500
  894.0000    72.2880   488.5440  -999.2500
  894.5000    72.9620   488.5870  -999.2500
  895.0000    73.4020   493.2930  -999.2500
  895.5000    73.7860   502.0800  -999.2500
  896.0000    73.4200   513.9380  -999.2500
  896.5000    73.9910   490.1390  -999.2500
  897.0000    73.4040   495.5700  -999.2500
  897.5000    71.5240   502.8260  -999.2500
  898.0000    71.5880   499.7360  -999.2500
  898.5000    71.0910   487.9070  -999.2500
  899.0000    70.7250   481.2770  -999.2500
  899.5000    68.6480   474.9250  -999.2500
  900.0000    66.3190   493.9970  -999.2500
  900.5000    67.2830   493.8620  -999.2500
  901.0000    68.2950   492.0710  -999.2500
  901.5000    66.7330   497.2130  -999.2500
  902.0000    66.7410   502.4970  -999.2500
  902.5000    66.9810   497.1660  -999.2500
  903.0000    67.4490   486.7290  -999.2500
  903.5000    69.2420   477.1120  -999.2500
  904.0000    69.2210   442.2180  -999.2500
  904.5000    69.0320   453.2680  -999.2500
  905.0000    68.8240   479.7080  -999.2500
  905.5000    68.5190   506.0920  -999.2500
  906.0000    68.0350   525.5860  -999.2500
  906.5000    68.5970   539.0260  -999.2500
  907.0000    67.1890   550.9400  -999.2500
  907.5000    67.8380   550.9920  -999.2500
  908.0000    69.3220   545.0370  -999.2500
  908.5000    71.2360   557.4290  -999.2500
  909.0000    72.3480   578.1040  -999.2500
  909.5000    72.8180   598.7840  -999.2500
  910.0000    72.5450   625.8820  -999.2500
  910.5000    71.0490   666.8310  -999.2500
  911.0000    70.8820   694.9710  -999.2500
  911.5000    72.3160   725.8790  -999.2500
  912.0000    72.2360   750.0820  -999.2500
  912.5000    70.0620   716.2570  -999.2500
  913.0000    68.0290   687.5540  -999.2500
  913.5000    67.3820   659.1270  -999.2500
  914.0000    67.2170   607.5840  -999.2500
  914.5000    67.9090   567.8610  -999.2500
  915.0000    67.8730   546.1220  -999.2500
  915.5000    67.6910   520.5110  -999.2500
  916.0000    67.5550   496.1880  -999.2500
  916.5000    64.7260   486.3230  -999.2500
  917.0000    64.3900   489.8360  -999.2500
  917.5000    62.3410   493.0580  -999.2500
  918.0000    60.6810   490.9970  -999.2500
  918.5000    61.6760   488.7830  -999.2500
  919.0000    63.9860   489.1530  -999.2500
  919.5000    66.3360   487.9770  -999.2500
  920.0000    66.7550   482.4770  -999.2500
  920.5000    64.5800   474.7600  -999.2500
  921.0000    64.5130   466.9650  -999.2500
  921.5000    65.0040   464.5310  -999.2500
  922.0000    64.6410   455.0990  -999.2500
  922.5000    65.4640   455.5810  -999.2500
  923.0000    66.0550   461.8530  -999.2500
  923.5000    64.5900   472.6120  -999.2500
  924.0000    64.6150   480.0260  -999.2500
  924.5000    64.7740   469.6410  -999.2500
  925.0000    65.1910   467.6880  -999.2500
  925.5000    64.5810   466.9620  -999.2500
  926.0000    64.5990   475.7820  -999.2500
  926.5000    65.1880   477.7530  -999.2500
  927.0000    64.1800   483.4960  -999.2500
  927.5000    63.7710   484.7860  -999.2500
  928.0000    63.3020   491.5410  -999.2500
  928.5000    63.7820   502.8300  -999.2500
  929.0000    63.9720   511.4920  -999.2500
  929.5000    65.1590   517.5730  -999.2500
  930.0000    66.7010   515.1290  -999.2500
  930.5000    66.1370   523.9380  -999.2500
  931.0000    66.1610   525.6700  -999.2500
  931.5000    66.8890   529.9370  -999.2500
  932.0000    68.3920   520.3320  -999.2500
  932.5000    69.2190   510.2500  -999.2500
  933.0000    70.5580   509.9760  -999.2500
  933.5000    70.5480   511.1410  -999.2500
  934.0000    70.3170   510.2790  -999.2500
  934.5000    67.6480   493.9650  -999.2500
  935.0000    66.7650   487.4450  -999.2500
  935.5000    68.4650   482.9270  -999.2500
  936.0000    70.1690   482.0950  -999.2500
  936.5000    68.6260   482.8670  -999.2500
  937.0000    68.4850   490.6650  -999.2500
  937.5000    67.6940   508.0700  -999.2500
  938.0000    66.0940   525.4560  -999.2500
  938.5000    63.9410   533.2440  -999.2500
  939.0000    64.0430   538.3840  -999.2500
  939.5000    64.5470   536.3950  -999.2500
  940.0000    65.4540   520.6160  -999.2500
  940.5000    66.8700   507.1190  -999.2500
  941.0000    65.8420   486.1260  -999.2500
  941.5000    65.9770   474.0170  -999.2500
  942.0000    67.2130   469.1040  -999.2500
  942.5000    70.0590   484.9570  -999.2500
  943.0000    68.8380   483.4650  -999.2500
  943.5000    67.1800   481.3120  -999.2500
  944.0000    66.2640   469.0490  -999.2500
  944.5000    66.5400   471.8740  -999.2500
  945.0000    66.8990   474.5470  -999.2500
  945.5000    66.6040   478.7220  -999.2500
  946.0000    66.1440   464.5060  -999.2500
  946.5000    66.3610   454.4360  -999.2500
  947.0000    68.6110   455.3790  -999.2500
  947.5000    72.8680   456.9860  -999.2500
  948.0000    74.8310   451.4610  -999.2500
  948.5000    74.2240   443.9560  -999.2500
  949.0000    73.4080   449.7890  -999.2500
  949.5000    73.0390   456.1450  -999.2500
  950.0000    72.8920   445.5150  -999.2500
  950.5000    70.5730   441.9250  -999.2500
  951.0000    69.5450   441.5510  -999.2500
  951.5000    68.0200   441.2750  -999.2500
  952.0000    67.4500   443.9810  -999.2500
  952.5000    69.1770   451.1440  -999.2500
  953.0000    70.2090   458.2080  -999.2500
  953.5000    69.6720   465.3970  -999.2500
  954.0000    67.5270   465.0460  -999.2500
  954.5000    67.0370   464.5740  -999.2500
  955.0000    65.8520   467.7250  -999.2500
  955.5000    65.0260   473.3740  -999.2500
  956.0000    68.0830   482.1970  -999.2500
  956.5000    68.2290   477.4780  -999.2500
  957.0000    67.9270   463.3180  -999.2500
  957.5000    68.1240   455.9500  -999.2500
  958.0000    67.7100   453.8700  -999.2500
  958.5000    68.1160   455.9670  -999.2500
  959.0000    67.7320   449.9450  -999.2500
  959.5000    66.4820   442.7770  -999.2500
  960.0000    65.3230   432.6080  -999.2500
  960.5000    64.9430   434.0100  -999.2500
  961.0000    68.7730   439.1950  -999.2500
  961.5000    69.1070   443.5920  -999.2500
  962.0000    68.5080   443.4710  -999.2500
  962.5000    69.9950   447.8420  -999.2500
  963.0000    72.3030   468.8340  -999.2500
  963.5000    73.2580   481.3320  -999.2500
  964.0000    71.4950   497.3470  -999.2500
  964.5000    71.9980   488.4300  -999.2500
  965.0000    72.5650   483.4910  -999.2500
  965.5000    72.6150   481.1960  -999.2500
  966.0000    71.6170   465.0000  -999.2500
  966.5000    71.8490   467.3510  -999.2500
  967.0000    76.2210   472.5130  -999.2500
  967.5000    80.8770   477.6620  -999.2500
  968.0000    84.7940   480.2760  -999.2500
  968.5000    87.0410   472.9710  -999.2500
  969.0000    89.0670   463.1680  -999.2500
  969.5000    88.8950   461.0160  -999.2500
  970.0000    82.6330   469.2950  -999.2500
  970.5000    84.5330   475.0240  -999.2500
  971.0000    85.7640   470.5590  -999.2500
  971.5000    83.2220   478.9280  -999.2500
  972.0000    74.6490   485.9080  -999.2500
  972.5000    70.6210   490.9470  -999.2500
  973.0000    71.8610   497.5190  -999.2500
  973.5000    72.4870   514.9590  -999.2500
  974.0000    68.8840   532.2320  -999.2500
  974.5000    67.7340   549.3830  -999.2500
  975.0000    67.9340   586.8090  -999.2500
  975.5000    67.9380   621.9830  -999.2500
