~VERSION INFORMATION
 VERS.                2.0:   CWLS LOG ASCII STANDARD - VERSION 2.0
 WRAP.                 NO:   ONE LINE PER DEPTH STEP
~WELL INFORMATION
#MNEM.UNIT      DATA TYPE    INFORMATION
#----------   ------------   ------------------------------
 STRT.F          210.5000:   START DEPTH
 STOP.F         3234.0000:   STOP DEPTH
 STEP.F            0.5000:   STEP LENGTH
 NULL.          -999.2500:   NO VALUE
 COMP.    FENIX & SCISSON:   COMPANY
 WELL.   FENIX "A" #21-10:   WELL
 FLD .              NPR-3:   FIELD
 LOC .      S10 T38N R78W:   LOCATION
 CNTY.            NATRONA:   COUNTY
 STAT.            WYOMING:   STATE
 CTRY. UNITED STATES OF AMERICA:   COUNTRY
 SRVC.      DRESSER ATLAS:   SERVICE COMPANY
 DATE.        31-AUG-1977:   LOGDATE
 API .     49025104260000:   API NUMBER
~CURVE INFORMATION
#MNEM.UNIT       API CODE    CURVE DESCRIPTION
#----------   ------------   ------------------------------
 DEPT.F                  :   
 GRD .GAPI   45 310 01 00:   GAMMA RAY FROM DENSITY LOG
 CALD.IN     45 280 60 00:   CALIPER FROM DENSITY LOG
 RHOB.G/C3   45 350 01 00:   BULK DENSITY
 CORR.G/C3   45 356 01 00:   DENSITY CORRECTION
 SPR .MV     11 010 01 00:   SPONTANEOUS POTENTIAL
 LLS .OHMM   11 220 09 00:   LATEROLOG SHALLOW
 LLD .OHMM   11 220 10 00:   LATEROLOG DEEP
 TEND.LBS    45 635 01 00:   TENSION FROM DENSITY LOG
 TENR.LBS    07 635 01 00:   TENSION
~PARAMETER INFORMATION
#MNEM.UNIT          VALUE    DESCRIPTION
#----------   ------------   ------------------------------
 EKB .F         5258.0000:   Kelly bushing
 EGL .F         5248.0000:   Ground level
 EDF .F            0.0000:   Drilling floor
 TD  .F         3222.0000:   Total depth
 DATE.        31-AUG-1977:   Date logged
 CLNT.            A2DTECH:   Client Code
 SL  . 330' FNL & 990' FWL:   Surface Location
 PD  .                 GL:   Permanent Datum
 EPD .F              5248:   Elevation Permanent Datum
 LMF .                 KB:   Log Measured From
 DMF .                 KB:   Drilling Measured From
 DAPD.F                10:   Feet Above Permanent Datum
 DD  .F              3222:   Depth driller
 DL  .F              3219:   Depth logger
 BLI .F              3218:   Bottom log interval
 TLI .F               221:   Top log interval
 CS1 .IN             8.75:   Casing size
 CBD1.       8.75" @ 219':   Casing driller 1
 CBL1.F               221:   Casing logger 1
 BS1 .IN            7.875:   Bit size
 BSD1.F              3222:   Depth drilled with bit1
 DFT .                KCL:   Type fluid in hole
 DFD .                9.1:   Density
 DFV .                 36:   Viscosity
 DFPH.                 11:   pH
 DFL .                  8:   Fluid loss
 MSS .           FLOWLINE:   Source of sample
 RMS .OHMM           0.14:   Rm
 MST .F                72:   Rm Meas. temp.
 RMF .OHMM           0.08:   Rmf
 MFST.F                72:   Rmf Meas. temp.
 RMC .OHMM           0.20:   Rmc
 MCST.F                72:   Rmc Meas. temp.
 MFSS.               CALC:   Source Rmf.
 MCSS.               CALC:   Source Rmc.
 RMB .OHMM           0.08:   Rm. at BHT
 BHT .F               125:   BHT.
 TCS .HRS               3:   Time Circ. stopped
 MRT .F               125:   Maximum recorded temp.
 LUN .               6080:   Logging unit number
 LUL .              WLSTN:   Logging unit location
 ENGI.               RALL:   Recorded By
 WITN.         PETTINGILL:   Witnessed by
 ORIG.           5" PRINT:   Origin of data
 UWI .     49025104260000:   Unique Well ID
 DICO. A2D TECHNOLOGIES, INC.:   Digitizing Company
~OTHER INFORMATION
~A   DEPT      GRD       CALD       RHOB       CORR        SPR        LLS        LLD       TEND        TENR  
# ...
 2400.5000   113.4650     8.0920     2.4710     0.0050   -80.9370     7.2660     8.0960   270.7370   543.9260
 2401.0000   111.0580     8.0950     2.4700     0.0050   -81.0360     7.4480     7.9480   269.3650   545.7440
 2401.5000   111.0750     8.0990     2.4680     0.0050   -81.2070     6.9930     7.4000   267.9930   547.5610
 2402.0000   108.9370     8.1020     2.4670     0.0050   -81.2180     6.4990     6.8510   269.1780   549.3780
 2402.5000   106.7790     8.1040     2.4640     0.0050   -81.1740     5.9800     6.4930   272.7790   551.1950
 2403.0000   107.2580     8.1070     2.4600     0.0050   -80.9150     6.1820     6.6740   276.3810   553.0120
 2403.5000   111.1630     8.1090     2.4580     0.0040   -80.7150     7.1080     7.4510   279.9830   554.8290
 2404.0000   115.0990     8.1120     2.4560     0.0050   -80.5250     8.2360     8.8610   283.5840   556.6460
 2404.5000   118.2390     8.1150     2.4540     0.0050   -80.3350     8.1290     8.5820   287.1860   558.4630
 2405.0000   115.6840     8.1170     2.4520     0.0060   -80.2180     7.8510     8.2250   290.7880   560.2810
 2405.5000   115.0380     8.1200     2.4500     0.0060   -80.2170     7.4760     8.0130   294.3890   562.0980
 2406.0000   114.1510     8.1230     2.4470     0.0070   -80.3910     6.9470     7.2650   297.9910   563.9150
 2406.5000   114.5750     8.1250     2.4420     0.0070   -80.6690     6.4190     6.7360   301.5930   565.7320
 2407.0000   115.4640     8.1280     2.4420     0.0080   -80.9490     5.8900     6.1480   305.1940   560.2600
 2407.5000   113.8670     8.1310     2.4360     0.0080   -81.2080     5.3620     5.5600   308.7960   551.1420
 2408.0000   116.4940     8.1330     2.4300     0.0090   -81.2140     4.8340     4.9720   312.3980   542.0240
 2408.5000   119.3410     8.1360     2.4230     0.0090   -81.2120     4.3020     4.8010   315.9990   532.9060
 2409.0000   122.0880     8.1390     2.4170     0.0100   -81.1150     4.4220     4.8900   319.6010   523.7880
 2409.5000   120.7340     8.1410     2.4160     0.0100   -81.0150     5.3030     5.1190   323.2030   514.6700
 2410.0000   118.1660     8.1440     2.4170     0.0110   -81.0140     6.1190     6.6310   326.8040   506.4550
 2410.5000   114.3410     8.1470     2.4370     0.0110   -81.0080     6.9360     7.9190   330.4060   508.4230
 2411.0000   110.5430     8.1490     2.4580     0.0120   -81.2410     7.5850     8.2360   334.0080   510.2140
 2411.5000   106.7150     8.1520     2.4620     0.0120   -81.5570     6.7050     7.0280   337.6090   512.0050
 2412.0000   105.1930     8.1550     2.4590     0.0120   -81.8760     5.7480     6.0440   341.2110   513.7960
 2412.5000   105.6980     8.1570     2.4500     0.0110   -82.1950     4.7910     4.8860   344.8130   515.5870
 2413.0000   108.0650     8.1600     2.4440     0.0100   -82.2090     3.8350     3.6830   348.4140   517.3780
 2413.5000   111.3790     8.1590     2.4400     0.0100   -82.2210     3.0390     3.4540   352.0160   519.1690
 2414.0000   114.6880     8.1530     2.4370     0.0090   -82.3040     3.1240     3.3610   355.6180   520.9600
 2414.5000   117.6620     8.1480     2.4400     0.0080   -82.3880     3.3610     3.5500   359.2190   522.7510
 2415.0000   116.7650     8.1420     2.4440     0.0080   -82.4710     3.6040     3.8870   362.8210   524.5420
 2415.5000   112.7710     8.1360     2.4490     0.0070   -82.5550     3.8460     4.2240   366.3370   526.3160
 2416.0000   108.9130     8.1310     2.4530     0.0060   -82.6060     4.0730     4.2630   383.8480   544.7320
 2416.5000   106.1250     8.1250     2.4540     0.0060   -82.5930     3.9020     4.0090   378.4750   562.9680
 2417.0000   106.6170     8.1190     2.4530     0.0050   -82.2620     3.6290     3.7590   373.1010   562.9480
 2417.5000   108.2970     8.1140     2.4550     0.0040   -81.9250     3.3550     3.5090   367.7280   559.2340
 2418.0000   109.9250     8.1080     2.4590     0.0040   -81.5920     3.1240     3.4090   362.3550   555.5190
 2418.5000   111.7920     8.1020     2.4610     0.0030   -81.2570     3.2500     3.3610   356.9820   551.8040
 2419.0000   115.3200     8.0970     2.4600     0.0020   -80.9010     3.5200     3.3920   351.6080   548.0890
 2419.5000   118.8800     8.0910     2.4590     0.0020   -80.6580     3.7910     3.7660   346.2350   544.3750
 2420.0000   121.1230     8.0860     2.4590     0.0010   -80.6500     4.0610     4.1480   340.8620   540.6600
 2420.5000   122.0280     8.0800     2.4610     0.0000   -80.7310     4.3320     4.3870   335.4880   536.9450
 2421.0000   121.4910     8.0740     2.4630     0.0000   -80.8060     4.6030     4.7860   330.1150   533.2300
 2421.5000   121.0850     8.0690     2.4690    -0.0010   -80.6670     4.8730     5.1850   324.7420   529.5160
 2422.0000   122.7640     8.0620     2.4750    -0.0010   -80.2610     5.1440     5.5840   319.3680   526.8510
 2422.5000   125.5830     8.0460     2.4820     0.0000   -79.8820     5.5490     5.7720   313.9950   530.7080
 2423.0000   124.4170     8.0350     2.4910     0.0020   -79.4390     5.6610     5.8180   308.6220   534.5660
 2423.5000   125.1950     8.0300     2.5010     0.0030   -78.9970     6.0130     6.2380   303.2490   538.4230
 2424.0000   126.9660     8.0240     2.5030     0.0050   -78.6160     6.4060     6.7190   297.8750   542.2810
 2424.5000   127.5040     8.0180     2.5030     0.0060   -78.6280     6.7990     7.2000   292.5020   546.1390
 2425.0000   124.1950     8.0110     2.5030     0.0080   -78.6290     7.1150     7.5850   287.1290   549.9960
 2425.5000   121.9630     8.0050     2.5030     0.0080   -78.6300     7.2460     7.3810   281.7550   553.8540
 2426.0000   120.3920     7.9990     2.5030     0.0080   -78.6200     6.7500     7.1800   276.3820   557.7110
 2426.5000   118.8520     7.9930     2.5020     0.0070   -78.3740     6.2580     6.6620   271.0090   561.5690
 2427.0000   118.9060     7.9870     2.5000     0.0070   -78.1210     5.9800     6.3170   265.6360   565.4270
 2427.5000   119.9620     7.9810     2.4980     0.0060   -77.8700     6.1460     6.3640   260.2620   562.5210
 2428.0000   120.9600     7.9750     2.4960     0.0060   -77.8020     6.2840     6.5500   254.8890   558.3420
 2428.5000   121.5680     7.9690     2.4940     0.0050   -77.7540     6.4340     6.9480   249.5160   554.1630
 2429.0000   121.4980     7.9630     2.4920     0.0050   -77.7050     6.9090     7.6670   244.1420   549.9830
 2429.5000   120.4460     7.9560     2.4890     0.0040   -77.6570     7.5350     8.3870   238.7690   546.1770
 2430.0000   118.0150     7.9500     2.4870     0.0040   -77.4380     8.1610     9.1060   233.3960   543.1420
 2430.5000   115.6120     7.9440     2.4850     0.0030   -77.0440     8.7870     9.8890   227.7230   540.3560
 2431.0000   113.2220     7.9420     2.4820     0.0030   -76.6500     9.4130    10.0230   251.7900   537.5700
 2431.5000   110.8250     7.9420     2.4790     0.0030   -76.2550     9.7100    10.2110   277.2780   534.7840
 2432.0000   108.4270     7.9430     2.4760     0.0040   -75.8560     9.6190    10.3990   302.7670   531.9980
 2432.5000   109.4760     7.9440     2.4780     0.0050   -75.4690     9.5370    10.4470   328.2560   529.2120
 2433.0000   111.3640     7.9460     2.4850     0.0060   -75.8250     9.4560    10.4470   353.7450   526.4260
 2433.5000   113.2850     7.9470     2.4890     0.0070   -76.2290     9.3750    10.2220   379.2330   523.6400
 2434.0000   115.2660     7.9480     2.4930     0.0080   -76.6330     9.2760     9.9870   404.7220   520.8540
 2434.5000   115.3230     7.9490     2.4970     0.0090   -77.0390     9.4550     9.8890   418.7720   518.0680
 2435.0000   112.5180     7.9500     2.5010     0.0100   -77.4140     9.9540    10.5130   379.0100   515.2820
 2435.5000   109.3620     7.9520     2.5050     0.0110   -77.0580    10.4470    11.2220   339.2480   512.4960
 2436.0000   107.4210     7.9530     2.5040     0.0120   -76.6710    10.2780    11.1420   306.9310   509.7100
 2436.5000   105.8580     7.9540     2.5020     0.0110   -76.2880    10.0700    10.9830   306.9310   506.9240
