~VERSION INFORMATION
 VERS.                2.0:   CWLS LOG ASCII STANDARD - VERSION 2.0
 WRAP.                 NO:   ONE LINE PER DEPTH STEP
~WELL INFORMATION
#MNEM.UNIT      DATA TYPE    INFORMATION
#----------   ------------   ------------------------------
 STRT.F          209.5000:   START DEPTH
 STOP.F         3130.0000:   STOP DEPTH
 STEP.F            0.5000:   STEP LENGTH
 NULL.          -999.2500:   NO VALUE
 COMP. FENIX & SCISSON-U.S. NAVY:   COMPANY
 WELL.   FENIX "A" #66-29:   WELL
 FLD .              NPR 3:   FIELD
 LOC .      S29 T39N R78W:   LOCATION
 CNTY.            NATRONA:   COUNTY
 STAT.            WYOMING:   STATE
 CTRY. UNITED STATES OF AMERICA:   COUNTRY
 SRVC.       SCHLUMBERGER:   SERVICE COMPANY
 DATE.        12-JUN-1977:   LOGDATE
 API .     49025103850000:   API NUMBER
~CURVE INFORMATION
#MNEM.UNIT       API CODE    CURVE DESCRIPTION
#----------   ------------   ------------------------------
 DEPT.F                  :   
 CALD.IN     45 280 60 00:   CALIPER FROM DENSITY LOG
 GRD .GAPI   45 310 01 00:   GAMMA RAY FROM DENSITY LOG
 RHOB.G/C3   45 350 01 00:   BULK DENSITY
 CORR.G/C3   45 356 01 00:   DENSITY CORRECTION
 LL8 .OHMM   07 220 08 00:   LATEROLOG-8 RES.
 ILD .OHMM   07 120 46 00:   DEEP INDUCTION RESISTIVITY
 ILM .OHMM   07 120 44 00:   INDUCTION LOG MEDIUM RESISTIVITY
 SPR .MV     07 010 01 00:   SPONTANEOUS POTENTIAL
~PARAMETER INFORMATION
#MNEM.UNIT          VALUE    DESCRIPTION
#----------   ------------   ------------------------------
 EKB .F         5058.0000:   Kelly bushing
 EGL .F         5048.0000:   Ground level
 EDF .F            0.0000:   Drilling floor
 TD  .F         3120.0000:   Total depth
 DATE.        12-JUN-1977:   Date logged
 CLNT.            A2DTECH:   Client Code
 SL  . 1650' FSL & 1650' FEL:   Surface Location
 PD  .                 GL:   Permanent Datum
 EPD .F              5048:   Elevation Permanent Datum
 LMF .                 KB:   Log Measured From
 DMF .                 KB:   Drilling Measured From
 DAPD.F                10:   Feet Above Permanent Datum
 DD  .F              3120:   Depth driller
 DL  .F              3120:   Depth logger
 BLI .F              3120:   Bottom log interval
 TLI .F               219:   Top log interval
 CS1 .IN            8.625:   Casing size
 CBD1.      8.625" @ 225':   Casing driller 1
 CBL1.F               219:   Casing logger 1
 BS1 .IN            7.875:   Bit size
 BSD1.F              3120:   Depth drilled with bit1
 DFT .            KCL MUD:   Type fluid in hole
 DFD .                8.8:   Density
 DFV .                 32:   Viscosity
 DFPH.                7.5:   pH
 DFL .                  8:   Fluid loss
 MSS .              CIRC.:   Source of sample
 RMS .OHMM           2.01:   Rm
 MST .F                72:   Rm Meas. temp.
 RMF .OHMM            1.9:   Rmf
 MFST.F                72:   Rmf Meas. temp.
 RMC .OHMM           3.02:   Rmc
 MCST.F                72:   Rmc Meas. temp.
 MFSS.               MEAS:   Source Rmf.
 MCSS.               CALC:   Source Rmc.
 RMB .OHMM           1.21:   Rm. at BHT
 BHT .F               120:   BHT.
 TCS .HRS            1400:   Time Circ. stopped
 TLAB.HRS            1730:   Time logger at bottom
 MRT .F               120:   Maximum recorded temp.
 LUN .               7711:   Logging unit number
 LUL .               CSPR:   Logging unit location
 ENGI.             SAYLER:   Recorded By
 WITN.             RHODES:   Witnessed by
 ORIG.           5" PRINT:   Origin of data
 UWI .     49025103850000:   Unique Well ID
 DICO. A2D TECHNOLOGIES, INC.:   Digitizing Company
~OTHER INFORMATION
~A   DEPT     CALD         GRD      RHOB       CORR        LL8        ILD        ILM        SPR   
# ...
 3085.0000     7.9973   109.1457     2.4834    -0.0019     4.9181     4.4532     4.3723   -77.9816
 3085.5000     7.9964   107.7479     2.4933     0.0010     5.1956     4.4531     4.3723   -78.1792
 3086.0000     7.9960   112.0967     2.4953     0.0060     5.2433     4.4941     4.4125   -78.1792
 3086.5000     7.9959   115.4591     2.4913     0.0030     5.1481     4.4941     4.4124   -78.3768
 3087.0000     8.0150   118.0247     2.4938     0.0020     4.8731     4.4940     4.3721   -78.9696
 3087.5000     7.9944   118.6175     2.4838     0.0000     4.8286     4.4940     4.3322   -78.9696
 3088.0000     7.9938   114.0529     2.4958     0.0109     5.3890     4.3322     4.2147   -78.9696
 3088.5000     7.9932   115.7265     2.5097     0.0119     5.4884     4.2147     4.1004   -79.1672
 3089.0000     7.9926   117.4000     2.5077     0.0069     4.8285     4.1004     4.0259   -79.3648
 3089.5000     7.9920   121.1630     2.4977     0.0049     4.0953     3.9891     3.8810   -79.5624
 3090.0000     7.9914   121.1618     2.4937     0.0049     4.3263     3.8456     3.7757   -79.5624
 3090.5000     8.0106   117.7876     2.4957     0.0069     4.5704     3.8104     3.7071   -79.3648
 3091.0000     7.9902   117.5849     2.4997     0.0079     4.5288     3.8104     3.6733   -79.1673
 3091.5000     7.9896   116.7869     2.4977     0.0039     4.1707     3.8104     3.6733   -78.9697
 3092.0000     7.9893   115.3939     2.4957     0.0029     3.9842     3.8103     3.7070   -78.7721
 3092.5000     8.0087   113.0120     2.4852    -0.0001     3.9842     3.8454     3.7070   -77.7843
 3093.0000     8.0080   110.0361     2.4872    -0.0001     4.4873     3.8453     3.7070   -77.5868
 3093.5000     8.0068   107.8523     2.4922     0.0039     4.8280     3.8453     3.7069   -77.3892
 3094.0000     8.0066   112.5947     2.5001     0.0078     4.7840     3.8453     3.7069   -76.9942
 3094.5000     8.0259   115.1639     2.4981     0.0098     4.4872     3.8452     3.6731   -76.7966
 3095.0000     8.0251   115.5575     2.4912     0.0078     4.4058     3.7754     3.6063   -76.5991
 3095.5000     8.0245   117.1332     2.4872     0.0038     4.1325     3.7409     3.5085   -76.9943
 3096.0000     8.0239   117.5292     2.4832     0.0038     3.9476     3.6395     3.3823   -76.9943
 3096.5000     8.0233   122.8621     2.4772    -0.0002     3.7711     3.5085     3.2308   -77.1919
 3097.0000     8.0227   123.2580     2.4702    -0.0002     3.8057     3.3208     3.1432   -77.3894
 3097.5000     8.0418   126.6169     2.4752    -0.0042     3.6689     3.2307     3.0579   -77.5870
 3098.0000     8.0807   125.6209     2.4792    -0.0062     3.5049     3.1720     3.0024   -77.9821
 3098.5000     8.1200   124.2279     2.4831     0.0038     3.4099     3.1431     2.9750   -78.1797
 3099.0000     8.1787   122.4388     2.4931     0.0107     3.4099     3.1431     2.9750   -78.3772
 3099.5000     8.2177   121.6421     2.4911     0.0177     3.4099     3.1430     2.9749   -78.5748
 3100.0000     8.2369   119.4570     2.4692     0.0187     3.4099     3.1720     2.9749   -78.7723
 3100.5000     8.0996   119.2830     2.4568     0.0104     3.6012     3.1969     3.1737   -78.7724
 3101.0000     8.0975   119.4511     2.4641     0.0007     3.8436     3.2037     3.1456   -78.5571
 3101.5000     8.0180   120.0412     2.4790     0.0086     3.8452     3.1758     3.0897   -77.9548
 3102.0000     8.0177   120.6319     2.4750     0.0166     3.6748     3.0910     3.0349   -77.5482
 3102.5000     8.0174   121.8167     2.4581     0.0076     3.3549     3.0361     3.0084   -77.1436
 3103.0000     8.0170   123.0027     2.4770     0.0056     3.3257     3.0097     2.9822   -76.7390
 3103.5000     8.0167   123.3949     2.4750     0.0055     3.2667     2.9837     2.9565   -76.3344
 3104.0000     8.0164   119.4301     2.4630     0.0115     3.2681     2.9577     2.9308   -76.3249
 3104.5000     7.9963   115.6660     2.4630     0.0005     3.2399     2.9320     2.9320   -76.3153
 3105.0000     8.0157   112.2541     2.4630     0.0035     3.2710     2.9332     2.9064   -75.9109
 3105.5000     8.0154   103.7771     2.4659     0.0054     3.3024     2.9344     2.9076   -75.5065
 3106.0000     8.0151    99.6163     2.4788     0.0104     3.3038     2.9356     2.9088   -75.2995
 3106.5000     8.0147    76.3810     2.4718     0.0054     3.3051     2.8572     2.9100   -75.2900
 3107.0000     7.9946  -999.2500     2.4619     0.0033     3.3368     2.8065     2.8847   -75.4779
 3107.5000     7.9943  -999.2500     2.4618     0.0073     3.3998     2.7570     2.8079   -75.4684
 3108.0000     7.9940  -999.2500     2.4747     0.0142     3.3396     2.7080     2.7581   -75.4589
 3108.5000     7.9936  -999.2500     2.4638     0.0142     3.1055     2.6600     2.7092   -75.6468
 3109.0000     7.9933  -999.2500     2.4618     0.0122     3.1068     2.6128     2.6856   -75.8346
 3109.5000     7.9930  -999.2500     2.4548     0.0082     3.0240     2.5665     2.6379   -76.0224
 3110.0000     7.9927  -999.2500     2.4528     0.0111     2.9166     2.5675     2.5912   -76.5991
 3110.5000     7.9923  -999.2500     2.4687     0.0091     2.8388     2.5686     2.5452   -76.5972
 3111.0000     8.0315  -999.2500     2.4736     0.0051     2.9463     2.5697     2.5463   -76.3994
 3111.5000     8.0312  -999.2500     2.4706     0.0041     3.0290     2.5710     2.5475   -76.2016
 3112.0000     8.0309  -999.2500     2.4517     0.0040     3.0861     2.5720     2.5486   -76.0038
 3112.5000     8.0306  -999.2500     2.4626     0.0010     3.0874     2.5497     2.5731   -75.7641
 3113.0000     8.0302  -999.2500     2.4755     0.0060     3.0053     2.5275     2.5742   -75.7584
 3113.5000     8.0299  -999.2500     2.4745     0.0129     3.0066     2.5055     2.5989   -75.3525
 3114.0000     8.0692  -999.2500     2.4695     0.0129     3.0078     2.4837     2.6000   -74.7533
 3114.5000     8.0689  -999.2500     2.4565     0.0059     2.9817     2.4397     2.5774   -74.3475
 3115.0000     8.0091  -999.2500     2.4525     0.0059     2.9558     2.4184     2.5086   -74.1409
 3115.5000     8.0088  -999.2500     2.4465     0.0178     2.8770     2.2904     2.3758   -73.9343
 3116.0000     8.0085  -999.2500     2.4395     0.0157     2.6031     2.2089     2.2913   -73.5306
 3116.5000     8.0081  -999.2500     2.4266     0.0048     2.6281     2.1698     2.2507   -73.1269
 3117.0000     8.0078  -999.2500     2.4206     0.0067     2.5117     2.1707     2.2516   -73.1175
 3117.5000     8.0075  -999.2500     2.4265     0.0127     2.4226     2.1716     2.2733   -73.1082
 3118.0000     8.0468  -999.2500     2.4255     0.0176     2.3797     2.1925     2.3163   -73.2959
 3118.5000     7.9870  -999.2500     2.4225     0.0066     2.4693     2.1934     2.3818   -73.2866
 3119.0000     7.9867  -999.2500     2.4255     0.0056     2.8075     2.1944     2.5873   -73.1230
 3119.5000     7.9863  -999.2500     2.4414     0.0076     3.1057     2.1955     2.6849   -73.3108
 3120.0000     7.9861  -999.2500     2.4592     0.0066     3.3733     2.1764     2.7608   -73.0614
 3120.5000     7.9857  -999.2500     2.4781     0.0125  -999.2500  -999.2500  -999.2500  -999.2500
 3121.0000     7.9855  -999.2500     2.4751     0.0164  -999.2500  -999.2500  -999.2500  -999.2500
 3121.5000     7.9850  -999.2500     2.4691     0.0194  -999.2500  -999.2500  -999.2500  -999.2500
 3122.0000     7.9847  -999.2500     2.4701     0.0293  -999.2500  -999.2500  -999.2500  -999.2500
 3122.5000     7.9844  -999.2500     2.4880     0.0343  -999.2500  -999.2500  -999.2500  -999.2500
 3123.0000     7.9840  -999.2500     2.4740     0.0362  -999.2500  -999.2500  -999.2500  -999.2500
 3123.5000     7.9045  -999.2500     2.4511     0.0362  -999.2500  -999.2500  -999.2500  -999.2500
 3124.0000  -999.2500  -999.2500     2.4285  -999.2500  -999.2500  -999.2500  -999.2500  -999.2500
 3124.5000  -999.2500  -999.2500     2.3835  -999.2500  -999.2500  -999.2500  -999.2500  -999.2500
 3125.0000  -999.2500  -999.2500     2.3546  -999.2500  -999.2500  -999.2500  -999.2500  -999.2500
