~VERSION INFORMATION
 VERS.                2.0:   CWLS LOG ASCII STANDARD - VERSION 2.0
 WRAP.                 NO:   ONE LINE PER DEPTH STEP
~WELL INFORMATION
#MNEM.UNIT      DATA TYPE    INFORMATION
#----------   ------------   ------------------------------
 STRT.F          500.0000:   START DEPTH
 STOP.F         4646.0000:   STOP DEPTH
 STEP.F            0.5000:   STEP LENGTH
 NULL.          -999.2500:   NO VALUE
 COMP.    FENIX & SCISSON:   COMPANY
 WELL. LAWRENCE NPR 3 "X" #34-10:   WELL
 FLD .                NPR:   FIELD
 LOC .      S10 T38N R78W:   LOCATION
 CNTY.            NATRONA:   COUNTY
 STAT.            WYOMING:   STATE
 CTRY. UNITED STATES OF AMERICA:   COUNTRY
 SRVC.              WELEX:   SERVICE COMPANY
 DATE.        12-OCT-1979:   LOGDATE
 API .     49025109290000:   API NUMBER
~CURVE INFORMATION
#MNEM.UNIT       API CODE    CURVE DESCRIPTION
#----------   ------------   ------------------------------
 DEPT.F                  :   
 SPR .MV     07 010 01 00:   SPONTANEOUS POTENTIAL
 SGRD.OHMM   07 220 05 00:   SHALLOW GUARD LOG RESISTIVITY
 ILD .OHMM   07 120 46 00:   DEEP INDUCTION RESISTIVITY
 ILM .OHMM   07 120 44 00:   INDUCTION LOG MEDIUM RESISTIVITY
 TEND.LBS    45 635 01 00:   TENSION FROM DENSITY LOG
 CORR.G/C3   45 356 01 00:   DENSITY CORRECTION
 RHOB.G/C3   45 350 01 00:   BULK DENSITY
 NPHI.DEC    42 890 03 00:   NEUTRON POROSITY SANDSTONE
 GRD .GAPI   45 310 01 00:   GAMMA RAY FROM DENSITY LOG
 CALD.IN     45 280 60 00:   CALIPER FROM DENSITY LOG
~PARAMETER INFORMATION
#MNEM.UNIT          VALUE    DESCRIPTION
#----------   ------------   ------------------------------
 EKB .F         5234.0000:   Kelly bushing
 EGL .F         5224.0000:   Ground level
 EDF .F            0.0000:   Drilling floor
 TD  .F         4650.0000:   Total depth
 DATE.        12-OCT-1979:   Date logged
 CLNT.            A2DTECH:   Client Code
 SL  . 2055' FNL & 1509' FWL:   Surface Location
 PD  .                 GL:   Permanent Datum
 DD  .F              4650:   Depth driller
 DL  .F              4646:   Depth logger
 BLI .F              4644:   Bottom log interval
 CS1 .IN              500:   Casing size
 CBD1.      8.625" @ 500':   Casing driller 1
 CBL1.F               502:   Casing logger 1
 BS1 .IN            7.875:   Bit size
 DFT .           CHEM/GEL:   Type fluid in hole
 DFD .                8.8:   Density
 DFV .                 62:   Viscosity
 DFPH.               11.2:   pH
 DFL .                4.5:   Fluid loss
 MSS .            MUD/PIT:   Source of sample
 RMS .OHMM           1.18:   Rm
 MST .F                60:   Rm Meas. temp.
 RMF .OHMM            .94:   Rmf
 MFST.F                60:   Rmf Meas. temp.
 RMC .OHMM           1.41:   Rmc
 MCST.F                60:   Rmc Meas. temp.
 MFSS.               MEAS:   Source Rmf.
 RMB .OHMM            .81:   Rm. at BHT
 BHT .F                87:   BHT.
 TCS .HRS               2:   Time Circ. stopped
 MRT .F                87:   Maximum recorded temp.
 LUN .               1892:   Logging unit number
 LUL .             CASPER:   Logging unit location
 ENGI.               REIN:   Recorded By
 WITN.           DINSMORE:   Witnessed by
 ORIG.           5" PRINT:   Origin of data
 UWI .     49025109290000:   Unique Well ID
 DICO. A2D TECHNOLOGIES, INC.:   Digitizing Company
 DAPD.                 10:   Feet Above Permanent Datum
 BSD1.F              4650:   Depth drilled with bit1
 MCSS.               MEAS:   Source Rmc.
 EPD .F              5224:   Elevation Permanent Datum
 LMF .                 KB:   Log Measured From
 DMF .                 KB:   Drilling Measured From
 TLI .F               500:   Top log interval
~OTHER INFORMATION
~A   DEPT      SPR         SGRD      ILD         ILM      TEND         CORR       RHOB       NPHI       GRD        CALD 
# ...
 1605.5000   -38.8030     7.3830     6.5230     6.8780  1747.5861     0.1600     2.5400     0.0650    96.4580     9.5890
 1606.0000   -38.9110     7.4580     6.4940     6.8670  1748.3051     0.1700     2.5360     0.0710    92.6910     9.5770
 1606.5000   -39.0200     7.2940     6.4320     6.7940  1749.0229     0.1730     2.5180     0.0800    89.0100     9.5640
 1607.0000   -39.1280     7.1520     6.3680     6.7020  1749.7419     0.1680     2.5000     0.0890    89.6340     9.5510
 1607.5000   -39.2360     7.0090     6.3030     6.6110  1750.4611     0.1590     2.4790     0.0990    90.0980     9.5390
 1608.0000   -39.3440     6.8640     6.2380     6.5190  1751.1801     0.1510     2.4580     0.1090    87.9930     9.5260
 1608.5000   -39.4520     6.9920     6.1730     6.4280  1751.7520     0.1420     2.4450     0.1190    86.3170     9.5130
 1609.0000   -39.5600     6.9760     6.1130     6.3360  1751.7520     0.1330     2.4530     0.1130    88.9410     9.5010
 1609.5000   -39.6210     6.9550     6.0550     6.2780  1751.7520     0.1330     2.4620     0.1080    91.9260     9.4880
 1610.0000   -39.6210     6.9340     5.9980     6.2120  1751.7520     0.1420     2.4720     0.1090    94.8750     9.4760
 1610.5000   -39.6210     6.7340     5.9400     6.1460  1751.7520     0.1510     2.4780     0.1100    96.5550     9.4630
 1611.0000   -39.6210     6.4460     5.8830     6.0890  1751.7520     0.1510     2.4700     0.1100    95.6950     9.4500
 1611.5000   -39.6210     6.3170     5.8600     6.0890  1751.7520     0.1510     2.4600     0.1150    97.2740     9.4430
 1612.0000   -39.6210     6.5830     5.8450     6.0890  1751.7520     0.1640     2.4500     0.1200    99.3690     9.4540
 1612.5000   -39.5820     6.9350     5.8310     6.0890  1751.7520     0.1710     2.4390     0.1230    99.1140     9.4650
 1613.0000   -39.5260     7.1220     5.8140     6.0890  1751.7520     0.1760     2.4400     0.1200    97.8730     9.4750
 1613.5000   -39.4690     7.0510     5.8480     6.0890  1751.7520     0.1720     2.4460     0.1140    96.9500     9.4860
 1614.0000   -39.4130     7.0030     5.8860     6.1410  1751.7520     0.1750     2.4590     0.1070    98.1290     9.4960
 1614.5000   -39.3560     6.9550     5.9240     6.1980  1751.7520     0.1890     2.4730     0.0960    99.0780     9.5070
 1615.0000   -39.3000     6.9270     5.9610     6.2540  1751.7520     0.1970     2.4870     0.0890    96.3310     9.5170
 1615.5000   -39.2430     7.1170     5.9990     6.3110  1751.7520     0.2030     2.5000     0.0820    93.5100     9.5220
 1616.0000   -39.1860     7.2500     6.0390     6.3670  1751.7520     0.1960     2.5040     0.0950    93.4640     9.5420
 1616.5000   -39.1300     7.3890     6.0980     6.4240  1751.7520     0.1900     2.4860     0.1080    93.7600     9.5420
 1617.0000   -39.0720     7.4630     6.1560     6.4800  1751.7520     0.1790     2.4700     0.1070    93.9650     9.5220
 1617.5000   -39.0230     7.5390     6.2040     6.5370  1751.7520     0.1630     2.4650     0.1060    96.0570     9.5230
 1618.0000   -39.1100     7.5960     6.2120     6.5930  1751.7520     0.1480     2.4650     0.0960    98.6340     9.5230
 1618.5000   -39.2080     7.5460     6.2200     6.6770  1751.7520     0.1330     2.4840     0.0910   101.2390     9.5230
 1619.0000   -39.3060     7.5270     6.2290     6.6620  1751.7520     0.1320     2.5030     0.0880   101.9810     9.5230
 1619.5000   -39.4040     7.5270     6.2370     6.6330  1751.7520     0.1310     2.4970     0.0940    97.4330     9.5230
 1620.0000   -39.5020     7.4430     6.2450     6.6040  1751.7520     0.1100     2.4880     0.0920    90.5910     9.5230
 1620.5000   -39.6000     7.3370     6.2530     6.5760  1751.7520     0.1090     2.4850     0.0890    93.0400     9.5230
 1621.0000   -39.6980     7.2310     6.2670     6.5470  1751.7520     0.1200     2.4990     0.0850    95.3920     9.5160
 1621.5000   -39.7960     7.1240     6.2980     6.5180  1751.7520     0.1340     2.5090     0.0820    91.1230     9.4980
 1622.0000   -39.8940     7.0560     6.3270     6.4940  1751.7520     0.1330     2.5130     0.0800    87.4920     9.4810
 1622.5000   -39.9980     7.5960     6.3570     6.5330  1751.7520     0.1290     2.5080     0.0770    90.6530     9.4640
 1623.0000   -39.9220     7.5000     6.3870     6.5720  1751.7520     0.1400     2.5270     0.0720    94.5190     9.4470
 1623.5000   -39.7870     7.3810     6.4170     6.6110  1751.7520     0.1520     2.5260     0.0710    97.4660     9.4300
 1624.0000   -39.6500     7.2540     6.4470     6.6500  1751.7520     0.1440     2.5190     0.0770    96.5040     9.4310
 1624.5000   -39.5130     7.4150     6.4760     6.6890  1751.7520     0.1450     2.5110     0.0810    97.0730     9.4490
 1625.0000   -39.3760     7.7110     6.5060     6.7280  1751.7520     0.1460     2.5040     0.0850    97.6140     9.4670
 1625.5000   -39.2400     7.8820     6.5360     6.7670  1751.7520     0.1460     2.5090     0.0820    98.1640     9.4830
 1626.0000   -39.1050     7.8450     6.5660     6.8060  1751.7520     0.1390     2.5160     0.0770    97.6200     9.4780
 1626.5000   -39.0740     7.8190     6.5960     6.8640  1751.7520     0.1310     2.5150     0.0800    96.2120     9.4730
 1627.0000   -39.2100     7.7940     6.6150     6.8420  1751.7520     0.1200     2.5040     0.0840    94.8170     9.4680
 1627.5000   -39.3440     7.7680     6.5320     6.8020  1751.7520     0.1100     2.4980     0.0830    94.5530     9.4640
 1628.0000   -39.4780     7.7380     6.5080     6.7610  1751.7520     0.1150     2.5210     0.0680    95.4840     9.4690
 1628.5000   -39.6120     7.8500     6.4940     6.7380  1751.7520     0.1290     2.5510     0.0540    93.0620     9.4780
 1629.0000   -39.7450     7.8820     6.6100     6.8740  1751.7520     0.1300     2.5660     0.0460    90.7190     9.4870
 1629.5000   -39.8210     7.8820     6.6900     6.9670  1751.7520     0.1370     2.5730     0.0480    89.8970     9.4960
 1630.0000   -39.8200     8.0960     6.7700     7.0600  1751.7520     0.1510     2.5690     0.0500    91.8010     9.5060
 1630.5000   -39.8200     8.1780     6.8640     7.1530  1751.7520     0.1470     2.5570     0.0550    93.1420     9.5150
 1631.0000   -39.8200     8.1780     6.7380     7.2490  1751.7520     0.1380     2.5440     0.0610    92.6250     9.5230
 1631.5000   -39.8200     8.1780     6.8500     7.3470  1751.9871     0.1270     2.5310     0.0700    92.1270     9.5250
 1632.0000   -39.8200     8.1780     6.9790     7.4450  1752.2321     0.1310     2.5320     0.0690    92.7540     9.5280
 1632.5000   -39.8200     8.1780     7.1090     7.5270  1752.4771     0.1350     2.5400     0.0620    94.1880     9.5300
 1633.0000   -39.8210     8.1780     7.1880     7.4810  1752.7209     0.1310     2.5460     0.0600    92.3870     9.5330
 1633.5000   -39.8180     8.1770     7.1220     7.4410  1752.9659     0.1300     2.5430     0.0650    90.8090     9.5350
 1634.0000   -39.7280     8.1790     7.1220     7.4020  1753.2111     0.1210     2.5400     0.0640    92.9640     9.5380
 1634.5000   -39.6340     8.0780     7.1220     7.3620  1753.4561     0.1260     2.5370     0.0670    95.1490     9.5400
 1635.0000   -39.5390     8.0100     7.1220     7.3210  1753.7000     0.1250     2.5310     0.0720    93.5320     9.5430
 1635.5000   -39.4450     7.9230     7.0890     7.2860  1753.9449     0.1160     2.5250     0.0760    90.5760     9.5340
 1636.0000   -39.2910     7.7580     7.0030     7.2480  1754.1899     0.1070     2.5180     0.0790    92.1920     9.5220
 1636.5000   -39.1190     7.5930     6.9180     7.2110  1754.4351     0.0990     2.5130     0.0780    95.8580     9.5090
 1637.0000   -38.9450     7.4270     6.8320     7.1740  1754.6790     0.0960     2.5150     0.0760    96.4600     9.4970
 1637.5000   -38.7720     7.2540     6.7470     7.1370  1754.9240     0.1100     2.5250     0.0630    94.8370     9.4850
 1638.0000   -38.6180     7.4530     6.6770     7.1000  1755.1689     0.1270     2.5440     0.0600    93.0130     9.4730
 1638.5000   -38.6220     7.8090     6.6990     7.0630  1755.4139     0.1440     2.5540     0.0610    91.1770     9.4600
