~VERSION INFORMATION
 VERS.                2.0:   CWLS LOG ASCII STANDARD - VERSION 2.0
 WRAP.                 NO:   ONE LINE PER DEPTH STEP
~WELL INFORMATION
#MNEM.UNIT      DATA TYPE    INFORMATION
#----------   ------------   ------------------------------
 STRT.F          200.0000:   START DEPTH
 STOP.F         3058.0000:   STOP DEPTH
 STEP.F            0.5000:   STEP LENGTH
 NULL.          -999.2500:   NO VALUE
 COMP.    FENIX & SCISSON:   COMPANY
 WELL. FENIX & SCISSON "A" #45-34:   WELL
 FLD .              N P R:   FIELD
 LOC .      S34 T39N R78W:   LOCATION
 CNTY.            NATRONA:   COUNTY
 STAT.            WYOMING:   STATE
 CTRY. UNITED STATES OF AMERICA:   COUNTRY
 SRVC.              WELEX:   SERVICE COMPANY
 DATE.        11-MAY-1977:   LOGDATE
 API .     49025103760000:   API NUMBER
~CURVE INFORMATION
#MNEM.UNIT       API CODE    CURVE DESCRIPTION
#----------   ------------   ------------------------------
 DEPT.F                  :   
 GRD .GAPI   45 310 01 00:   GAMMA RAY FROM DENSITY LOG
 CALD.IN     45 280 60 00:   CALIPER FROM DENSITY LOG
 RHOB.G/C3   45 350 01 00:   BULK DENSITY
 CORR.G/C3   45 356 01 00:   DENSITY CORRECTION
 SPR .MV     07 010 01 00:   SPONTANEOUS POTENTIAL
 ILD .OHMM   07 120 46 00:   DEEP INDUCTION RESISTIVITY
 ILM .OHMM   07 120 44 00:   INDUCTION LOG MEDIUM RESISTIVITY
 GURD.OHMM   07 220 05 00:   GUARD LOG RESISTIVITY
~PARAMETER INFORMATION
#MNEM.UNIT          VALUE    DESCRIPTION
#----------   ------------   ------------------------------
 EKB .F         5123.0000:   Kelly bushing
 EGL .F         5113.0000:   Ground level
 EDF .F            0.0000:   Drilling floor
 EPD .F            0.0000:   Permanent datum
 TD  .F         3060.0000:   Total depth
 DATE.        11-MAY-1977:   Date logged
 CLNT.            A2DTECH:   Client Code
 SL  . 2310' FSL & 2310' FWL:   Surface Location
 PD  .                 GL:   Permanent Datum
 DD  .F              3060:   Depth driller
 DL  .F              3060:   Depth logger
 BLI .F              3058:   Bottom log interval
 CS1 .IN            8.625:   Casing size
 CBD1.      8.625" @ 205':   Casing driller 1
 CBL1.F               214:   Casing logger 1
 BS1 .IN            7.875:   Bit size
 DFT .            KCL/MUD:   Type fluid in hole
 DFD .                8.8:   Density
 DFV .                 45:   Viscosity
 MSS .           FLOWLINE:   Source of sample
 RMS .OHMM            3.2:   Rm
 MST .F                85:   Rm Meas. temp.
 RMF .OHMM            2.7:   Rmf
 MFST.F                85:   Rmf Meas. temp.
 RMC .OHMM            3.6:   Rmc
 MCST.F                85:   Rmc Meas. temp.
 MFSS.               CALC:   Source Rmf.
 RMB .OHMM           2.44:   Rm. at BHT
 BHT .F               112:   BHT.
 TCS .HRS             2.5:   Time Circ. stopped
 MRT .F               112:   Maximum recorded temp.
 LUN .               8611:   Logging unit number
 LUL .           GILLETTE:   Logging unit location
 ENGI.            C. DOAK:   Recorded By
 WITN.      B. HARRINGTON:   Witnessed by
 ORIG.           5" PRINT:   Origin of data
 UWI .     49025103760000:   Unique Well ID
 DICO. A2D TECHNOLOGIES, INC.:   Digitizing Company
 DAPD.F                10:   Feet Above Permanent Datum
 BSD1.F              3060:   Depth drilled with bit1
 MCSS.               CALC:   Source Rmc.
 TLI .F               200:   Top log interval
~OTHER INFORMATION
~A   DEPT       GRD      CALD         RHOB      CORR       SPR        ILD        ILM       GURD   
# ...
  969.5000   128.0680    10.1290     2.4280     0.0160   -37.1710     8.2460     9.5080    10.5100
  970.0000   127.6770    10.1140     2.4250     0.0160   -37.1260     8.2510     9.5750    10.5100
  970.5000   127.3130    10.1000     2.4200     0.0150   -37.0800     8.2550     9.5670    10.5100
  971.0000   126.9430    10.0840     2.4160     0.0170   -37.0340     8.2600     9.4810    10.5100
  971.5000   126.5680    10.0700     2.4200     0.0200   -36.9890     8.2650     9.3960    10.5100
  972.0000   126.2070    10.0550     2.4250     0.0220   -36.9430     8.2700     9.3100    10.5100
  972.5000   125.8210    10.0400     2.4300     0.0240   -36.8980     8.2750     9.2250    10.5100
  973.0000   125.4670    10.0250     2.4380     0.0260   -36.8520     8.2680     9.1390    10.5100
  973.5000   125.1470    10.0100     2.4460     0.0290   -36.8060     8.2590     9.0760    10.5100
  974.0000   125.6060     9.9950     2.4530     0.0310   -36.7610     8.2490     9.0940    10.5100
  974.5000   126.0730     9.9810     2.4610     0.0330   -36.7150     8.2400     9.1120    10.5090
  975.0000   126.5750     9.9660     2.4650     0.0350   -36.6700     8.2300     9.1300    10.5110
  975.5000   127.0540     9.9510     2.4660     0.0350   -36.6240     8.2210     9.1480    10.4930
  976.0000   127.5390     9.9360     2.4600     0.0350   -36.5790     8.2120     9.1660    10.4600
  976.5000   128.0320     9.9270     2.4540     0.0310   -36.5330     8.2020     9.1840    10.4290
  977.0000   128.5070     9.9190     2.4480     0.0280   -36.4880     8.1930     9.2020    10.3980
  977.5000   129.0010     9.9120     2.4420     0.0250   -36.4410     8.1830     9.2200    10.3670
  978.0000   129.5110     9.9050     2.4370     0.0230   -36.3960     8.1740     9.2380    10.3360
  978.5000   129.7990     9.8950     2.4310     0.0250   -36.3510     8.1650     9.2560    10.3050
  979.0000   129.0560     9.9110     2.4390     0.0270   -36.3020     8.1550     9.2740    10.2740
  979.5000   128.2560     9.9520     2.4480     0.0290   -36.2720     8.1460     9.2920    10.2430
  980.0000   127.3580     9.9890     2.4470     0.0310   -36.2750     8.1360     9.3100    10.2120
  980.5000   126.2830    10.0260     2.4360     0.0260   -36.2740     8.1270     9.3280    10.1810
  981.0000   126.2920    10.0680     2.4250     0.0190   -36.2740     8.0910     9.3460    10.1490
  981.5000   127.3750    10.0930     2.4250     0.0140   -36.2750     8.0460     9.3640    10.1180
  982.0000   128.3320    10.0870     2.4290     0.0180   -36.2740     8.0010     9.3830    10.0870
  982.5000   128.9940    10.0800     2.4330     0.0250   -36.2750     7.9560     9.4110    10.0560
  983.0000   128.5050    10.0720     2.4370     0.0310   -36.2750     7.9120     9.4080    10.0250
  983.5000   127.9190    10.0650     2.4420     0.0310   -36.2750     7.8670     9.3900     9.9940
  984.0000   127.3590    10.0570     2.4380     0.0320   -36.2750     7.8220     9.3750     9.9630
  984.5000   126.6880    10.0520     2.4340     0.0320   -36.2750     7.7770     9.3590     9.9320
  985.0000   126.9980    10.0530     2.4380     0.0330   -36.2750     7.7320     9.3430     9.9010
  985.5000   127.7890    10.0720     2.4440     0.0340   -36.2750     7.6880     9.3280     9.8700
  986.0000   128.5620    10.0920     2.4430     0.0340   -36.2750     7.6430     9.3120     9.8390
  986.5000   129.3920    10.1110     2.4310     0.0350   -36.2750     7.5990     9.2960     9.8080
  987.0000   129.7830    10.1280     2.4350     0.0350   -36.2750     7.5500     9.2800     9.7770
  987.5000   129.5590    10.1050     2.4410     0.0310   -36.2750     7.5500     9.2650     9.7460
  988.0000   129.4140    10.0820     2.4280     0.0270   -36.2750     7.5490     9.2490     9.7150
  988.5000   129.2600    10.0560     2.4110     0.0230   -36.2750     7.5490     9.2200     9.6840
  989.0000   129.0680    10.0320     2.4130     0.0200   -36.2750     7.5490     9.1790     9.6530
  989.5000   129.1600    10.0080     2.4230     0.0160   -36.2750     7.5490     9.1370     9.6210
  990.0000   129.4590     9.9810     2.4290     0.0150   -36.2750     7.5490     9.0960     9.5870
  990.5000   129.7360     9.9840     2.4280     0.0170   -36.2750     7.5490     9.0540     9.5370
  991.0000   130.0160    10.0110     2.4280     0.0190   -36.2750     7.5480     9.0120     9.4810
  991.5000   130.2720    10.0350     2.4280     0.0200   -36.2750     7.5480     8.9710     9.4240
  992.0000   130.6130    10.0590     2.4300     0.0220   -36.2750     7.5480     8.9290     9.3680
  992.5000   130.1170    10.0840     2.4360     0.0230   -36.2750     7.4890     8.8380     9.3120
  993.0000   129.0950    10.1020     2.4430     0.0250   -36.2750     7.4220     8.6900     9.2550
  993.5000   128.2530    10.1170     2.4490     0.0260   -36.2750     7.3550     8.5410     9.1990
  994.0000   128.0310    10.1320     2.4560     0.0300   -36.2750     7.2870     8.4190     9.1420
  994.5000   127.8180    10.1470     2.4640     0.0310   -36.2750     7.2200     8.3790     9.0860
  995.0000   127.6350    10.1620     2.4660     0.0330   -36.2750     7.1520     8.3390     9.0300
  995.5000   127.4580    10.1680     2.4580     0.0340   -36.2750     7.0840     8.3000     8.9730
  996.0000   127.4600    10.1370     2.4490     0.0350   -36.2750     7.0160     8.2600     8.9070
  996.5000   127.4290    10.1080     2.4550     0.0350   -36.2750     6.9490     8.2200     8.7970
  997.0000   127.6640    10.0760     2.4570     0.0340   -36.2750     6.8810     8.1800     8.6650
  997.5000   128.0580    10.0480     2.4520     0.0320   -36.2750     6.8130     8.1250     8.5330
  998.0000   128.4210    10.0150     2.4480     0.0300   -36.2750     6.7740     8.1460     8.4370
  998.5000   128.7780    10.0250     2.4500     0.0280   -36.2750     6.8340     8.1800     8.4710
  999.0000   129.1530    10.0400     2.4520     0.0270   -36.2750     6.8940     8.2140     8.5050
  999.5000   129.5140    10.0570     2.4490     0.0240   -36.2750     6.9550     8.2480     8.5390
 1000.0000   129.7780    10.0720     2.4410     0.0200   -36.2750     7.0150     8.2760     8.5740
 1000.5000   129.5460    10.0880     2.4340     0.0160   -36.2750     7.0760     8.0920     8.6080
 1001.0000   129.3550    10.1040     2.4280     0.0120   -36.2750     7.1360     7.8630     8.6420
 1001.5000   129.1420    10.1190     2.4300     0.0110   -36.2750     7.1970     7.6340     8.6770
 1002.0000   128.9360    10.1360     2.4360     0.0120   -36.2750     7.2570     7.5350     8.7110
 1002.5000   128.7300    10.1510     2.4420     0.0130   -36.2750     7.3180     7.5140     8.7450
 1003.0000   128.5330    10.1690     2.4490     0.0140   -36.2750     7.4110     7.4920     8.7790
 1003.5000   128.2940    10.1670     2.4500     0.0150   -36.2750     7.3910     7.4710     8.8140
 1004.0000   128.4410    10.1610     2.4510     0.0150   -36.2750     7.3450     7.4490     8.8480
 1004.5000   128.8690    10.1540     2.4590     0.0160   -36.2750     7.2990     7.4280     8.8820
 1005.0000   129.2560    10.1480     2.4660     0.0170   -36.2750     7.2540     7.4070     8.9070
 1005.5000   129.6440    10.1410     2.4730     0.0180   -36.2750     7.2080     7.3850     8.8400
 1006.0000   130.0440    10.1360     2.4680     0.0190   -36.2750     7.1620     7.3640     8.7640
 1006.5000   130.4250    10.1110     2.4630     0.0220   -36.2750     7.1170     7.3420     8.6880
 1007.0000   130.8290    10.0610     2.4600     0.0260   -36.2750     7.0710     7.3210     8.6120
 1007.5000   131.2160    10.0130     2.4660     0.0300   -36.2740     7.0250     7.2990     8.5360
 1008.0000   131.5830     9.9590     2.4750     0.0340   -36.2750     6.9800     7.2760     8.4610
 1008.5000   132.0850     9.9370     2.4850     0.0390   -36.2740     6.9340     7.3770     8.3860
 1009.0000   131.2490     9.9600     2.4840     0.0420   -36.2740     6.8860     7.4850     8.2760
 1009.5000   129.4100     9.9780     2.4730     0.0460   -36.2690     7.0090     7.5930     8.3880
