~VERSION INFORMATION
 VERS.                2.0:   CWLS LOG ASCII STANDARD - VERSION 2.0
 WRAP.                 NO:   ONE LINE PER DEPTH STEP
~WELL INFORMATION
#MNEM.UNIT      DATA TYPE    INFORMATION
#----------   ------------   ------------------------------
 STRT.F           72.5000:   START DEPTH
 STOP.F         2820.0000:   STOP DEPTH
 STEP.F            0.5000:   STEP LENGTH
 NULL.          -999.2500:   NO VALUE
 COMP.          INTEX OIL:   COMPANY
 WELL. INTEX OIL AX N. P. R. #51-29:   WELL
 FLD .             TEAPOT:   FIELD
 LOC .      S29 T39N R78W:   LOCATION
 CNTY.            NATRONA:   COUNTY
 STAT.            WYOMING:   STATE
 CTRY. UNITED STATES OF AMERICA:   COUNTRY
 SRVC.       SCHLUMBERGER:   SERVICE COMPANY
 DATE.        01-MAY-1966:   LOGDATE
 API .     49025094920000:   API NUMBER
~CURVE INFORMATION
#MNEM.UNIT       API CODE    CURVE DESCRIPTION
#----------   ------------   ------------------------------
 DEPT.F                  :   
 GRD .GAPI   45 310 01 00:   GAMMA RAY FROM DENSITY LOG
 CALD.IN     45 280 60 00:   CALIPER FROM DENSITY LOG
 RHOB.G/C3   45 350 01 00:   BULK DENSITY
 CORR.G/C3   45 356 01 00:   DENSITY CORRECTION
 SPR .MV     07 010 01 00:   SPONTANEOUS POTENTIAL
 ASN .OHMM   05 041 16 00:   AMPLIFIED SHORT NORMAL 16"
 ILD .OHMM   05 120 46 00:   DEEP INDUCTION RESISTIVITY
 DT  .US/F   60 520 00 00:   DELTA TIME
~PARAMETER INFORMATION
#MNEM.UNIT          VALUE    DESCRIPTION
#----------   ------------   ------------------------------
 EKB .F         5007.3000:   Kelly bushing
 EGL .F         4997.0000:   Ground level
 EDF .F            0.0000:   Drilling floor
 TD  .F         2799.0000:   Total depth
 DATE.        01-MAY-1966:   Date logged
 CLNT.            A2DTECH:   Client Code
 PD  .                 GL:   Permanent Datum
 EPD .F              4997:   Elevation Permanent Datum
 LMF .                 KB:   Log Measured From
 DMF .                 KB:   Drilling Measured From
 DAPD.F              10.3:   Feet Above Permanent Datum
 DD  .F              2798:   Depth driller
 DL  .F              2799:   Depth logger
 BLI .F              2798:   Bottom log interval
 TLI .F                88:   Top log interval
 CS1 .IN            10.75:   Casing size
 CBD1.       10.75" @ 30':   Casing driller 1
 BS1 .IN            7.875:   Bit size
 BSD1.F              2798:   Depth drilled with bit1
 DFT .           CHEM/OIL:   Type fluid in hole
 DFD .                9.5:   Density
 DFV .                 46:   Viscosity
 DFPH.                7.2:   pH
 DFL .                7.0:   Fluid loss
 MSS .         CIRCULATED:   Source of sample
 RMS .OHMM           2.28:   Rm
 MST .F                68:   Rm Meas. temp.
 RMF .OHMM           1.32:   Rmf
 MFST.F                72:   Rmf Meas. temp.
 MFSS.                 FP:   Source Rmf.
 RMB .OHMM           1.52:   Rm. at BHT
 BHT .F               102:   BHT.
 TCS .HRS             1.5:   Time Circ. stopped
 MRT .F               102:   Maximum recorded temp.
 LUN .               4507:   Logging unit number
 LUL .               CSPR:   Logging unit location
 ENGI.               HAUG:   Recorded By
 WITN.      TUTTLE/HUDSON:   Witnessed by
 ORIG.           5" PRINT:   Origin of data
 UWI .     49025094920000:   Unique Well ID
 DICO. A2D TECHNOLOGIES, INC.:   Digitizing Company
~OTHER INFORMATION
~A   DEPT      GRD       CALD       RHOB       CORR        SPR        ASN        ILD         DT   
# ...
 2097.5000    97.2150     8.7440     2.4530    -0.0200   -41.1520    12.7000     8.9490    87.9620
 2098.0000    96.7600     8.7430     2.4700    -0.0140   -41.1330    13.2280     8.9500    87.9620
 2098.5000    95.7780     8.7420     2.4800    -0.0070   -41.1400    13.5860     8.9720    87.6640
 2099.0000    93.7290     8.7410     2.4560    -0.0150   -41.1480    13.6540     8.9270    87.4650
 2099.5000    91.2770     8.7400     2.4370    -0.0140   -41.1400    13.5950     8.7560    87.2660
 2100.0000    91.5340     8.7380     2.4290    -0.0090   -41.1340    13.4470     8.4970    87.1670
 2100.5000    90.4100     8.7370     2.4560    -0.0160   -41.1470    13.0470     8.2250    86.0110
 2101.0000    90.8720     8.7360     2.4430    -0.0220   -41.1560    12.4360     7.9700    85.2270
 2101.5000    93.1300     8.7350     2.4300    -0.0050   -41.0950    11.8410     7.7150    86.5040
 2102.0000    95.7830     8.7340     2.4410     0.0010   -40.9160    11.3270     7.4530    87.7820
 2102.5000    98.2470     8.7320     2.4150    -0.0140   -40.6470    11.0120     7.2050    89.0590
 2103.0000   100.8070     8.7310     2.4430    -0.0140   -40.4240    11.1920     6.9720    90.1490
 2103.5000   103.3710     8.7300     2.4390    -0.0040   -40.4070    11.6790     6.7340    89.8240
 2104.0000   105.4190     8.7290     2.4270    -0.0110   -40.6350    11.7130     6.4770    88.6210
 2104.5000   106.0810     8.7280     2.4380    -0.0130   -40.9440    11.0690     6.2090    88.0620
 2105.0000   107.5610     8.7260     2.4500    -0.0050   -41.0930    10.4130     5.9360    88.1610
 2105.5000   110.9450     8.7250     2.4700     0.0070   -41.0020    10.1530     5.6720    88.6580
 2106.0000   115.4680     8.7240     2.4660     0.0220   -40.8100     9.9350     5.4860    90.2060
 2106.5000   121.3300     8.7230     2.3960     0.0080   -40.6510     9.5710     5.5130    91.4410
 2107.0000   126.0600     8.7220     2.4010    -0.0060   -40.4840     9.4030     5.8320    91.9680
 2107.5000   131.4440     8.7200     2.3960     0.0020   -40.2410     9.5980     6.3440    92.7690
 2108.0000   131.6990     8.7190     2.3870    -0.0180   -40.0560    10.1890     6.8600    92.5500
 2108.5000   130.4190     8.7180     2.3940    -0.0320   -40.1620    11.3520     7.3680    89.9830
 2109.0000   129.4070     8.7170     2.4030    -0.0330   -40.5640    14.0650     8.1140    88.8570
 2109.5000   130.7580     8.7160     2.4150    -0.0240   -40.9810    15.8950     9.2440    86.6400
 2110.0000   132.9230     8.7140     2.3990    -0.0260   -41.1550    16.4150    10.4450    85.5760
 2110.5000   134.3790     8.7130     2.3830    -0.0260   -41.1100    16.1200    11.1420    86.2270
 2111.0000   135.7300     8.7120     2.3870    -0.0180   -41.0240    15.6610    11.0690    86.6700
 2111.5000   137.4530     8.7110     2.3940    -0.0100   -40.9840    15.8050    10.4940    86.7690
 2112.0000   139.7810     8.7160     2.4020    -0.0170   -40.9540    16.1210     9.8550    87.3660
 2112.5000   142.5420     8.7200     2.4010    -0.0210   -40.9000    15.3580     9.3390    86.3500
 2113.0000   144.9190     8.7250     2.3900    -0.0180   -40.8450    14.6290     8.8270    85.4200
 2113.5000   147.0140     8.7290     2.3810    -0.0090   -40.7980    13.1950     8.1290    84.8440
 2114.0000   149.1760     8.7330     2.3720    -0.0080   -40.7330    11.9230     7.2130    85.5360
 2114.5000   151.0950     8.7380     2.3610    -0.0110   -40.6280    11.4980     6.2600    87.2670
 2115.0000   153.7580     8.7420     2.3600     0.0010   -40.4910    10.3670     5.5010    88.7570
 2115.5000   156.7490     8.7470     2.3680     0.0150   -40.3480     9.9240     4.9870    87.9470
 2116.0000   159.5530     8.7530     2.3750     0.0250   -40.2200     8.2080     4.5830    90.2800
 2116.5000   161.0580     8.7960     2.3810     0.0200   -40.1060     7.5640     4.1870    92.4240
 2117.0000   162.9140     8.8420     2.4040    -0.0090   -39.9820     7.3280     3.8550    91.7400
 2117.5000   164.3800     8.9050     2.4420    -0.0190   -39.8280     6.9610     3.6610    91.0440
 2118.0000   148.8210     8.9930     2.4820    -0.0100   -39.6820     6.6080     3.5600    87.8630
 2118.5000   142.9780     9.0830     2.4750     0.0030   -39.6180     6.4770     3.4870    89.1960
 2119.0000   138.3790     9.1320     2.4590     0.0160   -39.6720     6.2900     3.4680    91.4500
 2119.5000   131.0510     9.1610     2.4400     0.0100   -39.8000     6.1430     3.5440    92.5350
 2120.0000   126.9790     9.1900     2.4520    -0.0060   -39.9490     6.2550     3.6730    91.8030
 2120.5000   126.0330     9.2200     2.4720    -0.0160   -40.1020     6.4820     3.7840    89.3610
 2121.0000   124.2950     9.2350     2.4580    -0.0180   -40.2380     6.5870     3.8640    88.3600
 2121.5000   122.5210     9.2430     2.4910    -0.0130   -40.2990     6.4560     3.9500    89.7330
 2122.0000   121.1930     9.2520     2.4860    -0.0070   -40.2480     6.2750     4.0540    91.3720
 2122.5000   119.8240     9.2610     2.4740    -0.0040   -40.1190     6.2850     4.1550    92.1370
 2123.0000   118.6460     9.2690     2.5000     0.0000   -39.9670     6.4380     4.2430    91.9380
 2123.5000   116.9930     9.2780     2.4960    -0.0020   -39.8110     6.6140     4.3330    90.8060
 2124.0000   114.7970     9.2870     2.4730    -0.0110   -39.6760     6.8320     4.4370    89.7450
 2124.5000   114.7710     9.2960     2.4770    -0.0180   -39.6310     6.9940     4.5420    88.6840
 2125.0000   114.4000     9.3050     2.4850    -0.0160   -39.7190     7.0900     4.6070    88.2600
 2125.5000   115.0050     9.3140     2.5280    -0.0140   -39.9040     7.0930     4.6080    88.6530
 2126.0000   117.2790     9.3230     2.5240    -0.0110   -40.1210     7.0240     4.5690    88.8150
 2126.5000   117.7640     9.3310     2.5140    -0.0050   -40.3460     6.9590     4.5380    89.2340
 2127.0000   116.8700     9.3400     2.5040    -0.0090   -40.5560     6.9460     4.5250    89.0560
 2127.5000   116.6880     9.3500     2.5000    -0.0110   -40.6740     6.9560     4.4950    89.0560
 2128.0000   113.9080     9.3520     2.5350    -0.0080   -40.6350     6.9270     4.4400    88.5110
 2128.5000   113.4110     9.3470     2.5210    -0.0050   -40.4740     6.8540     4.4200    88.5510
 2129.0000   114.9170     9.3430     2.5120    -0.0100   -40.2990     6.7800     4.4740    89.5310
 2129.5000   116.4450     9.3390     2.5270    -0.0120   -40.1690     6.7470     4.5430    90.4860
 2130.0000   117.5110     9.3350     2.4960    -0.0120   -40.0500     6.7600     4.5470    90.1280
 2130.5000   118.5500     9.3310     2.4680    -0.0110   -39.8940     6.8140     4.5080    90.7810
 2131.0000   119.6480     9.3270     2.4520    -0.0160   -39.7210     6.9050     4.5350    90.3300
 2131.5000   122.0470     9.3230     2.4380    -0.0210   -39.6030     7.0080     4.6620    90.8500
 2132.0000   123.7700     9.3190     2.4620    -0.0180   -39.5810     7.0890     4.8190    91.4410
 2132.5000   123.7670     9.3140     2.4580    -0.0140   -39.6230     7.1460     4.9520    90.6550
 2133.0000   123.0540     9.3180     2.4570    -0.0100   -39.6740     7.2100     5.0970    89.6890
 2133.5000   122.2760     9.3280     2.4710    -0.0080   -39.7130     7.2920     5.2660    88.7570
 2134.0000   121.5040     9.3370     2.4850    -0.0130   -39.7480     7.3550     5.3540    88.9030
 2134.5000   120.6550     9.3460     2.4680    -0.0140   -39.7840     7.3450     5.2520    89.4600
 2135.0000   119.2890     9.3540     2.4550    -0.0100   -39.8170     7.2390     4.9940    89.3940
 2135.5000   117.6910     9.3630     2.4640    -0.0110   -39.8590     7.0470     4.7050    89.0010
 2136.0000   116.1480     9.3720     2.4770    -0.0130   -39.9130     6.8010     4.4490    88.6070
 2136.5000   114.5680     9.3810     2.4630    -0.0110   -39.9480     6.5300     4.1920    89.2030
 2137.0000   112.9440     9.3900     2.4480     0.0060   -39.9130     6.2320     3.9140    90.3390
 2137.5000   112.5010     9.3920     2.4540     0.0210   -39.7980     5.8610     3.6610    91.4740
