~VERSION INFORMATION
 VERS.                2.0:   CWLS LOG ASCII STANDARD - VERSION 2.0
 WRAP.                 NO:   ONE LINE PER DEPTH STEP
~WELL INFORMATION
#MNEM.UNIT      DATA TYPE    INFORMATION
#----------   ------------   ------------------------------
 STRT.F          720.0000:   START DEPTH
 STOP.F         3416.0000:   STOP DEPTH
 STEP.F            0.5000:   STEP LENGTH
 NULL.          -999.2500:   NO VALUE
 COMP.    FENIX & SCISSON:   COMPANY
 WELL.  FENIX "AX" #31-14:   WELL
 FLD .                NPR:   FIELD
 LOC .      S14 T38N R78W:   LOCATION
 CNTY.            NATRONA:   COUNTY
 STAT.            WYOMING:   STATE
 CTRY. UNITED STATES OF AMERICA:   COUNTRY
 SRVC.       SCHLUMBERGER:   SERVICE COMPANY
 DATE.        04-JUN-1981:   LOGDATE
 API .     49025108730000:   API NUMBER
~CURVE INFORMATION
#MNEM.UNIT       API CODE    CURVE DESCRIPTION
#----------   ------------   ------------------------------
 DEPT.F                  :   
 TEND.LBS    45 635 01 00:   TENSION FROM DENSITY LOG
 CORR.G/C3   45 356 01 00:   DENSITY CORRECTION
 RHOB.G/C3   45 350 01 00:   BULK DENSITY
 CALD.IN     45 280 60 00:   CALIPER FROM DENSITY LOG
 GRD .GAPI   45 310 01 00:   GAMMA RAY FROM DENSITY LOG
 SPR .MV     07 010 01 00:   SPONTANEOUS POTENTIAL
 SFL .OHMM   07 220 01 00:   SHALLOW FOCUSED LOG RESISTIVITY
 ILD .OHMM   07 120 46 00:   INDUCTION LOG DEEP RESISTIVITY
 ILM .OHMM   07 120 44 00:   INDUCTION LOG MEDIUM RESISTIVITY
 TENR.LBS    07 635 01 00:   TENSION FROM RESISTIVITY
~PARAMETER INFORMATION
#MNEM.UNIT          VALUE    DESCRIPTION
#----------   ------------   ------------------------------
 EKB .F         5196.0000:   Kelly bushing
 EGL .F         5186.0000:   Ground level
 EDF .F            0.0000:   Drilling floor
 TD  .F         3402.0000:   Total depth
 DATE.        04-JUN-1981:   Date logged
 CLNT.            A2DTECH:   Client Code
 SL  . 377' FWL & 1733' FWL:   Surface Location
 PD  .                 GL:   Permanent Datum
 DD  .F              3400:   Depth driller
 DL  .F              3402:   Depth logger
 BLI .F              3395:   Bottom log interval
 TLI .F               720:   Top log interval
 CS1 .IN            8.625:   Casing size
 CBD1.      8.625" @ 707':   Casing driller 1
 CBL1.F               751:   Casing logger 1
 BS1 .IN            7.875:   Bit size
 BSD1.F              3400:   Depth drilled with bit1
 DFT .                FGM:   Type fluid in hole
 DFD .                8.8:   Density
 DFV .                 55:   Viscosity
 DFPH.                9.5:   pH
 DFL .                  9:   Fluid loss
 MSS .           MUD TANK:   Source of sample
 RMS .OHMM            1.7:   Rm
 MST .F                78:   Rm Meas. temp.
 RMF .OHMM           1.45:   Rmf
 MFST.F                78:   Rmf Meas. temp.
 MFSS.               MEAS:   Source Rmf.
 RMB .OHMM           1.12:   Rm. at BHT
 BHT .F               118:   BHT.
 TCS .HRS            1200:   Time Circ. stopped
 TLAB.HRS            1600:   Time logger at bottom
 MRT .F               118:   Maximum recorded temp.
 LUN .               8043:   Logging unit number
 LUL .             CASPER:   Logging unit location
 ENGI.             LARSON:   Recorded By
 WITN.              FIVAS:   Witnessed by
 ORIG.      2.5" 5" PRINT:   Origin of data
 UWI .     49025108730000:   Unique Well ID
 DICO. A2D TECHNOLOGIES, INC.:   Digitizing Company
 EPD .               5186:   Elevation Permanent Datum
 LMF .                 KB:   Log Measured From
 DMF .                 KB:   Drilling Measured From
 DAPD.                 10:   Feet Above Permanent Datum
~OTHER INFORMATION
~A   DEPT     TEND       CORR       RHOB       CALD         GRD       SPR        SFL        ILD        ILM       TENR   
# ...
 3366.5000  1759.2440     0.1350     2.4740     7.2100  -999.2500    11.6610     6.7560     4.4180     4.6690  1745.3800
 3367.0000  1760.3090     0.1600     2.4470     6.9730  -999.2500    12.1920     6.3280     4.7160     4.9170  1745.3800
 3367.5000  1761.3740     0.1770     2.4260     6.7350  -999.2500    12.3270     6.1480     5.0150     5.1650  1745.3800
 3368.0000  1762.4390     0.1950     2.4220     6.4940  -999.2500    11.7430     6.5940     5.3130     5.4120  1745.3800
 3368.5000  1763.5040     0.1940     2.4130     6.4660  -999.2500    11.1260     7.1500     5.6120     5.6600  1745.3800
 3369.0000  1764.5690     0.1860     2.3990     6.4790  -999.2500    10.4180     7.1700     5.7010     5.9070  1745.3800
 3369.5000  1765.6340     0.1780     2.3850     6.4930  -999.2500    10.2160     7.2390     5.7010     6.0330  1745.3800
 3370.0000  1766.6990     0.1770     2.3780     6.5060  -999.2500     9.2800     7.3070     5.7010     5.9880  1745.3800
 3370.5000  1767.7640  -999.2500  -999.2500  -999.2500  -999.2500     8.1830     7.4090     5.7010     5.8260  1745.3800
 3371.0000  1768.8290  -999.2500  -999.2500  -999.2500  -999.2500     7.3460     7.3660     5.6110     5.6650  1745.3800
 3371.5000  1769.8950  -999.2500  -999.2500  -999.2500  -999.2500     6.6090     7.1430     5.4760     5.5040  1745.3800
 3372.0000  1770.9600  -999.2500  -999.2500  -999.2500  -999.2500     6.1480     6.8850     5.3420     5.3420  1745.3800
 3372.5000  1772.0250  -999.2500  -999.2500  -999.2500  -999.2500     5.6780     6.5710     5.2070     5.1880  1745.3800
 3373.0000  1773.0900  -999.2500  -999.2500  -999.2500  -999.2500     5.2420     6.1990     5.0720     5.0910  1745.3800
 3373.5000  1774.1550  -999.2500  -999.2500  -999.2500  -999.2500     4.7330     5.8280     4.9950     5.0910  1745.3800
 3374.0000  1775.2200  -999.2500  -999.2500  -999.2500  -999.2500     4.6970     5.3870     5.0910     5.0910  1745.3800
 3374.5000  1776.2850  -999.2500  -999.2500  -999.2500  -999.2500     4.6930     5.4900     5.2250     5.5180  1745.3800
 3375.0000  1777.3500  -999.2500  -999.2500  -999.2500  -999.2500     4.6610     5.8100     5.5530     6.2650  1745.3800
 3375.5000  1778.4150  -999.2500  -999.2500  -999.2500  -999.2500     4.3390     9.1780     5.8810     6.2230  1745.3800
 3376.0000  1779.4800  -999.2500  -999.2500  -999.2500  -999.2500     3.1010    11.4610     6.1480     6.1160  1745.3800
 3376.5000  1780.5450  -999.2500  -999.2500  -999.2500  -999.2500     1.7080    10.8370     5.8770     6.0090  1745.3800
 3377.0000  1781.6100  -999.2500  -999.2500  -999.2500  -999.2500     0.3240     9.1920     5.6490     5.9200  1745.3800
 3377.5000  1782.6760  -999.2500  -999.2500  -999.2500  -999.2500    -1.0550     7.5470     5.4210     5.7510  1745.3800
 3378.0000  1783.7410  -999.2500  -999.2500  -999.2500  -999.2500    -1.9180     5.9010     5.1930     5.5300  1745.3800
 3378.5000  1783.3170  -999.2500  -999.2500  -999.2500  -999.2500    -2.5370     5.3840     4.9640     5.3090  1745.3800
 3379.0000  1781.4000  -999.2500  -999.2500  -999.2500  -999.2500    -3.1900     5.2420     4.7360     5.0880  1745.3800
 3379.5000  1779.4830  -999.2500  -999.2500  -999.2500  -999.2500    -3.8210     5.0910     4.5080     4.8670  1745.3800
 3380.0000  1777.5660  -999.2500  -999.2500  -999.2500  -999.2500    -4.3070     5.0910     4.2790     4.6460  1745.3800
 3380.5000  1775.6490  -999.2500  -999.2500  -999.2500  -999.2500    -4.3470     5.0910     4.1170     4.4260  1745.3800
 3381.0000  1773.7321  -999.2500  -999.2500  -999.2500  -999.2500    -5.6730     5.0910     3.9810     4.2050  1745.3800
 3381.5000  1771.8149  -999.2500  -999.2500  -999.2500  -999.2500    -6.8950     5.1880     3.8450     3.9840  1745.3800
 3382.0000  1769.8970  -999.2500  -999.2500  -999.2500  -999.2500    -8.0610     4.8060     3.7090     3.7630  1745.3800
 3382.5000  1767.9800  -999.2500  -999.2500  -999.2500  -999.2500    -8.9090     4.3790     3.5570     3.6240  1745.3800
 3383.0000  1766.0630  -999.2500  -999.2500  -999.2500  -999.2500    -9.5720     3.9830     3.5570     3.6240  1745.3800
 3383.5000  1764.1460  -999.2500  -999.2500  -999.2500  -999.2500    -9.8660     4.0520     3.4900     3.6240  1745.3800
 3384.0000  1762.2290  -999.2500  -999.2500  -999.2500  -999.2500   -10.1820     4.1160     3.4900     3.5570  1745.3800
 3384.5000  1760.3120  -999.2500  -999.2500  -999.2500  -999.2500   -10.5450     4.1790     3.4900     3.5340  1745.3800
 3385.0000  1758.3940  -999.2500  -999.2500  -999.2500  -999.2500   -10.8670     4.2150     3.4900     3.5120  1745.3800
 3385.5000  1756.4771  -999.2500  -999.2500  -999.2500  -999.2500   -11.2090     4.1810     3.4900     3.4900  1745.3800
 3386.0000  1754.5601  -999.2500  -999.2500  -999.2500  -999.2500   -11.5390     4.1490     3.4900     3.4680  1745.3800
 3386.5000  1752.6429  -999.2500  -999.2500  -999.2500  -999.2500   -11.8970     4.1170     3.4900     3.4460  1745.3800
 3387.0000  1750.7260  -999.2500  -999.2500  -999.2500  -999.2500   -12.1910     4.0850     3.4900     3.4250  1745.3800
 3387.5000  1748.8090  -999.2500  -999.2500  -999.2500  -999.2500   -12.5730     4.0590     3.5900     3.5900  1745.3800
 3388.0000  1746.8910  -999.2500  -999.2500  -999.2500  -999.2500   -13.0140     4.0590     3.7430     3.7640  1745.3800
 3388.5000  1744.9740  -999.2500  -999.2500  -999.2500  -999.2500   -15.3350     4.1360     3.8910     3.9090  1745.3800
 3389.0000  1743.0570  -999.2500  -999.2500  -999.2500  -999.2500   -17.5100     4.3770     4.0390     4.2810  1745.3800
 3389.5000  1741.1400  -999.2500  -999.2500  -999.2500  -999.2500   -19.7990     4.5460     4.1870     4.5950  1745.3800
 3390.0000  1739.2230  -999.2500  -999.2500  -999.2500  -999.2500   -21.9960     5.7990     4.3350     4.9100  1745.3800
 3390.5000  1737.3060  -999.2500  -999.2500  -999.2500  -999.2500   -24.2910     7.3210     4.4610     5.2240  1745.3800
 3391.0000  1735.3890  -999.2500  -999.2500  -999.2500  -999.2500   -26.4560     8.3150     4.4960     5.5380  1745.3800
 3391.5000  1733.4709  -999.2500  -999.2500  -999.2500  -999.2500   -28.9740     8.3770     4.5260     5.8100  1745.3800
 3392.0000  1731.5540  -999.2500  -999.2500  -999.2500  -999.2500   -30.4530     8.4430     4.5560     6.0330  1745.3800
 3392.5000  1729.6370  -999.2500  -999.2500  -999.2500  -999.2500   -32.0300     8.5340     4.5870     6.0330  1745.3800
 3393.0000  1727.7200  -999.2500  -999.2500  -999.2500  -999.2500   -33.4950     8.6500     4.6170     6.0330  1745.3800
 3393.5000  1725.8030  -999.2500  -999.2500  -999.2500  -999.2500   -32.9040     8.8000     4.6320     6.0330  1745.3800
 3394.0000  1723.7900  -999.2500  -999.2500  -999.2500  -999.2500   -33.3260     8.7760     4.6320     6.0330  1745.3800
 3394.5000  1747.3669  -999.2500  -999.2500  -999.2500  -999.2500   -34.4970     8.7420     4.6320     6.0330  1745.3800
 3395.0000  1772.1770  -999.2500  -999.2500  -999.2500  -999.2500   -35.8450     8.7080  -999.2500     6.0330  1745.3800
 3395.5000  1796.9880  -999.2500  -999.2500  -999.2500  -999.2500  -999.2500  -999.2500  -999.2500  -999.2500  1745.3800
 3396.0000  1784.2740  -999.2500  -999.2500  -999.2500  -999.2500  -999.2500  -999.2500  -999.2500  -999.2500  1722.6560
 3396.5000  1613.0410  -999.2500  -999.2500  -999.2500  -999.2500  -999.2500  -999.2500  -999.2500  -999.2500  1651.2531
 3397.0000  1429.9020  -999.2500  -999.2500  -999.2500  -999.2500  -999.2500  -999.2500  -999.2500  -999.2500  1535.8250
 3397.5000  1246.7640  -999.2500  -999.2500  -999.2500  -999.2500  -999.2500  -999.2500  -999.2500  -999.2500  1420.3970
 3398.0000  1078.6290  -999.2500  -999.2500  -999.2500  -999.2500  -999.2500  -999.2500  -999.2500  -999.2500  1304.9690
 3398.5000  1040.7410  -999.2500  -999.2500  -999.2500  -999.2500  -999.2500  -999.2500  -999.2500  -999.2500  1189.5410
 3399.0000  1016.4080  -999.2500  -999.2500  -999.2500  -999.2500  -999.2500  -999.2500  -999.2500  -999.2500  1074.1140
 3399.5000   997.3520  -999.2500  -999.2500  -999.2500  -999.2500  -999.2500  -999.2500  -999.2500  -999.2500   965.0920
