~VERSION INFORMATION
 VERS.                2.0:   CWLS LOG ASCII STANDARD - VERSION 2.0
 WRAP.                 NO:   ONE LINE PER DEPTH STEP
~WELL INFORMATION
#MNEM.UNIT      DATA TYPE    INFORMATION
#----------   ------------   ------------------------------
 STRT.F          200.0000:   START DEPTH
 STOP.F         3135.5000:   STOP DEPTH
 STEP.F            0.5000:   STEP LENGTH
 NULL.          -999.2500:   NO VALUE
 COMP.    FENOX & SCISSON:   COMPANY
 WELL. FENIX NPR 23 "AX" #3-11:   WELL
 FLD .                NPR:   FIELD
 LOC .      S11 T38N R78W:   LOCATION
 CNTY.            NATRONA:   COUNTY
 STAT.            WYOMING:   STATE
 CTRY. UNITED STATES OF AMERICA:   COUNTRY
 SRVC.       SCHLUMBERGER:   SERVICE COMPANY
 DATE.        06-NOV-1977:   LOGDATE
 API .     49025104320000:   API NUMBER
~CURVE INFORMATION
#MNEM.UNIT       API CODE    CURVE DESCRIPTION
#----------   ------------   ------------------------------
 DEPT.F                  :   
 CALD.IN     45 280 60 00:   CALIPER FROM DENSITY LOG
 GRD .GAPI   45 310 01 00:   GAMMA RAY FROM DENSITY LOG
 RHOB.G/C3   45 350 01 00:   BULK DENSITY
 CORR.G/C3   45 356 01 00:   DENSITY CORRECTION
 SPR .MV     07 010 01 00:   SPONTANEOUS POTENTIAL
 LL8 .OHMM   07 220 08 00:   LATEROLOG-8 RES.
 ILD .OHMM   07 120 46 00:   DEEP INDUCTION RESISTIVITY
 ILM .OHMM   07 120 44 00:   INDUCTION LOG MEDIUM RESISTIVITY
~PARAMETER INFORMATION
#MNEM.UNIT          VALUE    DESCRIPTION
#----------   ------------   ------------------------------
 EKB .F         5176.0000:   Kelly bushing
 EGL .F         5171.0000:   Ground level
 TD  .F         3138.0000:   Total depth
 DATE.        06-NOV-1977:   Date logged
 CLNT.            A2DTECH:   Client Code
 SL  . 1650' FNL & 750' FWL:   Surface Location
 PD  .                 GL:   Permanent Datum
 EPD .F              5171:   Elevation Permanent Datum
 LMF .                 KB:   Log Measured From
 DMF .                 KB:   Drilling Measured From
 DAPD.F                 5:   Feet Above Permanent Datum
 DD  .F              3138:   Depth driller
 DL  .F              3135:   Depth logger
 BLI .F              3134:   Bottom log interval
 TLI .F               196:   Top log interval
 CS1 .IN            8.625:   Casing size
 CBD1.      8.625" @ 205':   Casing driller 1
 CBL1.F               205:   Casing logger 1
 BS1 .IN            7.875:   Bit size
 BSD1.F              3138:   Depth drilled with bit1
 DFT .            KCL/MUD:   Type fluid in hole
 DFD .                8.8:   Density
 DFV .                 34:   Viscosity
 DFPH.                 11:   pH
 DFL .                  6:   Fluid loss
 MSS .            MUD/PIT:   Source of sample
 RMS .OHMM           0.27:   Rm
 MST .F                48:   Rm Meas. temp.
 RMF .OHMM           0.29:   Rmf
 MFST.F                48:   Rmf Meas. temp.
 RMC .OHMM           0.39:   Rmc
 MCST.F                48:   Rmc Meas. temp.
 MFSS.               MEAS:   Source Rmf.
 MCSS.               CALC:   Source Rmc.
 RMB .OHMM           0.12:   Rm. at BHT
 BHT .F               104:   BHT.
 TCS .HRS            1500:   Time Circ. stopped
 TLAB.HRS            1930:   Time logger at bottom
 MRT .F               104:   Maximum recorded temp.
 LUN .               7711:   Logging unit number
 LUL .               CSPR:   Logging unit location
 ENGI.       CRAIG/SAYLER:   Recorded By
 WITN.         PETTINGILL:   Witnessed by
 ORIG.           5" PRINT:   Origin of data
 UWI .     49025104320000:   Unique Well ID
 DICO. A2D TECHNOLOGIES, INC.:   Digitizing Company
~OTHER INFORMATION
~A   DEPT     CALD        GRD       RHOB       CORR        SPR        LL8        ILD        ILM   
# ...
 2103.5000     8.2741   140.6427     2.4476    -0.0107   -89.7120    16.3126    11.0962    12.6162
 2104.0000     8.2943   145.4714     2.4406    -0.0127   -89.7037    16.1690    11.2028    12.5076
 2104.5000     8.2943   153.3331     2.4356    -0.0107   -89.4959    16.1742    11.2080    12.3653
 2105.0000     8.2743   164.6271     2.4496    -0.0057   -89.4890    16.0318    11.1087    12.2868
 2105.5000     8.2744   175.9695     2.4663    -0.0067   -89.4820    15.8907    10.9111    12.2933
 2106.0000     8.2745   180.1953     2.4946     0.0013   -89.2743    15.7508    10.8144    12.2957
 2106.5000     8.2544   168.0483     2.4946     0.0153   -89.2673    15.4696    11.0189    12.3006
 2107.0000     8.2344   149.9982     2.4716     0.0103   -89.2604    15.7610    11.1212    12.3046
 2107.5000     8.2143   144.5665     2.4456     0.0043   -89.0527    16.3552    11.0262    12.0874
 2108.0000     8.2144   137.3242     2.4476     0.0133   -89.0457    16.5123    10.8294    12.0896
 2108.5000     8.2144   131.5909     2.4621     0.0193   -89.0388    16.0695    10.9306    12.0930
 2109.0000     8.2146   130.0823     2.4746     0.0193   -89.0318    15.7827    11.2414    12.0970
 2109.5000     8.2146   130.3843     2.4746     0.0153   -89.0249    16.2281    11.3487    12.3249
 2110.0000     8.2147   129.7810     2.4583     0.0083   -88.8171    17.3094    11.3517    12.4417
 2110.5000     8.2148   127.6689     2.4387     0.0044   -88.4086    17.9618    11.1499    12.9124
 2111.0000     8.2149   125.2552     2.4417     0.0034   -88.2009    17.8013    11.1536    12.9166
 2111.5000     8.2351   124.3502     2.4487     0.0044   -88.1939    17.9699    11.1157    12.5704
 2112.0000     8.2351   125.8592     2.4557     0.0024   -88.1856    17.0170    10.9168    12.2317
 2112.5000     8.2352   125.8594     2.4627     0.0064   -88.1786    16.7132    10.1460    12.1225
 2113.0000     8.2353   124.0493     2.4677     0.0144   -88.1717    15.9696    10.7662    12.0182
 2113.5000     8.2353   119.5236     2.4697     0.0134   -88.5663    14.9819    10.9698    11.6960
 2114.0000     8.2355   113.4894     2.4707     0.0154   -88.7601    13.9270    10.7740    11.2794
 2114.5000     8.2355   113.4898     2.4627     0.0144   -88.5524    14.1893    10.6793    11.0781
 2115.0000     8.2155   118.0159     2.4487     0.0094   -88.7462    13.9361    10.6828    11.0818
 2115.5000     8.2156   121.3351     2.4347     0.0044   -88.7393    12.7196    10.5888    11.0855
 2116.0000     8.2157   128.5766     2.4317     0.0054   -88.9331    12.4926    10.2643    11.2943
 2116.5000     8.2157   133.1025     2.4337     0.0034   -88.5204    13.5714    10.2677    11.7192
 2117.0000     8.2158   136.1197     2.4407     0.0044   -88.5176    14.3435    10.7940    11.9408
 2117.5000     8.2159   136.4216     2.4467     0.0054   -88.5107    14.0884    10.8963    12.0547
 2118.0000     8.2361   134.9132     2.4527     0.0084   -88.7059    14.8899    10.9021    12.1665
 2118.5000     8.2188   128.5777     2.4537     0.0034   -88.8983    16.7797    10.9028    12.7455
 2119.0000     8.2161   127.3711     2.4537    -0.0046   -89.0894    17.2531    10.5166    12.2907
 2119.5000     8.2162   127.0697     2.4537    -0.0006   -89.0852    17.1013    10.5201    12.2931
 2120.0000     8.2163   125.8631     2.4527     0.0034   -89.0783    16.3405    10.8162    11.9644
 2120.5000     8.2164   124.9583     2.4498    -0.0075   -89.2721    15.7574    10.8212    11.3280
 2121.0000     8.2164   126.1654     2.4458    -0.0095   -89.6667    14.6481    10.6282    11.3324
 2121.5000     8.2366   130.0874     2.4398    -0.0075   -90.0614    13.6169    10.3434    11.3362
 2122.0000     8.2367   133.7077     2.4328    -0.0045   -90.0530    11.8717    10.4958    11.3384
 2122.5000     8.2368   134.6129     2.4238    -0.0035   -90.0461    11.4481    10.1622    11.3429
 2123.0000     8.2369   134.6147     2.4398    -0.0055   -90.2399    11.7712     9.9870    11.3474
 2123.5000     8.2369   133.7099     2.4498    -0.0095   -90.2330    13.5104     9.8932    11.3497
 2124.0000     8.2370   125.5634     2.4598    -0.0025   -90.2260    14.1476     9.8062    11.3542
 2124.5000     8.2371   123.1504     2.4588    -0.0025   -90.2190    14.8168     9.9909    11.1509
 2125.0000     8.2573   121.0390     2.4478    -0.0045   -90.2121    14.4197    10.2721    11.1546
 2125.5000     8.2373   121.0393     2.4398    -0.0055   -90.2051    14.1615    10.3701    10.9571
 2126.0000     8.2373   120.7379     2.4500    -0.0055   -90.3990    13.6581    10.3736    10.9614
 2126.5000     8.2374   117.4201     2.4602    -0.0035   -90.3920    13.7883    10.2830    10.8636
 2127.0000     8.2375   112.5941     2.4728     0.0005   -90.3851    14.1773    10.2864    10.8679
 2127.5000     8.2376   111.0862     2.4778     0.0065   -90.3781    14.0526    10.2899    10.8701
 2128.0000     8.2376   113.1981     2.4818     0.0125   -90.3712    13.5512    10.3880    10.8751
 2128.5000     8.2377   117.7231     2.4818     0.0185   -90.3642    13.5557    10.5844    10.9781
 2129.0000     8.2378   120.4381     2.4738     0.0145   -90.3573    13.8109    10.3956    11.3933
 2129.5000     8.2379   120.7401     2.4648     0.0055   -90.3503    14.0710    10.4948    11.5012
 2130.0000     8.2179   121.6452     2.4658     0.0065   -90.1426    14.4679    10.4976    11.5042
 2130.5000     8.2381   123.4553     2.4708     0.0085   -90.1356    14.8751    10.4060    11.4046
 2131.0000     8.2381   125.8685     2.4738     0.0066   -90.1287    14.8816    10.4094    11.4083
 2131.5000     8.2583   127.0753     2.4668     0.0046   -90.1203    14.8858    10.6054    11.3080
 2132.0000     8.2584   128.2820     2.4659     0.0066   -90.1134    14.7577    10.6090    11.3110
 2132.5000     8.2585   127.9806     2.4818     0.0086   -90.3072    14.3594    10.4191    11.1100
 2133.0000     8.2585   126.7743     2.4699    -0.0014   -90.3003    13.8472    10.5192    11.1122
 2133.5000     8.2586   125.5681     2.4519    -0.0064   -90.2933    13.7254    10.4260    11.1166
 2134.0000     8.2788   124.3620     2.4379     0.0026   -90.2864    14.2434    10.3343    11.1210
 2134.5000     8.2789   124.0606     2.4439     0.0026   -90.2794    14.6451    10.3384    11.0218
 2135.0000     8.2589   123.7593     2.4409     0.0016   -90.2725    14.6461    10.2475    11.0261
 2135.5000     8.2790   123.4580     2.4399     0.0026   -90.2655    14.6547    10.1574    10.6924
 2136.0000     8.2791   122.2519     2.4509     0.0026   -90.2586    14.4845    10.0681    10.4984
 2136.5000     8.2792   119.5378     2.4629    -0.0004   -90.2516    13.8368    10.0715    10.1236
 2137.0000     8.3195   114.1096     2.4649    -0.0004   -90.0439    12.8604     9.8017     9.9425
 2137.5000     8.2793   109.5862     2.4769     0.0046   -90.2377    12.1747     9.7162     9.7654
 2138.0000     8.2995   105.6661     2.4889     0.0046   -90.4316    11.0072     9.9902     9.7686
 2138.5000     8.2996   102.3492     2.4989     0.0046   -90.4246    12.5658     9.9935     9.8621
 2139.0000     8.2796    99.6355     2.4809     0.0026   -90.0161    13.7759    10.0889    10.0477
 2139.5000     8.2797    99.3344     2.4659     0.0026   -90.2099    14.1634    10.0922    10.3326
 2140.0000     8.2797   103.8584     2.4589     0.0007   -90.0022    14.2611    10.3769    10.6249
 2140.5000     8.2798   108.9856     2.4619    -0.0013   -89.9938    14.3041    10.3803    10.6284
 2141.0000     8.2598   115.6203     2.4619    -0.0053   -89.9869    14.1783    10.2891    10.6319
 2141.5000     8.2599   121.3503     2.4600    -0.0043   -89.9799    13.9264    10.2945    10.6333
 2142.0000     8.2801   127.6833     2.4560     0.0007   -89.9730    13.4297    10.2964    10.4869
 2142.5000     8.2801   129.1913     2.4480     0.0037   -90.1668    13.1902    10.2986    10.5856
 2143.0000     8.2802   128.5884     2.4370     0.0047   -90.3607    13.0742    10.2094    10.5898
 2143.5000     8.2803   127.3824     2.4370     0.0037   -90.3537    13.1989    10.2115    10.7877
