~VERSION INFORMATION
 VERS.                2.0:   CWLS LOG ASCII STANDARD - VERSION 2.0
 WRAP.                 NO:   ONE LINE PER DEPTH STEP
~WELL INFORMATION
#MNEM.UNIT      DATA TYPE    INFORMATION
#----------   ------------   ------------------------------
 STRT.F            9.5000:   START DEPTH
 STOP.F         3154.0000:   STOP DEPTH
 STEP.F            0.5000:   STEP LENGTH
 NULL.          -999.2500:   NO VALUE
 COMP. LAWRENCE ALISON AND ASSOCIATES:   COMPANY
 WELL. LAWRENCE "X" #86-3:   WELL
 FLD .          N.P.R. #3:   FIELD
 LOC .       S3 T38N R78W:   LOCATION
 CNTY.            NATRONA:   COUNTY
 STAT.            WYOMING:   STATE
 CTRY. UNITED STATES OF AMERICA:   COUNTRY
 SRVC.       DRESSER ALAS:   SERVICE COMPANY
 DATE.        13-JUN-1986:   LOGDATE
 API .     49025110920000:   API NUMBER
~CURVE INFORMATION
#MNEM.UNIT       API CODE    CURVE DESCRIPTION
#----------   ------------   ------------------------------
 DEPT.F                  :   
 CALD.IN     45 280 60 00:   CALIPER FROM DENSITY LOG
 RHOB.G/C3   45 350 01 00:   BULK DENSITY
 CORR.G/C3   45 356 01 00:   DENSITY CORRECTION
 CNC .DEC    42 890 03 00:   NEUTRON PORISITY LIMESTONE
 SPR .MV     07 010 01 00:   SPONTANEOUS POTENTIAL
 GRR .GAPI   07 310 01 00:   GAMMA RAY FROM RESISTIVITY
 RFOC.OHMM   07 220 04 00:   RESISTIVITY FOCUSED LOG RES.
 ILD .OHMM   07 120 46 00:   DEEP INDUCTION RESISTIVITY
 ILM .OHMM   07 120 44 00:   INDUCTION LOG MEDIUM RESISTIVITY
 TENR.LBS    07 635 01 00:   TENSION FROM RESISTIVITY
~PARAMETER INFORMATION
#MNEM.UNIT          VALUE    DESCRIPTION
#----------   ------------   ------------------------------
 EKB .F         5153.0000:   Kelly bushing
 EGL .F         5142.0000:   Ground level
 EDF .F         5151.0000:   Drilling floor
 TD  .F         3151.0000:   Total depth
 DATE.        13-JUN-1986:   Date logged
 CLNT.            A2DTECH:   Client Code
 SL  . 1450' FSL & 144' FEL:   Surface Location
 PD  .                 GL:   Permanent Datum
 EPD .F              5142:   Elevation Permanent Datum
 LMF .                 KB:   Log Measured From
 DMF .                 KB:   Drilling Measured From
 DAPD.F                11:   Feet Above Permanent Datum
 DD  .F              3151:   Depth driller
 DL  .F              3151:   Depth logger
 BLI .F              3146:   Bottom log interval
 TLI .F                11:   Top log interval
 CS1 .IN            8.625:   Casing size
 CBD1.      8.625" @ 584':   Casing driller 1
 CBL1.F               592:   Casing logger 1
 BS1 .IN            7.875:   Bit size
 BSD1.F              3151:   Depth drilled with bit1
 DFT .            KCL-GEL:   Type fluid in hole
 DFD .                8.8:   Density
 DFV .                 35:   Viscosity
 DFPH.                8.5:   pH
 DFL .               15.5:   Fluid loss
 MSS .           FLOWLINE:   Source of sample
 RMS .OHMM           0.49:   Rm
 MST .F                80:   Rm Meas. temp.
 RMF .OHMM           0.38:   Rmf
 MFST.F                80:   Rmf Meas. temp.
 RMC .OHMM           0.61:   Rmc
 MCST.F                80:   Rmc Meas. temp.
 MFSS.               MEAS:   Source Rmf.
 MCSS.               CALC:   Source Rmc.
 RMB .OHMM           0.37:   Rm. at BHT
 BHT .F               112:   BHT.
 TCS .HRS            0.37:   Time Circ. stopped
 MRT .F               112:   Maximum recorded temp.
 LUN .            HL-6274:   Logging unit number
 LUL .           GILLETTE:   Logging unit location
 WITN.             STRONG:   Witnessed by
 ORIG.           5" PRINT:   Origin of data
 UWI .     49025110920000:   Unique Well ID
 DICO. A2D TECHNOLOGIES, INC.:   Digitizing Company
~OTHER INFORMATION
~A    DEPT    CALD       RHOB       CORR        CNC        SPR        GRR       RFOC        ILD        ILM       TENR   
# ...
 1785.0000  -999.2500  -999.2500  -999.2500  -999.2500   -95.6988   114.6425     6.8571     7.0077     6.2694   -80.2597
 1785.5000  -999.2500  -999.2500  -999.2500  -999.2500   -95.1017   115.4358     6.9842     7.2042     6.3271   -70.1411
 1786.0000  -999.2500  -999.2500  -999.2500  -999.2500   -95.1047   110.2182     7.0488     7.4066     6.3857   -70.0883
 1786.5000  -999.2500  -999.2500  -999.2500  -999.2500   -94.9072   106.6029     7.4417     7.5441     6.5038   -70.0357
 1787.0000  -999.2500  -999.2500  -999.2500  -999.2500   -94.9103   103.7896     7.5185     7.6841     6.5636   -69.9829
 1787.5000  -999.2500  -999.2500  -999.2500  -999.2500   -94.9133   104.9854     7.6581     8.0174     6.5627   -69.9302
 1788.0000  -999.2500  -999.2500  -999.2500  -999.2500   -94.9163   109.7892     7.7999     7.9446     6.6847   -69.8775
 1788.5000  -999.2500  -999.2500  -999.2500  -999.2500   -95.1198   112.5857     7.7993     7.7322     6.5004   -79.8917
 1789.0000  -999.2500  -999.2500  -999.2500  -999.2500   -95.1232   116.9913     7.4454     7.6622     6.4398   -79.8392
 1789.5000  -999.2500  -999.2500  -999.2500  -999.2500   -95.1262   120.5923     7.1075     7.3242     6.1470   -89.8538
 1790.0000  -999.2500  -999.2500  -999.2500  -999.2500   -95.1292   120.9860     7.0411     7.3227     6.1457   -89.8014
 1790.5000  -999.2500  -999.2500  -999.2500  -999.2500   -95.1323   120.5780     7.0400     7.0637     5.9217   -79.6814
 1791.0000  -999.2500  -999.2500  -999.2500  -999.2500   -95.1353   118.1656     6.7205     7.0614     5.8659   -79.6288
 1791.5000  -999.2500  -999.2500  -999.2500  -999.2500   -95.1383   112.9472     6.7196     6.9953     5.8654   -79.5657
 1792.0000  -999.2500  -999.2500  -999.2500  -999.2500   -95.1419   108.5305     6.7814     6.7397     5.8104   -79.5132
 1792.5000  -999.2500  -999.2500  -999.2500  -999.2500   -94.3432   102.9100     6.7811     6.6771     5.5981   -79.4605
 1793.0000  -999.2500  -999.2500  -999.2500  -999.2500   -93.9435   102.9030     6.7797     5.6492     5.2945   -79.4080
 1793.5000  -999.2500  -999.2500  -999.2500  -999.2500   -93.6169   103.6978     6.7161     4.7362     4.8248   -79.3554
 1794.0000  -999.2500  -999.2500  -999.2500  -999.2500   -93.2902   102.8892     6.8404     4.1589     3.6525   -79.3027
 1794.5000  -999.2500  -999.2500  -999.2500  -999.2500   -92.9635   102.8822     6.3515     3.9334     2.9507   -79.2502
 1795.0000  -999.2500  -999.2500  -999.2500  -999.2500   -92.6369   104.4787     5.6300     3.7896     2.9230   -69.1286
 1795.5000  -999.2500  -999.2500  -999.2500  -999.2500   -92.3102   107.2776     4.0329     3.7541     2.9773   -69.0759
 1796.0000  -999.2500  -999.2500  -999.2500  -999.2500   -91.1595   108.8740     2.7837     3.7191     3.2061   -69.0232
 1796.5000  -999.2500  -999.2500  -999.2500  -999.2500   -90.9617   107.2636     3.1684     3.7184     3.7528   -79.0398
 1797.0000  -999.2500  -999.2500  -999.2500  -999.2500   -91.9666   106.0541     4.5894     3.7524     3.8228   -78.9872
 1797.5000  -999.2500  -999.2500  -999.2500  -999.2500   -92.7701   104.8447     5.7313     4.0036     4.4336   -78.9346
 1798.0000  -999.2500  -999.2500  -999.2500  -999.2500   -93.7752   103.4319     6.8967     4.4742     5.2871   -78.8820
 1798.5000  -999.2500  -999.2500  -999.2500  -999.2500   -93.7788   104.4299     6.7072     4.9541     5.8542   -78.8294
 1799.0000  -999.2500  -999.2500  -999.2500  -999.2500   -94.1821   107.6295     6.7063     5.7456     6.1884   -78.7767
 1799.5000  -999.2500  -999.2500  -999.2500  -999.2500   -94.3861   109.6252     6.7054     6.2453     6.3624   -78.7137
 1800.0000  -999.2500  -999.2500  -999.2500  -999.2500   -94.3885   108.8166     6.7049     6.8513     6.3028   -88.7735
 1800.5000  -999.2500  -999.2500  -999.2500  -999.2500   -94.3921   107.0991     6.7750     6.9498     6.2147   -97.7166
 1801.0000  -999.2500  -999.2500  -999.2500  -999.2500   -93.9976   106.7988     6.8282     7.0319     6.1281  -102.1920
 1801.5000  -999.2500  -999.2500  -999.2500  -999.2500   -93.7996   108.3952     7.0199     7.1076     6.1274  -106.6674
 1802.0000  -999.2500  -999.2500  -999.2500  -999.2500   -93.8035   111.9958     7.2167     6.9119     6.1269  -108.0861
 1802.5000  -999.2500  -999.2500  -999.2500  -999.2500   -94.2082   113.1915     7.2824     6.9110     6.2407   -77.6795
 1803.0000  -999.2500  -999.2500  -999.2500  -999.2500   -94.4117   113.5855     7.2822     6.9101     6.2984   -77.4829
 1803.5000  -999.2500  -999.2500  -999.2500  -999.2500   -94.8172   113.1779     7.2811     7.1036     6.3561   -77.2865
 1804.0000  -999.2500  -999.2500  -999.2500  -999.2500   -95.0215   111.9686     7.2804     7.1035     6.3551   -77.0900
 1804.5000  -999.2500  -999.2500  -999.2500  -999.2500   -95.0255   111.5609     7.3576     7.4393     6.4731   -76.8935
 1805.0000  -999.2500  -999.2500  -999.2500  -999.2500   -95.0270   112.7566     7.4356     7.5078     6.5326   -76.6969
 1805.5000  -999.2500  -999.2500  -999.2500  -999.2500   -95.0333   113.9524     7.5521     7.3686     6.4713   -76.5005
 1806.0000  -999.2500  -999.2500  -999.2500  -999.2500   -95.0372   115.1482     7.3634     7.3678     6.4108   -96.4031
 1806.5000  -999.2500  -999.2500  -999.2500  -999.2500   -94.0389   111.1315     7.1795     7.3669     6.4100   -86.1374
 1807.0000  -999.2500  -999.2500  -999.2500  -999.2500   -93.6423   107.1160     7.1409     7.4346     6.4093   -85.9407
 1807.5000  -999.2500  -999.2500  -999.2500  -999.2500   -94.2475   103.5013     7.2065     7.5726     6.5283   -85.7442
 1808.0000  -999.2500  -999.2500  -999.2500  -999.2500   -94.4495   103.2940     7.1391     7.6428     6.7739   -85.5476
 1808.5000  -999.2500  -999.2500  -999.2500  -999.2500   -94.6562   108.2981     7.5462     7.6418     6.7734   -85.3511
 1809.0000  -999.2500  -999.2500  -999.2500  -999.2500   -94.6577   111.0974     7.6154     7.7838     6.7722   -75.0859
 1809.5000  -999.2500  -999.2500  -999.2500  -999.2500   -94.8644   111.0906     7.6145     7.8554     6.7718   -74.8894
 1810.0000  -999.2500  -999.2500  -999.2500  -999.2500   -95.2697   111.0838     7.6135     7.9269     6.7710   -74.6929
 1810.5000  -999.2500  -999.2500  -999.2500  -999.2500   -94.6722   109.8743     7.6125     8.0429     6.7699   -74.4965
 1811.0000  -999.2500  -999.2500  -999.2500  -999.2500   -94.2752   110.2683     7.7539     8.0419     6.7691   -74.3000
 1811.5000  -999.2500  -999.2500  -999.2500  -999.2500   -94.2791   111.0633     7.8247     8.0409     6.7682   -84.1717
 1812.0000  -999.2500  -999.2500  -999.2500  -999.2500   -94.2830   110.2547     7.7521     7.7559     6.5210   -83.9752
 1812.5000  -999.2500  -999.2500  -999.2500  -999.2500   -94.2869   107.4415     7.4688     7.5483     6.3411   -73.7107
 1813.0000  -999.2500  -999.2500  -999.2500  -999.2500   -94.0899   105.4301     7.2632     7.4799     6.2818   -73.5143
 1813.5000  -999.2500  -999.2500  -999.2500  -999.2500   -94.0923   105.4232     7.1292     7.3458     6.1657   -73.2785
 1814.0000  -999.2500  -999.2500  -999.2500  -999.2500   -94.1674   107.0187     7.1283     7.0855     5.9405   -73.0821
 1814.5000  -999.2500  -999.2500  -999.2500  -999.2500   -94.2425   108.2146     7.0615     6.9533     5.9949   -72.8857
 1815.0000  -999.2500  -999.2500  -999.2500  -999.2500   -94.3176   110.2124     6.9951     6.9527     6.1634   -72.6893
 1815.5000  -999.2500  -999.2500  -999.2500  -999.2500   -94.3928   111.8093     6.9946     6.9521     6.4551   -72.4929
 1816.0000  -999.2500  -999.2500  -999.2500  -999.2500   -94.4679   110.1987     7.1248     6.9514     6.7604   -72.2965
 1816.5000  -999.2500  -999.2500  -999.2500  -999.2500   -94.5430   110.1919     7.4616     6.9502     6.8228   -72.1001
 1817.0000  -999.2500  -999.2500  -999.2500  -999.2500   -94.6182   109.3832     7.6705     7.1455     6.9488   -71.9037
 1817.5000  -999.2500  -999.2500  -999.2500  -999.2500   -94.7295   109.7773     7.8856     7.4144     6.9486   -71.7073
 1818.0000  -999.2500  -999.2500  -999.2500  -999.2500   -94.7303   110.9720     8.1826     7.8377     6.9475   -71.5108
