~VERSION INFORMATION
 VERS.                2.0:   CWLS LOG ASCII STANDARD - VERSION 2.0
 WRAP.                 NO:   ONE LINE PER DEPTH STEP
~WELL INFORMATION
#MNEM.UNIT      DATA TYPE    INFORMATION
#----------   ------------   ------------------------------
 STRT.F          176.0000:   START DEPTH
 STOP.F         3442.0000:   STOP DEPTH
 STEP.F            0.5000:   STEP LENGTH
 NULL.          -999.2500:   NO VALUE
 COMP.  FENIX AND SCISSON:   COMPANY
 WELL.  FENIX "AX" #65-15:   WELL
 FLD . NAVAL PETROLEUM RESERVE #3:   FIELD
 LOC .      S15 T38N R78W:   LOCATION
 CNTY.            NATRONA:   COUNTY
 STAT.            WYOMING:   STATE
 CTRY. UNITED STATES OF AMERICA:   COUNTRY
 SRVC.       SCHLUMBERGER:   SERVICE COMPANY
 DATE.        09-APR-1981:   LOGDATE
 API .     49025108710000:   API NUMBER
~CURVE INFORMATION
#MNEM.UNIT       API CODE    CURVE DESCRIPTION
#----------   ------------   ------------------------------
 DEPT.F                  :   
 TENR.LBS    07 635 01 00:   TENSION
 SPR .MV     07 010 01 00:   SPONTANEOUS POTENTIAL
 ILD .OHMM   07 120 46 00:   INDUCTION LOG DEEP RESISTIVITY
 ILM .OHMM   07 120 44 00:   INDUCTION LOG MEDIUM RESISTIVITY
 SFL .OHMM   07 220 01 00:   SHALLOW FOCUSED LOG RESISTIVITY
 TEND.LBS    45 635 01 00:   TENSION FROM DENSITY LOG
 CALD.IN     45 280 60 00:   CALIPER FROM DENSITY LOG
 GRD .GAPI   45 310 01 00:   GAMMA RAY FROM DENSITY LOG
 RHOB.G/C3   45 350 01 00:   BULK DENSITY
 CORR.G/C3   45 356 01 00:   DENSITY CORRECTION
~PARAMETER INFORMATION
#MNEM.UNIT          VALUE    DESCRIPTION
#----------   ------------   ------------------------------
 EKB .F         5287.0000:   Kelly bushing
 EGL .F         5277.0000:   Ground level
 EDF .F            0.0000:   Drilling floor
 TD  .F         5476.0000:   Total depth
 DATE.        09-APR-1981:   Date logged
 CLNT.            A2DTECH:   Client Code
 SL  . 1945' FSL & 1161' FEL:   Surface Location
 PD  .                 GL:   Permanent Datum
 EPD .F              5277:   Elevation Permanent Datum
 LMF .                 KB:   Log Measured From
 DMF .                 KB:   Drilling Measured From
 DAPD.F                10:   Feet Above Permanent Datum
 DD  .F              5476:   Depth driller
 DL  .F              5436:   Depth logger
 BLI .F              5430:   Bottom log interval
 TLI .F               190:   Top log interval
 CS1 .IN            8.625:   Casing size
 CBD1.      8.625" @ 190':   Casing driller 1
 CBL1.F               190:   Casing logger 1
 BS1 .IN            7.875:   Bit size
 BSD1.F              5476:   Depth drilled with bit1
 DFT .           CHEM GEL:   Type fluid in hole
 DFD .                9.1:   Density
 DFV .                 42:   Viscosity
 DFPH.                9.5:   pH
 DFL .                  8:   Fluid loss
 MSS .            MUDTANK:   Source of sample
 RMS .OHMM           1.62:   Rm
 MST .F                71:   Rm Meas. temp.
 RMF .OHMM           1.45:   Rmf
 MFST.F                71:   Rmf Meas. temp.
 MFSS.               MEAS:   Source Rmf.
 RMB .OHMM           1.02:   Rm. at BHT
 BHT .F               116:   BHT.
 TCS .HRS            1600:   Time Circ. stopped
 TLAB.HRS            1830:   Time logger at bottom
 MRT .F               116:   Maximum recorded temp.
 LUN .               8035:   Logging unit number
 LUL .               CSPR:   Logging unit location
 ENGI.            BEATTIE:   Recorded By
 WITN.              EIVAS:   Witnessed by
 ORIG.           5" PRINT:   Origin of data
 UWI .     49025108710000:   Unique Well ID
 DICO. A2D TECHNOLOGIES, INC.:   Digitizing Company
~OTHER INFORMATION
~A   DEPT     TENR        SPR        ILD        ILM        SFL       TEND       CALD         GRD      RHOB       CORR   
# ...
  377.0000   286.5610   -18.2360     6.8740     6.3800     7.1520   306.1260     8.6830   100.6410     2.4900     0.0180
  377.5000   286.5610   -18.2350     6.9040     6.4080     7.1520   306.3750     8.6770   100.1010     2.5120     0.0100
  378.0000   286.5610   -18.2350     6.9340     6.4360     7.1520   306.6230     8.6710   102.0740     2.5340     0.0100
  378.5000   286.5610   -18.2350     6.9640     6.4640     7.1520   306.8720     8.6660   104.6310     2.5310     0.0160
  379.0000   286.5610   -18.2350     6.9940     6.4920     7.1520   307.1200     8.6600   105.9240     2.5170     0.0220
  379.5000   286.5610   -18.2350     7.0220     6.5200     7.1620   307.3690     8.6540   104.9210     2.4920     0.0170
  380.0000   286.5610   -18.2350     7.0280     6.5350     7.1740   307.6170     8.6480   103.9160     2.4700     0.0120
  380.5000   286.5610   -18.2350     7.0360     6.5550     7.1870   307.8660     8.6420   105.4910     2.4550     0.0060
  381.0000   286.5610   -18.2350     7.0440     6.5760     7.1990   308.1140     8.6360   108.3980     2.4500     0.0060
  381.5000   286.5610   -18.2350     7.0520     6.5960     7.2110   308.3630     8.6300   109.9340     2.4550     0.0100
  382.0000   286.5610   -18.2350     7.0600     6.6160     7.2230   308.6110     8.6240   109.5730     2.4650     0.0220
  382.5000   286.5610   -18.2350     7.0690     6.6370     7.2350   308.8600     8.6180   107.9980     2.4750     0.0490
  383.0000   286.5610   -18.2350     7.0770     6.6570     7.2490   309.1090     8.6120   106.4290     2.4730     0.0500
  383.5000   286.5610   -18.2350     7.0850     6.6770     7.2570   309.3570     8.6060   104.8400     2.4660     0.0430
  384.0000   286.5610   -18.2350     7.0930     6.6980     7.2760   309.6060     8.6010   104.2760     2.4580     0.0300
  384.5000   286.5610   -18.2350     7.1010     6.7180     7.2700   309.8540     8.5950   105.3220     2.4540     0.0100
  385.0000   286.5610   -18.2350     7.1090     6.7380     7.4390   310.1030     8.6230   105.4450     2.4550     0.0050
  385.5000   286.5610   -18.2350     7.1170     6.7590     7.5530   310.3510     8.6840   105.0020     2.4570     0.0030
  386.0000   286.5610   -18.2350     7.1250     6.7830     7.6910   310.6000     8.7390   104.6460     2.4580     0.0020
  386.5000   286.5610   -18.2350     7.1340     6.8140     7.7820   310.8480     8.6870   107.0980     2.4620     0.0030
  387.0000   286.5610   -18.2350     7.1420     6.8460     7.9370   311.0970     8.5320   111.7850     2.4670     0.0040
  387.5000   286.5610   -18.2350     7.1510     6.8770     8.1230   311.3450     8.5150   115.5420     2.4720     0.0050
  388.0000   286.5610   -18.2350     7.1780     6.9100     8.1230   311.5940     8.5150   115.2780     2.4770     0.0060
  388.5000   286.5610   -18.2350     7.2420     6.9460     8.1230   311.8420     8.5150   112.8510     2.4810     0.0060
  389.0000   286.5610   -18.2350     7.3070     6.9820     8.1230   312.0910     8.5140   110.4500     2.4790     0.0050
  389.5000   286.5610   -18.2350     7.3720     7.0180     8.1230   312.3390     8.5130   109.7060     2.4760     0.0040
  390.0000   286.5610   -18.2340     7.4370     7.0530     8.1230   312.5880     8.5110   110.2850     2.4730     0.0050
  390.5000   286.5610   -18.2610     7.5020     7.0890     8.1230   312.8360     8.5100   112.6180     2.4700     0.0040
  391.0000   286.5610   -18.3640     7.5660     7.1250     8.1230   313.0850     8.5090   115.4630     2.4680     0.0050
  391.5000   286.5610   -18.4640     7.6310     7.1960     8.1230   313.3330     8.5080   116.7180     2.4680     0.0050
  392.0000   286.5610   -18.5670     7.6910     7.3650     8.1230   313.5820     8.5070   115.5570     2.4740     0.0050
  392.5000   286.5610   -18.6690     7.8430     7.5340     8.2720   313.8300     8.5060   113.5870     2.4810     0.0060
  393.0000   286.5610   -18.7710     8.0690     7.7030     8.4560   314.0790     8.5050   113.3180     2.4860     0.0060
  393.5000   286.5610   -18.8740     8.2940     7.8730     8.6640   314.3270     8.5040   113.7300     2.4860     0.0040
  394.0000   286.5610   -18.9760     8.5190     8.0420     8.8720   315.0110     8.5030   114.9720     2.4840     0.0010
  394.5000   286.5610   -19.0790     8.7450     8.2110     9.0800   316.0350     8.5020   116.3940     2.4790    -0.0010
  395.0000   286.5610   -19.1810     8.9700     8.3800     9.2880   317.0600     8.5010   116.3280     2.4760    -0.0020
  395.5000   286.5610   -19.2820     9.1950     8.5490     9.4960   318.0840     8.5000   112.3240     2.4830    -0.0030
  396.0000   286.5610   -19.3860     9.5690     8.7190     9.7040   319.1090     8.4990   107.7030     2.4960    -0.0020
  396.5000   286.5610   -19.3940     9.5620     8.8970     9.9240   320.1330     8.4980   106.0980     2.5070    -0.0010
  397.0000   286.5610   -19.3310     9.5400     8.8430     9.7670   321.1580     8.4960   107.2350     2.5040     0.0040
  397.5000   286.5610   -19.2710     9.5190     8.7850     9.6010   322.1820     8.4950   109.8560     2.4990     0.0090
  398.0000   286.5610   -19.2120     9.4980     8.7370     9.4350   323.2070     8.4570   111.7290     2.4940     0.0140
  398.5000   286.5610   -19.1510     9.4760     8.8330     9.3970   324.2310     8.4410   111.0890     2.4970     0.0130
  399.0000   286.5610   -19.0920     9.4550     8.9150     9.3970   323.9890     8.4260   106.6610     2.5090     0.0100
  399.5000   286.5610   -19.0310     9.4340     8.9980    10.6030   323.4600     8.4110    99.9530     2.5230     0.0120
  400.0000   286.5610   -18.9720     9.4120     9.0800    11.6230   322.9310     8.3960    98.5400     2.5380     0.0260
  400.5000   286.5610   -18.9120     9.3910     9.1620    13.0390   322.4010     8.4070   102.6530     2.5460     0.0340
  401.0000   286.5610   -18.8500     9.3700     9.2270    12.3340   321.8720     8.4230   108.4050     2.5370     0.0260
  401.5000   286.5610   -18.7930     9.3480     9.1820    11.1800   321.3430     8.4380   111.3930     2.4920     0.0150
  402.0000   286.5610   -18.7310     9.3270     9.1280    10.2920   320.8130     8.4540   112.3620     2.4740     0.0020
  402.5000   286.5610   -18.6670     9.3060     9.0730    10.0570   320.2840     8.4700   113.3490     2.4680    -0.0010
  403.0000   286.5610   -18.6450     9.2840     9.0180     9.7750   319.7550     8.4840   114.6570     2.4690     0.0010
  403.5000   286.5610   -18.3170     9.2630     8.9640     9.4930   319.2250     8.4790   115.3520     2.4750     0.0050
  404.0000   286.5610   -17.4880     9.2410     8.9090     9.3970   318.6960     8.4700   115.4390     2.4770     0.0090
  404.5000   286.5610   -17.5600     9.2200     8.8540     9.3970   318.1670     8.4660   113.9690     2.4790     0.0130
  405.0000   286.5610   -17.7760     9.1990     8.8000     9.3970   317.6370     8.4610   112.8830     2.4830     0.0170
  405.5000   286.5610   -18.0050     9.1770     8.7450     9.3970   317.1080     8.4560   113.2040     2.4910     0.0210
  406.0000   286.5610   -18.2230     9.1560     8.6900     9.3970   316.5790     8.4520   113.3930     2.4980     0.0210
  406.5000   286.5610   -18.4420     9.1350     8.6360     9.3970   316.0500     8.4470   111.0480     2.4990     0.0210
  407.0000   286.5610   -18.6630     9.1130     8.5810     9.3970   315.5200     8.4420   108.6000     2.4990     0.0160
  407.5000   286.5610   -18.8970     9.0920     8.5260     9.3970   314.9910     8.4370   107.7890     2.5000     0.0120
  408.0000   286.5610   -19.0280     9.0690     8.4720     9.3970   314.4620     8.4320   109.4850     2.5000     0.0120
  408.5000   286.5610   -18.9360     9.0570     8.4250     9.3970   334.3310     8.4270   111.3570     2.5020     0.0220
  409.0000   286.5610   -18.8610     9.0100     8.3950     9.3960   325.1380     8.4230   111.0250     2.5090     0.0240
  409.5000   286.9110   -18.7800     8.9690     8.3550     9.3970   316.2620     8.4180   107.9500     2.5210     0.0280
  410.0000   287.5490   -18.6980     8.9250     8.3150     9.3970   307.3850     8.4140   105.5320     2.5300     0.0290
