~VERSION INFORMATION
 VERS.                2.0:   CWLS LOG ASCII STANDARD - VERSION 2.0
 WRAP.                 NO:   ONE LINE PER DEPTH STEP
~WELL INFORMATION
#MNEM.UNIT      DATA TYPE    INFORMATION
#----------   ------------   ------------------------------
 STRT.F            3.5000:   START DEPTH
 STOP.F         5648.0000:   STOP DEPTH
 STEP.F            0.5000:   STEP LENGTH
 NULL.          -999.2500:   NO VALUE
 COMP.       FLUOR DANIEL:   COMPANY
 WELL.   FLUOR "X" #46-10:   WELL
 FLD .          N.P.R. #3:   FIELD
 LOC .      S10 T38N R78W:   LOCATION
 CNTY.            NATRONA:   COUNTY
 STAT.            WYOMING:   STATE
 CTRY. UNITED STATES OF AMERICA:   COUNTRY
 SRVC.      WESTERN ATLAS:   SERVICE COMPANY
 DATE.        25-MAR-1996:   LOGDATE
 API .     49025227700000:   API NUMBER
~CURVE INFORMATION
#MNEM.UNIT       API CODE    CURVE DESCRIPTION
#----------   ------------   ------------------------------
 DEPT.F                  :   
 CALD.IN     45 280 60 00:   CALIPER FROM DENSITY LOG
 ZDEN.G/C3   45 350 01 00:   BULK DENSITY
 ZCOR.G/C3   45 356 01 00:   DENSITY CORRECTION
 TEND.LBS    45 635 01 00:   TENSION FORM DENSITY LOG
 GRD .GAPI   45 310 01 00:   GAMMA RAY FROM DENSITY LOG
 CNC .DEC    42 890 01 00:   NEUTRON POROSITY LIMESTONE
 SPR .MV     07 010 01 00:   SPONTANEOUS POTENTIAL
 RD  .OHMM   07 220 10 00:   RESISTIVITY DEEP
 RS  .OHMM   07 220 09 00:   RESISTIVITY SHALLOW
~PARAMETER INFORMATION
#MNEM.UNIT          VALUE    DESCRIPTION
#----------   ------------   ------------------------------
 EKB .F         5216.0000:   Kelly bushing
 EGL .F         5206.0000:   Ground level
 EDF .F         5215.0000:   Drilling floor
 TD  .F         5650.0000:   Total depth
 CLNT.            A2DTECH:   Client Code
 SL  . 1493' FSL & 2330' FWL:   Surface Location
 PD  .                 GL:   Permanent Datum
 EPD .F              5206:   Elevation Permanent Datum
 LMF .                 KB:   Log Measured From
 DMF .                 KB:   Drilling Measured From
 DAPD.F                10:   Feet Above Permanent Datum
 DATE.        25-MAR-1996:   Date Logged [DD-MMM-YYYY]
 DD  .F              5650:   Depth driller
 DL  .F              5648:   Depth logger
 BLI .F              5636:   Bottom log interval
 TLI .F                 0:   Top log interval
 CS1 .IN            9.625:   Casing size
 CBD1.      9.625" @ 498':   Casing driller 1
 CBL1.F               496:   Casing logger 1
 BS1 .IN             8.75:   Bit size
 BSD1.F              5650:   Depth drilled with bit1
 DFT .           CHEM GEL:   Type fluid in hole
 DFD .                9.6:   Density
 DFV .                 54:   Viscosity
 DFPH.                9.5:   pH
 DFL .                8.4:   Fluid loss
 MSS .           FLOWLINE:   Source of sample
 RMS .OHMM          0.635:   Rm
 MST .F                68:   Rm Meas. temp.
 RMF .OHMM          0.483:   Rmf
 MFST.F                68:   Rmf Meas. temp.
 MFSS.               MEAS:   Source Rmf.
 RMC .OHMM          0.789:   Rmc
 MCST.F                68:   Rmc Meas. temp.
 MCSS.               MEAS:   Source Rmc.
 RMB .OHMM           0.26:   Rm. at BHT
 BHT .F               166:   BHT.
 TCS .HRS               6:   Time Circ. stopped
 MRT .F               166:   Maximum recorded temp.
 LUN .            HL-6530:   Logging unit number
 LUL .             CASPER:   Logging unit location
 ENGI.        VERN RAUTIO:   Recorded By
 WITN. LORRAINE LAFRENIERE:   Witnessed by
 ORIG.           5" PRINT:   Origin of data
 UWI .     49025227700000:   Unique Well ID
 DICO. A2D TECHNOLOGIES, INC.:   Digitizing Company
~OTHER INFORMATION
~A  DEPTH     CALD       ZDEN       ZCOR       TEND        GRD        CNC        SPR         RD         RS
# ...
 3215.5000     9.1502     2.5396     0.0450    -4.9564   115.0403     0.2143   -81.5988     8.0755     6.0804
 3216.0000     9.1512     2.5374     0.0450     2.4871   116.2516     0.2215   -81.9005     8.0729     6.1640
 3216.5000     9.1523     2.5389     0.0465     2.3988   113.5514     0.2188   -81.9005     8.2968     6.3361
 3217.0000     9.1534     2.5487     0.0481     2.3113   111.1524     0.2152   -81.9005     8.6458     6.6491
 3217.5000     9.1544     2.5532     0.0496     2.2410   109.3537     0.2152   -81.9005     8.7030     6.8348
 3218.0000     9.1403     2.5548     0.0481     2.1706   108.1553     0.2206   -81.9005     8.5176     6.6465
 3218.5000     9.1416     2.5540     0.0481     2.0989   110.2744     0.2260   -82.2021     8.1711     6.3305
 3219.0000     9.1426     2.5540     0.0467     9.5262   112.8013     0.2305   -82.5038     8.0006     6.1139
 3219.5000     9.1435     2.5556     0.0482    16.9521   116.9200     0.2356   -82.8054     7.8307     5.9457
 3220.0000     9.1446     2.5639     0.0513    16.8642   121.4466     0.2398   -83.2579     7.7230     5.9032
 3220.5000     9.1458     2.5684     0.0573    16.7916   121.1540     0.2438   -83.4087     7.6673     5.9434
 3221.0000     9.1468     2.5699     0.0648    16.7060   120.5360     0.2462   -83.1071     7.6119     5.9833
 3221.5000     9.1477     2.5669     0.0679    16.6356   120.2674     0.2474   -82.5038     7.6090     6.0236
 3222.0000     9.1488     2.5586     0.0694    16.5653   120.5793     0.2465   -82.0443     7.6600     6.0341
 3222.5000     9.1498     2.5594     0.0679    16.4774   121.1902     0.2456   -81.5988     7.7100     6.0630
 3223.0000     9.1510     2.5602     0.0665    16.4071   122.1149     0.2450   -81.2971     7.7074     6.1039
 3223.5000     9.1520     2.5602     0.0650    16.3367   126.0286     0.2456   -81.5988     7.7047     6.1024
 3224.0000     9.1532     2.5595     0.0590     8.7702   127.8444     0.2477   -81.5988     7.7020     6.1012
 3224.5000     9.1541     2.5595     0.0545     1.1860   129.3589     0.2489   -81.7496     7.6994     6.0998
 3225.0000     9.1551     2.5565     0.0530     1.1157   130.2711     0.2489   -81.9005     7.6435     6.0986
 3225.5000     9.1562     2.5520     0.0516     1.0453   130.8842     0.2486   -81.9005     7.5878     6.0136
 3226.0000     9.1574     2.5430     0.0546     8.4712   130.8927     0.2489   -82.2021     7.5854     5.9294
 3226.5000     9.1584     2.5317     0.0562     8.3833   133.3108     0.2501   -82.3529     7.5829     5.9283
 3227.0000     9.1593     2.5249     0.0592    30.8017   135.4278     0.2528   -82.2021     7.5799     5.9271
 3227.5000     9.1604     2.5249     0.0637    30.7314   136.9445     0.2564   -81.9005     7.5775     6.0974
 3228.0000     9.1614     2.5459     0.0653    23.1634   137.2542     0.2594   -81.9005     7.6807     6.3056
 3228.5000     9.1626     2.5619     0.0683    30.5731   135.7567     0.2639   -81.9005     7.7915     6.4367
 3229.0000     9.1636     2.5543     0.0698    30.5028   131.5484     0.2684   -81.9005     7.8912     6.4354
 3229.5000     9.1646     2.5476     0.0654    22.9362   130.6533     0.2723   -82.0513     7.9980     6.6146
 3230.0000     9.1506     2.5477     0.0488    22.8636   131.8687     0.2730   -82.2047     8.2192     6.7056
 3230.5000     9.1365     2.5491     0.0293    22.7780   132.1785     0.2732   -82.5038     8.3311     6.7978
 3231.0000     9.1377     2.5491     0.0098    22.7077   130.9822     0.2732   -82.5038     8.3011     6.8437
 3231.5000     9.1387     2.5409     0.0038    22.6373   128.5452     0.2726   -82.5038     8.0978     6.7949
 3232.0000     9.1400     2.5401     0.0098    22.5494   126.1821     0.2711   -82.5038     8.0219     6.6989
 3232.5000     9.1409     2.5401     0.0206    14.9828   124.9858     0.2693   -82.5038     7.9264     6.5608
 3233.0000     9.1419     2.5371     0.0234     7.4163   124.6910     0.2684   -82.5038     7.7609     6.4247
 3233.5000     9.1429     2.5341     0.0250     7.3459   128.4376     0.2735   -81.9005     7.6514     6.3351
 3234.0000     9.1442     2.5343     0.0190     7.2580   134.6521     0.2753   -81.2971     7.5438     6.1605
 3234.5000     9.1452     2.5417     0.0207    14.7015   138.2750     0.2777   -81.7496     7.4371     6.0746
 3235.0000     9.1308     2.5462     0.0190    14.6136   137.0788     0.2802   -82.5038     7.3326     6.0734
 3235.5000     9.1321     2.5432     0.0221    14.5427   135.5576     0.2823   -82.5038     7.3302     6.0720
 3236.0000     9.1333     2.5417     0.0266    -0.5372   134.0859     0.2822   -82.5038     7.3273     5.9873
 3236.5000     9.1343     2.5433     0.0328    -0.6075   134.3956     0.2802   -82.3529     7.2243     5.9038
 3237.0000     9.1353     2.5463     0.0387   -15.6703   138.6210     0.2798   -82.3529     7.1192     5.7412
 3237.5000     9.1363     2.5493     0.0342   -23.2384   138.9307     0.2823   -82.5038     7.0221     5.6611
 3238.0000     9.1374     2.5448     0.0297   -30.8211   139.5438     0.2850   -83.4116     7.0198     5.6600
 3238.5000     9.1232     2.5403     0.0252   -30.8914   140.7571     0.2886   -84.0121     7.0175     5.6587
 3239.0000     9.1395     2.5388     0.0178   -30.9617   141.0647     0.2910   -83.9151     7.1131     5.7587
 3239.5000     9.1405     2.5411     0.0208   -31.0345   137.7621     0.2874   -83.1071     7.2594     5.8965
 3240.0000     9.1417     2.5464     0.0239   -31.1200   136.8670     0.2862   -82.5038     7.5120     6.0609
 3240.5000     9.1426     2.5524     0.0239   -31.1903   139.5885     0.2871   -82.5038     7.6671     6.1443
 3241.0000     9.1437     2.5539     0.0239   -31.2607   140.4986     0.2853   -82.2021     7.7185     6.2288
 3241.5000     9.1447     2.5464     0.0235   -23.8347   138.7020     0.2826   -81.9005     7.7690     6.3141
 3242.0000     9.1460     2.5411     0.0195   -23.9227   137.8090     0.2786   -81.9005     7.7124     6.4009
 3242.5000     9.1468     2.5352     0.0165   -16.4792   137.5142     0.2805   -81.9005     7.6040     6.3552
 3243.0000     9.1479     2.5269     0.0165   -16.5671   137.2215     0.2895   -81.5988     7.2918     6.0951
 3243.5000     9.1489     2.5171     0.0241    -9.1412   136.6298     0.2958   -81.7496     6.8969     5.8056
 3244.0000     9.1500     2.5164     0.0361    -9.2291   135.6988     0.3000   -81.9005     6.8000     5.4916
 3244.5000     9.1512     2.5254     0.0316    -9.2994   138.4562     0.3078   -81.9005     6.7038     5.4150
 3245.0000     9.1522     2.5330     0.0166    -9.3703   140.5731     0.3126   -81.5988     6.6555     5.4138
 3245.5000     9.1532     2.5315     0.0076    -9.4577   140.8829     0.3039   -81.2971     6.6075     5.4127
 3246.0000     9.1544     2.5201     0.0046    -9.5280   138.9893     0.2886   -81.2971     6.5141     5.2609
 3246.5000     9.1553     2.5029     0.0017    -2.0990   138.4903     0.2922   -81.5988     6.5120     5.0835
 3247.0000     9.1563     2.4999     0.0017    -2.1739   139.7058     0.2946   -81.9005     6.4204     5.1178
 3247.5000     9.1574     2.4984     0.0047     5.2535   138.8107     0.2918   -82.2021     6.5073     5.2643
 3248.0000     9.1584     2.5045     0.0063    12.6795   136.0492     0.2850   -82.8054     6.5959     5.6364
 3248.5000     9.1596     2.5075     0.0078     5.0953   127.9865     0.2795   -83.5596     6.7321     5.7142
 3249.0000     9.1606     2.5075     0.0078    -2.4737   126.7880     0.2805   -83.4087     6.7767     5.6335
 3249.5000     9.1616     2.5038     0.0064    -2.5592   126.4954     0.2823   -82.5038     6.6809     5.4790
 3250.0000     9.1628     2.5023     0.0064    -2.6295   134.9398     0.2898   -82.5038     6.1042     5.3283
 3250.5000     9.1638     2.5030     0.0049    -2.6999   139.7697     0.3000   -82.9563     5.8555     5.1149
 3251.0000     9.1638     2.5053     0.0050   -10.2840   141.5854     0.3051   -83.4272     5.6952     4.8667
 3251.5000     9.1625     2.5016     0.0035   -17.8506   141.5940     0.3110   -84.0121     5.5012     4.6032
