~VERSION INFORMATION
 VERS.                2.0:   CWLS LOG ASCII STANDARD - VERSION 2.0
 WRAP.                 NO:   ONE LINE PER DEPTH STEP
~WELL INFORMATION
#MNEM.UNIT      DATA TYPE    INFORMATION
#----------   ------------   ------------------------------
 STRT.F          218.5000:   START DEPTH
 STOP.F         3291.0000:   STOP DEPTH
 STEP.F            0.5000:   STEP LENGTH
 NULL.          -999.2500:   NO VALUE
 COMP.    FENIX & SCISSON:   COMPANY
 WELL.   FENIX SHX #63-23:   WELL
 FLD .  TEAPOT DOME NPR-3:   FIELD
 LOC .      S23 T38N R78W:   LOCATION
 CNTY.            NATRONA:   COUNTY
 STAT.            WYOMING:   STATE
 CTRY. UNITED STATES OF AMERICA:   COUNTRY
 SRVC.           BIRDWELL:   SERVICE COMPANY
 DATE.        08-JUL-1978:   LOGDATE
 API .     49025106600000:   API NUMBER
~CURVE INFORMATION
#MNEM.UNIT       API CODE    CURVE DESCRIPTION
#----------   ------------   ------------------------------
 DEPT.F                  :   
 GRD .GAPI   45 310 01 00:   GAMMA RAY FROM DENSITY LOG
 CALD.IN     45 280 60 00:   CALIPER FROM DENSITY LOG
 CORR.G/C3   45 356 01 00:   DENSITY CORRECTION
 RHOB.G/C3   45 350 01 00:   BULK DENSITY
 GR  .GAPI   35 310 01 00:   GAMMA RAY
 NEUT.NAPI   35 330 01 00:   NEUTRON
~PARAMETER INFORMATION
#MNEM.UNIT          VALUE    DESCRIPTION
#----------   ------------   ------------------------------
 EKB .F         5368.0000:   Kelly bushing
 EGL .F         5358.0000:   Ground level
 TD  .F         3299.0000:   Total depth
 CLNT.            A2DTECH:   Client Code
 PD  .                 GL:   Permanent Datum
 EPD .F              5358:   Elevation Permanent Datum
 LMF .                 KB:   Log Measured From
 DMF .                 KB:   Drilling Measured From
 DAPD.F                10:   Feet Above Permanent Datum
 DATE.        08-JUL-1978:   Date Logged [DD-MMM-YYYY]
 DD  .F              3299:   Depth driller
 DL  .F              3291:   Depth logger
 BLI .F              3291:   Bottom log interval
 TLI .F              1430:   Top log interval
 CS1 .IN            9.625:   Casing size
 CBD1.     9.625" @ 1450':   Casing driller 1
 CBL1.F              1442:   Casing logger 1
 BS1 .IN            8.750:   Bit size
 BSD1.F              3299:   Depth drilled with bit1
 DFT .          KCL WATER:   Type fluid in hole
 BHT .F               118:   BHT.
 TCS .HRS               2:   Time Circ. stopped
 MRT .F               118:   Maximum recorded temp.
 LUN .               2958:   Logging unit number
 LUL .               CASP:   Logging unit location
 ENGI.             MILLER:   Recorded By
 WITN.           MCGINLEY:   Witnessed by
 ORIG.           5" PRINT:   Origin of data
 UWI .     49025106600000:   Unique Well ID
 DICO. A2D TECHNOLOGIES, INC.:   Digitizing Company
 SL  . 1800' FNL & 1825' FEL:   Surface Location
~OTHER INFORMATION
~A   DEPT      GRD       CALD       CORR       RHOB          GR      NEUT   
# ...
 2870.5000   113.0648     8.9296     0.0279     2.5044  -999.2500  -999.2500
 2871.0000   105.6135     8.9147     0.0294     2.5059  -999.2500  -999.2500
 2871.5000   103.0255     8.9144     0.0324     2.5074  -999.2500  -999.2500
 2872.0000   100.1336     8.9141     0.0338     2.5105  -999.2500  -999.2500
 2872.5000    97.5456     8.8993     0.0368     2.5120  -999.2500  -999.2500
 2873.0000    95.8490     8.8990     0.0398     2.5135  -999.2500  -999.2500
 2873.5000    95.2560     8.8987     0.0430     2.5188  -999.2500  -999.2500
 2874.0000    97.0753     8.8984     0.0488     2.5322  -999.2500  -999.2500
 2874.5000    97.8319     9.2494     0.0594     2.5593  -999.2500  -999.2500
 2875.0000    97.8264     8.9392     0.0547     2.5317  -999.2500  -999.2500
 2875.5000    98.5818     8.9121     0.0425     2.5317  -999.2500  -999.2500
 2876.0000   100.8571     8.9118     0.0455     2.5317  -999.2500  -999.2500
 2876.5000   103.6287     8.9261     0.0470     2.5294  -999.2500  -999.2500
 2877.0000   104.6465     8.9258     0.0484     2.5263  -999.2500  -999.2500
 2877.5000   104.4901     8.9255     0.0484     2.5255  -999.2500  -999.2500
 2878.0000   104.3338     8.9253     0.0407     2.5201  -999.2500  -999.2500
 2878.5000   103.5695     8.9104     0.0270     2.5071  -999.2500  -999.2500
 2879.0000   102.9572     8.9100     0.0209     2.4979  -999.2500  -999.2500
 2879.5000   101.8889     8.8951     0.0163     2.4887  -999.2500  -999.2500
 2880.0000   103.5562     8.8949     0.0147     2.4765  -999.2500  -999.2500
 2880.5000   107.3002     8.8946     0.0164     2.4825  -999.2500  -999.2500
 2881.0000   110.2332     8.8943     0.0191     2.4887  -999.2500  -999.2500
 2881.5000   111.1407     8.8940     0.0206     2.4947  -999.2500  -999.2500
 2882.0000   112.8080     8.8791     0.0205     2.5016  -999.2500  -999.2500
 2882.5000   117.2109     8.8804     0.0220     2.4962  -999.2500  -999.2500
 2883.0000   119.9420     8.8932     0.0241     2.4901  -999.2500  -999.2500
 2883.5000   121.3054     8.8928     0.0264     2.4885  -999.2500  -999.2500
 2884.0000   121.4530     8.9217     0.0264     2.4916  -999.2500  -999.2500
 2884.5000   117.0401     8.9214     0.0263     2.4955  -999.2500  -999.2500
 2885.0000   114.6041     8.9358     0.0263     2.4999  -999.2500  -999.2500
 2885.5000   114.1438     8.9501     0.0277     2.5037  -999.2500  -999.2500
 2886.0000   112.4676     8.9644     0.0292     2.5098  -999.2500  -999.2500
 2886.5000   110.4875     8.9641     0.0291     2.5044  -999.2500  -999.2500
 2887.0000   109.4193     8.9638     0.0306     2.4968  -999.2500  -999.2500
 2887.5000   110.3268     8.9635     0.0321     2.4922  -999.2500  -999.2500
 2888.0000   113.0882     8.9779     0.0320     2.4897  -999.2500  -999.2500
 2888.5000   121.1071     8.9775     0.0319     2.4860  -999.2500  -999.2500
 2889.0000   129.0054     8.8750     0.0319     2.4822  -999.2500  -999.2500
 2889.5000   132.0405     8.8455     0.0318     2.4783  -999.2500  -999.2500
 2890.0000   135.3796     8.8452     0.0303     2.4768  -999.2500  -999.2500
 2890.5000   138.8706     8.8596     0.0295     2.4822  -999.2500  -999.2500
 2891.0000   142.9695     8.8592     0.0286     2.4744  -999.2500  -999.2500
 2891.5000   143.4211     8.8736     0.0270     2.4698  -999.2500  -999.2500
 2892.0000   135.6648     8.8733     0.0255     2.4813  -999.2500  -999.2500
 2892.5000   128.5175     8.8584     0.0254     2.4843  -999.2500  -999.2500
 2893.0000   127.6012     8.8581     0.0223     2.4697  -999.2500  -999.2500
 2893.5000   126.5330     8.8578     0.0223     2.4590  -999.2500  -999.2500
 2894.0000   121.9693     8.8575     0.0207     2.4720  -999.2500  -999.2500
 2894.5000   117.4056     8.8572     0.0206     2.4696  -999.2500  -999.2500
 2895.0000   117.4012     8.8423     0.0221     2.4612  -999.2500  -999.2500
 2895.5000   117.3967     8.8420     0.0235     2.4528  -999.2500  -999.2500
 2896.0000   116.7834     8.8417     0.0250     2.4505  -999.2500  -999.2500
 2896.5000   113.7395     8.8269     0.0250     2.4604  -999.2500  -999.2500
 2897.0000   109.9357     8.8265     0.0249     2.4665  -999.2500  -999.2500
 2897.5000   104.7641     8.8116     0.0248     2.4680  -999.2500  -999.2500
 2898.0000    97.6168     8.8113     0.0265     2.4640  -999.2500  -999.2500
 2898.5000    98.3723     8.8257     0.0293     2.4664  -999.2500  -999.2500
 2899.0000   102.8155     8.8254     0.0308     2.4718  -999.2500  -999.2500
 2899.5000   104.4425     8.8251     0.0307     2.4725  -999.2500  -999.2500
 2900.0000   102.8629     8.8248     0.0306     2.4807  -999.2500  -999.2500
 2900.5000   102.1518     8.8245     0.0306     2.4877  -999.2500  -999.2500
 2901.0000   101.5380     8.7883     0.0337     2.4755  -999.2500  -999.2500
 2901.5000   100.9229     8.7876     0.0337     2.4686  -999.2500  -999.2500
 2902.0000   100.9171     8.7869     0.0338     2.4777  -999.2500  -999.2500
 2902.5000   100.9113     8.7861     0.0367     2.4953  -999.2500  -999.2500
 2903.0000   101.2094     8.7983     0.0367     2.4857  -999.2500  -999.2500
 2903.5000   102.1155     8.7845     0.0322     2.4700  -999.2500  -999.2500
 2904.0000   108.7952     8.7686     0.0246     2.4653  -999.2500  -999.2500
 2904.5000   118.8198     8.7678     0.0215     2.4607  -999.2500  -999.2500
 2905.0000   122.3094     8.7671     0.0200     2.4592  -999.2500  -999.2500
 2905.5000   122.7610     8.7664     0.0215     2.4691  -999.2500  -999.2500
 2906.0000   120.3221     8.7655     0.0200     2.4721  -999.2500  -999.2500
 2906.5000   112.2051     8.7647     0.0200     2.4713  -999.2500  -999.2500
 2907.0000   107.2391     8.7640     0.0185     2.4636  -999.2500  -999.2500
 2907.5000   105.1057     8.7633     0.0200     2.4628  -999.2500  -999.2500
 2908.0000   104.0360     8.7626     0.0230     2.4697  -999.2500  -999.2500
 2908.5000   102.8144     8.7617     0.0246     2.4758  -999.2500  -999.2500
 2909.0000   102.6567     8.7763     0.0261     2.4742  -999.2500  -999.2500
 2909.5000   107.8166     8.7754     0.0276     2.4742  -999.2500  -999.2500
 2910.0000   111.4582     8.7899     0.0276     2.4780  -999.2500  -999.2500
 2910.5000   116.9235     8.8349     0.0276     2.4795  -999.2500  -999.2500
 2911.0000   112.9663     8.8493     0.0276     2.4787  -999.2500  -999.2500
 2911.5000   108.7052     8.8332     0.0276     2.4771  -999.2500  -999.2500
 2912.0000   108.5460     8.8325     0.0261     2.4771  -999.2500  -999.2500
 2912.5000   108.3882     8.8165     0.0246     2.4801  -999.2500  -999.2500
 2913.0000   107.7745     8.8158     0.0246     2.4832  -999.2500  -999.2500
 2913.5000   103.2094     8.8151     0.0246     2.4877  -999.2500  -999.2500
 2914.0000    98.9483     8.8142     0.0246     2.4915  -999.2500  -999.2500
 2914.5000    95.2936     8.8289     0.0246     2.4876  -999.2500  -999.2500
 2915.0000    94.8319     8.8280     0.0246     2.4884  -999.2500  -999.2500
 2915.5000    94.3702     8.8272     0.0246     2.4914  -999.2500  -999.2500
 2916.0000    94.0604     8.8265     0.0246     2.4952  -999.2500  -999.2500
 2916.5000    93.9026     8.8256     0.0246     2.4951  -999.2500  -999.2500
 2917.0000    93.5737     8.8250     0.0261     2.4860  -999.2500  -999.2500
 2917.5000    92.8272     8.8242     0.0261     2.4844  -999.2500  -999.2500
 2918.0000    96.6193     8.8234     0.0261     2.4821  -999.2500  -999.2500
 2918.5000   101.1728     8.8227     0.0261     2.4775  -999.2500  -999.2500
 2919.0000   103.9026     8.8218     0.0261     2.4744  -999.2500  -999.2500
 2919.5000   106.5147     8.8210     0.0276     2.4736  -999.2500  -999.2500
 2920.0000   108.7527     8.8204     0.0276     2.4865  -999.2500  -999.2500
 2920.5000   110.8746     8.8196     0.0276     2.4995  -999.2500  -999.2500
 2921.0000   109.3490     8.8189     0.0276     2.5064  -999.2500  -999.2500
 2921.5000   105.0879     8.8180     0.0276     2.5010  -999.2500  -999.2500
 2922.0000   104.7781     8.8172     0.0276     2.4963  -999.2500  -999.2500
