~VERSION INFORMATION
 VERS.                2.0:   CWLS LOG ASCII STANDARD - VERSION 2.0
 WRAP.                 NO:   ONE LINE PER DEPTH STEP
~WELL INFORMATION
#MNEM.UNIT      DATA TYPE    INFORMATION
#----------   ------------   ------------------------------
 STRT.F          190.0000:   START DEPTH
 STOP.F         3050.0000:   STOP DEPTH
 STEP.F            0.5000:   STEP LENGTH
 NULL.          -999.2500:   NO VALUE
 COMP.    FENIX & SCISSON:   COMPANY
 WELL. FENIX NPR 3 "AX" #86-29:   WELL
 FLD .      NPR - WILDCAT:   FIELD
 LOC .      S29 T39N R78W:   LOCATION
 CNTY.            NATRONA:   COUNTY
 STAT.            WYOMING:   STATE
 CTRY. UNITED STATES OF AMERICA:   COUNTRY
 SRVC.              WELEX:   SERVICE COMPANY
 DATE.        24-JUN-1977:   LOGDATE
 API .     49025103830000:   API NUMBER
~CURVE INFORMATION
#MNEM.UNIT       API CODE    CURVE DESCRIPTION
#----------   ------------   ------------------------------
 DEPT.F                  :   
 SPR .MV     07 010 01 00:   SPONTANEOUS POTENTIAL
 ILD .OHMM   07 120 46 00:   DEEP INDUCTION RESISTIVITY
 ILM .OHMM   07 120 44 00:   INDUCTION LOG MEDIUM RESISTIVITY
 SGRD.OHMM   07 220 05 00:   SHALLOW SHORT GUARD RESISTIVITY
 GRD .GAPI   45 310 01 00:   GAMMA RAY FROM DENSITY LOG
 CALD.IN     45 280 60 00:   CALIPER FROM DENSITY LOG
 RHOB.G/C3   45 350 01 00:   BULK DENSITY
 CORR.G/C3   45 356 01 00:   DENSITY CORRECTION
~PARAMETER INFORMATION
#MNEM.UNIT          VALUE    DESCRIPTION
#----------   ------------   ------------------------------
 EKB .F         5056.0000:   Kelly bushing
 EGL .F         5046.0000:   Ground level
 EDF .F            0.0000:   Drilling floor
 TD  .F         3051.0000:   Total depth
 DATE.        24-JUN-1977:   Date logged
 CLNT.            A2DTECH:   Client Code
 SL  . 1746' FSL & 534' FEL:   Surface Location
 PD  .                 GL:   Permanent Datum
 EPD .F              5046:   Elevation Permanent Datum
 LMF .                 KB:   Log Measured From
 DMF .                 KB:   Drilling Measured From
 DAPD.F                10:   Feet Above Permanent Datum
 DD  .F              3038:   Depth driller
 DL  .F              3051:   Depth logger
 BLI .F              3049:   Bottom log interval
 TLI .F               200:   Top log interval
 CS1 .IN            8.625:   Casing size
 CBD1.      8.625" @ 217':   Casing driller 1
 CBL1.F               213:   Casing logger 1
 BS1 .IN            7.875:   Bit size
 BSD1.F              3038:   Depth drilled with bit1
 DFT .            KCL/MUD:   Type fluid in hole
 DFD .                8.7:   Density
 DFV .                134:   Viscosity
 DFPH.                7.5:   pH
 DFL .                7.2:   Fluid loss
 MSS .           FLOWLINE:   Source of sample
 RMS .OHMM            .62:   Rm
 MST .F                82:   Rm Meas. temp.
 RMF .OHMM            .28:   Rmf
 MFST.F                82:   Rmf Meas. temp.
 RMC .OHMM            .78:   Rmc
 MCST.F                82:   Rmc Meas. temp.
 MFSS.               MEAS:   Source Rmf.
 MCSS.               MEAS:   Source Rmc.
 RMB .OHMM            .45:   Rm. at BHT
 BHT .F               111:   BHT.
 TCS .HRS               2:   Time Circ. stopped
 MRT .F               111:   Maximum recorded temp.
 LUN .               8766:   Logging unit number
 LUL .             CASPER:   Logging unit location
 ENGI.          D. LAWSON:   Recorded By
 WITN.      B. HARRINGTON:   Witnessed by
 ORIG.           5" PRINT:   Origin of data
 UWI .     49025103830000:   Unique Well ID
 DICO. A2D TECHNOLOGIES, INC.:   Digitizing Company
~OTHER INFORMATION
~A   DEPT      SPR        ILD        ILM       SGRD        GRD       CALD         RHOB      CORR  
# ...
  554.5000   -55.9010    10.7500    12.0430    14.9400    82.3850     9.5140     2.4330     0.0000
  555.0000   -55.9480    10.5710    11.9060    14.6590    82.3790     9.5080     2.4350     0.0020
  555.5000   -55.9950    10.3920    11.7540    14.2550    82.0330     9.5010     2.4370     0.0030
  556.0000   -56.0420    10.3200    11.5770    13.8500    81.6460     9.4930     2.4380     0.0050
  556.5000   -56.0890    10.2820    11.3810    13.4860    81.2580     9.4860     2.4390     0.0060
  557.0000   -56.1360    10.2450    11.1250    13.4860    80.8690     9.4780     2.4390     0.0080
  557.5000   -56.1830    10.2070    11.3370    13.8160    80.4810     9.4710     2.4390     0.0100
  558.0000   -56.2270    10.1510    11.6390    14.1820    80.0970     9.4630     2.4370     0.0100
  558.5000   -56.2780    10.1600    11.9710    14.5120    79.8580     9.4550     2.4360     0.0100
  559.0000   -56.3270    10.1790    11.8970    14.7560    80.0360     9.4480     2.4350     0.0090
  559.5000   -56.3760    10.1980    11.8140    15.0540    80.4230     9.4400     2.4330     0.0080
  560.0000   -56.4250    10.2160    11.7320    15.1920    80.7990     9.4350     2.4320     0.0080
  560.5000   -56.4730    10.2350    11.6490    14.1180    81.1850     9.4370     2.4310     0.0070
  561.0000   -56.5220    10.2440    11.5660    13.9970    81.3220     9.4390     2.4310     0.0070
  561.5000   -56.5700    10.1140    11.4840    13.8230    81.5540     9.4410     2.4330     0.0060
  562.0000   -56.6190    10.0140    11.4010    13.7160    81.7870     9.4430     2.4350     0.0060
  562.5000   -56.6680     9.9140    11.3180    13.6770    82.0190     9.4450     2.4390     0.0050
  563.0000   -56.7160     9.8130    11.2280    13.6380    82.1480     9.4470     2.4430     0.0050
  563.5000   -56.7650     9.7130    11.1290    13.4500    81.9880     9.4480     2.4470     0.0060
  564.0000   -56.8170     9.6130    11.0200    12.9150    81.8300     9.4500     2.4520     0.0090
  564.5000   -56.9300     9.5130    10.9100    12.6480    81.8570     9.4520     2.4580     0.0120
  565.0000   -57.0530     9.4120    10.8010    12.6480    81.9460     9.4540     2.4650     0.0140
  565.5000   -57.1760     9.3120    10.7250    12.8110    82.3560     9.4560     2.4710     0.0170
  566.0000   -57.3000     9.2620    10.7250    12.9590    83.0840     9.4580     2.4780     0.0190
  566.5000   -57.4230     9.1900    10.7250    13.1080    83.8110     9.4600     2.4810     0.0200
  567.0000   -57.5470     9.1250    10.7250    13.2410    84.5410     9.4620     2.4830     0.0220
  567.5000   -57.6700     9.0600    10.6270    13.0200    85.2700     9.4640     2.4820     0.0210
  568.0000   -57.7940     8.9950    10.5380    12.7030    85.9190     9.4660     2.4810     0.0200
  568.5000   -57.9170     8.9290    10.4490    12.4180    85.9280     9.4680     2.4800     0.0190
  569.0000   -58.0410     8.8640    10.3600    12.1950    85.9250     9.4700     2.4780     0.0150
  569.5000   -58.1650     8.7990    10.2710    11.9920    85.9270     9.4730     2.4730     0.0110
  570.0000   -58.2880     8.7360    10.1160    11.7890    85.9920     9.4750     2.4690     0.0070
  570.5000   -58.4110     8.6360     9.9340    11.6470    86.2510     9.4780     2.4670     0.0090
  571.0000   -58.5350     8.5360     9.6960    11.7280    86.4980     9.4810     2.4700     0.0110
  571.5000   -58.6600     8.4370     9.7960    11.8620    85.8410     9.4840     2.4740     0.0120
  572.0000   -58.7890     8.3370     9.9380    11.7860    85.0870     9.4870     2.4790     0.0140
  572.5000   -58.8220     8.2370    10.0800    11.6330    84.3330     9.4900     2.4810     0.0160
  573.0000   -58.8520     8.1470    10.1510    11.4350    83.5800     9.4930     2.4830     0.0180
  573.5000   -58.8810     8.1910    10.1510    11.5080    82.8260     9.4940     2.4850     0.0200
  574.0000   -58.9110     8.2400    10.1510    11.6530    82.0720     9.4940     2.4850     0.0200
  574.5000   -58.9410     8.2900    10.1510    11.7540    81.4110     9.4940     2.4860     0.0200
  575.0000   -58.9710     8.3390    10.1510    11.7190    81.6010     9.4940     2.4890     0.0200
  575.5000   -58.9840     8.4030    10.1510    11.6810    81.9020     9.4940     2.4910     0.0200
  576.0000   -58.9510     8.4990    10.1940    11.6470    82.1840     9.4940     2.4930     0.0210
  576.5000   -58.9190     8.5960    10.2550    12.0990    82.3840     9.4940     2.4940     0.0230
  577.0000   -58.8880     8.6920    10.3160    12.9950    82.4940     9.4940     2.4950     0.0250
  577.5000   -58.8560     8.7890    10.3770    14.5120    82.6510     9.4940     2.4950     0.0260
  578.0000   -58.8250     8.8850    10.4380    14.7800    82.8100     9.4940     2.4940     0.0280
  578.5000   -58.7930     8.9820    10.5300    12.4180    82.9700     9.5000     2.4920     0.0290
  579.0000   -58.7620     9.0180    10.5050    12.4180    83.1280     9.5090     2.4910     0.0300
  579.5000   -58.7300     9.0290    10.4540    12.4760    83.2830     9.5180     2.4880     0.0290
  580.0000   -58.6990     9.0390    10.4040    12.5330    83.2550     9.5260     2.4860     0.0270
  580.5000   -58.6670     9.0500    10.3390    12.5330    82.8280     9.5350     2.4810     0.0240
  581.0000   -58.6360     9.0610    10.4200    12.5330    82.4000     9.5440     2.4750     0.0210
  581.5000   -58.6040     9.0710    10.5370    12.5330    82.3810     9.5530     2.4780     0.0190
  582.0000   -58.5730     9.0820    10.6540    12.6270    82.4790     9.5530     2.4810     0.0210
  582.5000   -58.5410     9.0940    10.7710    12.8150    82.8540     9.5530     2.4830     0.0220
  583.0000   -58.5100     9.2450    10.8880    13.0030    83.2140     9.5530     2.4830     0.0240
  583.5000   -58.4780     9.4130    10.9440    13.1910    83.5740     9.5530     2.4830     0.0260
  584.0000   -58.4470     9.5800    11.0130    13.3780    83.4560     9.5430     2.4830     0.0270
  584.5000   -58.4150     9.7480    11.0820    13.5660    82.8610     9.5210     2.4830     0.0280
  585.0000   -58.4100     9.9160    11.1510    13.7360    82.2660     9.5000     2.4830     0.0270
  585.5000   -58.4300     9.9660    11.2280    13.6590    81.6680     9.4790     2.4830     0.0260
  586.0000   -58.4500     9.9660    11.1270    13.5370    81.0650     9.4580     2.4820     0.0250
  586.5000   -58.4710     9.9660    11.0150    13.2920    80.4410     9.4360     2.4810     0.0240
  587.0000   -58.4910     9.9660    10.9040    13.1200    80.4060     9.4460     2.4800     0.0230
  587.5000   -58.5110     9.9660    10.7920    13.1950    80.4280     9.4590     2.4800     0.0230
  588.0000   -58.5320     9.9660    10.6800    13.2530    80.7710     9.4720     2.4800     0.0250
  588.5000   -58.5520     9.9660    10.5680    13.3110    81.1020     9.4850     2.4820     0.0260
  589.0000   -58.5720     9.9660    10.4570    13.3630    81.4310     9.4970     2.4850     0.0300
  589.5000   -58.5930     9.9660    10.3450    13.2520    81.7590     9.5080     2.4870     0.0330
  590.0000   -58.6130     9.9270    10.2440    13.1520    82.0850     9.5190     2.4890     0.0360
  590.5000   -58.6340     9.8700    10.2130    13.0510    82.4120     9.5300     2.4900     0.0360
  591.0000   -58.6540     9.8130    10.1850    12.9170    82.4910     9.5410     2.4890     0.0360
  591.5000   -58.6740     9.7560    10.1560    12.7500    82.3210     9.5510     2.4890     0.0350
  592.0000   -58.6950     9.6990    10.1280    12.5330    82.1510     9.5730     2.4880     0.0330
  592.5000   -58.7150     9.6420    10.1000    12.5940    81.9770     9.5690     2.4870     0.0320
  593.0000   -58.7350     9.5850    10.0710    12.6810    81.8030     9.5650     2.4860     0.0290
  593.5000   -58.7560     9.5280    10.0430    12.7690    82.1440     9.5600     2.4860     0.0260
  594.0000   -58.7760     9.4720    10.0140    12.8820    82.5390     9.5560     2.4840     0.0230
  594.5000   -58.7950     9.4150     9.9860    12.8550    82.9330     9.5520     2.4800     0.0200
