~VERSION INFORMATION
 VERS.                2.0:   CWLS LOG ASCII STANDARD - VERSION 2.0
 WRAP.                 NO:   ONE LINE PER DEPTH STEP
~WELL INFORMATION
#MNEM.UNIT      DATA TYPE    INFORMATION
#----------   ------------   ------------------------------
 STRT.F          198.0000:   START DEPTH
 STOP.F         3140.0000:   STOP DEPTH
 STEP.F            0.5000:   STEP LENGTH
 NULL.          -999.2500:   NO VALUE
 COMP.    FENIX & SCISSON:   COMPANY
 WELL. FENIX NPR 3 "AX" #43-34:   WELL
 FLD .                NPR:   FIELD
 LOC .      S34 T39N R78W:   LOCATION
 CNTY.            NATRONA:   COUNTY
 STAT.            WYOMING:   STATE
 CTRY. UNITED STATES OF AMERICA:   COUNTRY
 SRVC.              WELEX:   SERVICE COMPANY
 DATE.        02-JUL-1977:   LOGDATE
 API .     49025103890000:   API NUMBER
~CURVE INFORMATION
#MNEM.UNIT       API CODE    CURVE DESCRIPTION
#----------   ------------   ------------------------------
 DEPT.F                  :   
 CALD.IN     45 280 60 00:   CALIPER FROM DENSITY LOG
 GRD .GAPI   45 310 01 00:   GAMMA RAY FROM DENSITY LOG
 RHOB.G/C3   45 350 01 00:   BULK DENSITY
 CORR.G/C3   45 356 01 00:   DENSITY CORRECTION
 SPR .MV     07 010 01 00:   SPONTANEOUS POTENTIAL
 SFLU.OHMM   07 220 01 00:   SPHERICALLY FOCUSED LOG UNAVERAGED RESISTIVITY
 ILD .OHMM   07 120 46 00:   DEEP INDUCTION RESISTIVITY
 ILM .OHMM   07 120 44 00:   INDUCTION LOG MEDIUM RESISTIVITY
~PARAMETER INFORMATION
#MNEM.UNIT          VALUE    DESCRIPTION
#----------   ------------   ------------------------------
 EKB .F         5118.0000:   Kelly bushing
 EGL .F         5108.0000:   Ground level
 TD  .F         3145.0000:   Total depth
 DATE.        02-JUL-1977:   Date logged
 CLNT.            A2DTECH:   Client Code
 SL  . 1650' FNL & 2310' FWL:   Surface Location
 PD  .                 GL:   Permanent Datum
 EPD .F              5108:   Elevation Permanent Datum
 LMF .                 KB:   Log Measured From
 DMF .                 KB:   Drilling Measured From
 DAPD.F                10:   Feet Above Permanent Datum
 DD  .F              3145:   Depth driller
 DL  .F              3143:   Depth logger
 BLI .F              3141:   Bottom log interval
 TLI .F               200:   Top log interval
 CS1 .IN            8.625:   Casing size
 CBD1.      8.625" @ 203':   Casing driller 1
 CBL1.F               224:   Casing logger 1
 BS1 .IN            7.875:   Bit size
 BSD1.F              3145:   Depth drilled with bit1
 DFT .            KCL/MUD:   Type fluid in hole
 DFD .                  9:   Density
 DFV .                 34:   Viscosity
 DFPH.                7.5:   pH
 DFL .                9.2:   Fluid loss
 MSS .           FLOWLINE:   Source of sample
 RMS .OHMM            .18:   Rm
 MST .F                75:   Rm Meas. temp.
 RMF .OHMM            .16:   Rmf
 MFST.F                75:   Rmf Meas. temp.
 RMC .OHMM            .30:   Rmc
 MCST.F                75:   Rmc Meas. temp.
 MFSS.               FANN:   Source Rmf.
 MCSS.                KIT:   Source Rmc.
 RMB .OHMM            .11:   Rm. at BHT
 BHT .F               118:   BHT.
 TCS .HRS            3.75:   Time Circ. stopped
 MRT .F               118:   Maximum recorded temp.
 LUN .               8766:   Logging unit number
 LUL .             CASPER:   Logging unit location
 ENGI.          T. JOYNER:   Recorded By
 WITN.     W. PETTNG/GILL:   Witnessed by
 ORIG.           5" PRINT:   Origin of data
 UWI .     49025103890000:   Unique Well ID
 DICO. A2D TECHNOLOGIES, INC.:   Digitizing Company
~OTHER INFORMATION
~A   DEPT     CALD         GRD        RHOB     CORR        SPR       SFLU        ILD        ILM   
# ...
 2142.0000     8.1896   125.6077     2.4835     0.0538   -49.3383    12.8186     8.4678     8.4691
 2142.5000     8.1900   124.4219     2.4775     0.0379   -49.7388    12.8167     8.3133     8.4672
 2143.0000     8.1903   122.0474     2.4746     0.0300   -49.7436    12.5814     8.1603     8.9443
 2143.5000     8.1906   122.8476     2.4746     0.0301   -49.7468    12.3514     8.0114     8.9430
 2144.0000     8.1909   122.8547     2.4786     0.0341   -50.1487    12.1246     8.0102     8.9417
 2144.5000     8.1912   123.2591     2.4826     0.0341   -50.1535    11.4750     7.8623     8.7772
 2145.0000     8.1916   122.8691     2.4806     0.0341   -50.1566    10.8593     7.7176     8.7753
 2145.5000     8.1919   122.8763     2.4826     0.0342   -50.1614    10.4674     7.4385     8.7740
 2146.0000     8.1922   122.4863     2.4827     0.0342   -50.1645    10.4651     7.1694     8.6139
 2146.5000     8.1925   122.8907     2.4847     0.0422   -50.1692    10.4635     7.1684     8.6120
 2147.0000     8.1928   124.0896     2.4867     0.0423   -50.1724    10.4612     7.0360     8.4529
 2147.5000     8.1932   123.6995     2.4867     0.0383   -50.1771    10.6530     7.0347     8.4517
 2148.0000     8.1935   121.3234     2.4927     0.0384   -50.1803    10.6506     7.0344     8.2968
 2148.5000     8.1938   122.1250     2.4897     0.0424   -50.1850    10.6491     7.0329     8.2956
 2149.0000     8.1941   120.5461     2.4868     0.0464   -50.1882    10.6467     7.0308     7.9943
 2149.5000     8.1944   119.3573     2.4808     0.0425   -50.1929    10.4521     7.0298     7.9932
 2150.0000     8.1948   117.3797     2.4729     0.0425   -50.5929    10.2602     7.0284     7.8467
 2150.5000     8.1951   116.1965     2.4689     0.0386   -50.3136    10.1030     7.0270     7.7555
 2151.0000     8.1954   116.2008     2.4670     0.0426   -50.2040    10.0725     7.0273     7.7170
 2151.5000     8.1957   117.0067     2.4710     0.0387   -50.6055     9.7095     7.0269     7.7022
 2152.0000     8.1960   117.0110     2.4710     0.0507   -50.6087     9.7089     6.8987     7.4238
 2152.5000     8.1964   117.8126     2.4710     0.0507   -50.6135    10.0703     6.8984     7.2887
 2153.0000     8.1967   117.8198     2.4700     0.0468   -50.6167    10.2554     6.6492     7.2880
 2153.5000     8.1970   117.8241     2.4681     0.0508   -50.6214    10.0687     6.5278     7.2876
 2154.0000     8.1973   116.6422     2.4641     0.0468   -50.6246    10.0678     6.5275     7.2872
 2154.5000     8.1976   115.8577     2.4592     0.0429   -50.6278     9.7053     6.5271     7.2866
 2155.0000     8.1980   115.8605     2.4473     0.0390   -50.6309     9.5284     6.5266     7.2857
 2155.5000     8.1983   115.8676     2.4473     0.0390   -52.2246     9.3550     6.4076     7.2853
 2156.0000     8.1986   117.8626     2.4473     0.0391   -52.2277     9.3542     6.4073     7.2849
 2156.5000     8.1989   118.2671     2.4454     0.0391   -52.2325     9.3536     6.4067     7.2843
 2157.0000     8.1992   117.8769     2.4354     0.0352   -52.6309     9.1832     6.2896     7.2837
 2157.5000     8.1995   117.4868     2.4335     0.0352   -52.6388     9.1826     6.1750     7.2833
 2158.0000     8.1998   115.1101     2.4325     0.0352   -52.6404     9.1817     6.0622     7.2828
 2158.5000     8.2001   111.5428     2.4365     0.0393   -52.6452     9.8050     5.9517     7.2824
 2159.0000     8.2005   112.7404     2.4405     0.0393   -52.6484     9.6985     5.8431     7.2816
 2159.5000     8.2008   112.3502     2.4445     0.0394   -52.6531     9.5220     5.8427     7.2814
 2160.0000     8.1614   112.7546     2.4485     0.0394   -53.0531     9.1790     5.8423     7.0183
 2160.5000     8.1617   112.7617     2.4555     0.0434   -53.0579     8.2240     5.8420     7.0178
 2161.0000     8.1620   110.7836     2.4595     0.0395   -53.0611     8.2233     5.8417     7.0175
 2161.5000     8.1623   111.5839     2.4645     0.0435   -53.0658     8.2228     5.6310     6.8896
 2162.0000     8.1627   112.7830     2.4715     0.0435   -53.4658     8.3737     5.2322     6.5201
 2162.5000     8.1630   111.9954     2.4715     0.0515   -53.0738     8.0725     4.8619     6.1708
 2163.0000     8.1633   112.3998     2.4755     0.0516   -53.0769     7.3660     4.8615     6.0584
 2163.5000     8.1636   113.2016     2.4815     0.0596   -53.0817     7.2321     4.8612     6.0578
 2164.0000     8.1639   115.5928     2.4855     0.0596   -53.0849     7.1006     4.8609     6.0573
 2164.5000     8.1643   117.5868     2.4924     0.0597   -53.0896     7.1002     4.9506     6.1691
 2165.0000     8.1646   118.3872     2.5014     0.0637   -53.0928     7.0998     4.9502     6.5174
 2165.5000     8.1649   119.1891     2.5064     0.0637   -53.0976     7.4995     5.0416     6.5170
 2166.0000     8.1652   119.9924     2.5104     0.0638   -53.1007     8.2172     5.1346     6.6371
 2166.5000     8.1655   119.9981     2.5134     0.0598   -53.1055    10.4231     5.2292     6.6367
 2167.0000     8.1659   120.3998     2.5115     0.0599   -53.1087    10.6146     5.2289     6.3971
 2167.5000     8.1662   120.8087     2.5055     0.0599   -53.1134    10.6139     5.2287     6.2927
 2168.0000     8.1665   121.2104     2.5055     0.0600   -53.1166     8.5207     5.2284     6.1901
 2168.5000     8.1668   121.2175     2.5056     0.0600   -53.1214     8.2143     5.2278     5.9437
 2169.0000     8.1671   121.2276     2.5115     0.0600   -53.1246     7.2264     4.9477     5.7291
 2169.5000     8.1675   121.2305     2.5136     0.0601   -53.1293     6.3574     4.8577     5.4224
 2170.0000     8.1678   121.2419     2.5076     0.0601   -53.1325     6.0174     4.5973     5.3236
 2170.5000     8.1681   121.2477     2.4997     0.0602   -52.7404     5.9080     4.5136     4.9468
 2171.0000     8.1684   121.2534     2.4957     0.0562   -52.7436     6.7146     4.4312     5.3228
 2171.5000     8.1687   121.2621     2.4858     0.0563   -52.7484     7.4929     4.3505     5.4210
 2172.0000     8.1691   121.2664     2.4838     0.0563   -52.7515     7.7719     4.3502     5.5208
 2172.5000     8.1694   121.2764     2.4829     0.0564   -52.7563     9.1616     4.3500     5.4200
 2173.0000     8.1697   121.2807     2.4859     0.0524   -52.7595     9.5023     4.4301     5.3215
 2173.5000     8.1700   120.8948     2.4859     0.0525   -52.3674     9.6768     4.5953     5.3210
 2174.0000     8.1703   120.9005     2.4849     0.0525   -52.7674     8.2076     4.5950     5.2240
 2174.5000     8.1707   120.5103     2.4780     0.0525   -51.9785     7.2206     4.5947     5.2238
 2175.0000     8.1710   120.5146     2.4820     0.0526   -51.9817     7.9114     4.5944     5.2235
 2175.5000     8.1713   119.7297     2.4840     0.0526   -51.9865     7.9109     4.3483     5.3197
 2176.0000     8.1716   119.3409     2.4840     0.0527   -51.9896     7.9105     4.1916     5.8297
 2176.5000     8.1719   118.9520     2.4940     0.0607   -51.9944     8.0561     4.1914     6.3888
 2177.0000     8.1723   118.9606     2.4920     0.0607   -51.9976     8.2040     4.1911     6.6270
 2177.5000     8.1726   118.9635     2.4861     0.0608   -51.6055     8.8259     4.4276     7.0010
 2178.0000     8.1729   117.7782     2.4821     0.0608   -52.0055     9.3230     4.5927     7.2619
 2178.5000     8.1732   116.9904     2.4762     0.0608   -52.0103    10.2148     5.0330     7.5324
 2179.0000     8.1735   115.8052     2.4722     0.0450   -51.6166    10.7898     5.2207     7.8133
 2179.5000     8.1739   115.4162     2.4663     0.0410   -51.6214     9.6680     5.6175     7.9572
 2180.0000     8.1742   115.0259     2.4534     0.0292   -52.0214     8.9855     6.3858     8.7197
 2180.5000     8.1745   114.6355     2.4534     0.0332   -52.0262     9.4914     6.9982     8.2528
 2181.0000     8.1748   114.6398     2.4544     0.0292   -52.0293     9.8157     6.9978     8.1024
 2181.5000     8.1751   114.6483     2.4634     0.0293   -51.6373    10.3984     7.2582     7.9551
 2182.0000     8.1755   115.4490     2.4714     0.0293   -52.0373    10.3981     7.2578     7.9544
