~VERSION INFORMATION
 VERS.                2.0:   CWLS LOG ASCII STANDARD - VERSION 2.0
 WRAP.                 NO:   ONE LINE PER DEPTH STEP
~WELL INFORMATION
#MNEM.UNIT      DATA TYPE    INFORMATION
#----------   ------------   ------------------------------
 STRT.F           15.0000:   START DEPTH
 STOP.F         2952.5000:   STOP DEPTH
 STEP.F            0.5000:   STEP LENGTH
 NULL.          -999.2500:   NO VALUE
 COMP.    FENIX & SCISSON:   COMPANY
 WELL.  FENIX "AX" #64-29:   WELL
 FLD .  TEAPOT DOME NPR-3:   FIELD
 LOC .      S29 T39N R78W:   LOCATION
 CNTY.            NATRONA:   COUNTY
 STAT.            WYOMING:   STATE
 CTRY. UNITED STATES OF AMERICA:   COUNTRY
 SRVC.           BIRDWELL:   SERVICE COMPANY
 DATE.        02-MAY-1978:   LOGDATE
 API .     49025106460000:   API NUMBER
~CURVE INFORMATION
#MNEM.UNIT       API CODE    CURVE DESCRIPTION
#----------   ------------   ------------------------------
 DEPT.F                  :   
 SPR .MV     05 010 01 00:   SPONTANEOUS POTENTIAL
 IL  .OHMM   05 120 00 00:   INDUCTION RESISTIVITY
 SN  .OHMM   05 040 16 00:   SHORT NORMAL 16"
 CALD.IN     45 280 60 00:   CALIPER FROM DENSITY LOG
 GRD .GAPI   45 310 01 00:   GAMMA RAY FROM DENSITY LOG
 CORR.G/C3   45 356 01 00:   DENSITY CORRECTION
 RHOB.G/C3   45 350 01 00:   BULK DENSITY
~PARAMETER INFORMATION
#MNEM.UNIT          VALUE    DESCRIPTION
#----------   ------------   ------------------------------
 EKB .F         4993.0000:   Kelly bushing
 EGL .F         4983.0000:   Ground level
 EDF .F            0.0000:   Drilling floor
 TD  .F         2952.0000:   Total depth
 DATE.        02-MAY-1978:   Date logged
 CLNT.            A2DTECH:   Client Code
 SL  . 2150' FNL & 1560' FEL:   Surface Location
 PD  .                 GL:   Permanent Datum
 DD  .F              2950:   Depth driller
 DL  .F              2952:   Depth logger
 BLI .F              2947:   Bottom log interval
 CBL1.F               150:   Casing logger 1
 BS1 .IN            7.875:   Bit size
 DFT .                GEL:   Type fluid in hole
 DFD .                8.7:   Density
 DFV .                 30:   Viscosity
 DFPH.                 10:   pH
 DFL .                7.6:   Fluid loss
 MSS .            MUD PIT:   Source of sample
 RMS .OHMM            1.3:   Rm
 MST .F                62:   Rm Meas. temp.
 RMF .OHMM            .95:   Rmf
 MFST.F                64:   Rmf Meas. temp.
 RMC .OHMM              1:   Rmc
 MCST.F                64:   Rmc Meas. temp.
 MFSS.               MEAS:   Source Rmf.
 RMB .OHMM            .73:   Rm. at BHT
 BHT .F               110:   BHT.
 TCS .HRS               3:   Time Circ. stopped
 MRT .F               110:   Maximum recorded temp.
 LUN .               2958:   Logging unit number
 LUL .               CASP:   Logging unit location
 ENGI.             MILLER:   Recorded By
 WITN.           MCGINLEY:   Witnessed by
 ORIG.         2.5" PRINT:   Origin of data
 UWI .     49025106460000:   Unique Well ID
 DICO. A2D TECHNOLOGIES, INC.:   Digitizing Company
 DAPD.                 10:   Feet Above Permanent Datum
 BSD1.F              2950:   Depth drilled with bit1
 EPD .F              4983:   Elevation Permanent Datum
 LMF .                 KB:   Log Measured From
 DMF .                 KB:   Drilling Measured From
 TLI .F               150:   Top log interval
~OTHER INFORMATION
~A   DEPT      SPR         IL         SN       CALD        GRD       CORR       RHOB   
# ...
  151.5000   -81.8790    14.1040     9.3050  -999.2500    47.5930  -999.2500  -999.2500
  152.0000   -81.6970    14.0260     9.3790  -999.2500    48.9620  -999.2500  -999.2500
  152.5000   -81.5090    13.7900    10.4140  -999.2500    50.8550  -999.2500  -999.2500
  153.0000   -81.1990    13.5550    12.1750  -999.2500    49.4880  -999.2500  -999.2500
  153.5000   -80.5130    13.3190    12.3110  -999.2500    48.2070  -999.2500  -999.2500
  154.0000   -79.8270    13.1040    12.4440  -999.2500    42.9110  -999.2500  -999.2500
  154.5000   -79.4500    13.6340    12.5780  -999.2500    39.6910  -999.2500  -999.2500
  155.0000   -79.4850    14.1230    12.7120  -999.2500    40.3320  -999.2500  -999.2500
  155.5000   -79.4820    14.6120    12.8450  -999.2500    41.0090  -999.2500  -999.2500
  156.0000   -79.4770    15.1800    12.9790  -999.2500    41.7670  -999.2500  -999.2500
  156.5000   -79.4820    15.0280    13.1040  -999.2500    42.5270  -999.2500  -999.2500
  157.0000   -79.4800    14.8460    12.7400  -999.2500    42.5040  -999.2500  -999.2500
  157.5000   -79.4810    14.6640    12.3980  -999.2500    42.4330  -999.2500  -999.2500
  158.0000   -79.4820    14.4820    12.0570  -999.2500    42.3950  -999.2500  -999.2500
  158.5000   -79.4820    14.3010    11.5220  -999.2500    42.3110  -999.2500  -999.2500
  159.0000   -79.4820    14.1190    11.5330  -999.2500    42.0700  -999.2500  -999.2500
  159.5000   -79.4820    13.9370    11.5590  -999.2500    44.2400  -999.2500  -999.2500
  160.0000   -79.4820    13.8470    11.5860  -999.2500    47.8060  -999.2500  -999.2500
  160.5000   -79.4820    13.8470    11.6120  -999.2500    47.7330  -999.2500  -999.2500
  161.0000   -79.4820    13.8470    11.6380  -999.2500    47.8000  -999.2500  -999.2500
  161.5000   -79.4820    14.2840    11.6650  -999.2500    47.8810  -999.2500  -999.2500
  162.0000   -79.4830    14.9030    11.6910  -999.2500    47.9360  -999.2500  -999.2500
  162.5000   -79.4820    15.1110    11.7170  -999.2500    48.0340  -999.2500  -999.2500
  163.0000   -79.4820    15.6660    11.7620  -999.2500    48.0620  -999.2500  -999.2500
  163.5000   -79.4840    16.5590    11.8440  -999.2500    48.1300  -999.2500  -999.2500
  164.0000   -79.4810    16.9590    11.9250  -999.2500    46.4170  -999.2500  -999.2500
  164.5000   -79.4740    17.2650    12.0050  -999.2500    45.6980  -999.2500  -999.2500
  165.0000   -79.3640    17.2650    12.0860  -999.2500    45.6120  -999.2500  -999.2500
  165.5000   -79.2710    17.2650    12.1740  -999.2500    45.5710  -999.2500  -999.2500
  166.0000   -79.1710    17.2650    12.2510  -999.2500    45.5050  -999.2500  -999.2500
  166.5000   -79.0730    17.2650    12.3360  -999.2500    45.2560  -999.2500  -999.2500
  167.0000   -78.9750    17.2650    12.4210  -999.2500    46.9010  -999.2500  -999.2500
  167.5000   -78.8770    17.2650    12.5050  -999.2500    49.9410  -999.2500  -999.2500
  168.0000   -78.7790    17.2650    12.6310  -999.2500    52.7760  -999.2500  -999.2500
  168.5000   -78.6810    17.2650    12.6000  -999.2500    55.2700  -999.2500  -999.2500
  169.0000   -78.5830    17.2650    12.5410  -999.2500    56.1240  -999.2500  -999.2500
  169.5000   -78.4860    17.2650    12.4820  -999.2500    56.9440  -999.2500  -999.2500
  170.0000   -78.3880    17.2650    12.4230  -999.2500    57.2200  -999.2500  -999.2500
  170.5000   -78.2860    17.2650    12.3640  -999.2500    56.7180  -999.2500  -999.2500
  171.0000   -78.1520    17.2650    12.3050  -999.2500    56.2760  -999.2500  -999.2500
  171.5000   -78.0120    17.2650    12.2460  -999.2500    55.8190  -999.2500  -999.2500
  172.0000   -77.8740    17.2650    12.1870  -999.2500    55.3820  -999.2500  -999.2500
  172.5000   -77.7340    17.9930    12.2890  -999.2500    54.8740  -999.2500  -999.2500
  173.0000   -77.5930    18.9120    12.4340  -999.2500    54.4260  -999.2500  -999.2500
  173.5000   -77.4900    19.8320    12.5780  -999.2500    55.1500  -999.2500  -999.2500
  174.0000   -77.4910    20.7520    12.7230  -999.2500    57.7900  -999.2500  -999.2500
  174.5000   -77.4890    21.5260    12.8670  -999.2500    53.7590  -999.2500  -999.2500
  175.0000   -77.4900    21.5260    13.0120  -999.2500    50.8900  -999.2500  -999.2500
  175.5000   -77.4890    21.5260    13.1570  -999.2500    50.9350  -999.2500  -999.2500
  176.0000   -77.4880    21.5260    13.3470  -999.2500    51.2820  -999.2500  -999.2500
  176.5000   -77.4470    21.5260    13.2650  -999.2500    51.6800  -999.2500  -999.2500
  177.0000   -77.4000    21.5260    13.1440  -999.2500    50.3120  -999.2500  -999.2500
  177.5000   -77.3520    20.9580    13.0240  -999.2500    48.9570  -999.2500  -999.2500
  178.0000   -77.3050    20.3710    12.9040  -999.2500    48.0860  -999.2500  -999.2500
  178.5000   -77.2580    19.8270    12.7830  -999.2500    48.1570  -999.2500  -999.2500
  179.0000   -77.2100    19.1650    12.6630  -999.2500    48.1880  -999.2500  -999.2500
  179.5000   -77.1630    18.5820    12.5430  -999.2500    48.2520  -999.2500  -999.2500
  180.0000   -77.1150    18.3660    12.4220  -999.2500    50.2530  -999.2500  -999.2500
  180.5000   -77.0680    18.1730    12.3020  -999.2500    53.1480  -999.2500  -999.2500
  181.0000   -77.0200    17.9800    12.1820  -999.2500    53.5910  -999.2500  -999.2500
  181.5000   -76.9730    17.4730    12.0610  -999.2500    53.2360  -999.2500  -999.2500
  182.0000   -76.9250    16.7940    11.9530  -999.2500    51.2570  -999.2500  -999.2500
  182.5000   -76.8780    16.3380    11.8840  -999.2500    49.3100  -999.2500  -999.2500
  183.0000   -76.8300    16.3380    11.8210  -999.2500    48.7170  -999.2500  -999.2500
  183.5000   -76.7830    16.3380    11.7590  -999.2500    49.2140  -999.2500  -999.2500
  184.0000   -76.7350    16.3380    11.6960  -999.2500    49.6090  -999.2500  -999.2500
  184.5000   -76.6930    16.3380    11.6330  -999.2500    50.0090  -999.2500  -999.2500
  185.0000   -76.6610    16.3380    11.5700  -999.2500    50.4510  -999.2500  -999.2500
  185.5000   -76.6330    16.3380    11.5080  -999.2500    50.7890  -999.2500  -999.2500
  186.0000   -76.6040    16.3380    11.4450  -999.2500    53.6930  -999.2500  -999.2500
  186.5000   -76.5750    16.3380    11.3820  -999.2500    55.3730  -999.2500  -999.2500
  187.0000   -76.5460    16.3380    11.3200  -999.2500    54.9360  -999.2500  -999.2500
  187.5000   -76.5180    16.3380    11.2570  -999.2500    54.8240  -999.2500  -999.2500
  188.0000   -76.4890    16.3380    11.1940  -999.2500    54.6390  -999.2500  -999.2500
  188.5000   -76.4600    16.3380    11.1310  -999.2500    57.1500  -999.2500  -999.2500
  189.0000   -76.4310    16.3380    11.1050  -999.2500    57.3320  -999.2500  -999.2500
  189.5000   -76.4020    16.3380    11.1050  -999.2500    57.3450  -999.2500  -999.2500
  190.0000   -76.3740    16.3380    11.1060  -999.2500    56.9810  -999.2500  -999.2500
  190.5000   -76.3450    16.3380    11.1060  -999.2500    55.1860  -999.2500  -999.2500
  191.0000   -76.3160    16.3390    11.1050  -999.2500    57.0920  -999.2500  -999.2500
  191.5000   -76.2870    16.3390    11.1050  -999.2500    58.7510  -999.2500  -999.2500
  192.0000   -76.2590    16.3390    11.1060  -999.2500    59.7740  -999.2500  -999.2500
  192.5000   -76.2300    16.3390    11.1060  -999.2500    58.1960  -999.2500  -999.2500
  193.0000   -76.2010    16.3380    11.1060  -999.2500    58.0250  -999.2500  -999.2500
  193.5000   -76.1720    16.3370    11.1060  -999.2500    58.6980  -999.2500  -999.2500
  194.0000   -76.1440    16.3380    11.1060  -999.2500    59.2120  -999.2500  -999.2500
  194.5000   -76.1150    16.1190    11.1060  -999.2500    59.5640  -999.2500  -999.2500
  195.0000   -76.0860    15.8350    11.1070  -999.2500    56.9510  -999.2500  -999.2500
  195.5000   -76.0570    15.4640    11.0950  -999.2500    56.5190  -999.2500  -999.2500
  196.0000   -76.0280    15.4690    11.0680  -999.2500    57.4440  -999.2500  -999.2500
  196.5000   -76.0000    15.4910    11.0420  -999.2500    57.5820  -999.2500  -999.2500
