~VERSION INFORMATION
 VERS.                2.0:   CWLS LOG ASCII STANDARD - VERSION 2.0
 WRAP.                 NO:   ONE LINE PER DEPTH STEP
~WELL INFORMATION
#MNEM.UNIT      DATA TYPE    INFORMATION
#----------   ------------   ------------------------------
 STRT.F          210.5000:   START DEPTH
 STOP.F         3234.0000:   STOP DEPTH
 STEP.F            0.5000:   STEP LENGTH
 NULL.          -999.2500:   NO VALUE
 COMP.    FENIX & SCISSON:   COMPANY
 WELL.   FENIX "A" #21-10:   WELL
 FLD .              NPR-3:   FIELD
 LOC .      S10 T38N R78W:   LOCATION
 CNTY.            NATRONA:   COUNTY
 STAT.            WYOMING:   STATE
 CTRY. UNITED STATES OF AMERICA:   COUNTRY
 SRVC.      DRESSER ATLAS:   SERVICE COMPANY
 DATE.        31-AUG-1977:   LOGDATE
 API .     49025104260000:   API NUMBER
~CURVE INFORMATION
#MNEM.UNIT       API CODE    CURVE DESCRIPTION
#----------   ------------   ------------------------------
 DEPT.F                  :   
 GRD .GAPI   45 310 01 00:   GAMMA RAY FROM DENSITY LOG
 CALD.IN     45 280 60 00:   CALIPER FROM DENSITY LOG
 RHOB.G/C3   45 350 01 00:   BULK DENSITY
 CORR.G/C3   45 356 01 00:   DENSITY CORRECTION
 SPR .MV     11 010 01 00:   SPONTANEOUS POTENTIAL
 LLS .OHMM   11 220 09 00:   LATEROLOG SHALLOW
 LLD .OHMM   11 220 10 00:   LATEROLOG DEEP
 TEND.LBS    45 635 01 00:   TENSION FROM DENSITY LOG
 TENR.LBS    07 635 01 00:   TENSION
~PARAMETER INFORMATION
#MNEM.UNIT          VALUE    DESCRIPTION
#----------   ------------   ------------------------------
 EKB .F         5258.0000:   Kelly bushing
 EGL .F         5248.0000:   Ground level
 EDF .F            0.0000:   Drilling floor
 TD  .F         3222.0000:   Total depth
 DATE.        31-AUG-1977:   Date logged
 CLNT.            A2DTECH:   Client Code
 SL  . 330' FNL & 990' FWL:   Surface Location
 PD  .                 GL:   Permanent Datum
 EPD .F              5248:   Elevation Permanent Datum
 LMF .                 KB:   Log Measured From
 DMF .                 KB:   Drilling Measured From
 DAPD.F                10:   Feet Above Permanent Datum
 DD  .F              3222:   Depth driller
 DL  .F              3219:   Depth logger
 BLI .F              3218:   Bottom log interval
 TLI .F               221:   Top log interval
 CS1 .IN             8.75:   Casing size
 CBD1.       8.75" @ 219':   Casing driller 1
 CBL1.F               221:   Casing logger 1
 BS1 .IN            7.875:   Bit size
 BSD1.F              3222:   Depth drilled with bit1
 DFT .                KCL:   Type fluid in hole
 DFD .                9.1:   Density
 DFV .                 36:   Viscosity
 DFPH.                 11:   pH
 DFL .                  8:   Fluid loss
 MSS .           FLOWLINE:   Source of sample
 RMS .OHMM           0.14:   Rm
 MST .F                72:   Rm Meas. temp.
 RMF .OHMM           0.08:   Rmf
 MFST.F                72:   Rmf Meas. temp.
 RMC .OHMM           0.20:   Rmc
 MCST.F                72:   Rmc Meas. temp.
 MFSS.               CALC:   Source Rmf.
 MCSS.               CALC:   Source Rmc.
 RMB .OHMM           0.08:   Rm. at BHT
 BHT .F               125:   BHT.
 TCS .HRS               3:   Time Circ. stopped
 MRT .F               125:   Maximum recorded temp.
 LUN .               6080:   Logging unit number
 LUL .              WLSTN:   Logging unit location
 ENGI.               RALL:   Recorded By
 WITN.         PETTINGILL:   Witnessed by
 ORIG.           5" PRINT:   Origin of data
 UWI .     49025104260000:   Unique Well ID
 DICO. A2D TECHNOLOGIES, INC.:   Digitizing Company
~OTHER INFORMATION
~A   DEPT      GRD       CALD       RHOB       CORR        SPR        LLS        LLD       TEND        TENR  
# ...
 2802.0000    80.2190     8.6210     2.4630    -0.0070   -51.4120    16.5200    17.4360   326.5350   546.1770
 2802.5000    83.3450     8.6230     2.4620    -0.0090   -51.7190    16.8100    17.7580   340.9720   546.1770
 2803.0000    86.4910     8.6250     2.4560    -0.0100   -51.9860    15.0530    16.1820   355.4100   546.1770
 2803.5000    89.7470     8.6270     2.4490    -0.0090   -51.9470    13.6340    14.9380   369.8470   546.1770
 2804.0000    90.0950     8.6290     2.4460    -0.0050   -51.9010    12.2140    13.0810   384.2840   546.1770
 2804.5000    89.0700     8.6310     2.4470     0.0000   -51.8570    10.7940    11.1380   398.7220   546.1770
 2805.0000    88.0080     8.6340     2.4510     0.0040   -51.8120    10.2580    11.1380   337.3950   546.1770
 2805.5000    87.4630     8.6360     2.4550     0.0080   -52.0890    10.8740    11.5600   200.3050   546.1770
 2806.0000    87.5630     8.6380     2.4590     0.0080   -52.7770    11.6330    12.2400    49.5050   546.1770
 2806.5000    84.9720     8.6390     2.4640     0.0070   -53.7460    12.3920    12.9200   465.3470   546.1770
 2807.0000    82.3080     8.6390     2.4640     0.0060   -54.7640    13.0120    13.7460   247.5250   546.1770
 2807.5000    79.6100     8.6390     2.4640     0.0050   -55.7830    12.7410    13.4790   485.1490   546.1770
 2808.0000    76.9660     8.6390     2.4600     0.0040   -56.8020    12.2790    13.0230   188.1190   546.1770
 2808.5000    75.7480     8.6390     2.4570     0.0030   -57.8200    11.9840    12.5440   425.7430   546.1770
 2809.0000    78.6350     8.6390     2.4540     0.0020   -58.8390    12.0520    12.4300   360.6790   546.1770
 2809.5000    81.3960     8.6390     2.4540     0.0000   -59.8580    12.1380    12.5200   267.3270   546.1770
 2810.0000    83.3730     8.6390     2.4550    -0.0010   -60.8790    12.2050    12.6080   271.5820   546.1770
 2810.5000    82.6120     8.6390     2.4570    -0.0020   -61.8950    12.0940    12.6600   277.6620   546.1770
 2811.0000    83.0570     8.6390     2.4590    -0.0030   -62.9300    11.7520    12.3800   283.7420   546.1770
 2811.5000    84.7500     8.6390     2.4600    -0.0030   -63.6600    11.4190    12.0410   289.8210   546.1770
 2812.0000    86.5490     8.6390     2.4590    -0.0030   -64.1180    11.0870    11.7020   295.9010   546.1770
 2812.5000    85.5560     8.6390     2.4560    -0.0030   -64.1200    10.8370    11.4480   301.9800   546.1770
 2813.0000    83.4260     8.6390     2.4550    -0.0020   -64.3160    11.2310    11.3440   308.0600   546.1770
 2813.5000    85.6720     8.6390     2.4550    -0.0020   -64.5140    11.5470    11.8850   314.1390   546.1770
 2814.0000    88.3160     8.6390     2.4550    -0.0010   -64.6610    11.8640    12.3160   320.2190   546.1770
 2814.5000    86.4670     8.6400     2.4560     0.0000   -65.3540    12.0940    12.5440   326.2980   546.1770
 2815.0000    83.9230     8.6350     2.4580     0.0010   -65.9280    11.8580    12.2630   332.3780   546.1770
 2815.5000    81.6230     8.6280     2.4630     0.0010   -66.4640    11.6380    12.0010   338.4580   546.1770
 2816.0000    83.8610     8.6200     2.4680     0.0020   -66.9960    11.4180    11.7390   344.5370   546.1770
 2816.5000    81.8160     8.6130     2.4720     0.0030   -67.5240    11.1980    11.4480   350.6170   546.1770
 2817.0000    81.1930     8.6060     2.4770     0.0040   -68.0530    10.9780    11.4770   356.6960   546.1770
 2817.5000    84.2890     8.5980     2.4810     0.0040   -68.5830    10.7380    11.5360   362.7760   546.1770
 2818.0000    87.5060     8.5910     2.4860     0.0050   -69.0750    11.2110    11.7200   368.8550   546.1770
 2818.5000    87.7170     8.5840     2.4900     0.0060   -69.0850    11.7310    12.2450   374.9350   546.1770
 2819.0000    86.2900     8.5770     2.4950     0.0060   -69.1600    12.2510    12.7690   381.0140   546.1770
 2819.5000    84.8460     8.5690     2.4980     0.0060   -69.2460    12.7710    13.2940   387.0940   546.1770
 2820.0000    83.4070     8.5620     2.4970     0.0050   -69.3330    13.0120    13.6880   393.1740   546.1770
 2820.5000    82.2040     8.5550     2.4960     0.0050   -69.4190    12.8010    13.0100   399.2530   546.1770
 2821.0000    81.9550     8.5470     2.4960     0.0040   -69.4860    12.1630    12.3640   405.9410   546.1770
 2821.5000    84.9530     8.5400     2.4960     0.0040   -69.5420    11.5250    11.8740   405.2250   546.1770
 2822.0000    88.0250     8.5330     2.4970     0.0030   -69.7880    10.8880    11.6170   402.8390   546.1770
 2822.5000    90.9960     8.5260     2.4970     0.0020   -70.0270    10.7380    11.3440   400.4530   546.1770
 2823.0000    92.2020     8.5200     2.4970     0.0020   -70.2670    11.0840    11.5270   398.0680   546.1770
 2823.5000    93.2900     8.5230     2.4980     0.0010   -70.5050    11.5310    11.9820   395.6820   546.1770
 2824.0000    93.5570     8.5270     2.5000     0.0010   -70.6810    11.9790    12.4360   393.2960   546.1770
 2824.5000    91.6020     8.5310     2.5010     0.0000   -70.6730    12.4300    13.0120   390.9100   546.1770
 2825.0000    89.7680     8.5340     2.5020    -0.0010   -70.5750    12.2750    12.6600   388.5240   546.1770
 2825.5000    90.3760     8.5380     2.5030    -0.0010   -70.1860    12.2050    12.8820   386.1390   546.1770
 2826.0000    92.5950     8.5410     2.5040    -0.0020   -69.8090    12.6540    13.4350   383.7530   546.1770
 2826.5000    94.8260     8.5450     2.5060    -0.0020   -69.4320    13.3910    13.9870   381.3670   546.1770
 2827.0000    97.0840     8.5480     2.5050    -0.0030   -69.0550    14.1290    14.5390   378.9810   546.1770
 2827.5000    99.4170     8.5520     2.5010    -0.0030   -68.6780    14.5690    15.0910   376.5950   546.1770
 2828.0000    97.7420     8.5550     2.4970    -0.0030   -68.3010    14.9470    15.6240   374.2100   546.1770
 2828.5000    95.3040     8.5590     2.4920    -0.0030   -67.9240    15.3240    15.9060   371.8240   546.1770
 2829.0000    89.6190     8.5630     2.4880    -0.0020   -67.5490    15.7010    16.2430   369.4380   546.1770
 2829.5000    85.3740     8.5660     2.4860    -0.0020   -67.2810    16.0580    16.5800   367.0520   546.1770
 2830.0000    82.4880     8.5700     2.4840    -0.0010   -67.2510    16.1010    16.9640   364.6670   546.1770
 2830.5000    79.6000     8.5730     2.4820    -0.0010   -67.2160    16.1500    16.8850   362.2810   546.1770
 2831.0000    76.7120     8.5770     2.4810    -0.0010   -67.1820    16.2060    16.7660   359.8950   546.1770
 2831.5000    74.6210     8.5800     2.4810     0.0000   -67.1460    15.9120    16.6570   357.5090   546.1770
 2832.0000    73.9100     8.5800     2.4830     0.0000   -67.1090    16.3970    17.0790   355.1230   546.1770
 2832.5000    75.7330     8.5800     2.4890     0.0010   -66.9070    16.9500    17.4360   352.7380   546.1770
 2833.0000    79.1810     8.5800     2.4950     0.0010   -66.8840    17.1200    17.4360   350.3520   546.1770
 2833.5000    78.2160     8.5570     2.5010     0.0020   -66.8160    16.7700    17.2670   347.9660   546.1770
 2834.0000    77.3420     8.5270     2.4960     0.0020   -66.7450    16.4990    17.0250   345.5800   546.1770
 2834.5000    76.2570     8.4970     2.4900     0.0020   -66.6730    16.2060    16.8420   343.1950   546.1770
 2835.0000    79.2700     8.4670     2.4880     0.0020   -66.5980    16.4030    17.1290   340.8090   546.1770
 2835.5000    82.9060     8.4600     2.4890     0.0010   -66.5300    16.7840    17.4360   338.4230   546.1770
 2836.0000    80.7550     8.4550     2.4900     0.0000   -66.2800    16.9640    17.2380   336.0370   546.1770
 2836.5000    78.7250     8.4470     2.4910     0.0000   -66.3660    16.3060    16.9660   333.6510   546.1770
 2837.0000    79.4740     8.4400     2.4910    -0.0010   -66.4520    15.8600    16.6940   331.2660   546.1770
 2837.5000    81.4590     8.4330     2.4890    -0.0020   -66.5340    15.4810    16.3550   328.8800   546.1770
 2838.0000    83.5440     8.4250     2.4840    -0.0030   -66.6190    15.5550    16.5050   326.7330   546.1770
