~VERSION INFORMATION
 VERS.                2.0:   CWLS LOG ASCII STANDARD - VERSION 2.0
 WRAP.                 NO:   ONE LINE PER DEPTH STEP
~WELL INFORMATION
#MNEM.UNIT      DATA TYPE    INFORMATION
#----------   ------------   ------------------------------
 STRT.F          200.0000:   START DEPTH
 STOP.F         3038.0000:   STOP DEPTH
 STEP.F            0.5000:   STEP LENGTH
 NULL.          -999.2500:   NO VALUE
 COMP.    FENIX & SCISSON:   COMPANY
 WELL. FENIX NPR 3 "A" #63-28:   WELL
 FLD .            WILDCAT:   FIELD
 LOC .      S28 T39N R78W:   LOCATION
 CNTY.            NATRONA:   COUNTY
 STAT.            WYOMING:   STATE
 CTRY. UNITED STATES OF AMERICA:   COUNTRY
 SRVC.              WELEX:   SERVICE COMPANY
 DATE.        29-MAY-1977:   LOGDATE
 API .     49025103740000:   API NUMBER
~CURVE INFORMATION
#MNEM.UNIT       API CODE    CURVE DESCRIPTION
#----------   ------------   ------------------------------
 DEPT.F                  :   
 SPR .MV     07 010 01 00:   SPONTANEOUS POTENTIAL
 ILM .OHMM   07 120 44 00:   INDUCTION LOG MEDIUM RESISTIVITY
 ILD .OHMM   07 120 46 00:   DEEP INDUCTION RESISTIVITY
 SGRD.OHMM   07 220 05 00:   SHALLOW SHORT GUARD RESISTIVITY
 GRD .GAPI   45 310 01 00:   GAMMA RAY FROM DENSITY LOG
 CALD.IN     45 280 60 00:   CALIPER FROM DENSITY LOG
 RHOB.G/C3   45 350 01 00:   BULK DENSITY
 CORR.G/C3   45 356 01 00:   DENSITY CORRECTION
~PARAMETER INFORMATION
#MNEM.UNIT          VALUE    DESCRIPTION
#----------   ------------   ------------------------------
 EKB .F         5040.0000:   Kelly bushing
 EGL .F         5029.0000:   Ground level
 EDF .F            0.0000:   Drilling floor
 EPD .F         5029.0000:   Permanent datum
 TD  .F         3040.0000:   Total depth
 DATE.        29-MAY-1977:   Date logged
 CLNT.            A2DTECH:   Client Code
 SL  . 1650' FNL & 1650' FEL:   Surface Location
 PD  .                 GL:   Permanent Datum
 LMF .                 KB:   Log Measured From
 DMF .                 KB:   Drilling Measured From
 DD  .F              3040:   Depth driller
 DL  .F              3038:   Depth logger
 BLI .F              3036:   Bottom log interval
 TLI .F               200:   Top log interval
 CS1 .IN            8.625:   Casing size
 BSD1.F              3040:   Depth drilled with bit1
 DFT .            KCL MUD:   Type fluid in hole
 ORIG.     2.5", 5" PRINT:   Origin of data
 UWI .     49025103740000:   Unique Well ID
 DICO. A2D TECHNOLOGIES, INC.:   Digitizing Company
 DAPD.                 11:   Feet Above Permanent Datum
 CBD1.      8.625" @ 220':   Casing driller 1
 BS1 .              7.875:   Bit size
 DFD .                8.7:   Density
 MRT .                108:   Maximum recorded temp.
 ENGI.            C. DOAK:   Recorded By
 WITN.      W. PETTINGILL:   Witnessed by
~OTHER INFORMATION
~A   DEPT      SPR        ILM          ILD     SGRD         GRD        CALD       RHOB      CORR  
# ...
 1698.5000   -65.2120     7.9400     7.1960    10.7980   102.5870     9.4080     2.4750     0.0150
 1699.0000   -65.2630     7.9400     7.1860    10.6250   101.8870     9.4180     2.4720     0.0150
 1699.5000   -65.3140     7.9400     7.1770    10.4520   102.0660     9.4280     2.4730     0.0150
 1700.0000   -65.3660     7.8600     7.1260    10.3450   103.7090     9.4130     2.4710     0.0150
 1700.5000   -65.4170     7.7700     7.0790    10.3050   105.4150     9.3780     2.4750     0.0200
 1701.0000   -65.4690     7.7240     7.0330    10.2640   107.1960     9.3460     2.4800     0.0230
 1701.5000   -65.5200     7.7240     6.9870    10.2230   108.9130     9.3140     2.4850     0.0280
 1702.0000   -65.5740     7.7240     6.9380    10.1770   110.6670     9.2820     2.4940     0.0310
 1702.5000   -65.5680     7.7450     6.8750    10.2060   112.4060     9.2500     2.5060     0.0350
 1703.0000   -65.5400     7.7960     6.8540    10.2480   114.1350     9.2150     2.5170     0.0390
 1703.5000   -65.5120     7.7680     6.9360    10.2910   115.9300     9.1960     2.5290     0.0430
 1704.0000   -65.4830     7.7100     7.0120    10.3340   116.7000     9.1980     2.5380     0.0460
 1704.5000   -65.4540     7.6540     7.0890    10.4050   115.4990     9.1980     2.5400     0.0470
 1705.0000   -65.4260     7.9090     7.1650    10.5650   114.0680     9.1980     2.5380     0.0450
 1705.5000   -65.3970     8.1530     7.2410    10.8000   112.5670     9.2030     2.5320     0.0430
 1706.0000   -65.3920     8.3900     7.3180    11.1320   111.9670     9.2060     2.5190     0.0410
 1706.5000   -65.3920     8.3900     7.3800    11.4630   112.0300     9.2100     2.5040     0.0370
 1707.0000   -65.3920     8.3900     7.3930    11.7890   112.0350     9.2140     2.4980     0.0330
 1707.5000   -65.3920     8.3900     7.4060    11.7890   112.3180     9.2180     2.4970     0.0300
 1708.0000   -65.3920     8.3900     7.4190    11.4620   112.5400     9.2220     2.4960     0.0260
 1708.5000   -65.3920     8.3280     7.4320    11.2450   112.7670     9.2260     2.4920     0.0230
 1709.0000   -65.3920     8.0170     7.4450    10.8470   112.8290     9.2300     2.4870     0.0230
 1709.5000   -65.3770     7.7060     7.4100    10.3260   112.6190     9.2340     2.4820     0.0240
 1710.0000   -65.3380     7.4950     7.3750     9.9000   111.6770     9.2380     2.4770     0.0250
 1710.5000   -65.2990     7.3920     7.3390     9.8100   108.7040     9.2420     2.4720     0.0260
 1711.0000   -65.2600     7.2880     7.2910     9.7200   106.1160     9.2460     2.4670     0.0260
 1711.5000   -65.2210     7.1050     7.1810     9.7200   103.2620     9.2500     2.4620     0.0270
 1712.0000   -65.1470     6.8620     7.0010     9.7200   101.0780     9.2540     2.4580     0.0280
 1712.5000   -65.0070     6.6070     6.6930     9.4790   100.4710     9.2580     2.4490     0.0300
 1713.0000   -64.8680     6.3300     6.3680     9.2260   102.3220     9.2620     2.4430     0.0310
 1713.5000   -64.7300     5.9360     5.6760     8.9740   104.1920     9.2660     2.4340     0.0350
 1714.0000   -64.6030     5.2990     4.9430     8.7050   103.6670     9.2700     2.4260     0.0390
 1714.5000   -64.2930     4.8000     4.2960     8.1350   102.5520     9.2730     2.3970     0.0420
 1715.0000   -63.9540     4.2610     3.6810     7.5230   101.4630     9.2870     2.3720     0.0460
 1715.5000   -63.6140     3.6980     3.0660     6.8760   100.3100     9.3110     2.3470     0.0510
 1716.0000   -63.2760     3.3000     2.5470     5.9540    99.5300     9.3330     2.3140     0.0570
 1716.5000   -62.9860     2.9700     2.1690     3.2570    99.6580     9.3550     2.2710     0.0620
 1717.0000   -62.8080     2.6390     2.0260     1.7950    99.5870     9.3790     2.2350     0.0680
 1717.5000   -62.6460     2.3900     1.9380     1.5460    99.6060     9.4030     2.1820     0.0740
 1718.0000   -62.7810     2.1860     1.8750     1.7020    99.7960     9.4320     2.1430     0.0710
 1718.5000   -63.1750     2.3750     2.0020     1.9100   100.3630     9.4620     2.1050     0.0390
 1719.0000   -63.6320     2.6270     2.1890     2.5410   101.5290     9.4880     2.1000    -0.0100
 1719.5000   -63.9130     2.8030     2.4030     4.9430   103.8810     9.5420     2.2250    -0.0170
 1720.0000   -64.1770     2.9680     2.7780     8.2400   106.1980     9.5360     2.3820    -0.0110
 1720.5000   -64.2760     3.3390     3.5960     9.1760   107.4900     9.5020     2.4750     0.0190
 1721.0000   -64.3660     3.8160     4.3900     9.7260   107.8460     9.4010     2.4850     0.0180
 1721.5000   -64.4570     4.6400     5.1050    10.0440   108.3630     9.3930     2.4730     0.0180
 1722.0000   -64.5470     5.6550     5.8280    10.3200   108.8810     9.3790     2.4660     0.0170
 1722.5000   -64.6380     6.8350     6.4280    10.4190   109.3660     9.3720     2.4670     0.0150
 1723.0000   -64.7290     7.4370     6.8350    10.4830   109.8800     9.3600     2.4690     0.0140
 1723.5000   -64.8190     7.7340     7.2410    10.5460   110.3770     9.3500     2.4730     0.0120
 1724.0000   -64.9100     8.0310     7.6470    10.6150   110.8830     9.3400     2.4770     0.0110
 1724.5000   -64.9980     8.1960     7.8660    10.6840   111.3850     9.3290     2.4800     0.0110
 1725.0000   -65.0010     8.3290     8.0400    10.7540   111.8800     9.3190     2.4840     0.0110
 1725.5000   -65.0000     8.4630     8.2140    10.8790   112.4080     9.3080     2.4880     0.0110
 1726.0000   -65.0000     8.5970     8.3900    11.0030   112.7960     9.2980     2.4920     0.0130
 1726.5000   -65.0000     8.7210     8.3540    11.1470   113.6650     9.2880     2.4960     0.0170
 1727.0000   -65.0000     8.8420     8.4050    11.3060   114.7830     9.2760     2.4980     0.0190
 1727.5000   -65.0000     8.9640     8.4680    11.4690   115.8250     9.2620     2.4980     0.0190
 1728.0000   -65.0000     9.0850     8.3720    11.4690   115.8210     9.2440     2.4980     0.0150
 1728.5000   -65.0140     9.1460     8.2480    11.8830   115.1590     9.2270     2.4960     0.0120
 1729.0000   -65.0290     9.1880     8.1240    11.7050   114.5620     9.2100     2.4920     0.0090
 1729.5000   -65.0440     9.2300     7.9990    11.5620   113.9570     9.1930     2.4880     0.0070
 1730.0000   -65.0590     9.2830     7.8680    11.4690   113.3340     9.1760     2.4840     0.0070
 1730.5000   -65.0730     9.2310     7.8460    11.7290   112.7660     9.1600     2.4840     0.0080
 1731.0000   -65.0880     9.1610     7.8160    11.8980   112.0810     9.1560     2.4850     0.0100
 1731.5000   -65.1030     9.0660     7.7860    11.7130   112.3760     9.1520     2.4900     0.0120
 1732.0000   -65.1180     8.9160     7.7570    11.3600   112.8090     9.1490     2.4950     0.0150
 1732.5000   -65.1320     8.7660     7.7240    11.2600   113.2770     9.1450     2.5000     0.0150
 1733.0000   -65.1470     8.6160     7.6970    11.2600   113.7170     9.1420     2.5000     0.0140
 1733.5000   -65.1620     8.3900     7.6670    11.1840   114.1360     9.1390     2.5000     0.0120
 1734.0000   -65.1770     8.4320     7.6370    10.9320   114.6720     9.1350     2.4920     0.0100
 1734.5000   -65.1930     8.5150     7.6060    10.8530   115.2020     9.1320     2.4840     0.0080
 1735.0000   -65.1210     8.6250     7.5760    10.8530   115.8200     9.1280     2.4740     0.0060
 1735.5000   -65.0140     8.6110     7.5460    10.9540   115.1290     9.1250     2.4730     0.0040
 1736.0000   -64.9050     8.5900     7.5160    11.4120   114.1370     9.1220     2.4800     0.0030
 1736.5000   -64.7970     8.5700     7.4860    11.7660   113.2010     9.1180     2.4800     0.0020
 1737.0000   -64.6890     8.5490     7.4560    12.0080   112.1180     9.1150     2.4710     0.0020
 1737.5000   -64.5910     8.4640     7.3970    11.6170   112.2790     9.1110     2.4630     0.0020
 1738.0000   -64.5290     8.3680     7.3230    11.3480   112.5780     9.1080     2.4530     0.0010
 1738.5000   -64.4660     8.2720     7.2480    11.2830   112.9400     9.1050     2.4490     0.0010
