~VERSION INFORMATION
 VERS.                2.0:   CWLS LOG ASCII STANDARD - VERSION 2.0
 WRAP.                 NO:   ONE LINE PER DEPTH STEP
~WELL INFORMATION
#MNEM.UNIT      DATA TYPE    INFORMATION
#----------   ------------   ------------------------------
 STRT.F          200.0000:   START DEPTH
 STOP.F         3160.0000:   STOP DEPTH
 STEP.F            0.5000:   STEP LENGTH
 NULL.          -999.2500:   NO VALUE
 COMP.    FENIX & SCISSON:   COMPANY
 WELL. FENIX NPR 3 "AX" #72-3:   WELL
 FLD .             TEAPOT:   FIELD
 LOC .       S3 T38N R78W:   LOCATION
 CNTY.            NATRONA:   COUNTY
 STAT.            WYOMING:   STATE
 CTRY. UNITED STATES OF AMERICA:   COUNTRY
 SRVC.           BIRDWELL:   SERVICE COMPANY
 DATE.        10-JAN-1978:   LOGDATE
 API .     49025105530000:   API NUMBER
~CURVE INFORMATION
#MNEM.UNIT       API CODE    CURVE DESCRIPTION
#----------   ------------   ------------------------------
 DEPT.F                  :   
 CALD.IN     45 280 60 00:   CALIPER FROM DENSITY LOG
 GRD .GAPI   45 310 01 00:   GAMMA RAY FROM DENSITY LOG
 DEN .LBS    45 635 01 00:   BUCK DENSITY
 CORR.G/C3   45 356 01 00:   DENSITY CORRECTION
 SPR .MV     07 010 01 00:   SPONTANEOUS POTENTIAL
 ILD .OHMM   07 120 46 00:   DEEP INDUCTION RESISTIVITY
 ILM .OHMM   07 120 44 00:   INDUCTION LOG MEDIUM RESISTIVITY
~PARAMETER INFORMATION
#MNEM.UNIT          VALUE    DESCRIPTION
#----------   ------------   ------------------------------
 EKB .F         5164.0000:   Kelly bushing
 EGL .F         5153.0000:   Ground level
 TD  .F         3157.0000:   Total depth
 DATE.        10-JAN-1978:   Date logged
 CLNT.            A2DTECH:   Client Code
 SL  . 900' FNL & 900' FEL:   Surface Location
 PD  .                 GL:   Permanent Datum
 EPD .F              5153:   Elevation Permanent Datum
 LMF .                 KB:   Log Measured From
 DMF .                 KB:   Drilling Measured From
 DAPD.F                11:   Feet Above Permanent Datum
 DD  .F              3156:   Depth driller
 DL  .F              3157:   Depth logger
 BLI .F              3157:   Bottom log interval
 TLI .F               200:   Top log interval
 CS1 .IN            8.625:   Casing size
 CBD1.      8.625" @ 222':   Casing driller 1
 CBL1.F               220:   Casing logger 1
 BS1 .IN            7.875:   Bit size
 BSD1.F              3156:   Depth drilled with bit1
 DFT .                KCL:   Type fluid in hole
 DFD .                8.5:   Density
 DFV .                 36:   Viscosity
 DFPH.                 10:   pH
 DFL .                8.8:   Fluid loss
 MSS .           FLOWLINE:   Source of sample
 RMS .OHMM            1.4:   Rm
 MST .F                66:   Rm Meas. temp.
 RMF .OHMM            .85:   Rmf
 MFST.F                74:   Rmf Meas. temp.
 RMC .OHMM            1.4:   Rmc
 MCST.F                72:   Rmc Meas. temp.
 MFSS.               MEAS:   Source Rmf.
 MCSS.               MEAS:   Source Rmc.
 RMB .OHMM            .83:   Rm. at BHT
 BHT .F               112:   BHT.
 TCS .HRS               4:   Time Circ. stopped
 MRT .F               112:   Maximum recorded temp.
 LUN .               2958:   Logging unit number
 LUL .             CASPER:   Logging unit location
 ENGI.            POINTER:   Recorded By
 WITN.         HARRINGTON:   Witnessed by
 ORIG.           5" PRINT:   Origin of data
 UWI .     49025105530000:   Unique Well ID
 DICO. A2D TECHNOLOGIES, INC.:   Digitizing Company
~OTHER INFORMATION
~A   DEPT     CALD        GRD          DEN     CORR        SPR        ILD        ILM   
# ...
 2520.5000    10.0934   111.9468     2.5292     0.0506   -52.6399    10.3594     5.9010
 2521.0000    10.0935   113.7336     2.5262     0.0567   -52.4419    10.4545     5.8385
 2521.5000    10.0910   114.3298     2.5202     0.0527   -52.4432    10.3577     5.7924
 2522.0000    10.0885   115.9181     2.5162     0.0507   -52.4444    10.3568     5.7388
 2522.5000    10.0859   116.3159     2.5152     0.0467   -52.6449    10.3560     5.7383
 2523.0000    10.0834   115.7217     2.5352     0.0427   -52.4469    10.3551     5.8447
 2523.5000    10.0809   113.7386     2.5232     0.0407   -52.6471    10.4499     6.0082
 2524.0000    10.0784   112.3507     2.5122     0.0387   -52.4492    10.4492     6.1196
 2524.5000    10.0758   112.7485     2.5343     0.0347   -52.6496    10.4485     6.4674
 2525.0000    10.0733   114.5352     2.5313     0.0328   -52.4517    10.5444     6.4670
 2525.5000    10.0708   116.9172     2.5313     0.0288   -52.4529    10.6414     6.5264
 2526.0000    10.0683   116.7198     2.5343     0.0348   -51.8566    10.7393     6.5258
 2526.5000    10.0658   115.5303     2.5323     0.0428   -52.4554    10.9380     6.7084
 2527.0000    10.0632   112.7535     2.5263     0.0488   -52.4567    10.9371     6.8328
 2527.5000    10.0607   110.7703     2.5183     0.0569   -52.4579    10.9364     6.8322
 2528.0000    10.0582   111.1682     2.5193     0.0569   -52.4592    10.9353     6.8950
 2528.5000    10.0557   112.1612     2.5393     0.0609   -51.8628    10.9346     6.9583
 2529.0000    10.0531   112.1622     2.5463     0.0649   -51.0673    10.9335     6.9578
 2529.5000    10.0506   111.5680     2.5463     0.0669   -51.6659    11.0339     7.0867
 2530.0000    10.0481   110.5769     2.5453     0.0669   -51.6674    11.1352     7.3525
 2530.5000    10.0456   110.3795     2.5513     0.0670   -51.4694    11.2375     7.3519
 2531.0000    10.0430   110.5789     2.5523     0.0690   -51.4707    11.3407     7.9143
 2531.5000    10.0405   111.9688     2.5493     0.0690   -51.4719    11.4448     8.1357
 2532.0000    10.0380   112.7635     2.5453     0.0670   -51.4732    11.5499     8.2865
 2532.5000    10.0363   112.7644     2.5424     0.0690   -51.4744    11.6561     8.4401
 2533.0000    10.0364   113.1623     2.5414     0.0690   -51.4757    11.8721     8.8377
 2533.5000    10.0365   113.3617     2.5424     0.0690   -51.4769    11.8712     8.9189
 2534.0000    10.0366   114.1563     2.5484     0.0711   -51.8766    11.8702     9.0008
 2534.5000    10.0168   114.5540     2.5554     0.0691   -52.0770    11.8692     9.0834
 2535.0000    10.0169   115.9439     2.5494     0.0671   -52.0783    11.8682     9.1669
 2535.5000    10.0170   115.9449     2.5474     0.0711   -52.2787    11.9771     9.2510
 2536.0000    10.0171   111.9776     2.5404     0.0711   -52.2800    12.3121     9.1653
 2536.5000    10.0172   111.9786     2.5384     0.0711   -52.2812    11.9751     9.2495
 2537.0000    10.0173   112.3764     2.5294     0.0732   -52.4817    11.9741     9.1640
 2537.5000    10.0373   113.3695     2.5304     0.0712   -52.2837    12.0841     9.2482
 2538.0000    10.0374   113.5689     2.5374     0.0712   -52.2850    12.4221     9.4191
 2538.5000    10.0176   113.5699     2.5404     0.0712   -52.0870    12.0821     9.5412
 2539.0000    10.0177   113.5709     2.5414     0.0712   -51.6899    12.0811     9.7716
 2539.5000    10.0377   113.5719     2.5374     0.0712   -50.6951    12.1920     9.9530
 2540.0000    10.0179   115.1602     2.5384     0.0713   -50.0988    12.1909     9.9522
 2540.5000    10.0379   119.5263     2.5364     0.0713   -50.2993    12.3029    10.1367
 2541.0000    10.0181   122.3051     2.5404     0.0733   -51.6949    12.4158    10.1358
 2541.5000    10.0381   122.1077     2.5384     0.0773   -51.6962    12.4148    10.1350
 2542.0000    10.0778   118.7356     2.5354     0.0793   -51.6974    12.2998    10.1341
 2542.5000    10.0383   116.9509     2.5314     0.0853   -51.6984    12.4127    10.0403
 2543.0000    10.0185   115.9598     2.5315     0.0934   -51.8989    12.2977     9.8560
 2543.5000    10.0186   115.7624     2.5315     0.0954   -52.2985    12.1838     9.4109
 2544.0000    10.0187   115.3666     2.5305     0.0934   -52.4990    12.0709     9.4620
 2544.5000    10.0387   115.3676     2.5345     0.0934   -52.8986    11.9591     9.4967
 2545.0000    10.0388   115.3686     2.5365     0.0934   -52.8999    11.9581     9.6727
 2545.5000    10.0389   115.3696     2.5355     0.0834   -53.1003    12.0679     9.9432
 2546.0000    10.0191   114.9738     2.5465     0.0815   -53.1016    12.0669     9.9424
 2546.5000    10.0391   114.7763     2.5575     0.0735   -53.3020    12.0659     9.7599
 2547.0000    10.0392   114.9757     2.5655     0.0615   -53.1041    12.0649     9.4056
 2547.5000    10.0194   116.5641     2.5665     0.0575   -53.3045    12.0639     9.3185
 2548.0000     9.9997   119.5413     2.5685     0.0595   -52.9074    12.0629     9.2322
 2548.5000     9.9998   120.7325     2.5675     0.0575   -53.3070    12.0619     8.8155
 2549.0000     9.9999   121.7256     2.5666     0.0595   -53.1091    11.9501     8.7337
 2549.5000    10.0198   122.9171     2.5656     0.0635   -53.3095    11.7308     8.7331
 2550.0000    10.0001   138.5928     2.5566     0.0656   -53.3108    11.7298     8.7324
 2550.5000    10.0002   142.1652     2.5496     0.0636   -52.7144    11.5145     8.8126
 2551.0000    10.0201   140.3805     2.5536     0.0636   -52.5165    11.6202     8.9759
 2551.5000    10.0202   136.4126     2.5586     0.0436   -52.5177    11.8355     9.1423
 2552.0000    10.0185   119.0682     2.5556     0.0256   -52.3198    11.9444     9.3117
 2552.5000    10.0168   101.8914     2.5766     0.0276   -52.3210    12.5069     9.7502
 2553.0000    10.0151    99.5114     2.5766     0.0276   -52.3223    12.6215    10.3995
 2553.5000    10.0134    99.7109     2.5536     0.0276   -52.1243    12.5048    10.8895
 2554.0000    10.0117   103.1429     2.5516     0.0276   -52.1256    12.5038    10.9894
 2554.5000    10.0100   107.2528     2.5516     0.0277   -52.1268    12.5027    10.9883
 2555.0000    10.0082   106.8567     2.5556     0.0257   -52.1281    12.5017    10.4925
 2555.5000    10.0065   105.2704     2.5546     0.0237   -52.1293    12.5006    10.3000
 2556.0000    10.0048   101.8984     2.5536     0.0237   -52.3298    12.4996    10.2046
 2556.5000    10.0031   101.7010     2.5526     0.0217   -52.3310    12.4985    10.1101
 2557.0000    10.0015   102.8923     2.5536     0.0237   -52.3323    12.2691    10.0165
 2557.5000    10.0016   105.0758     2.5536     0.0318   -52.3335    12.1555    10.0156
 2558.0000    10.0017   105.2752     2.5476     0.0438   -51.9364    12.2671    10.0148
 2558.5000    10.0017   104.8794     2.5416     0.0438   -52.3360    12.2660    10.0140
 2559.0000    10.0018   104.2852     2.5456     0.0458   -52.3373    12.2650    10.0132
 2559.5000    10.0019   104.8798     2.5577     0.0478   -52.3386    12.2640    10.2932
 2560.0000     9.9425   106.6665     2.5677     0.0479   -52.3398    12.2630    10.6790
 2560.5000     9.9823   109.0485     2.5697     0.0479   -52.3411    12.2619    10.7770
 2561.0000    10.0022   110.6384     2.5717     0.0439   -52.1431    12.3745    10.8759
 2561.5000    10.0023   109.4489     2.5717     0.0379   -51.3476    12.4880    11.0772
 2562.0000    10.0024   105.0848     2.5717     0.0379   -51.1494    12.6027    11.0764
 2562.5000    10.0025   101.3159     2.5687     0.0339   -50.7522    12.7183    11.0756
 2563.0000    10.0026   100.3249     2.5597     0.0319   -50.7535    12.7173    10.8723
 2563.5000    10.0027   100.3259     2.5617     0.0319   -50.7547    12.7162    10.8714
 2564.0000    10.0028   100.3269     2.5627     0.0320   -50.7560    12.7151    10.8705
 2564.5000    10.0029   100.5263     2.5547     0.0340   -50.7572    12.7141    10.8696
 2565.0000     9.9832   102.1146     2.5477     0.0380   -50.7585    12.4807    10.7690
 2565.5000     9.9833   103.5045     2.5487     0.0380   -50.7597    12.5953    10.7681
