~VERSION INFORMATION
 VERS.                2.0:   CWLS LOG ASCII STANDARD - VERSION 2.0
 WRAP.                 NO:   ONE LINE PER DEPTH STEP
~WELL INFORMATION
#MNEM.UNIT      DATA TYPE    INFORMATION
#----------   ------------   ------------------------------
 STRT.F          200.0000:   START DEPTH
 STOP.F         3196.5000:   STOP DEPTH
 STEP.F            0.5000:   STEP LENGTH
 NULL.          -999.2500:   NO VALUE
 COMP.    FENIX & SCISSON:   COMPANY
 WELL. FENIX & SCISSON #82-15:   WELL
 FLD .                NPR:   FIELD
 LOC .      S15 T38N R78W:   LOCATION
 CNTY.            NATRONA:   COUNTY
 STAT.            WYOMING:   STATE
 CTRY. UNITED STATES OF AMERICA:   COUNTRY
 SRVC.              WELEX:   SERVICE COMPANY
 DATE.        14-AUG-1977:   LOGDATE
 API .     49025104100000:   API NUMBER
~CURVE INFORMATION
#MNEM.UNIT       API CODE    CURVE DESCRIPTION
#----------   ------------   ------------------------------
 DEPT.F                  :   
 CALD.IN     45 280 60 00:   CALIPER FROM DENSITY LOG
 GRD .GAPI   45 310 01 00:   GAMMA RAY FROM DENSITY LOG
 RHOB.G/C3   45 350 01 00:   BULK DENSITY
 CORR.G/C3   45 356 01 00:   DENSITY CORRECTION
 SPR .MV     07 010 01 00:   SPONTANEOUS POTENTIAL
 ILD .OHMM   07 120 46 00:   DEEP INDUCTION RESISTIVITY
 ILM .OHMM   07 120 44 00:   INDUCTION LOG MEDIUM RESISTIVITY
 GURD.OHMM   07 220 05 00:   GUARD LOG RESISTIVITY
~PARAMETER INFORMATION
#MNEM.UNIT          VALUE    DESCRIPTION
#----------   ------------   ------------------------------
 EKB .F         5259.0000:   Kelly bushing
 EGL .F         5249.0000:   Ground level
 EDF .F            0.0000:   Drilling floor
 EPD .F            0.0000:   Permanent datum
 TD  .F         3197.0000:   Total depth
 CLNT.            A2DTECH:   Client Code
 SL  . 990' FNL & 330' FEL:   Surface Location
 PD  .                 GL:   Permanent Datum
 DAPD.F                10:   Feet Above Permanent Datum
 DATE.        14-AUG-1977:   Date Logged [DD-MMM-YYYY]
 DD  .F              3197:   Depth driller
 DL  .F              3200:   Depth logger
 BLI .F              3198:   Bottom log interval
 TLI .F               200:   Top log interval
 CS1 .IN            8.625:   Casing size
 CBD1.      8.625" @ 236':   Casing driller 1
 CBL1.F               220:   Casing logger 1
 BS1 .IN            7.875:   Bit size
 BSD1.F              3197:   Depth drilled with bit1
 DFT .            KCL MUD:   Type fluid in hole
 DFD .                9.1:   Density
 DFV .                 42:   Viscosity
 DFPH.               10.5:   pH
 DFL .                7.2:   Fluid loss
 MSS .           FLOWLINE:   Source of sample
 RMS .OHMM          0.240:   Rm
 MST .F                92:   Rm Meas. temp.
 RMF .OHMM          0.160:   Rmf
 MFST.F                92:   Rmf Meas. temp.
 MFSS.               MEAS:   Source Rmf.
 RMC .OHMM          0.238:   Rmc
 MCST.F                92:   Rmc Meas. temp.
 MCSS.               MEAS:   Source Rmc.
 RMB .OHMM          0.194:   Rm. at BHT
 BHT .F               114:   BHT.
 TCS .HRS               3:   Time Circ. stopped
 MRT .F               114:   Maximum recorded temp.
 LUN .               9685:   Logging unit number
 LUL .             CASPER:   Logging unit location
 ENGI.            C. DOAK:   Recorded By
 WITN.      W. PETTINGILL:   Witnessed by
 ORIG.           5" PRINT:   Origin of data
 UWI .     49025104100000:   Unique Well ID
 DICO. A2D TECHNOLOGIES, INC.:   Digitizing Company
~OTHER INFORMATION
~A   DEPT       CALD       GRD        RHOB      CORR       SPR        ILD        ILM       GURD   
# ...
 1779.5000    11.6057   126.5554     2.5072     0.0181   -71.4649     6.2010     6.6534     7.0047
 1780.0000    11.6372   126.2905     2.5034     0.0183   -71.6194     6.1623     6.6128     6.9602
 1780.5000    11.6390   125.7344     2.4968     0.0214   -71.7348     6.1675     6.6195     6.9666
 1781.0000    11.6554   125.4632     2.4939     0.0261   -71.7167     6.2145     6.6248     6.9718
 1781.5000    11.6415   127.0667     2.4947     0.0278   -71.7021     6.2187     6.6762     6.9782
 1782.0000    11.5980   127.9468     2.4985     0.0325   -71.3886     6.2228     6.6816     7.0318
 1782.5000    11.5845   127.9817     2.5038     0.0356   -71.0751     6.3138     6.6871     6.9872
 1783.0000    11.5559   127.7080     2.5076     0.0388   -70.9111     6.3181     6.7402     7.0422
 1783.5000    11.5877   128.0515     2.5114     0.0435   -70.7471     6.3224     6.7457     7.0474
 1784.0000    11.5892   129.2858     2.5152     0.0512   -70.7324     6.3267     6.7511     7.0526
 1784.5000    11.6060   130.2203     2.5160     0.0618   -70.7180     6.3319     6.7565     7.1563
 1785.0000    11.6072   129.0558     2.5138     0.0710   -71.1483     6.3361     6.7620     7.2114
 1785.5000    11.6239   128.1911     2.5116     0.0816   -71.2869     6.1661     6.7674     7.2180
 1786.0000    11.6254   128.2347     2.5071     0.0908   -71.4218     6.0444     6.7261     7.0748
 1786.5000    11.6268   129.4691     2.5012     0.0940   -71.4036     6.0057     6.6851     7.0311
 1787.0000    11.6283   130.3948     2.4952     0.0852   -71.5422     5.9280     6.5984     6.8917
 1787.5000    11.6297   129.5301     2.4923     0.0659   -71.5241     5.9321     6.3363     6.8967
 1788.0000    11.6156   129.8736     2.4984     0.0310   -71.3600     5.9370     6.1681     6.8069
 1788.5000    11.5852   130.5577     2.5112     0.0213   -71.3453     5.9410     6.1305     6.7649
 1789.0000    11.5445   129.9431     2.5247     0.0215   -71.3303     5.9450     6.1354     6.7232
 1789.5000    11.5306   130.9015     2.5225     0.0232   -71.3128     5.9490     6.0979     6.7294
 1790.0000    11.5170   132.4207     2.5158     0.0234   -71.2983     5.9530     6.1030     6.6866
 1790.5000    11.5339   131.8473     2.5114     0.0220   -71.2837     5.9984     6.1090     6.6466
 1791.0000    11.5503   131.5823     2.5107     0.0207   -71.2692     6.0441     6.1992     6.6978
 1791.5000    11.5668   132.8253     2.5077     0.0179   -71.4078     6.0483     6.2907     6.6552
 1792.0000    11.5832   131.0611     2.5025     0.0136   -71.3896     6.0953     6.2958     6.6614
 1792.5000    11.6147   128.3974     2.4996     0.0123   -71.3751     6.0994     6.3887     6.7127
 1793.0000    11.6314   126.3333     2.4989     0.0185   -71.3602     6.1459     6.5735     6.7655
 1793.5000    11.6329   125.4687     2.5064     0.0231   -71.3424     6.1500     6.6245     6.8649
 1794.0000    11.6344   126.4119     2.5140     0.0263   -71.1783     6.1541     6.6760     6.8700
 1794.5000    11.6358   127.6462     2.5187     0.0280   -71.1638     6.2441     6.7291     6.9709
 1795.0000    11.6373   128.8805     2.5238     0.0296   -71.1493     6.2498     6.7813     7.0734
 1795.5000    11.6537   129.2153     2.5254     0.0298   -70.9853     6.3399     6.8814     7.1773
 1796.0000    11.6552   128.9503     2.5262     0.0300   -70.9707     6.3450     6.8869     7.1826
 1796.5000    11.6416   127.4860     2.5272     0.0302   -70.9562     6.3493     6.8925     7.2883
 1797.0000    11.6434   126.6207     2.5293     0.0319   -70.7922     6.3536     6.8980     7.3966
 1797.5000    11.6449   127.0018     2.5323     0.0321   -70.6278     6.3578     6.8551     7.4021
 1798.0000    11.6462   128.1904     2.5343     0.0352   -70.6327     6.3182     6.7137     7.3043
 1798.5000    11.6478   127.9254     2.5347     0.0369   -70.7080     6.2355     6.6794     7.1113
 1799.0000    11.6493   128.2690     2.5310     0.0386   -70.7833     6.1508     6.6386     7.0174
 1799.5000    11.6507   130.1029     2.5250     0.0388   -70.8586     6.1155     6.6465     6.9271
 1800.0000    11.6522   130.7288     2.5194     0.0389   -70.9339     6.1199     6.6972     7.0293
 1800.5000    11.6122   128.0663     2.5131     0.0369   -71.0092     6.1246     6.9378     6.9354
 1801.0000    11.5952   127.4927     2.5088     0.0348   -71.0845     6.0867     6.9907     6.9401
 1801.5000    11.5967   124.8201     2.5051     0.0319   -71.1598     6.0923     6.9954     7.0434
 1802.0000    11.5685   126.0455     2.5015     0.0306   -71.2449     6.0118     6.9507     7.3510
 1802.5000    11.5250   126.9715     2.4970     0.0261   -71.0823     6.0592     7.1026     7.7669
 1803.0000    11.4814   126.1041     2.4889     0.0174   -71.0693     6.0637     7.1073     7.9342
 1803.5000    11.4675   125.8261     2.4928     0.0236   -71.0562     6.0682     7.1123     7.8293
 1804.0000    11.4693   126.7559     2.5011     0.0253   -71.0431     6.1149     7.0678     7.5669
 1804.5000    11.4858   127.3816     2.5026     0.0254   -71.0299     6.1216     6.8794     7.3133
 1805.0000    11.5192   128.3072     2.5050     0.0256   -71.1665     6.2095     6.7893     7.1666
 1805.5000    11.5340   128.9329     2.5080     0.0273   -71.1501     6.2151     6.8422     7.0720
 1806.0000    11.5354   128.6318     2.5156     0.0304   -71.1371     6.2197     6.8469     7.0270
 1806.5000    11.5369   127.1924     2.5262     0.0366   -71.1240     6.2243     6.8030     7.0806
 1807.0000    11.5233   124.8196     2.5331     0.0398   -71.0647     6.2289     6.8088     7.1336
 1807.5000    11.5097   124.2394     2.5383     0.0429   -70.9484     6.2769     6.8134     7.1870
 1808.0000    11.4813   126.9706     2.5362     0.0461   -70.9353     6.2815     6.7709     7.2409
 1808.5000    11.4654   125.7972     2.5295     0.0477   -70.9222     6.2861     6.7766     7.2448
 1809.0000    11.4542   125.8233     2.5273     0.0479   -70.9088     6.3346     6.8283     7.1985
 1809.5000    11.4560   127.0856     2.5266     0.0480   -70.8928     6.4288     7.0248     7.2025
 1810.0000    11.4574   127.6809     2.5245     0.0482   -70.5808     6.3439     6.8375     7.1073
 1810.5000    11.4888   126.8074     2.5176     0.0469   -70.5677     6.2624     6.3843     7.0133
 1811.0000    11.4903   127.1333     2.4970     0.0441   -70.4052     6.2671     5.9201     7.0668
 1811.5000    11.4918   127.7590     2.4910     0.0397   -70.5416     6.2717     6.0904     7.1197
 1812.0000    11.4632   128.6846     2.4874     0.0339   -70.5285     6.2319     6.8560     7.1730
 1812.5000    11.4497   128.4108     2.4755     0.0221   -71.1133     6.1945     8.8449     7.2770
 1813.0000    11.4361   127.5373     2.4703     0.0083   -71.3992     6.1992     9.8412     7.4337
 1813.5000    11.4076   126.3704     2.4891     0.0015   -71.5575     6.1185     7.9466     7.8614
 1814.0000    11.3940   125.4969     2.4975    -0.0014   -71.5193     6.0388     7.3178     7.7546
 1814.5000    11.3958   126.4225     2.4983    -0.0012   -71.5062     6.0444     7.0247     7.3796
 1815.0000    11.3973   127.9478     2.4931    -0.0010   -71.4931     6.0488     6.8374     7.1466
 1815.5000    11.3841   128.0091     2.4894     0.0021   -71.4801     6.0533     6.8420     7.0521
 1816.0000    11.3702   126.7927     2.4925     0.0045   -71.4670     6.0578     6.8466     7.0568
 1816.5000    11.3566   127.4327     2.4994     0.0060   -71.4539     6.0623     6.8512     7.1591
 1817.0000    11.3431   127.7585     2.5039     0.0101   -71.2914     6.0668     6.8086     7.1629
 1817.5000    11.3295   127.7846     2.5070     0.0103   -71.2780     6.0714     6.7661     7.2667
 1818.0000    11.3163   126.6112     2.5078     0.0089   -71.2620     6.0769     6.8189     7.3720
 1818.5000    11.3328   125.7377     2.5072     0.0076   -71.2489     6.0814     6.9186     7.4790
 1819.0000    11.3193   126.0636     2.5035     0.0063   -71.2358     6.0859     6.9233     7.4839
 1819.5000    11.3211   126.9895     2.5006     0.0049   -71.0733     6.0904     6.9280     7.4879
