~VERSION INFORMATION
 VERS.                2.0:   CWLS LOG ASCII STANDARD - VERSION 2.0
 WRAP.                 NO:   ONE LINE PER DEPTH STEP
~WELL INFORMATION
#MNEM.UNIT      DATA TYPE    INFORMATION
#----------   ------------   ------------------------------
 STRT.F          297.0000:   START DEPTH
 STOP.F         2946.0000:   STOP DEPTH
 STEP.F            0.5000:   STEP LENGTH
 NULL.          -999.2500:   NO VALUE
 COMP.    FENIX & SCISSON:   COMPANY
 WELL. FENIX & SCISSON SH "X" #17-10:   WELL
 FLD .             NPR #3:   FIELD
 LOC .      S10 T38N R78W:   LOCATION
 CNTY.            NATRONA:   COUNTY
 STAT.            WYOMING:   STATE
 CTRY. UNITED STATES OF AMERICA:   COUNTRY
 SRVC.       SCHLUMBERGER:   SERVICE COMPANY
 DATE.        05-APR-1977:   LOGDATE
 API .     49025103310000:   API NUMBER
~CURVE INFORMATION
#MNEM.UNIT       API CODE    CURVE DESCRIPTION
#----------   ------------   ------------------------------
 DEPT.F                  :   
 SPR .MV     07 010 01 00:   SPONTANEOUS POTENTIAL
 ILD .OHMM   07 120 46 00:   DEEP INDUCTION RESISTIVITY
 ILM .OHMM   07 120 44 00:   INDUCTION LOG MEDIUM RESISTIVITY
 LL8 .OHMM   07 220 08 00:   LATEROLOG-8 RES.
 CALD.IN     45 280 60 00:   CALIPER FROM DENSITY LOG
 GRD .GAPI   45 310 01 00:   GAMMA RAY FROM DENSITY LOG
 CORR.G/C3   45 356 01 00:   DENSITY CORRECTION
 RHOB.G/C3   45 350 01 00:   BULK DENSITY
~PARAMETER INFORMATION
#MNEM.UNIT          VALUE    DESCRIPTION
#----------   ------------   ------------------------------
 EKB .F         5270.0000:   Kelly bushing
 EGL .F         5260.0000:   Ground level
 TD  .F         2950.0000:   Total depth
 CLNT.            A2DTECH:   Client Code
 SL  . 205' FWL & 1115' FSL:   Surface Location
 DATE.        05-APR-1977:   Date Logged [DD-MMM-YYYY]
 DD  .F              2950:   Depth driller
 DL  .F              2948:   Depth logger
 BLI .F              2946:   Bottom log interval
 TLI .F               310:   Top log interval
 CS1 .              10.75:   Casing size
 CBD1.      10.75" @ 300':   Casing driller 1
 CBL1.IN              310:   Casing logger 1
 BS1 .IN            8.625:   Bit size
 BSD1.F              2950:   Depth drilled with bit1
 DFT .                KCL:   Type fluid in hole
 DFD .                9.0:   Density
 DFV .                 33:   Viscosity
 DFL .                  9:   Fluid loss
 MSS .            MUD PIT:   Source of sample
 RMS .OHMM          0.153:   Rm
 MST .F                60:   Rm Meas. temp.
 RMF .OHMM          0.130:   Rmf
 MFST.F                60:   Rmf Meas. temp.
 MFSS.               MEAS:   Source Rmf.
 RMC .OHMM          0.229:   Rmc
 MCST.F                60:   Rmc Meas. temp.
 MCSS.               CALC:   Source Rmc.
 RMB .OHMM           0.08:   Rm. at BHT
 BHT .F               115:   BHT.
 TCS .HRS               6:   Time Circ. stopped
 MRT .F               115:   Maximum recorded temp.
 LUN .               7689:   Logging unit number
 LUL .               CODY:   Logging unit location
 ENGI.             RASMUS:   Recorded By
 WITN.              LYONS:   Witnessed by
 ORIG.         2.5" PRINT:   Origin of data
 UWI .     49025103310000:   Unique Well ID
 DICO. A2D TECHNOLOGIES, INC.:   Digitizing Company
 PD  .                 GL:   Permanent Datum
 EPD .               5260:   Elevation Permanent Datum
 LMF .                 KB:   Log Measured From
 DMF .                 KB:   Drilling Measured From
 DAPD.                 10:   Feet Above Permanent Datum
~OTHER INFORMATION
~A   DEPT      SPR        ILD        ILM        LL8       CALD        GRD       CORR       RHOB   
# ...
  823.5000   -31.7289     5.7854     6.5411    12.6996     9.7794    87.5880     0.0144     2.4375
  824.0000   -31.4217     5.7174     6.5399    11.9145     9.7806    85.7535     0.0114     2.4203
  824.5000   -31.4086     5.7174     6.3991    11.2945     9.7698    83.8920     0.0100     2.4117
  825.0000   -31.3954     5.7174     6.3127    11.2277     9.7536    83.0155     0.0100     2.4065
  825.5000   -31.3823     5.7174     6.2275    11.2269     9.7549    81.7464     0.0085     2.4050
  826.0000   -31.3691     5.7174     6.1863    11.0736     9.7688    80.3831     0.0071     2.4057
  826.5000   -31.3560     5.7174     6.1850    11.0728     9.7865    81.1120     0.0055     2.4079
  827.0000   -31.3429     5.7962     6.3089    10.9218     9.8141    83.6628     0.0027     2.4101
  827.5000   -31.3297     5.7962     6.4317    10.9211     9.8903    84.7141     0.0010     2.4074
  828.0000   -31.6107     5.7962     6.6178    10.9203     9.9660    83.6969    -0.0032     2.4000
  828.5000   -31.5976     5.7962     6.6527    10.9196    10.0104    82.3813    -0.0032     2.3948
  829.0000   -31.5844     5.7962     6.7061    10.7706    10.0412    84.2630    -0.0032     2.3919
  829.5000   -31.5713     5.7962     6.7043    10.3373    10.0868    83.4021    -0.0015     2.3904
  830.0000   -31.8523     5.7962     6.7027    10.0579    10.0880    81.2903     0.0015     2.3911
  830.5000   -31.8391     5.7688     6.7013     9.7861    10.0892    80.6525     0.0052     2.3941
  831.0000   -32.1206     5.7174     6.6997     9.6526    10.0903    80.4174     0.0169     2.3994
  831.5000   -32.1070     5.7174     6.7228     9.7848    10.0915    79.7874     0.0224     2.4061
  832.0000   -32.3880     5.7174     6.7890     9.9188    10.1220    80.4633     0.0236     2.4104
  832.5000   -32.3748     5.7174     6.8184    10.0546    10.1232    82.5293     0.0257     2.4097
  833.0000   -32.6558     5.7174     6.7133    10.0538    10.1243    83.8798     0.0296     2.4076
  833.5000   -32.6427     5.7174     6.6219    10.1916    10.1548    84.6398     0.0200     2.4076
  834.0000   -32.6294     5.7174     6.4430    10.0525    10.1560    85.5288     0.0163     2.4084
  834.5000   -32.6162     5.7174     6.4063    10.0518    10.1571    84.2770     0.0167     2.4152
  835.0000   -32.6030     5.7174     6.3204     9.9147    10.1876    83.2209     0.0182     2.4195
  835.5000   -32.5901     5.7962     6.3213     9.7795    10.1889    83.5040     0.0174     2.4201
  836.0000   -32.8711     5.7962     6.3221     9.7788    10.1903    83.8064     0.0110     2.4181
  836.5000   -33.1795     5.7962     6.3230     9.7781    10.1914    83.3348     0.0085     2.4181
  837.0000   -33.4647     5.7962     6.3238     9.7775    10.1926    81.6390     0.0076     2.4196
  837.5000   -33.7132     5.7962     6.3247     9.7768    10.1938    78.2125     0.0081     2.4240
  838.0000   -33.7000     5.7962     6.2396     9.9107    10.1949    76.0697     0.0106     2.4270
  838.5000   -33.9809     5.7962     6.1559     9.9100    10.1961    78.1016     0.0140     2.4315
  839.0000   -34.4098     5.7962     6.1567     9.9093    10.1973    80.8866     0.0206     2.4330
  839.5000   -34.8368     5.7962     6.0740     9.7742    10.1984    82.3074     0.0251     2.4301
  840.0000   -34.9804     5.7962     6.0748     9.7735    10.1996    82.9032     0.0269     2.4257
  840.5000   -35.5597     5.7962     5.9931     9.7728    10.2008    83.7923     0.0236     2.4227
  841.0000   -35.9735     5.7962     5.9940     9.7722    10.2019    84.3881     0.0154     2.4184
  841.5000   -36.4246     5.7962     5.9948     9.7715    10.2031    84.6261     0.0107     2.4154
  842.0000   -36.7098     5.7962     5.9956     9.7708    10.2043    84.2071     0.0129     2.4155
  842.5000   -36.8162     5.7962     5.9964     9.7702    10.1761    82.9692     0.0152     2.4155
  843.0000   -36.8005     5.7962     5.9972     9.7695    10.1773    81.3519     0.0152     2.4185
  843.5000   -37.0838     5.7962     5.9980     9.7689    10.1785    80.4775     0.0152     2.4214
  844.0000   -37.0683     5.7962     5.9988     9.7682    10.1501    81.0030     0.0123     2.4244
  844.5000   -37.0552     5.7962     5.9997     9.8174    10.1515    84.3887     0.0086     2.4176
  845.0000   -37.0420     5.7962     6.0005     9.9014    10.1526    85.5572     0.0042     2.4058
  845.5000   -37.0289     5.7962     6.0013     9.9544    10.1538    85.2703     0.0012     2.3946
  846.0000   -37.3118     5.7962     6.0021    10.0361    10.1550    86.0294    -0.0002     2.3885
  846.5000   -37.2967     5.7962     6.0029    10.0354    10.1268    86.1646     0.0006     2.3896
  847.0000   -37.3608     5.7962     6.0037    10.0347    10.1279    84.9989     0.0021     2.4063
  847.5000   -37.2705     5.7962     6.0045    10.0340    10.1291    85.3885     0.0080     2.4257
  848.0000   -37.2573     5.7962     6.0054    10.0334    10.1302    86.3675     0.0154     2.4421
  848.5000   -36.9501     5.7962     6.0062    10.0327    10.1314    87.5344     0.0243     2.4533
  849.0000   -36.9369     5.7962     6.0070    10.0320    10.1326    89.4270     0.0273     2.4601
  849.5000   -36.9238     5.7962     5.9263    10.0313    10.1337    86.8019     0.0259     2.4631
  850.0000   -36.9516     5.7962     5.8466    10.0306    10.1349    85.8259     0.0185     2.4639
  850.5000   -36.9414     5.7962     5.8474    10.0299    10.1361    85.6366     0.0126     2.4564
  851.0000   -36.9326     5.7962     5.8482    10.0292    10.1372    86.2317     0.0111     2.4402
  851.5000   -36.9238     5.7962     5.8459    10.0285    10.1384    86.2390     0.0141     2.4284
  852.0000   -36.9149     5.7962     5.7704    10.1033    10.1337    86.5630     0.0145     2.4244
  852.5000   -36.9061     5.7962     5.7712    10.1651    10.1113    88.9224     0.0038     2.4383
  853.0000   -36.8974     5.7962     5.7720    10.1644    10.0832    90.1828     0.0142     2.4358
  853.5000   -36.8886     5.7962     5.7728    10.1637    10.0778    90.3739     0.0172     2.4292
  854.0000   -36.8798     5.7962     5.7735    10.1631    10.0495    90.4946     0.0083     2.4274
  854.5000   -36.8709     5.7962     5.7743    10.1622    10.0211    89.2879     0.0066     2.4349
  855.0000   -36.8621     5.7883     5.7752    10.1615     9.9927    83.2406     0.0158     2.4392
  855.5000   -36.8534     5.7174     5.7760    10.1608     9.9424    80.6612     0.0099     2.4319
  856.0000   -36.6999     5.7174     5.7768    10.1601     9.9358    81.8243     0.0040     2.4237
  856.5000   -36.5425     5.7174     5.7776    10.1595     9.9154    85.9254     0.0055     2.4370
  857.0000   -36.5337     5.7174     5.7783    10.1588     9.8872    87.3246     0.0129     2.4488
  857.5000   -36.3686     5.7174     5.7791    10.1581     9.8800    88.0474     0.0203     2.4547
  858.0000   -36.0626     5.7174     5.7799    10.1574     9.8309    89.0674     0.0159     2.4577
  858.5000   -35.7566     5.7174     5.7987    10.1567     9.8028    90.7093     0.0203     2.4577
  859.0000   -35.1574     5.7174     5.8610    10.1560     9.7948    89.9228     0.0248     2.4548
  859.5000   -34.3862     5.7324     5.8618    10.1553     9.7464    88.5675     0.0189     2.4430
  860.0000   -33.5466     5.7962     5.9433    10.2943     9.7087    88.5533     0.0056     2.4268
  860.5000   -32.3649     5.7962     5.9441    10.4353     9.6901    88.5782     0.0042     2.4018
  861.0000   -31.4764     5.7962     5.9689    10.5781     9.6812    86.8589     0.0160     2.3870
  861.5000   -30.2946     5.7962     6.0275    10.5774     9.6631    82.7474     0.0279     2.3737
  862.0000   -29.9926     5.7962     6.0549    10.0141     9.6538    80.8134     0.0279     2.3694
  862.5000   -29.1041     5.7962     6.1402     9.2252     9.6361    83.7610     0.0235     2.3710
  863.0000   -28.8021     5.7962     6.2266     9.2245     9.6080    86.1144     0.0220     2.3739
  863.5000   -27.9136     5.7962     6.2832     9.4795     9.6094    85.5274     0.0176     2.3740
