~VERSION INFORMATION
 VERS.                2.0:   CWLS LOG ASCII STANDARD - VERSION 2.0
 WRAP.                 NO:   ONE LINE PER DEPTH STEP
~WELL INFORMATION
#MNEM.UNIT      DATA TYPE    INFORMATION
#----------   ------------   ------------------------------
 STRT.F           89.5000:   START DEPTH
 STOP.F         1300.5000:   STOP DEPTH
 STEP.F            0.5000:   STEP LENGTH
 NULL.          -999.2500:   NO VALUE
 COMP.            US NAVY:   COMPANY
 WELL. US NPR 3 "S" #62-11:   WELL
 FLD .             TEAPOT:   FIELD
 LOC .      S11 T38N R78W:   LOCATION
 CNTY.            NATRONA:   COUNTY
 STAT.            WYOMING:   STATE
 CTRY. UNITED STATES OF AMERICA:   COUNTRY
 SRVC.       SCHLUMBERGER:   SERVICE COMPANY
 DATE.        20-JUL-1964:   LOGDATE
 API .     49025063660000:   API NUMBER
~CURVE INFORMATION
#MNEM.UNIT       API CODE    CURVE DESCRIPTION
#----------   ------------   ------------------------------
 DEPT.F                  :   
 CALS.IN     60 280 50 00:   CALIPER FROM SONIC LOG
 DT  .US/F   60 520 33 00:   DELTA TIME
 SPR .MV     05 010 01 00:   SPONTANEOUS POTENTIAL FROM RES.
 ASN .OHMM   05 041 16 00:   AMPLIFIED SHORT NORMAL 16"
 ILD .OHMM   05 120 46 00:   INDUCTION LOG DEEP
~PARAMETER INFORMATION
#MNEM.UNIT          VALUE    DESCRIPTION
#----------   ------------   ------------------------------
 EKB .F         5223.0000:   Kelly bushing
 EGL .F         5215.0000:   Ground level
 EDF .F            0.0000:   Drilling floor
 TD  .F         1303.0000:   Total depth
 DATE.        20-JUL-1964:   Date logged
 CLNT.            A2DTECH:   Client Code
 PD  .                 GL:   Permanent Datum
 EPD .F              5215:   Elevation Permanent Datum
 LMF .                 KB:   Log Measured From
 DMF .                 KB:   Drilling Measured From
 DAPD.F                 8:   Feet Above Permanent Datum
 DD  .F              1303:   Depth driller
 DL  .F              1300:   Depth logger
 BLI .F              1299:   Bottom log interval
 TLI .F                94:   Top log interval
 CS1 .IN            12.25:   Casing size
 CBD1.       12.25" @ 10':   Casing driller 1
 BS1 .IN               11:   Bit size
 BSD1.F              1303:   Depth drilled with bit1
 DFT .            GEL/OIL:   Type fluid in hole
 DFD .                9.8:   Density
 DFV .                 60:   Viscosity
 DFL .                 10:   Fluid loss
 MSS .           FLOWLINE:   Source of sample
 RMS .OHMM           3.13:   Rm
 MST .F                86:   Rm Meas. temp.
 RMF .OHMM           1.81:   Rmf
 MFST.F                86:   Rmf Meas. temp.
 RMC .OHMM           3.39:   Rmc
 MCST.F                86:   Rmc Meas. temp.
 MFSS.                 FP:   Source Rmf.
 MCSS.                 FP:   Source Rmc.
 TCS .HRS             2.5:   Time Circ. stopped
 LUN .               4507:   Logging unit number
 LUL .               CSPR:   Logging unit location
 ENGI.             DANNER:   Recorded By
 WITN.         JORGENESEN:   Witnessed by
 ORIG.       2", 5" PRINT:   Origin of data
 UWI .     49025063660000:   Unique Well ID
 DICO. A2D TECHNOLOGIES, INC.:   Digitizing Company
~OTHER INFORMATION
~A   DEPT     CALS         DT        SPR        ASN          ILD 
# ...
  333.5000  -999.2500  -999.2500   -47.5520     7.9670     7.6970
  334.0000  -999.2500  -999.2500   -47.8160     8.1090     7.7810
  334.5000  -999.2500  -999.2500   -47.8380     8.2300     7.6190
  335.0000  -999.2500  -999.2500   -47.5210     8.3760     7.4160
  335.5000  -999.2500  -999.2500   -47.0810     8.4740     7.2450
  336.0000  -999.2500  -999.2500   -47.0820     8.3950     7.0530
  336.5000  -999.2500  -999.2500   -47.4690     8.1940     6.8680
  337.0000  -999.2500  -999.2500   -47.0750     7.9610     6.6880
  337.5000  -999.2500  -999.2500   -46.1580     7.7330     6.4960
  338.0000  -999.2500  -999.2500   -45.9020     7.5280     6.3170
  338.5000  -999.2500  -999.2500   -45.9710     7.3190     6.2000
  339.0000  -999.2500  -999.2500   -45.9860     7.0860     6.2000
  339.5000  -999.2500  -999.2500   -46.0810     7.0020     6.3030
  340.0000  -999.2500  -999.2500   -46.1390     7.1420     6.4060
  340.5000  -999.2500  -999.2500   -46.1940     7.2890     6.4420
  341.0000  -999.2500  -999.2500   -46.2700     7.4300     6.4480
  341.5000  -999.2500  -999.2500   -46.3280     7.6050     6.4900
  342.0000  -999.2500  -999.2500   -46.3890     7.6350     6.4900
  342.5000  -999.2500  -999.2500   -46.4610     7.5280     6.3470
  343.0000  -999.2500  -999.2500   -46.5160     7.4040     6.1320
  343.5000  -999.2500  -999.2500   -46.5150     7.2730     5.9240
  344.0000  -999.2500  -999.2500   -46.5270     7.1430     5.7210
  344.5000  -999.2500  -999.2500   -46.5050     7.0140     5.5070
  345.0000  -999.2500  -999.2500   -46.3590     6.8860     5.3020
  345.5000  -999.2500  -999.2500   -46.1910     6.7530     5.2090
  346.0000  -999.2500  -999.2500   -46.0590     6.6280     5.2040
  346.5000  -999.2500  -999.2500   -45.9150     6.5160     5.2110
  347.0000  -999.2500  -999.2500   -45.7520     6.4170     5.2990
  347.5000  -999.2500  -999.2500   -45.6380     6.4210     5.4080
  348.0000  -999.2500  -999.2500   -45.5320     6.5270     5.4050
  348.5000  -999.2500  -999.2500   -45.3730     6.6250     5.3330
  349.0000  -999.2500  -999.2500   -45.3460     6.6940     5.2440
  349.5000  -999.2500  -999.2500   -45.4870     6.6970     5.1540
  350.0000  -999.2500  -999.2500   -45.6620     6.6180     5.1280
  350.5000  -999.2500  -999.2500   -45.8540     6.5310     5.1650
  351.0000  -999.2500  -999.2500   -46.0300     6.4530     5.2070
  351.5000  -999.2500  -999.2500   -46.2260     6.3660     5.2430
  352.0000  -999.2500  -999.2500   -46.3220     6.3000     5.2860
  352.5000  -999.2500  -999.2500   -46.1310     6.3010     5.3230
  353.0000  -999.2500  -999.2500   -45.9450     6.3570     5.3610
  353.5000  -999.2500  -999.2500   -46.0190     6.4100     5.4100
  354.0000  -999.2500  -999.2500   -46.2100     6.4420     5.4040
  354.5000  -999.2500  -999.2500   -46.3100     6.4540     5.3130
  355.0000  -999.2500  -999.2500   -46.1840     6.4310     5.2120
  355.5000  -999.2500  -999.2500   -45.9460     6.3670     5.1210
  356.0000  -999.2500  -999.2500   -45.7410     6.2700     5.0170
  356.5000  -999.2500  -999.2500   -45.5210     6.1430     4.9210
  357.0000  -999.2500  -999.2500   -45.3000     6.0080     4.8230
  357.5000  -999.2500  -999.2500   -45.0920     5.8930     4.7200
  358.0000  -999.2500  -999.2500   -44.8650     5.7450     4.6300
  358.5000  -999.2500  -999.2500   -44.7790     5.6150     4.5190
  359.0000  -999.2500  -999.2500   -44.9210     5.6110     4.4200
  359.5000  -999.2500  -999.2500   -45.1470     5.6490     4.4080
  360.0000  -999.2500  -999.2500   -45.3930     5.6600     4.4180
  360.5000  -999.2500  -999.2500   -45.5410     5.6830     4.4110
  361.0000  -999.2500  -999.2500   -45.4990     5.7060     4.4350
  361.5000  -999.2500  -999.2500   -45.4360     5.7120     4.4770
  362.0000  -999.2500  -999.2500   -45.3960     5.7050     4.5170
  362.5000  -999.2500  -999.2500   -45.3450     5.7230     4.5600
  363.0000  -999.2500  -999.2500   -45.3020     5.7770     4.6010
  363.5000  -999.2500  -999.2500   -45.2410     5.8310     4.6430
  364.0000  -999.2500  -999.2500   -45.2190     5.8780     4.6850
  364.5000  -999.2500  -999.2500   -45.1420     5.9060     4.7270
  365.0000  -999.2500  -999.2500   -44.9930     5.9110     4.7680
  365.5000  -999.2500  -999.2500   -45.0030     5.9250     4.8100
  366.0000  -999.2500  -999.2500   -45.1020     5.9600     4.8520
  366.5000  -999.2500  -999.2500   -45.1550     5.9990     4.8930
  367.0000  -999.2500  -999.2500   -45.2210     6.0340     4.9360
  367.5000  -999.2500  -999.2500   -45.3020     6.0700     4.9770
  368.0000  -999.2500  -999.2500   -45.3470     6.1060     5.0190
  368.5000  -999.2500  -999.2500   -45.2910     6.1410     5.0620
  369.0000  -999.2500  -999.2500   -45.1970     6.1790     5.1010
  369.5000  -999.2500  -999.2500   -45.1430     6.2090     5.1460
  370.0000  -999.2500  -999.2500   -45.0500     6.2300     5.1870
  370.5000  -999.2500  -999.2500   -44.9800     6.2500     5.2250
  371.0000  -999.2500  -999.2500   -45.0470     6.2720     5.2770
  371.5000  -999.2500  -999.2500   -45.1600     6.3160     5.2990
  372.0000  -999.2500  -999.2500   -45.2560     6.3860     5.3220
  372.5000  -999.2500  -999.2500   -45.3580     6.4510     5.3610
  373.0000  -999.2500  -999.2500   -45.4620     6.5200     5.3270
  373.5000  -999.2500  -999.2500   -45.5500     6.5930     5.2530
  374.0000  -999.2500  -999.2500   -45.5540     6.6090     5.2050
  374.5000  -999.2500  -999.2500   -45.4390     6.5330     5.1470
  375.0000  -999.2500  -999.2500   -45.2720     6.3640     5.0040
  375.5000  -999.2500  -999.2500   -45.0980     6.2190     4.7040
  376.0000  -999.2500  -999.2500   -44.9310     5.9930     4.3350
  376.5000  -999.2500  -999.2500   -44.7700     5.4200     3.9980
  377.0000  -999.2500  -999.2500   -44.5990     4.8550     3.6270
  377.5000  -999.2500  -999.2500   -44.4380     4.6510     3.3240
  378.0000    11.1630  -999.2500   -44.2740     4.5010     3.3170
  378.5000    11.1660  -999.2500   -44.1790     4.4820     3.4970
  379.0000    11.1840  -999.2500   -44.2220     4.6780     3.6590
  379.5000    11.2020  -999.2500   -44.1680     4.8660     3.8060
  380.0000    11.2060  -999.2500   -44.2160     5.0740     4.0220
  380.5000    11.2170  -999.2500   -44.5720     5.3280     4.3320
  381.0000    11.2120  -999.2500   -44.6660     5.5700     4.6430
  381.5000    11.2070  -999.2500   -44.8070     5.8260     4.9560
  382.0000    11.2010  -999.2500   -45.1730     6.0690     5.2790
  382.5000    11.1960  -999.2500   -46.5050     6.2750     5.5610
  383.0000    11.1900  -999.2500   -50.2750     6.4410     5.9280
  383.5000    11.1840  -999.2500   -52.5450     6.5440     6.2610
  384.0000    11.1790  -999.2500   -49.8800     6.6310     6.4460
  384.5000    11.1730  -999.2500   -46.0500     6.6920     6.6630
  385.0000    11.1670  -999.2500   -44.0420     6.7640     6.8120
  385.5000    11.1630  -999.2500   -44.0350     6.9310     6.8720
  386.0000    11.1630  -999.2500   -44.9970     7.0910     6.9980
  386.5000    11.1740  -999.2500   -45.1980     7.2220     7.0990
  387.0000    11.1880  -999.2500   -45.1160     7.2750     7.0980
  387.5000    11.2020  -999.2500   -45.1690     7.1930     6.9500
  388.0000    11.2170  -999.2500   -45.0240     7.0780     6.6690
  388.5000    11.2310  -999.2500   -44.9710     6.9320     6.3850
  389.0000    11.2450  -999.2500   -44.8820     6.8230     6.1100
  389.5000    11.2590  -999.2500   -44.7810     6.7040     5.8240
  390.0000    11.2600  -999.2500   -44.7760     6.4310     5.5490
  390.5000    11.2330  -999.2500   -44.7670     6.1820     5.2640
  391.0000    11.2010  -999.2500   -44.6980     5.9970     4.9850
  391.5000    11.2020  -999.2500   -44.5160     5.8680     4.7080
  392.0000    11.1950  -999.2500   -44.4810     5.7400     4.4170
  392.5000    11.1890  -999.2500   -44.8330     5.4630     4.1540
  393.0000    11.1830  -999.2500   -45.6380     5.1840     3.8510
  393.5000    11.1770  -999.2500   -46.0150     4.9160     3.5310
  394.0000    11.1700  -999.2500   -44.9990     4.6470     3.4100
