~VERSION INFORMATION
 VERS.                2.0:   CWLS LOG ASCII STANDARD - VERSION 2.0
 WRAP.                 NO:   ONE LINE PER DEPTH STEP
~WELL INFORMATION
#MNEM.UNIT      DATA TYPE    INFORMATION
#----------   ------------   ------------------------------
 STRT.F          728.0000:   START DEPTH
 STOP.F         3296.0000:   STOP DEPTH
 STEP.F            0.5000:   STEP LENGTH
 NULL.          -999.2500:   NO VALUE
 COMP.    FENIX & SCISSON:   COMPANY
 WELL. FENIX TX "AX" #55-34:   WELL
 FLD . N. P. R. - WILDCAT:   FIELD
 LOC .      S34 T39N R78W:   LOCATION
 CNTY.            NATRONA:   COUNTY
 STAT.            WYOMING:   STATE
 CTRY. UNITED STATES OF AMERICA:   COUNTRY
 SRVC.       SCHLUMBERGER:   SERVICE COMPANY
 DATE.        22-JUL-1981:   LOGDATE
 API .     49025108770000:   API NUMBER
~CURVE INFORMATION
#MNEM.UNIT       API CODE    CURVE DESCRIPTION
#----------   ------------   ------------------------------
 DEPT.F                  :   
 TENS.LBS    60 635 01 00:   TENSION FROM SONIC LOG
 DT  .US/F   60 520 00 00:   DELTA TIME
 RHOB.G/C3   45 350 01 00:   BULK DENSITY
 TEND.LBS    45 635 01 00:   TENSION FROM DENSITY LOG
 CORR.G/C3   45 356 01 00:   DENSITY CORRECTION
 CALD.IN     45 280 60 00:   CALIPER FROM DENSITY LOG
 NPHI.DEC    42 890 03 00:   NEUTRON POROSITY SANDSTONE
 TENR.LBS    07 635 01 00:   TENSION FROM RESISTIVITY
 SPR .MV     07 010 01 00:   SPONTANEOUS POTENTIAL
 GRR .GAPI   07 310 01 00:   GAMMA RAY FROM RESISTIVITY
 SFL .OHMM   07 220 01 00:   SHALLOW FOCUSED LOG RESISTIVITY
 ILM .OHMM   07 120 44 00:   INDUCTION LOG MEDIUM RESISTIVITY
 ILD .OHMM   07 120 46 00:   DEEP INDUCTION RESISTIVITY
~PARAMETER INFORMATION
#MNEM.UNIT          VALUE    DESCRIPTION
#----------   ------------   ------------------------------
 EKB .F         5092.0000:   Kelly bushing
 EGL .F         5082.0000:   Ground level
 EDF .F            0.0000:   Drilling floor
 TD  .F         3170.0000:   Total depth
 DATE.        22-JUL-1981:   Date logged
 CLNT.            A2DTECH:   Client Code
 SL  . 2012' FSL & 2774' FWL:   Surface Location
 PD  .                 GL:   Permanent Datum
 EPD .F              5082:   Elevation Permanent Datum
 LMF .                 KB:   Log Measured From
 DMF .                 KB:   Drilling Measured From
 DAPD.F                10:   Feet Above Permanent Datum
 DD  .F              3170:   Depth driller
 DL  .F              3110:   Depth logger
 BLI .F              3104:   Bottom log interval
 TLI .F               753:   Top log interval
 CS1 .IN            9.625:   Casing size
 CBD1.      9.625" @ 751':   Casing driller 1
 CBL1.F               753:   Casing logger 1
 BS1 .IN            7.875:   Bit size
 BSD1.F              3170:   Depth drilled with bit1
 DFT .                FGM:   Type fluid in hole
 DFD .                  9:   Density
 DFV .                  9:   Viscosity
 DFPH.                9.8:   pH
 DFL .                8.6:   Fluid loss
 MSS .           MUD/TANK:   Source of sample
 RMS .OHMM           1.72:   Rm
 MST .F                72:   Rm Meas. temp.
 RMF .OHMM           1.17:   Rmf
 MFST.F                70:   Rmf Meas. temp.
 MFSS.               MEAS:   Source Rmf.
 RMB .OHMM           0.90:   Rm. at BHT
 BHT .F               144:   BHT.
 TCS .HRS            1215:   Time Circ. stopped
 TLAB.HRS            0400:   Time logger at bottom
 MRT .F               144:   Maximum recorded temp.
 LUN .               8035:   Logging unit number
 LUL .               CSPR:   Logging unit location
 ENGI.            PURPICH:   Recorded By
 WITN.           R. SCOTT:   Witnessed by
 ORIG.           5" PRINT:   Origin of data
 UWI .     49025108770000:   Unique Well ID
 DICO. A2D TECHNOLOGIES, INC.:   Digitizing Company
~OTHER INFORMATION
~A   DEPT     TENS         DT         RHOB      TEND      CORR       CALD         NPHI     TENR        SPR         GRR       SFL        ILM        ILD   
# ...
 1690.0000  -999.2500  -999.2500     2.5340   985.2960     0.0430     7.7870     0.3170   575.9810   -65.9250   119.3720     6.2300     5.6120     6.0090
 1690.5000  -999.2500  -999.2500     2.5230   984.4290     0.0310     7.7870     0.3090   576.0500   -65.7070   117.6640     6.2100     5.5520     5.9450
 1691.0000  -999.2500  -999.2500     2.5320   983.5620     0.0340     7.7870     0.3000   576.1180   -65.5940   115.8140     6.2630     5.5110     5.8770
 1691.5000  -999.2500  -999.2500     2.5390   982.6950     0.0410     7.7870     0.2900   576.1870   -65.5940   113.9830     6.3390     5.6250     5.9460
 1692.0000  -999.2500  -999.2500     2.5420   981.8280     0.0400     7.7870     0.2930   576.2560   -65.5940   112.1580     6.4420     5.6650     6.0410
 1692.5000  -999.2500  -999.2500     2.5430   980.9610     0.0380     7.7880     0.2980   576.3240   -65.5950   110.3440     6.4420     5.5340     5.9390
 1693.0000  -999.2500  -999.2500     2.5480   980.0940     0.0410     7.7770     0.3150   576.3930   -65.5950   109.3800     6.2040     5.4410     5.8400
 1693.5000  -999.2500  -999.2500     2.5530   979.2270     0.0450     7.7480     0.3390   576.4610   -65.5950   108.9800     6.0150     5.3620     5.7410
 1694.0000  -999.2500  -999.2500     2.5590   978.3600     0.0500     7.7490     0.2990   576.5300   -65.5950   108.9600     5.8270     5.3620     5.7170
 1694.5000  -999.2500  -999.2500     2.5620   977.4930     0.0510     7.7490     0.2970   576.5980   -65.5950   108.9490     5.7170     5.3620     5.7170
 1695.0000  -999.2500  -999.2500     2.5570   976.6260     0.0380     7.7510     0.2870   576.6670   -65.5950   110.0700     6.1630     5.4370     5.7610
 1695.5000  -999.2500  -999.2500     2.5450   975.7590     0.0260     7.7520     0.2790   576.7360   -65.5950   111.7550     6.6900     5.5250     5.8560
 1696.0000  -999.2500  -999.2500     2.5340   974.8920     0.0130     7.7530     0.2850   576.8040   -65.5950   113.4200     6.9960     5.6140     5.9500
 1696.5000  -999.2500  -999.2500     2.5240   974.0250     0.0060     7.7540     0.2910   576.8730   -65.5950   115.0860     6.8060     5.7030     6.0450
 1697.0000  -999.2500  -999.2500     2.5250   973.1580     0.0100     7.7550     0.2990   576.9410   -65.5950   116.7590     6.5600     5.7920     6.1390
 1697.5000  -999.2500  -999.2500     2.5280   972.2910     0.0150     7.7560     0.3040   577.0100   -65.5960   118.4390     6.3830     5.8800     6.2340
 1698.0000  -999.2500  -999.2500     2.5330   971.4240     0.0190     7.7580     0.3010   577.0780   -65.5600   119.9000     6.5330     5.9690     6.3290
 1698.5000  -999.2500  -999.2500     2.5340   970.5570     0.0240     7.7590     0.2990   577.1470   -65.2700   117.1990     6.7830     6.0580     6.4230
 1699.0000  -999.2500  -999.2500     2.5320   969.6900     0.0230     7.7600     0.3040   577.2160   -64.9780   113.6300     7.0330     6.1460     6.5180
 1699.5000  -999.2500  -999.2500     2.5260   968.8230     0.0180     7.7610     0.3120   577.2840   -64.6870   109.9750     7.1260     6.2350     6.6120
 1700.0000  -999.2500  -999.2500     2.5250   967.9560     0.0140     7.7620     0.3190   577.3530   -64.3950   107.1850     7.0730     6.3240     6.7070
 1700.5000  -999.2500  -999.2500     2.5280   967.0890     0.0090     7.7630     0.3100   577.4210   -64.0860   109.3520     6.9950     6.4120     6.8020
 1701.0000  -999.2500  -999.2500     2.5300   966.2220     0.0070     7.7640     0.2960   577.4900   -64.4210   109.0360     6.9320     6.5010     6.8960
 1701.5000  -999.2500  -999.2500     2.5370   965.3550     0.0070     7.7660     0.2890   577.5580   -65.0270   108.5080     6.9320     6.5900     6.9910
 1702.0000  -999.2500  -999.2500     2.5420   964.4880     0.0120     7.7670     0.2840   577.6270   -66.0800   107.9530     7.2680     6.6790     7.0850
 1702.5000  -999.2500  -999.2500     2.5470   963.6210     0.0170     7.7680     0.2850   577.6960   -66.3400   108.4720     7.7110     6.7670     7.1800
 1703.0000  -999.2500  -999.2500     2.5460   962.7540     0.0200     7.7690     0.2870   577.7640   -66.2980   109.7990     8.1540     6.8690     7.2790
 1703.5000  -999.2500  -999.2500     2.5430   961.8870     0.0190     7.7700     0.2900   577.8330   -66.2500   111.1370     8.3280     7.0610     7.4600
 1704.0000  -999.2500  -999.2500     2.5550   961.0200     0.0240     7.7710     0.2900   577.9010   -66.2030   112.4730     8.1370     7.1910     7.5980
 1704.5000  -999.2500  -999.2500     2.5780   960.1530     0.0290     7.7730     0.2890   577.9700   -66.1570   113.5070     7.9820     7.2580     7.7390
 1705.0000  -999.2500  -999.2500     2.5960   959.2860     0.0330     7.7740     0.2850   578.0380   -66.1100   111.9190     7.8820     7.2510     7.7390
 1705.5000  -999.2500  -999.2500     2.5800   958.4190     0.0250     7.7750     0.2840   578.1070   -66.0630   110.3090     7.8100     7.2100     7.7050
 1706.0000  -999.2500  -999.2500     2.5620   957.5520     0.0130     7.7760     0.2850   578.1760   -66.0180   110.6820     7.8100     7.1700     7.6620
 1706.5000  -999.2500  -999.2500     2.5520   956.6850     0.0020     7.7770     0.2920   578.2440   -66.0300   112.3110     7.8100     7.1300     7.6190
 1707.0000  -999.2500  -999.2500     2.5440   955.8180     0.0030     7.7780     0.3000   578.3130   -66.2310   117.2500     7.8100     7.0890     7.5760
 1707.5000  -999.2500  -999.2500     2.5350   954.9510     0.0050     7.7800     0.2980   578.3810   -66.4210   120.9740     7.8100     7.0490     7.5330
 1708.0000  -999.2500  -999.2500     2.5340   954.0840     0.0080     7.7810     0.2950   578.4500   -66.5660   122.2580     7.8100     7.0090     7.4900
 1708.5000  -999.2500  -999.2500     2.5420   953.2170     0.0090     7.7820     0.2910   578.5180   -66.5280   121.4700     7.8110     6.9960     7.4600
 1709.0000  -999.2500  -999.2500     2.5480   952.3500     0.0090     7.7830     0.2920   578.5870   -66.4940   119.7040     7.8120     6.9960     7.4600
 1709.5000  -999.2500  -999.2500     2.5600   951.4170     0.0140     7.7840     0.2940   578.6560   -66.4590   117.8600     7.8060     6.9960     7.4600
 1710.0000  -999.2500  -999.2500     2.5740   951.4170     0.0290     7.7850     0.2910   578.7240   -66.4250   116.0120     8.0270     7.0060     7.4660
 1710.5000  -999.2500  -999.2500     2.5880   951.4170     0.0440     7.7870     0.2880   578.7930   -66.3930   114.1690     8.2030     7.0170     7.4780
 1711.0000  -999.2500  -999.2500     2.5980   951.4170     0.0600     7.7880     0.2870   578.8610   -66.4270   112.3260     8.4050     7.0290     7.4900
 1711.5000  -999.2500  -999.2500     2.5790   951.4170     0.0520     7.7890     0.2890   578.9300   -66.5340   110.4970     8.3420     7.0410     7.5030
 1712.0000  -999.2500  -999.2500     2.5600   951.4170     0.0300     7.7900     0.2970   578.9980   -66.6420   109.1770     8.2340     7.0520     7.5150
 1712.5000  -999.2500  -999.2500     2.5660   951.4170     0.0340     7.7910     0.3010   579.0670   -66.7510   108.7510     8.1770     7.0650     7.5290
 1713.0000  -999.2500  -999.2500     2.5810   951.4170     0.0370     7.7920     0.2960   579.1360   -66.7250   108.2720     8.1770     7.0840     7.5460
 1713.5000  -999.2500  -999.2500     2.5990   951.4170     0.0410     7.7930     0.2900   579.2040   -66.6790   109.2990     8.2520     7.1020     7.5650
 1714.0000  -999.2500  -999.2500     2.5830   951.4170     0.0410     7.7950     0.2840   579.2730   -66.6330   110.8520     8.3280     7.1200     7.5850
 1714.5000  -999.2500  -999.2500     2.5620   951.4170     0.0270     7.7960     0.2790   579.3410   -66.5870   112.3910     8.5610     7.1380     7.6040
 1715.0000  -999.2500  -999.2500     2.5500   951.4170     0.0210     7.7970     0.2850   579.4100   -66.5420   112.3270     8.4290     7.1560     7.6230
 1715.5000  -999.2500  -999.2500     2.5510   951.4170     0.0190     7.7980     0.2900   579.4780   -66.4960   110.2900     8.2820     7.1740     7.6420
