~VERSION INFORMATION
 VERS.                2.0:   CWLS LOG ASCII STANDARD - VERSION 2.0
 WRAP.                 NO:   ONE LINE PER DEPTH STEP
~WELL INFORMATION
#MNEM.UNIT      DATA TYPE    INFORMATION
#----------   ------------   ------------------------------
 STRT.F          620.0000:   START DEPTH
 STOP.F         4350.5000:   STOP DEPTH
 STEP.F            0.5000:   STEP LENGTH
 NULL.          -999.2500:   NO VALUE
 COMP.    FENIX & SCISSON:   COMPANY
 WELL. FENIX NPR 3 "LX" #25-10:   WELL
 FLD .                NPR:   FIELD
 LOC .      S10 T38N R78W:   LOCATION
 CNTY.            NATRONA:   COUNTY
 STAT.            WYOMING:   STATE
 CTRY. UNITED STATES OF AMERICA:   COUNTRY
 SRVC.              WELEX:   SERVICE COMPANY
 DATE.        06-MAR-1980:   LOGDATE
 API .     49025108070000:   API NUMBER
~CURVE INFORMATION
#MNEM.UNIT       API CODE    CURVE DESCRIPTION
#----------   ------------   ------------------------------
 DEPT.F                  :   
 CALD.IN     45 280 60 00:   CALIPER FROM DENSITY LOG
 GRD .GAPI   45 310 01 00:   GAMMA RAY FROM DENSITY LOG
 RHOB.G/C3   45 350 01 00:   BULK DENSITY
 CORR.G/C3   45 356 01 00:   DENSITY CORRECTION
 NPHI.DEC    42 890 03 00:   NEUTRON POROSITY SANDSTONE
 SPR .MV     07 010 01 00:   SPONTANEOUS POTENTIAL
 ILD .OHMM   07 120 46 00:   DEEP INDUCTION RESISTIVITY
 ILM .OHMM   07 120 44 00:   INDUCTION LOG MEDIUM RESISTIVITY
 SGRD.OHMM   07 220 05 00:   SHALLOW SHORT GUARD RESISTIVITY
~PARAMETER INFORMATION
#MNEM.UNIT          VALUE    DESCRIPTION
#----------   ------------   ------------------------------
 EKB .F         5247.0000:   Kelly bushing
 EGL .F         5237.0000:   Ground level
 EDF .F            0.0000:   Drilling floor
 TD  .F         4352.0000:   Total depth
 DATE.        06-MAR-1980:   Date logged
 CLNT.            A2DTECH:   Client Code
 SL  . 1075' FWL & 2450' FSL:   Surface Location
 PD  .                 GL:   Permanent Datum
 EPD .F              5237:   Elevation Permanent Datum
 LMF .                 KB:   Log Measured From
 DMF .                 KB:   Drilling Measured From
 DAPD.F                10:   Feet Above Permanent Datum
 DD  .F              4350:   Depth driller
 DL  .F              4352:   Depth logger
 BLI .F              4350:   Bottom log interval
 TLI .F               630:   Top log interval
 CS1 .IN            8.625:   Casing size
 CBD1.      8.625" @ 600':   Casing driller 1
 CBL1.F               632:   Casing logger 1
 BS1 .IN            7.875:   Bit size
 BSD1.F              4350:   Depth drilled with bit1
 DFT .           CHEM/GEL:   Type fluid in hole
 DFD .                8.9:   Density
 DFV .                 47:   Viscosity
 DFPH.               10.3:   pH
 DFL .                 10:   Fluid loss
 MSS .           FLOWLINE:   Source of sample
 RMS .OHMM            .89:   Rm
 MST .F                90:   Rm Meas. temp.
 RMF .OHMM            .71:   Rmf
 MFST.F                90:   Rmf Meas. temp.
 RMC .OHMM           1.06:   Rmc
 MCST.F                90:   Rmc Meas. temp.
 MFSS.               MEAS:   Source Rmf.
 MCSS.               MEAS:   Source Rmc.
 RMB .OHMM            .60:   Rm. at BHT
 BHT .F               112:   BHT.
 TCS .HRS               1:   Time Circ. stopped
 MRT .F               132:   Maximum recorded temp.
 LUN .               1892:   Logging unit number
 LUL .             CASPER:   Logging unit location
 ENGI.               REIN:   Recorded By
 WITN.           DINSMORE:   Witnessed by
 ORIG.           5" PRINT:   Origin of data
 UWI .     49025108070000:   Unique Well ID
 DICO. A2D TECHNOLOGIES, INC.:   Digitizing Company
~OTHER INFORMATION
~A   DEPT     CALD        GRD       RHOB       CORR       NPHI         SPR       ILD        ILM         SGRD 
# ...
 3065.5000    11.9850    98.6840     2.1580    -0.0450     0.1510   -27.8760     5.3700     6.2520     6.5510
 3066.0000    11.9750    99.0850     2.1430    -0.0410     0.1530   -27.7570     5.3520     6.2520     6.6650
 3066.5000    11.9800    99.4300     2.1230    -0.0370     0.1520   -27.7210     5.3350     6.3710     6.8560
 3067.0000    11.9980   100.4490     2.1030    -0.0340     0.1510   -27.8790     5.3180     6.6080     6.7720
 3067.5000    12.0130   102.7130     2.0700    -0.0270     0.1490   -28.0320     5.3000     6.2570     6.5180
 3068.0000    12.0410   104.9360     2.0280    -0.0170     0.1480   -28.1880     5.1160     5.8790     6.2630
 3068.5000    12.0650   107.1600     2.0030    -0.0150     0.1490   -28.3460     4.8670     5.5010     6.1380
 3069.0000    12.0900   109.4490     1.9910    -0.0260     0.1530   -28.5010     4.6180     5.1230     5.6460
 3069.5000    12.1160   111.6510     1.9550    -0.0360     0.1590   -28.6520     4.3690     4.7440     5.2020
 3070.0000    12.1520   113.6920     1.9320    -0.0500     0.1690   -28.8240     4.0890     4.3660     4.7570
 3070.5000    12.2070   111.9480     1.8950    -0.0640     0.1740   -28.7790     3.9850     3.9880     4.3130
 3071.0000    12.2700   108.8340     1.9050    -0.0920     0.1750   -28.5970     3.8670     3.6100     4.0210
 3071.5000    12.2530   104.9610     1.9620    -0.0990     0.1730   -28.4340     3.7490     3.1000     3.7290
 3072.0000    12.1720   100.1320     2.2080    -0.0940     0.1720   -28.2700     3.6820     3.4210     4.4140
 3072.5000    12.0940    95.1180     2.1990    -0.0790     0.1680   -28.1050     3.7690     3.9110     5.4640
 3073.0000    12.0360    92.7190     2.2070    -0.0690     0.1620   -27.9430     3.8560     4.2670     6.5130
 3073.5000    12.0070    94.1720     2.2010    -0.0740     0.1550   -27.7640     3.9410     4.5470     7.1140
 3074.0000    11.9740    94.2660     2.1930    -0.0800     0.1470   -27.6940     4.2200     4.8260     7.2070
 3074.5000    11.9720    93.9700     2.1880    -0.0850     0.1410   -27.7690     4.4920     5.1030     7.2970
 3075.0000    11.9720    93.7250     2.1840    -0.0910     0.1320   -27.8270     4.7640     5.3470     7.3870
 3075.5000    11.9720    92.7220     2.1880    -0.0940     0.1320   -27.8880     5.0370     5.5880     7.4770
 3076.0000    11.9720    91.8050     2.1920    -0.0950     0.1320   -27.9510     5.3090     5.8290     7.5670
 3076.5000    11.9720    90.9250     2.1930    -0.0930     0.1280   -28.0120     5.5810     6.0710     7.6590
 3077.0000    11.9720    91.1840     2.1890    -0.0910     0.1240   -28.0760     5.8070     6.3120     7.6590
 3077.5000    11.9720    91.5080     2.1860    -0.0890     0.1210   -28.1320     6.0780     6.4210     7.7190
 3078.0000    11.9730    91.7930     2.1800    -0.0880     0.1190   -28.2060     6.3100     6.4910     7.7960
 3078.5000    11.9820    92.6110     2.1740    -0.0890     0.1200   -28.2630     6.3680     6.5600     7.8730
 3079.0000    11.9910    93.8470     2.1730    -0.0900     0.1210   -28.6430     6.3680     6.6290     7.9500
 3079.5000    12.0010    94.9850     2.1720    -0.0920     0.1180   -29.1840     6.3680     6.7310     8.0280
 3080.0000    12.0100    96.1110     2.1740    -0.0930     0.1160   -29.4650     6.3680     6.7220     8.0960
 3080.5000    12.0200    97.3440     2.1760    -0.0940     0.1160   -29.3420     6.3680     6.7050     7.9720
 3081.0000    12.0290    97.9800     2.1790    -0.0960     0.1160   -29.2710     6.3680     6.6880     7.8620
 3081.5000    12.0390    97.7480     2.1830    -0.0940     0.1170   -29.1900     6.3680     6.6710     7.7520
 3082.0000    12.0480    97.1650     2.1860    -0.0910     0.1200   -29.1040     6.3680     6.6540     7.6430
 3082.5000    12.0540    96.5800     2.1840    -0.0880     0.1210   -29.0240     6.3680     6.6370     7.5190
 3083.0000    12.0570    95.9640     2.1790    -0.0850     0.1190   -28.9400     6.3680     6.6120     7.7330
 3083.5000    12.0610    95.4410     2.1710    -0.0830     0.1160   -28.8580     6.3690     6.6750     7.9750
 3084.0000    12.0640    95.0700     2.1550    -0.0800     0.1150   -28.7760     6.3690     6.9260     8.2180
 3084.5000    12.0680    94.8190     2.1350    -0.0840     0.1150   -28.6930     6.3680     7.1230     8.4000
 3085.0000    12.0710    94.6340     2.1140    -0.0890     0.1160   -28.6110     6.3690     7.1600     8.4000
 3085.5000    12.0740    94.3990     2.0930    -0.0940     0.1180   -28.5290     6.3690     7.1960     8.4000
 3086.0000    12.0780    94.8190     2.0710    -0.0990     0.1190   -28.4450     6.3680     7.2470     8.0740
 3086.5000    12.0810    96.0710     2.0530    -0.0910     0.1220   -28.3660     6.3740     6.8560     7.6820
 3087.0000    12.0850    96.4320     2.0260    -0.0840     0.1270   -28.2800     6.2910     6.6190     7.2890
 3087.5000    12.0880    96.8830     2.0100    -0.0730     0.1310   -28.2750     6.1040     6.3270     6.8970
 3088.0000    12.0920    97.1960     2.0050    -0.0620     0.1350   -28.2730     5.9150     6.0350     6.5040
 3088.5000    12.1040    99.4960     1.9920    -0.0500     0.1380   -28.2740     5.5000     5.6690     6.1120
 3089.0000    12.1150   102.7960     1.9760    -0.0390     0.1400   -28.2740     5.0810     5.2520     5.7200
 3089.5000    12.1240   105.7740     1.9460    -0.0280     0.1440   -28.2740     4.6620     4.8340     5.3940
 3090.0000    12.1580   110.7170     1.9100    -0.0160     0.1480   -28.2740     4.2430     4.3900     4.6920
 3090.5000    12.2110   118.1540     1.8700    -0.0110     0.1530   -28.2740     3.8240     3.9000     4.0930
 3091.0000    12.2730   121.6020     1.8380    -0.0230     0.1570   -28.2740     3.4050     3.4100     3.4930
 3091.5000    12.3170   118.2490     1.9230    -0.0350     0.1510   -28.2740     3.0440     2.9200     3.0640
 3092.0000    12.3520   109.7330     1.9160    -0.0470     0.1400   -28.2740     3.0050     2.3940     3.2640
 3092.5000    12.1000   100.9460     2.1830    -0.0570     0.1280   -28.2740     2.9710     2.4730     3.5940
 3093.0000    12.0950    93.5070     2.1750    -0.0620     0.1150   -28.2740     2.9330     2.6830     4.6020
 3093.5000    12.0800    85.8760     2.2040    -0.0630     0.1020   -28.2740     2.9880     3.1660     5.5010
 3094.0000    12.0830    86.4830     2.1980    -0.0610     0.1020   -28.2740     3.1460     3.6490     6.4000
 3094.5000    12.0780    86.7220     2.1930    -0.0610     0.1070   -28.2740     3.2770     4.0890     6.9010
 3095.0000    12.0750    87.5630     2.1890    -0.0640     0.1110   -28.2740     3.7440     4.5530     6.9930
 3095.5000    12.0720    87.5150     2.1890    -0.0670     0.1160   -28.2740     4.1740     4.9790     7.1140
 3096.0000    12.0680    86.4500     2.1900    -0.0670     0.1200   -28.2740     4.6030     5.4050     6.9790
 3096.5000    12.0650    86.4530     2.1840    -0.0650     0.1230   -28.2740     5.0330     5.8070     6.7770
 3097.0000    12.0620    87.9100     2.1750    -0.0630     0.1250   -28.2740     5.4620     5.8070     6.5760
 3097.5000    12.0580    89.2690     2.1690    -0.0610     0.1260   -28.2740     5.7010     5.8070     6.3740
 3098.0000    12.0550    90.5830     2.1550    -0.0590     0.1260   -28.2740     5.5420     5.8070     6.1380
 3098.5000    12.0520    92.0410     2.1400    -0.0580     0.1280   -28.2740     5.3940     5.8070     6.0250
 3099.0000    12.0520    92.7780     2.1250    -0.0570     0.1310   -28.2740     5.2660     5.6350     5.8890
 3099.5000    12.0520    94.6480     2.1070    -0.0560     0.1380   -28.2740     5.0610     5.4670     5.7560
 3100.0000    12.0520    96.5680     2.0880    -0.0540     0.1440   -28.2740     4.8550     5.2980     5.5970
 3100.5000    12.0520    98.9410     2.0370    -0.0530     0.1510   -28.2740     4.6490     5.0780     5.5100
 3101.0000    12.0520   101.7210     2.0230    -0.0520     0.1560   -28.2740     4.4440     4.7800     5.2940
 3101.5000    12.0520   104.5810     1.9780    -0.0530     0.1600   -28.2730     4.2430     4.4810     5.0790
