~VERSION INFORMATION
 VERS.                2.0:   CWLS LOG ASCII STANDARD - VERSION 2.0
 WRAP.                 NO:   ONE LINE PER DEPTH STEP
~WELL INFORMATION
#MNEM.UNIT      DATA TYPE    INFORMATION
#----------   ------------   ------------------------------
 STRT.F          204.0000:   START DEPTH
 STOP.F         3040.0000:   STOP DEPTH
 STEP.F            0.5000:   STEP LENGTH
 NULL.          -999.2500:   NO VALUE
 COMP.    FENIX & SCISSON:   COMPANY
 WELL.   FENIX "A" #47-21:   WELL
 FLD .            N P R 3:   FIELD
 LOC .      S21 T39N R78W:   LOCATION
 CNTY.            NATRONA:   COUNTY
 STAT.            WYOMING:   STATE
 CTRY. UNITED STATES OF AMERICA:   COUNTRY
 SRVC.              WELEX:   SERVICE COMPANY
 DATE.        20-JUN-1977:   LOGDATE
 API .     49025103820000:   API NUMBER
~CURVE INFORMATION
#MNEM.UNIT       API CODE    CURVE DESCRIPTION
#----------   ------------   ------------------------------
 DEPT.F                  :   
 SPR .MV     07 010 01 00:   SPONTANEOUS POTENTIAL
 ILM .OHMM   07 120 44 00:   INDUCTION LOG MEDIUM RESISTIVITY
 ILD .OHMM   07 120 46 00:   DEEP INDUCTION RESISTIVITY
 SGRD.OHMM   07 220 05 00:   SHALLOW GUARD LOG RESISTIVITY
 GRD .GAPI   45 310 01 00:   GAMMA RAY FROM DENSITY LOG
 CALD.IN     45 280 60 00:   CALIPER FROM DENSITY LOG
 RHOB.G/C3   45 350 01 00:   BULK DENSITY
 CORR.G/C3   45 356 01 00:   DENSITY CORRECTION
~PARAMETER INFORMATION
#MNEM.UNIT          VALUE    DESCRIPTION
#----------   ------------   ------------------------------
 EKB .F         5010.0000:   Kelly bushing
 EGL .F         5000.0000:   Ground level
 EDF .F            0.0000:   Drilling floor
 TD  .F         3050.0000:   Total depth
 DATE.        20-JUN-1977:   Date logged
 CLNT.            A2DTECH:   Client Code
 SL  . 990' FSL & 2310' FWL:   Surface Location
 PD  .                 GL:   Permanent Datum
 DD  .F              3050:   Depth driller
 DL  .F              3039:   Depth logger
 BLI .F              3037:   Bottom log interval
 CS1 .IN            8.625:   Casing size
 CBD1.      8.625" @ 210':   Casing driller 1
 CBL1.F               215:   Casing logger 1
 BS1 .IN            7.875:   Bit size
 DFT .                KCL:   Type fluid in hole
 DFD .                9.3:   Density
 DFV .                 35:   Viscosity
 DFPH.                7.5:   pH
 DFL .                7.2:   Fluid loss
 MSS .             MUDPIT:   Source of sample
 RMS .OHMM            .22:   Rm
 MST .F                80:   Rm Meas. temp.
 RMF .OHMM            .19:   Rmf
 MFST.F                80:   Rmf Meas. temp.
 RMC .OHMM            .35:   Rmc
 MCST.F                80:   Rmc Meas. temp.
 MFSS.               MEAS:   Source Rmf.
 RMB .OHMM            .15:   Rm. at BHT
 BHT .F               111:   BHT.
 TCS .HRS               4:   Time Circ. stopped
 MRT .F               111:   Maximum recorded temp.
 LUN .               8766:   Logging unit number
 LUL .             CAPSER:   Logging unit location
 ENGI.          T. JOYNER:   Recorded By
 WITN.         PETTINGILL:   Witnessed by
 ORIG.           5" PRINT:   Origin of data
 UWI .     49025103820000:   Unique Well ID
 DICO. A2D TECHNOLOGIES, INC.:   Digitizing Company
 DAPD.                 10:   Feet Above Permanent Datum
 BSD1.               3050:   Depth drilled with bit1
 MCSS.               MEAS:   Source Rmc.
 EPD .               5000:   Elevation Permanent Datum
 LMF .                 KB:   Log Measured From
 DMF .                 KB:   Drilling Measured From
 TLI .                215:   Top log interval
~OTHER INFORMATION
~A   DEPT      SPR        ILM        ILD       SGRD         GRD        CALD       RHOB      CORR  
# ...
 1338.0000   -38.5940     7.6720     6.8620     8.9160    84.6370    11.9990     2.4990     0.0120
 1338.5000   -38.4080     7.7300     6.8520     8.8640    84.6790    11.9860     2.5000     0.0120
 1339.0000   -38.2190     7.7890     6.8420     8.8130    84.2590    11.9730     2.5010     0.0120
 1339.5000   -38.0310     7.8470     6.8330     8.7610    83.3450    11.9590     2.5020     0.0120
 1340.0000   -37.7160     7.9060     6.8230     8.7190    82.4480    11.9460     2.5030     0.0120
 1340.5000   -37.3000     7.9550     6.8130     8.9230    81.5940    11.9320     2.5030     0.0120
 1341.0000   -36.8830     7.7900     6.8030     9.0950    80.7830    11.9300     2.5000     0.0120
 1341.5000   -36.4650     7.6490     6.7930     9.4570    81.2520    11.9440     2.4990     0.0120
 1342.0000   -36.0470     7.5070     6.7830    10.0050    81.7390    11.9570     2.4970     0.0120
 1342.5000   -35.6290     7.3650     6.7740     9.4000    82.2780    11.9710     2.4960     0.0110
 1343.0000   -35.2120     7.2550     6.7640     9.0230    82.7980    11.9840     2.4940     0.0110
 1343.5000   -34.7960     7.2420     6.7540     8.9320    83.2950    11.9970     2.4930     0.0110
 1344.0000   -34.5640     7.2300     6.7440     8.8410    83.7790    12.0100     2.4920     0.0110
 1344.5000   -34.5640     7.2170     6.7630     8.7500    82.3360    12.0230     2.4910     0.0110
 1345.0000   -34.5620     7.2050     6.7820     8.6590    81.8080    12.0370     2.4900     0.0110
 1345.5000   -34.5620     7.1930     6.8010     8.5610    83.1420    12.0440     2.4900     0.0110
 1346.0000   -34.5620     7.1800     6.8200     8.7410    84.3200    12.0400     2.4890     0.0110
 1346.5000   -34.5620     7.1680     6.8390     8.9390    85.3730    12.0290     2.4900     0.0110
 1347.0000   -34.5620     7.1560     6.8590     9.1280    85.4320    12.0180     2.4910     0.0100
 1347.5000   -34.5620     7.1430     6.8780     9.1540    85.4880    12.0060     2.4920     0.0100
 1348.0000   -34.5400     7.1260     6.8970     9.1780    86.2250    11.9950     2.4930     0.0100
 1348.5000   -34.5120     7.1390     6.9160     9.2120    86.9020    11.9840     2.4910     0.0100
 1349.0000   -34.4830     7.1600     6.9320     9.1220    87.7670    11.9720     2.4890     0.0100
 1349.5000   -34.4540     7.1810     6.9240     8.9610    87.3500    11.9610     2.4870     0.0100
 1350.0000   -34.4260     7.2020     6.9160     8.7190    86.2180    11.9500     2.4900     0.0100
 1350.5000   -34.3970     7.2230     6.9090     8.7970    85.0400    11.9390     2.4930     0.0100
 1351.0000   -34.3670     7.2450     6.9020     8.9530    84.8570    11.9260     2.4950     0.0100
 1351.5000   -34.4090     7.2660     6.8950     9.1280    85.8230    11.9250     2.4940     0.0100
 1352.0000   -34.4680     7.2870     6.8870     9.1050    86.9080    11.9250     2.4930     0.0100
 1352.5000   -34.5270     7.3090     6.8800     9.0560    86.7840    11.9250     2.4920     0.0100
 1353.0000   -34.5860     7.4260     6.8730     9.0060    86.5470    11.9250     2.4910     0.0100
 1353.5000   -34.6450     7.8110     6.8690     8.9570    86.2540    11.9250     2.4900     0.0100
 1354.0000   -34.7050     8.1950     6.8690     8.9080    86.0040    11.9250     2.4900     0.0100
 1354.5000   -34.7560     8.3330     6.8690     8.8810    85.7470    11.9250     2.4890     0.0100
 1355.0000   -34.6730     8.4820     6.8690     8.9300    85.4330    11.9270     2.4880     0.0100
 1355.5000   -34.5860     8.3700     6.8690     8.9700    85.1220    11.9210     2.4880     0.0100
 1356.0000   -34.5000     8.1140     6.8690     9.0100    84.6990    11.9710     2.4870     0.0110
 1356.5000   -34.4150     7.8570     6.8690     9.0490    85.1970    12.0560     2.4880     0.0110
 1357.0000   -34.3290     7.6000     6.8690     9.0890    85.8720    12.1350     2.4900     0.0110
 1357.5000   -34.2440     7.3440     6.8690     9.1280    86.3220    12.2130     2.4910     0.0120
 1358.0000   -34.1570     7.1740     6.8690     9.0030    85.3500    12.2920     2.4930     0.0120
 1358.5000   -33.9790     7.1300     6.7960     8.8790    83.9450    12.3720     2.4950     0.0120
 1359.0000   -33.8050     7.0870     6.7240     8.7540    84.6970    12.4030     2.4970     0.0120
 1359.5000   -33.6320     7.0440     6.6210     8.6300    85.3450    12.4060     2.4980     0.0130
 1360.0000   -33.4580     7.0000     6.6310     8.5060    86.1230    12.4110     2.4990     0.0130
 1360.5000   -33.2850     6.9570     6.6480     8.3810    85.0580    12.4170     2.5000     0.0130
 1361.0000   -33.1120     6.9140     6.6650     8.2570    83.7620    12.4220     2.5010     0.0140
 1361.5000   -32.9390     6.8690     6.6820     8.1320    82.3880    12.4270     2.5010     0.0140
 1362.0000   -32.7660     6.9350     6.6980     8.0070    81.4980    12.4320     2.5020     0.0140
 1362.5000   -32.5930     7.0030     6.7150     7.8810    81.5110    12.4390     2.5030     0.0140
 1363.0000   -32.4200     7.0720     6.7320     7.7560    81.4900    12.4050     2.5040     0.0140
 1363.5000   -32.2480     7.1410     6.7490     7.5980    81.4940    12.2960     2.5050     0.0140
 1364.0000   -32.0770     7.2090     6.7650     7.7310    81.5090    12.1880     2.5050     0.0140
 1364.5000   -32.0150     7.2780     6.7820     7.9100    81.3620    12.0840     2.5030     0.0140
 1365.0000   -32.1180     7.3240     6.7990     8.0900    81.0660    11.9680     2.5010     0.0140
 1365.5000   -32.2190     7.3010     6.8160     8.4000    80.7860    12.0070     2.4990     0.0140
 1366.0000   -32.3220     7.2840     6.8330     8.8310    80.5050    12.0920     2.4970     0.0140
 1366.5000   -32.4240     7.2670     6.8490     9.0450    80.2200    12.1780     2.4950     0.0140
 1367.0000   -32.5260     7.2490     6.8660     8.8940    79.9420    12.2060     2.4930     0.0140
 1367.5000   -32.6290     7.2320     6.8830     8.7190    79.6530    12.1530     2.4910     0.0140
 1368.0000   -32.7310     7.2140     6.9000     8.8290    79.3750    12.0490     2.4880     0.0140
 1368.5000   -32.8340     7.1910     6.9160     9.0550    79.1560    11.9430     2.4880     0.0130
 1369.0000   -32.9360     7.2160     6.9330     9.1280    79.3410    11.8810     2.4900     0.0130
 1369.5000   -33.0380     7.2520     6.9500     9.0360    79.5030    11.8870     2.4930     0.0130
 1370.0000   -33.1410     7.2890     6.9670     8.9500    79.6850    11.8860     2.4950     0.0130
 1370.5000   -33.2430     7.3250     6.9830     8.8640    79.8570    11.8860     2.4970     0.0130
 1371.0000   -33.3450     7.3620     7.0020     8.7990    80.0310    11.8860     2.4970     0.0130
 1371.5000   -33.4480     7.3980     7.0280     9.1620    80.2060    11.8860     2.4970     0.0130
 1372.0000   -33.5500     7.4350     7.0530     9.5080    80.3800    11.8860     2.4960     0.0120
 1372.5000   -33.6530     7.4710     7.0790     9.9140    80.5540    11.8850     2.4960     0.0120
 1373.0000   -33.7630     7.5080     7.1050     9.6920    80.7300    11.8960     2.4960     0.0120
 1373.5000   -34.0090     7.5420     7.1300     9.5120    80.9020    11.9250     2.4960     0.0120
 1374.0000   -34.2780     7.5740     7.1560     9.3310    81.0770    11.9530     2.4950     0.0120
 1374.5000   -34.5480     7.6060     7.1880     9.2410    81.2580    11.9820     2.4950     0.0120
 1375.0000   -34.8180     7.6380     7.1560     9.1720    81.4050    12.0090     2.4930     0.0120
 1375.5000   -35.0880     7.6690     7.0970     9.1030    81.7690    12.0410     2.4910     0.0120
 1376.0000   -35.3560     7.7010     7.0390     9.0340    82.2910    12.0430     2.4880     0.0120
 1376.5000   -35.5390     7.7330     6.9800     8.9650    82.7840    12.0410     2.4860     0.0120
 1377.0000   -35.7190     7.7650     6.9320     8.8810    83.2710    12.0340     2.4850     0.0120
 1377.5000   -35.9000     7.8100     6.9390     8.9470    83.7720    12.0290     2.4870     0.0120
 1378.0000   -36.0810     7.7940     6.9460     9.0340    84.2740    12.0230     2.4880     0.0120
