~VERSION INFORMATION
 VERS.                2.0:   CWLS LOG ASCII STANDARD - VERSION 2.0
 WRAP.                 NO:   ONE LINE PER DEPTH STEP
~WELL INFORMATION
#MNEM.UNIT      DATA TYPE    INFORMATION
#----------   ------------   ------------------------------
 STRT.F            0.0000:   START DEPTH
 STOP.F         1064.0000:   STOP DEPTH
 STEP.F            0.5000:   STEP LENGTH
 NULL.          -999.2500:   NO VALUE
 COMP.  JOHN BROWN E. & C:   COMPANY
 WELL. JOHN BROWN NPR 3-1 "X" #68-2:   WELL
 FLD .                NPR:   FIELD
 LOC .       S2 T38N R78W:   LOCATION
 CNTY.            NATRONA:   COUNTY
 STAT.            WYOMING:   STATE
 CTRY. UNITED STATES OF AMERICA:   COUNTRY
 SRVC.     ATLAS WIRELINE:   SERVICE COMPANY
 DATE.        25-JAN-1992:   LOGDATE
 API .     49025224850000:   API NUMBER
~CURVE INFORMATION
#MNEM.UNIT       API CODE    CURVE DESCRIPTION
#----------   ------------   ------------------------------
 DEPT.F                  :   
 GRR .GAPI   07 310 01 00:   GAMMA RAY FROM RESISTIVITY
 TENR.LBS    07 635 01 00:   TENSION
 RILD.OHMM   07 120 46 00:   INDUCTION LOG DEEP RESISTIVITY
 RILM.OHMM   07 120 44 00:   INDUCTION LOG MEDIUM RESISTIVITY
~PARAMETER INFORMATION
#MNEM.UNIT          VALUE    DESCRIPTION
#----------   ------------   ------------------------------
 EKB .F         5197.0000:   Kelly bushing
 EGL .F         5187.0000:   Ground level
 TD  .F         1060.0000:   Total depth
 DATE.        25-JAN-1992:   Date logged
 CLNT.            A2DTECH:   Client Code
 PD  .                 GL:   Permanent Datum
 EPD .F               518:   Elevation Permanent Datum
 LMF .                 KB:   Log Measured From
 DMF .                 KB:   Drilling Measured From
 DAPD.F                10:   Feet Above Permanent Datum
 DD  .F              1060:   Depth driller
 DL  .F              1057:   Depth logger
 BLI .F              1055:   Bottom log interval
 CS1 .IN            10.75:   Casing size
 CBD1.       10.75" @ 50':   Casing driller 1
 CBL1.F                50:   Casing logger 1
 BS1 .IN             8.75:   Bit size
 BSD1.F              1060:   Depth drilled with bit1
 DFT .                AIR:   Type fluid in hole
 LUN .            HL-6307:   Logging unit number
 LUL .             CASPER:   Logging unit location
 ENGI.             ZIEGER:   Recorded By
 WITN.             STRONG:   Witnessed by
 ORIG.           5" PRINT:   Origin of data
 UWI .     49025224850000:   Unique Well ID
 DICO. A2D TECHNOLOGIES, INC.:   Digitizing Company
~OTHER INFORMATION
~A    DEPT      GRR      TENR       RILD       RILM   
# ...
  949.0000   102.1940    45.8880    11.7360    11.7230
  949.5000   103.8540    45.8880    11.6430    11.5260
  950.0000   103.0100    45.8880    11.5300    11.3280
  950.5000    99.7600    45.8880    11.3980    11.0730
  951.0000    98.2090    45.8880    11.2790    11.0880
  951.5000    99.6200    45.8880    11.2790    11.1090
  952.0000   100.8940    45.8880    11.2790    11.1310
  952.5000    98.8100    45.8880    11.2790    11.1520
  953.0000    96.9720    45.8880    11.2760    11.1760
  953.5000    97.6000    45.8880    11.2460    11.1350
  954.0000    98.5160    45.8880    11.2150    11.0900
  954.5000    98.3290    45.8880    11.1850    11.0460
  955.0000    97.0280    45.8880    11.1540    11.0010
  955.5000    97.8650    45.8880    11.1240    10.9300
  956.0000    97.3440    45.8880    11.0930    10.8010
  956.5000    94.2470    45.8880    11.0670    10.6720
  957.0000    92.1210    45.8880    11.0210    10.5430
  957.5000    93.3360    46.4780    10.9750    10.4140
  958.0000    94.5390    47.2890    10.9290    10.3600
  958.5000    95.7200    48.0990    10.8820    10.3240
  959.0000    96.5720    48.9100    10.7800    10.2880
  959.5000    96.5440    49.7200    10.6570    10.2520
  960.0000    96.6690    50.5310    10.5340    10.2160
  960.5000    99.0150    51.3410    10.4110    10.1800
  961.0000   100.9810    52.1520    10.3580    10.1440
  961.5000   100.3030    52.9620    10.3290    10.1080
  962.0000    99.2290    53.7730    10.3000    10.0710
  962.5000   100.6070    54.5830    10.2720    10.0350
  963.0000   102.9440    55.3940    10.2430     9.9990
  963.5000   102.0540    56.2040    10.2140     9.9630
  964.0000   100.6510    57.0150    10.1880     9.9110
  964.5000    99.4690    57.8250    10.1810     9.9220
  965.0000   100.7180    58.6360    10.1740     9.9430
  965.5000   101.9490    59.4460    10.1670     9.9640
  966.0000   102.9600    60.2570    10.1590     9.9840
  966.5000   101.5690    61.0670    10.1520    10.0050
  967.0000   100.1530    61.8780    10.1450    10.0250
  967.5000    99.8320    62.6880    10.1380    10.0460
  968.0000   102.9060    63.4990    10.1310    10.0660
  968.5000   104.4090    64.3090    10.1230    10.0950
  969.0000   103.9310    65.1200    10.1160    10.0760
  969.5000   104.7500    65.9300    10.1090    10.0430
  970.0000   106.0290    66.7410    10.1020    10.0090
  970.5000   106.2680    67.5510    10.0960     9.9760
  971.0000   105.8730    68.3620    10.0960     9.9420
  971.5000   106.1080    69.1720    10.0960     9.9090
  972.0000   107.0350    69.9830    10.0960     9.8750
  972.5000   107.1110    70.7930    10.0960     9.8410
  973.0000   106.3630    71.6040    10.0960     9.8080
  973.5000   106.0360    72.4140    10.0960     9.7740
  974.0000   109.7830    73.2250    10.0960     9.7410
  974.5000   112.7440    74.0350    10.0960     9.7070
  975.0000   110.7540    74.8460    10.0960     9.6740
  975.5000   107.8620    75.6560    10.0960     9.6400
  976.0000   106.8210    78.2220    10.0960     9.6910
  976.5000   107.4790    81.9440    10.0960     9.7300
  977.0000   108.7310    85.6660    10.0960     9.7300
  977.5000   110.2270    89.3890    10.0960     9.7290
  978.0000   111.8440    93.1110    10.0960     9.7290
  978.5000   110.4110    96.0380    10.0960     9.7300
  979.0000   108.7090    96.0380    10.0950     9.7290
  979.5000   107.4700    96.0380    10.0960     9.7290
  980.0000   108.0010    96.0380    10.0970     9.7320
  980.5000   108.8240    96.0380     9.9660     9.5410
  981.0000   109.1740    96.0380     9.7560     9.3860
  981.5000   109.5990    96.0380     9.5510     9.2320
  982.0000   111.4660    96.0380     9.4840     9.1730
  982.5000   112.7810    96.0380     9.4190     9.1350
  983.0000   112.7070    96.0380     9.3540     9.0970
  983.5000   111.8030    96.0380     9.2900     9.0590
  984.0000   110.9540    96.0380     9.2620     9.0210
  984.5000   110.7150    96.0380     9.2340     8.9820
  985.0000   112.2760    96.8550     9.2070     8.9240
  985.5000   112.3770    98.7170     9.1790     8.8000
  986.0000   112.8910   100.5780     9.1520     8.6770
  986.5000   114.6210   102.4390     9.1240     8.5540
  987.0000   114.2030   104.3000     8.9510     8.4300
  987.5000   113.3500   106.1610     8.7510     8.3070
  988.0000   114.3780   108.0220     8.5520     8.2220
  988.5000   115.5310   109.8830     8.3520     8.1840
  989.0000   115.2030   111.7440     8.1630     8.0630
  989.5000   115.8720   113.6060     7.9250     7.8430
  990.0000   116.8430   115.4670     7.7000     7.6230
  990.5000   118.5050   116.0980     7.4740     7.4030
  991.0000   120.2080   116.0980     7.1600     7.1820
  991.5000   122.3460   116.0980     6.8330     6.9770
  992.0000   122.0360   116.0980     6.2900     6.3160
  992.5000   121.2820   116.0980     5.6400     5.6970
  993.0000   124.4280   116.0980     4.9890     5.0770
  993.5000   130.7190   116.0980     4.5670     4.4570
  994.0000   138.5330   116.0980     4.4710     4.0080
  994.5000   149.9410   116.0980     4.4370     4.0820
  995.0000   159.7540   116.0980     4.4900     4.1590
  995.5000   159.9240   116.0980     4.5610     4.7810
  996.0000   144.5460   117.0660     4.7560     5.3560
  996.5000   129.7600   118.1630     4.9360     5.8130
  997.0000   119.2480   119.2600     5.5640     6.2160
  997.5000   116.9660   120.3560     6.1870     6.6180
  998.0000   117.5450   121.4530     6.8790     7.0020
  998.5000   118.0240   122.5500     7.5150     7.3830
  999.0000   118.0370   123.6470     7.7230     7.7000
  999.5000   118.0400   124.7440     7.8650     7.8630
 1000.0000   120.8790   125.8410     7.9950     8.0250
 1000.5000   124.9980   126.9370     8.1240     8.1870
 1001.0000   124.0750   128.0340     8.2580     8.3500
 1001.5000   122.4330   129.1310     8.4260     8.5120
 1002.0000   122.4820   130.2280     8.5930     8.6750
 1002.5000   122.3940   131.3250     8.7610     8.8370
 1003.0000   120.8380   132.4220     8.9280     9.0000
 1003.5000   118.1620   133.5180     9.0900     9.1620
 1004.0000   116.3810   134.6150     9.2430     9.3250
 1004.5000   116.9960   135.7120     9.3950     9.4870
 1005.0000   118.3730   136.8090     9.5480     9.6500
 1005.5000   119.6310   137.9060     9.7000     9.8120
 1006.0000   118.9000   139.0030     9.8530     9.9260
 1006.5000   118.1460   140.0990    10.0060     9.9630
 1007.0000   118.0530   141.1960    10.1160    10.0010
 1007.5000   119.2780   142.2930    10.1650    10.0390
 1008.0000   119.8580   143.3900    10.2140    10.0760
 1008.5000   118.7550   144.4870    10.2630    10.1140
 1009.0000   116.6440   145.5840    10.3120    10.1510
 1009.5000   115.8190   146.7770    10.3610    10.1890
 1010.0000   117.2320   148.0900    10.4110    10.2270
 1010.5000   120.8600   149.4030    10.4760    10.2840
 1011.0000   124.5400   150.7160    10.4530    10.2760
 1011.5000   125.1150   152.0290    10.4200    10.2580
 1012.0000   118.9340   153.3420    10.3860    10.2410
 1012.5000   111.6050   154.6560    10.3530    10.2230
 1013.0000   111.9290   155.9690    10.3190    10.2050
 1013.5000   116.0420   157.2820    10.2850    10.1880
 1014.0000   120.1310   158.5950    10.2520    10.1700
 1014.5000   122.0310   159.9080    10.2180    10.1530
 1015.0000   122.0450   161.2210    10.1840    10.1350
 1015.5000   121.8630   162.5340    10.1450    10.1180
 1016.0000   118.3840   163.8470    10.1060    10.1000
 1016.5000   115.7030   165.1600    10.0670    10.0370
 1017.0000   116.8720   166.4990    10.0280     9.9610
 1017.5000   118.4360   167.9640     9.9890     9.8840
 1018.0000   117.7480   169.4290     9.9500     9.8070
 1018.5000   116.0670   170.8950     9.9110     9.7300
 1019.0000   116.8710   172.3600     9.6920     9.6100
 1019.5000   119.3400   173.8250     9.4730     9.4890
 1020.0000   121.7780   175.2900     9.2540     9.3690
 1020.5000   123.9240   176.7560     9.0340     9.2490
 1021.0000   124.7860   178.2210     8.9150     9.1280
 1021.5000   125.2860   179.6860     8.8260     9.0080
