~VERSION INFORMATION
 VERS.                2.0:   CWLS LOG ASCII STANDARD - VERSION 2.0
 WRAP.                 NO:   ONE LINE PER DEPTH STEP
~WELL INFORMATION
#MNEM.UNIT      DATA TYPE    INFORMATION
#----------   ------------   ------------------------------
 STRT.F           16.0000:   START DEPTH
 STOP.F         2834.0000:   STOP DEPTH
 STEP.F            0.5000:   STEP LENGTH
 NULL.          -999.2500:   NO VALUE
 COMP.    FENIX & SCISSON:   COMPANY
 WELL. FENIX NPR 3 "AX" #14-21:   WELL
 FLD .              N P R:   FIELD
 LOC .      S21 T39N R78W:   LOCATION
 CNTY.            NATRONA:   COUNTY
 STAT.            WYOMING:   STATE
 CTRY. UNITED STATES OF AMERICA:   COUNTRY
 SRVC.           BIRDWELL:   SERVICE COMPANY
 DATE.        26-JUL-1978:   LOGDATE
 API .     49025106740000:   API NUMBER
~CURVE INFORMATION
#MNEM.UNIT       API CODE    CURVE DESCRIPTION
#----------   ------------   ------------------------------
 DEPT.F                  :   
 GRD .GAPI   45 310 01 00:   GAMMA RAY FROM DENSITY LOG
 CALD.IN     45 280 60 00:   CALIPER FROM DENSITY LOG
 RHOB.G/C3   45 350 01 00:   BULK DENSITY
 CORR.G/C3   45 356 01 00:   DENSITY CORRECTION
 SPR .MV     05 010 01 00:   SPONTANEOUS POTENTIAL
 ILD .OHMM   05 120 46 00:   DEEP INDUCTION RESISTIVITY
 SN  .OHMM   05 040 00 00:   SHORT NORMAL
~PARAMETER INFORMATION
#MNEM.UNIT          VALUE    DESCRIPTION
#----------   ------------   ------------------------------
 EKB .F         4998.0000:   Kelly bushing
 EGL .F         4988.0000:   Ground level
 EDF .F            0.0000:   Drilling floor
 EPD .F            0.0000:   Permanent datum
 TD  .F         2850.0000:   Total depth
 DATE.        26-JUL-1978:   Date logged
 CLNT.            A2DTECH:   Client Code
 SL  . 2640' FNL & 500' FWL:   Surface Location
 PD  .                 GL:   Permanent Datum
 DD  .F              2850:   Depth driller
 DL  .F              2838:   Depth logger
 BLI .F              2832:   Bottom log interval
 CS1 .IN            8.625:   Casing size
 CBD1.      8.625" @ 208':   Casing driller 1
 BS1 .IN            7.875:   Bit size
 DFT .            MUD/GEL:   Type fluid in hole
 DFD .                9.4:   Density
 DFV .                 37:   Viscosity
 DFPH.                 11:   pH
 TCS .HRS               4:   Time Circ. stopped
 LUN .               2958:   Logging unit number
 LUL .               CASP:   Logging unit location
 ENGI.             MILLER:   Recorded By
 WITN.           MCGINLEY:   Witnessed by
 ORIG.           5" PRINT:   Origin of data
 UWI .     49025106740000:   Unique Well ID
 DICO. A2D TECHNOLOGIES, INC.:   Digitizing Company
 DAPD.                 12:   Feet Above Permanent Datum
 BSD1.               3950:   Depth drilled with bit1
 MCSS.               CALC:   Source Rmc.
 TLI .F               230:   Top log interval
~OTHER INFORMATION
~A   DEPT       GRD      CALD       RHOB       CORR        SPR        ILD         SN   
# ...
 1244.5000    94.4480     8.0210     2.5460     0.2130   -38.8570     7.8880     9.4050
 1245.0000    93.3590     8.0250     2.5400     0.2130   -38.9430     7.8790     9.3180
 1245.5000    91.9740     8.0280     2.5410     0.2130   -39.0280     7.9570     9.2310
 1246.0000    90.9100     8.0310     2.5440     0.2130   -39.0430     7.8550     9.1440
 1246.5000    91.2910     8.0340     2.5460     0.2130   -38.9760     7.7050     9.0560
 1247.0000    91.8060     8.0370     2.5420     0.2130   -38.9100     7.5550     8.9690
 1247.5000    92.3210     8.0400     2.5380     0.2120   -38.8430     7.4060     8.9330
 1248.0000    92.8370     8.0430     2.5330     0.2120   -38.7750     7.3290     8.9020
 1248.5000    93.0870     8.0470     2.5340     0.2130   -38.7080     7.3180     8.8720
 1249.0000    92.7520     8.0500     2.5430     0.2130   -38.6410     7.3010     8.8410
 1249.5000    92.5810     8.0530     2.5490     0.2130   -38.5740     7.2840     8.8110
 1250.0000    93.9240     8.0550     2.5480     0.2130   -38.5070     7.2630     8.7810
 1250.5000    95.6350     8.0460     2.5480     0.2130   -38.4400     7.2990     8.7500
 1251.0000    96.8410     8.0380     2.5510     0.2120   -38.3730     7.3490     8.7170
 1251.5000    96.7370     8.0290     2.5550     0.2100   -38.3040     7.4000     8.7170
 1252.0000    96.6530     8.0220     2.5520     0.2090   -38.2880     7.4510     8.8260
 1252.5000    96.8830     8.0690     2.5460     0.2080   -38.2870     7.6020     8.9420
 1253.0000    97.2080     8.0860     2.5390     0.2070   -38.2870     7.6870     9.0580
 1253.5000    97.3800     8.0160     2.5330     0.2090   -38.2860     7.7770     9.1740
 1254.0000    96.9970     8.0160     2.5300     0.2130   -38.2910     7.8660     9.2930
 1254.5000    95.4000     8.0160     2.5350     0.2170   -38.5100     7.9570     9.2580
 1255.0000    93.7880     8.0160     2.5440     0.2170   -38.7460     8.0300     9.2220
 1255.5000    92.5450     8.0160     2.5520     0.2160   -38.9830     8.0300     9.2080
 1256.0000    92.4870     8.0160     2.5560     0.2160   -39.2230     8.0200     9.2870
 1256.5000    93.0990     8.0160     2.5470     0.2150   -39.2570     8.0080     9.3650
 1257.0000    93.8080     8.0160     2.5540     0.2150   -39.2410     7.9970     9.4640
 1257.5000    92.2310     8.0160     2.5560     0.2150   -39.2240     7.9850     9.4480
 1258.0000    90.1680     8.0160     2.5400     0.2170   -39.2060     7.9730     9.4360
 1258.5000    88.0930     8.0160     2.5500     0.2180   -39.1890     7.9610     9.4230
 1259.0000    86.8670     8.0160     2.5630     0.2180   -39.1710     7.9490     9.4100
 1259.5000    86.9680     8.0230     2.5600     0.2200   -39.1540     7.9370     9.3970
 1260.0000    87.4210     8.0360     2.5540     0.2220   -39.1370     7.9260     9.3850
 1260.5000    88.4160     8.0480     2.5490     0.2220   -39.1190     7.9140     9.3720
 1261.0000    89.4000     8.0600     2.5580     0.2230   -39.1020     7.9020     9.3590
 1261.5000    90.3790     8.0730     2.5530     0.2260   -39.0840     7.8900     9.3460
 1262.0000    90.8840     8.0850     2.5490     0.2290   -38.9660     7.8850     9.3340
 1262.5000    90.6330     8.0970     2.5570     0.2270   -38.7170     7.8310     9.3210
 1263.0000    90.3890     8.1100     2.5650     0.2250   -38.4710     7.7340     9.3080
 1263.5000    90.1420     8.1220     2.5570     0.2230   -38.2250     7.6720     9.2960
 1264.0000    89.8930     8.1330     2.5490     0.2210   -38.1170     7.6020     9.1960
 1264.5000    89.7730     8.1260     2.5470     0.2190   -38.1720     7.6020     9.0710
 1265.0000    91.4850     8.1180     2.5490     0.2180   -38.2260     7.6020     8.9460
 1265.5000    93.7350     8.1110     2.5470     0.2190   -38.2810     7.6020     8.8210
 1266.0000    95.9850     8.1030     2.5460     0.2190   -38.3360     7.6020     8.7970
 1266.5000    98.0120     8.0960     2.5510     0.2190   -38.3910     7.6020     8.8190
 1267.0000    98.3470     8.0890     2.5600     0.2180   -38.4460     7.5830     8.8400
 1267.5000    98.5660     8.0810     2.5570     0.2170   -38.5010     7.5650     8.8610
 1268.0000    98.2440     8.0760     2.5550     0.2150   -38.5560     7.5460     8.8810
 1268.5000    98.0350     8.0850     2.5640     0.2140   -38.6110     7.5340     8.9020
 1269.0000    98.1260     8.0940     2.5570     0.2150   -38.6620     7.5640     8.9230
 1269.5000    98.2080     8.1030     2.5560     0.2180   -38.9260     7.5890     8.9440
 1270.0000    98.0380     8.1120     2.5620     0.2190   -39.2580     7.6020     8.9650
 1270.5000    97.7890     8.1210     2.5680     0.2190   -39.2740     7.6020     8.9860
 1271.0000    95.6470     8.1300     2.5700     0.2190   -39.2720     7.6000     9.0070
 1271.5000    93.3300     8.1340     2.5610     0.2180   -39.2720     7.6060     9.0280
 1272.0000    92.1400     8.1340     2.5620     0.2180   -39.2720     7.5280     9.0420
 1272.5000    91.7800     8.1340     2.5650     0.2160   -39.2720     7.5370     8.9380
 1273.0000    92.6260     8.1340     2.5660     0.2130   -39.2720     7.4580     8.8470
 1273.5000    93.9520     8.1340     2.5600     0.2130   -39.2720     7.4400     8.7560
 1274.0000    95.3010     8.1340     2.5550     0.2130   -39.2720     7.4220     8.7170
 1274.5000    95.0890     8.1340     2.5500     0.2130   -39.2720     7.4030     8.7360
 1275.0000    94.0380     8.1340     2.5470     0.2120   -39.2720     7.3850     8.7670
 1275.5000    95.1420     8.1340     2.5470     0.2120   -39.2720     7.3670     8.7970
 1276.0000    96.8530     8.1340     2.5480     0.2130   -39.2720     7.3490     8.7970
 1276.5000    98.2960     8.1340     2.5480     0.2130   -39.2720     7.3310     8.7820
 1277.0000    98.4700     8.1340     2.5450     0.2130   -39.2720     7.3120     8.7620
 1277.5000    98.6800     8.1340     2.5420     0.2140   -39.2720     7.2940     8.7430
 1278.0000    98.8940     8.1340     2.5490     0.2140   -39.2720     7.2760     8.7240
 1278.5000    99.1040     8.1340     2.5500     0.2140   -39.2720     7.2630     8.7170
 1279.0000    99.3270     8.1340     2.5470     0.2160   -39.2720     7.2630     8.7560
 1279.5000    99.1500     8.1340     2.5450     0.2170   -39.2720     7.3320     8.8130
 1280.0000    96.7970     8.1340     2.5430     0.2180   -39.2720     7.4320     8.8700
 1280.5000    93.6930     8.1340     2.5430     0.2180   -39.2720     7.5330     8.9270
 1281.0000    92.1990     8.1340     2.5480     0.2180   -39.2720     7.6020     8.9840
 1281.5000    90.9650     8.1340     2.5500     0.2180   -39.2720     7.6050     9.0410
 1282.0000    91.0210     8.1340     2.5480     0.2180   -39.2720     7.6320     9.0990
 1282.5000    92.0580     8.1340     2.5460     0.2180   -39.2720     7.6600     9.1400
 1283.0000    95.4220     8.1230     2.5440     0.2190   -39.2720     7.6720     9.1680
 1283.5000    98.6760     8.1110     2.5430     0.2230   -39.2720     7.6570     9.2080
 1284.0000   101.6740     8.0990     2.5480     0.2230   -39.2720     7.6190     9.1170
 1284.5000   100.7190     8.0870     2.5510     0.2230   -39.2720     7.5800     9.0720
 1285.0000    98.6880     8.0750     2.5480     0.2230   -39.2720     7.5420     9.0280
 1285.5000    96.6680     8.0630     2.5430     0.2260   -39.2720     7.5030     8.9830
 1286.0000    94.6420     8.0510     2.5430     0.2300   -39.2720     7.4650     8.9390
 1286.5000    93.1290     8.0380     2.5490     0.2330   -39.2720     7.4260     8.8940
 1287.0000    93.8780     8.0360     2.5550     0.2340   -39.2720     7.3970     8.8780
 1287.5000    95.2610     8.0360     2.5610     0.2340   -39.2720     7.3970     8.8780
 1288.0000    96.7210     8.0370     2.5630     0.2350   -39.2720     7.3970     8.8780
 1288.5000    97.8940     8.0370     2.5580     0.2350   -39.2720     7.3970     8.8140
 1289.0000    96.6910     8.0380     2.5530     0.2350   -39.2720     7.3970     8.7530
 1289.5000    93.4520     8.0380     2.5490     0.2310   -39.2720     7.3880     8.6930
