~VERSION INFORMATION
 VERS.                2.0:   CWLS LOG ASCII STANDARD - VERSION 2.0
 WRAP.                 NO:   ONE LINE PER DEPTH STEP
~WELL INFORMATION
#MNEM.UNIT      DATA TYPE    INFORMATION
#----------   ------------   ------------------------------
 STRT.F            0.5000:   START DEPTH
 STOP.F         4128.0000:   STOP DEPTH
 STEP.F            0.5000:   STEP LENGTH
 NULL.          -999.2500:   NO VALUE
 COMP. LAWRENCE ALLISON ASSOC WEST:   COMPANY
 WELL. LAWRENCE NPR "AX" #12-33:   WELL
 FLD .      NPR - WILDCAT:   FIELD
 LOC .      S33 T39N R78W:   LOCATION
 CNTY.            NATRONA:   COUNTY
 STAT.            WYOMING:   STATE
 CTRY. UNITED STATES OF AMERICA:   COUNTRY
 SRVC.      DRESSER ATLAS:   SERVICE COMPANY
 DATE.        04-AUG-1984:   LOGDATE
 API .     49025109720000:   API NUMBER
~CURVE INFORMATION
#MNEM.UNIT       API CODE    CURVE DESCRIPTION
#----------   ------------   ------------------------------
 DEPT.F                  :   
 CORR.G/C3   45 356 01 00:   DENSITY CORRECTION
 TEND.LBS    45 635 01 00:   TENSION FROM DENSITY LOG
 RHOB.G/C3   45 350 01 00:   BULK DENSITY
 GRR .GAPI   07 310 01 00:   GAMMA RAY FROM RESISTIVITY
 SPR .MV     07 010 01 00:   SPONTANEOUS POTENTIAL
 RFOC.OHMM   07 220 04 00:   RESISTIVITY FOCUSED LOG RES.
 RILM.OHMM   07 120 44 00:   RESISTIVITY INDUCTION LOG MEDIUM
 RILD.OHMM   07 120 46 00:   RESISTIVITY INDUCTION LOG MEDIUM
 TENR.LBS    07 635 01 00:   TENSION FROM RESISTIVITY
 CALR.IN     07 280 01 00:   CALIPER FROM RESISTIVITY
 DT  .US/F   60 520 00 00:   DELTA TIME
 TENS.LBS    60 635 01 00:   TENSION FROM SONIC
 SPHI.DEC    60 890 00 00:   SONIC POROSITY
~PARAMETER INFORMATION
#MNEM.UNIT          VALUE    DESCRIPTION
#----------   ------------   ------------------------------
 EKB .F         5170.0000:   Kelly bushing
 EGL .F         5157.0000:   Ground level
 EDF .F            0.0000:   Drilling floor
 TD  .F         4121.0000:   Total depth
 DATE.        04-AUG-1984:   Date logged
 CLNT.            A2DTECH:   Client Code
 SL  . 857' FNL & 751' FWL:   Surface Location
 PD  .                 GL:   Permanent Datum
 EPD .F              5157:   Elevation Permanent Datum
 LMF .                 KB:   Log Measured From
 DMF .                 KB:   Drilling Measured From
 DAPD.F                13:   Feet Above Permanent Datum
 DD  .F              4120:   Depth driller
 DL  .F              4121:   Depth logger
 BLI .F              4119:   Bottom log interval
 CS1 .IN            8.625:   Casing size
 CBD1.      8.625" @ 625':   Casing driller 1
 CBL1.F               624:   Casing logger 1
 BS1 .IN            7.875:   Bit size
 BSD1.F              4120:   Depth drilled with bit1
 DFT .            GEL/KCL:   Type fluid in hole
 DFD .                9.1:   Density
 DFV .                 40:   Viscosity
 DFPH.                8.5:   pH
 DFL .                 11:   Fluid loss
 MSS .               TANK:   Source of sample
 RMS .OHMM           .302:   Rm
 MST .F                84:   Rm Meas. temp.
 RMF .OHMM            .22:   Rmf
 MFST.F                84:   Rmf Meas. temp.
 RMC .OHMM            .38:   Rmc
 MCST.F                84:   Rmc Meas. temp.
 MFSS.               CALC:   Source Rmf.
 MCSS.               CALC:   Source Rmc.
 RMB .OHMM            .19:   Rm. at BHT
 BHT .F               132:   BHT.
 TCS .HRS               4:   Time Circ. stopped
 MRT .F               132:   Maximum recorded temp.
 LUN .               6307:   Logging unit number
 LUL .               GLTE:   Logging unit location
 ENGI.           FAHLSING:   Recorded By
 WITN.       ROBERT SCOTT:   Witnessed by
 ORIG.           5" PRINT:   Origin of data
 UWI .     49025109720000:   Unique Well ID
 DICO. A2D TECHNOLOGIES, INC.:   Digitizing Company
~OTHER INFORMATION
~A    DEPT    CORR       TEND       RHOB         GRR       SPR       RFOC       RILM       RILD       TENR       CALR         DT       TENS       SPHI   
# ...
 1794.5000  -999.2500  -999.2500  -999.2500   127.1860   -44.3730     7.5210     6.8560     6.6450   -25.2250     7.8820  -999.2500  -999.2500  -999.2500
 1795.0000  -999.2500  -999.2500  -999.2500   125.5520   -44.5060     7.7550     6.9420     6.8180   -25.2250     7.8810  -999.2500  -999.2500  -999.2500
 1795.5000  -999.2500  -999.2500  -999.2500   123.9280   -45.0340     7.9690     7.0270     6.9420   -25.2250     7.8760  -999.2500  -999.2500  -999.2500
 1796.0000  -999.2500  -999.2500  -999.2500   123.1250   -45.6250     8.1170     7.0710     6.9420   -25.2250     7.8710  -999.2500  -999.2500  -999.2500
 1796.5000  -999.2500  -999.2500  -999.2500   122.6340   -46.2160     8.1170     6.8640     6.9190   -25.2250     7.8650  -999.2500  -999.2500  -999.2500
 1797.0000  -999.2500  -999.2500  -999.2500   125.1680   -46.8050     7.9670     6.7030     6.8940   -25.2250     7.8670  -999.2500  -999.2500  -999.2500
 1797.5000  -999.2500  -999.2500  -999.2500   127.8510   -47.3960     7.4430     6.5420     6.8680   -25.2250     7.8760  -999.2500  -999.2500  -999.2500
 1798.0000  -999.2500  -999.2500  -999.2500   125.6870   -47.7030     7.0710     6.3810     6.8430   -25.2250     7.8830  -999.2500  -999.2500  -999.2500
 1798.5000  -999.2500  -999.2500  -999.2500   121.7120   -47.5030     7.0060     6.2740     6.8170   -25.2250     7.8820  -999.2500  -999.2500  -999.2500
 1799.0000  -999.2500  -999.2500  -999.2500   117.5670   -47.0910     7.1040     6.3080     6.7910   -25.2250     7.8950  -999.2500  -999.2500  -999.2500
 1799.5000  -999.2500  -999.2500  -999.2500   118.3910   -46.6800     7.2450     6.3560     6.7660   -25.2250     7.9130  -999.2500  -999.2500  -999.2500
 1800.0000  -999.2500  -999.2500  -999.2500   119.6040   -46.2670     7.3860     6.3900     6.4140   -25.2250     7.9220  -999.2500  -999.2500  -999.2500
 1800.5000  -999.2500  -999.2500  -999.2500   120.8090   -45.8540     7.5270     5.7830     5.7340   -25.2250     7.9220  -999.2500  -999.2500  -999.2500
 1801.0000  -999.2500  -999.2500  -999.2500   117.8160   -45.4440     7.6810     4.9160     5.0540   -25.2250     7.9310  -999.2500  -999.2500  -999.2500
 1801.5000  -999.2500  -999.2500  -999.2500   111.9400   -44.7260     7.7520     4.0500     4.5230   -25.2250     7.9390  -999.2500  -999.2500  -999.2500
 1802.0000  -999.2500  -999.2500  -999.2500   108.8020   -44.0820     7.3480     3.1830     3.8890   -25.2250     7.9760  -999.2500  -999.2500  -999.2500
 1802.5000  -999.2500  -999.2500  -999.2500   105.5590   -43.4410     6.0340     2.2390     3.2540   -25.2250     8.0230  -999.2500  -999.2500  -999.2500
 1803.0000  -999.2500  -999.2500  -999.2500   105.5390   -42.8040     4.7190     2.3120     2.6510   -25.2250     8.0710  -999.2500  -999.2500  -999.2500
 1803.5000  -999.2500  -999.2500  -999.2500   106.8960   -42.1670     3.4040     2.3930     2.2920   -25.2250     8.1180  -999.2500  -999.2500  -999.2500
 1804.0000  -999.2500  -999.2500  -999.2500   108.2950   -41.5130     2.6660     2.6980     2.0990   -25.2250     8.0540  -999.2500  -999.2500  -999.2500
 1804.5000  -999.2500  -999.2500  -999.2500   108.2400   -41.3930     3.7450     3.2150     2.4120   -25.2250     7.9810  -999.2500  -999.2500  -999.2500
 1805.0000  -999.2500  -999.2500  -999.2500   107.2040   -43.1000     5.2500     3.7320     2.8700   -25.2250     7.9070  -999.2500  -999.2500  -999.2500
 1805.5000  -999.2500  -999.2500  -999.2500   107.0780   -45.0160     6.7540     4.2480     2.8700   -25.2250     7.8430  -999.2500  -999.2500  -999.2500
 1806.0000  -999.2500  -999.2500  -999.2500   112.1040   -45.5350     7.5410     4.8050     2.8960   -25.2250     7.8370  -999.2500  -999.2500  -999.2500
 1806.5000  -999.2500  -999.2500  -999.2500   117.6290   -46.0860     7.5410     5.2730     4.2450   -25.2250     7.8320  -999.2500  -999.2500  -999.2500
 1807.0000  -999.2500  -999.2500  -999.2500   122.5500   -46.6460     7.3490     5.8590     6.1590   -25.2250     7.8260  -999.2500  -999.2500  -999.2500
 1807.5000  -999.2500  -999.2500  -999.2500   122.1470   -46.9090     7.2040     6.4450     6.5090   -25.2250     7.8260  -999.2500  -999.2500  -999.2500
 1808.0000  -999.2500  -999.2500  -999.2500   120.9360   -46.9100     7.1360     7.0710     6.5900   -25.2250     7.8370  -999.2500  -999.2500  -999.2500
 1808.5000  -999.2500  -999.2500  -999.2500   120.8810   -46.9120     7.1360     7.2020     6.6780   -25.2250     7.8490  -999.2500  -999.2500  -999.2500
 1809.0000  -999.2500  -999.2500  -999.2500   122.3490   -46.9840     7.1360     7.3360     6.7650   -25.2250     7.8600  -999.2500  -999.2500  -999.2500
 1809.5000  -999.2500  -999.2500  -999.2500   123.0860   -47.1160     7.2070     7.3360     6.8520   -25.2250     7.8700  -999.2500  -999.2500  -999.2500
 1810.0000  -999.2500  -999.2500  -999.2500   122.2410   -47.2490     7.3390     7.3360     6.9390   -25.2250     7.8810  -999.2500  -999.2500  -999.2500
 1810.5000  -999.2500  -999.2500  -999.2500   121.4390   -47.2760     7.4700     7.3360     7.0270   -25.2250     7.8910  -999.2500  -999.2500  -999.2500
 1811.0000  -999.2500  -999.2500  -999.2500   120.8180   -47.2140     7.6020     7.3280     7.1140   -25.2250     7.9020  -999.2500  -999.2500  -999.2500
 1811.5000  -999.2500  -999.2500  -999.2500   120.5760   -47.1520     7.7330     7.2710     7.1360   -25.2250     7.9070  -999.2500  -999.2500  -999.2500
 1812.0000  -999.2500  -999.2500  -999.2500   122.1180   -47.0890     7.8650     7.2140     7.1280   -25.2250     7.9130  -999.2500  -999.2500  -999.2500
 1812.5000  -999.2500  -999.2500  -999.2500   123.7960   -47.0260     7.9970     7.1570     7.1160   -25.2250     7.9180  -999.2500  -999.2500  -999.2500
 1813.0000  -999.2500  -999.2500  -999.2500   127.1120   -46.9660     8.1280     7.1000     7.1040   -25.2250     7.9210  -999.2500  -999.2500  -999.2500
 1813.5000  -999.2500  -999.2500  -999.2500   126.8620   -46.9220     8.2600     7.0430     7.0930   -25.2250     7.9120  -999.2500  -999.2500  -999.2500
 1814.0000  -999.2500  -999.2500  -999.2500   126.7230   -46.4230     8.3450     7.0060     7.0810   -25.2250     7.9020  -999.2500  -999.2500  -999.2500
 1814.5000  -999.2500  -999.2500  -999.2500   127.4510   -45.7910     8.2060     7.0060     7.0710   -25.2250     7.8750  -999.2500  -999.2500  -999.2500
 1815.0000  -999.2500  -999.2500  -999.2500   127.7030   -45.1540     8.1040     7.0060     7.0710   -25.2250     7.8670  -999.2500  -999.2500  -999.2500
 1815.5000  -999.2500  -999.2500  -999.2500   125.1620   -44.5140     8.0020     7.0430     7.0710   -25.2250     7.8760  -999.2500  -999.2500  -999.2500
 1816.0000  -999.2500  -999.2500  -999.2500   122.6540   -43.8660     7.8960     7.0920     7.0710   -25.2250     7.8800  -999.2500  -999.2500  -999.2500
 1816.5000  -999.2500  -999.2500  -999.2500   120.4500   -43.7430     7.8960     7.1410     7.0710   -25.2250     7.8660  -999.2500  -999.2500  -999.2500
 1817.0000  -999.2500  -999.2500  -999.2500   120.5130   -44.1280     8.0030     7.1890     7.0710   -25.2250     7.8560  -999.2500  -999.2500  -999.2500
 1817.5000  -999.2500  -999.2500  -999.2500   120.5200   -44.5430     8.1410     7.2380     7.0710   -25.2250     7.8470  -999.2500  -999.2500  -999.2500
 1818.0000  -999.2500  -999.2500  -999.2500   120.5130   -44.9590     8.2800     7.2860     7.0710   -25.2250     7.8430  -999.2500  -999.2500  -999.2500
 1818.5000  -999.2500  -999.2500  -999.2500   120.5170   -45.3740     8.4220     7.3350     7.0710   -25.2250     7.8430  -999.2500  -999.2500  -999.2500
 1819.0000  -999.2500  -999.2500  -999.2500   119.7840   -45.7900     8.5000     7.3840     7.0700   -25.2250     7.8430  -999.2500  -999.2500  -999.2500
 1819.5000  -999.2500  -999.2500  -999.2500   118.5330   -46.2060     8.5000     7.4320     7.0780   -25.2250     7.8430  -999.2500  -999.2500  -999.2500
 1820.0000  -999.2500  -999.2500  -999.2500   118.3960   -46.6210     8.3640     7.4720     6.9990   -25.2250     7.8400  -999.2500  -999.2500  -999.2500
