~VERSION INFORMATION
 VERS.                2.0:   CWLS LOG ASCII STANDARD - VERSION 2.0
 WRAP.                 NO:   ONE LINE PER DEPTH STEP
~WELL INFORMATION
#MNEM.UNIT      DATA TYPE    INFORMATION
#----------   ------------   ------------------------------
 STRT.F          210.5000:   START DEPTH
 STOP.F         3234.0000:   STOP DEPTH
 STEP.F            0.5000:   STEP LENGTH
 NULL.          -999.2500:   NO VALUE
 COMP.    FENIX & SCISSON:   COMPANY
 WELL.   FENIX "A" #21-10:   WELL
 FLD .              NPR-3:   FIELD
 LOC .      S10 T38N R78W:   LOCATION
 CNTY.            NATRONA:   COUNTY
 STAT.            WYOMING:   STATE
 CTRY. UNITED STATES OF AMERICA:   COUNTRY
 SRVC.      DRESSER ATLAS:   SERVICE COMPANY
 DATE.        31-AUG-1977:   LOGDATE
 API .     49025104260000:   API NUMBER
~CURVE INFORMATION
#MNEM.UNIT       API CODE    CURVE DESCRIPTION
#----------   ------------   ------------------------------
 DEPT.F                  :   
 GRD .GAPI   45 310 01 00:   GAMMA RAY FROM DENSITY LOG
 CALD.IN     45 280 60 00:   CALIPER FROM DENSITY LOG
 RHOB.G/C3   45 350 01 00:   BULK DENSITY
 CORR.G/C3   45 356 01 00:   DENSITY CORRECTION
 SPR .MV     11 010 01 00:   SPONTANEOUS POTENTIAL
 LLS .OHMM   11 220 09 00:   LATEROLOG SHALLOW
 LLD .OHMM   11 220 10 00:   LATEROLOG DEEP
 TEND.LBS    45 635 01 00:   TENSION FROM DENSITY LOG
 TENR.LBS    07 635 01 00:   TENSION
~PARAMETER INFORMATION
#MNEM.UNIT          VALUE    DESCRIPTION
#----------   ------------   ------------------------------
 EKB .F         5258.0000:   Kelly bushing
 EGL .F         5248.0000:   Ground level
 EDF .F            0.0000:   Drilling floor
 TD  .F         3222.0000:   Total depth
 DATE.        31-AUG-1977:   Date logged
 CLNT.            A2DTECH:   Client Code
 SL  . 330' FNL & 990' FWL:   Surface Location
 PD  .                 GL:   Permanent Datum
 EPD .F              5248:   Elevation Permanent Datum
 LMF .                 KB:   Log Measured From
 DMF .                 KB:   Drilling Measured From
 DAPD.F                10:   Feet Above Permanent Datum
 DD  .F              3222:   Depth driller
 DL  .F              3219:   Depth logger
 BLI .F              3218:   Bottom log interval
 TLI .F               221:   Top log interval
 CS1 .IN             8.75:   Casing size
 CBD1.       8.75" @ 219':   Casing driller 1
 CBL1.F               221:   Casing logger 1
 BS1 .IN            7.875:   Bit size
 BSD1.F              3222:   Depth drilled with bit1
 DFT .                KCL:   Type fluid in hole
 DFD .                9.1:   Density
 DFV .                 36:   Viscosity
 DFPH.                 11:   pH
 DFL .                  8:   Fluid loss
 MSS .           FLOWLINE:   Source of sample
 RMS .OHMM           0.14:   Rm
 MST .F                72:   Rm Meas. temp.
 RMF .OHMM           0.08:   Rmf
 MFST.F                72:   Rmf Meas. temp.
 RMC .OHMM           0.20:   Rmc
 MCST.F                72:   Rmc Meas. temp.
 MFSS.               CALC:   Source Rmf.
 MCSS.               CALC:   Source Rmc.
 RMB .OHMM           0.08:   Rm. at BHT
 BHT .F               125:   BHT.
 TCS .HRS               3:   Time Circ. stopped
 MRT .F               125:   Maximum recorded temp.
 LUN .               6080:   Logging unit number
 LUL .              WLSTN:   Logging unit location
 ENGI.               RALL:   Recorded By
 WITN.         PETTINGILL:   Witnessed by
 ORIG.           5" PRINT:   Origin of data
 UWI .     49025104260000:   Unique Well ID
 DICO. A2D TECHNOLOGIES, INC.:   Digitizing Company
~OTHER INFORMATION
~A   DEPT      GRD       CALD       RHOB       CORR        SPR        LLS        LLD       TEND        TENR  
# ...
 1196.0000    78.5140    12.3190     2.4570    -0.0020   -69.0880     8.0850     8.5260   355.8570   506.4550
 1196.5000    80.3930    12.3360     2.4570    -0.0020   -69.2000     7.9430     8.5110   353.3160   506.4550
 1197.0000    82.1720    12.3530     2.4570    -0.0030   -69.4500     7.7960     8.4950   350.7750   506.4550
 1197.5000    83.9170    12.3660     2.4570    -0.0030   -69.6990     7.7250     8.4800   348.2340   506.4550
 1198.0000    85.4300    12.3760     2.4570    -0.0030   -69.9490     7.7000     8.4650   345.6930   506.4550
 1198.5000    83.8160    12.3870     2.4560    -0.0030   -70.2080     7.6760     8.4650   343.1520   506.4550
 1199.0000    81.9890    12.3970     2.4540    -0.0030   -70.2770     7.6550     8.4650   340.6110   506.4550
 1199.5000    80.7250    12.4030     2.4520    -0.0030   -70.2760     7.7250     8.4640   338.0700   506.4550
 1200.0000    80.0100    12.3960     2.4510    -0.0030   -70.1760     7.8010     8.4650   335.5290   506.4550
 1200.5000    79.2520    12.3900     2.4490    -0.0030   -69.7810     7.9530     8.7200   332.9880   506.4550
 1201.0000    80.0070    12.3830     2.4470    -0.0030   -69.3970     8.0870     9.0250   330.4470   506.4550
 1201.5000    81.2870    12.3680     2.4460    -0.0020   -69.0150     8.0870     9.0270   327.9060   506.4550
 1202.0000    82.5870    12.3520     2.4490    -0.0020   -68.6320     8.0870     9.0300   325.3650   506.4550
 1202.5000    83.9480    12.3370     2.4510    -0.0010   -68.2510     8.0870     9.0320   322.8240   506.4550
 1203.0000    83.2350    12.3220     2.4530    -0.0010   -67.8670     8.0870     9.0340   320.2830   506.4550
 1203.5000    81.8280    12.3060     2.4560    -0.0010   -67.9070     8.0870     9.0370   317.7420   506.4550
 1204.0000    80.2820    12.2910     2.4580     0.0000   -68.2790     8.0870     9.0390   315.2020   506.4550
 1204.5000    80.7990    12.2760     2.4600     0.0000   -68.6520     8.0870     9.0410   312.6610   506.4550
 1205.0000    82.0640    12.2610     2.4630     0.0010   -69.0290     8.0920     9.0440   310.1200   506.4550
 1205.5000    83.2920    12.2450     2.4650     0.0010   -69.4060     8.1040     9.0460   307.5790   506.4550
 1206.0000    84.5420    12.2300     2.4670     0.0020   -69.7770     8.1160     9.0490   311.8680   506.4550
 1206.5000    85.8640    12.2150     2.4700     0.0030   -70.0500     8.1280     9.0510   318.4950   506.4550
 1207.0000    84.2280    12.2000     2.4720     0.0030   -69.8310     8.1400     9.0530   325.1220   506.4550
 1207.5000    82.9020    12.1840     2.4750     0.0040   -69.6220     8.1510     9.0560   331.7490   506.4550
 1208.0000    81.5700    12.1690     2.4720     0.0050   -69.4150     8.1630     9.0580   338.3760   506.4550
 1208.5000    80.6010    12.1540     2.4720     0.0050   -69.2090     8.1750     9.0600   345.0030   506.4550
 1209.0000    80.4110    12.1380     2.4760     0.0060   -69.0040     8.1870     9.0630   346.5350   506.4550
 1209.5000    80.2140    12.1230     2.4790     0.0070   -68.9290     8.1990     9.0650   346.5350   506.4550
 1210.0000    80.0190    12.1080     2.4820     0.0070   -69.0230     8.2110     9.0670   346.5350   506.4550
 1210.5000    79.8020    12.0920     2.4820     0.0080   -69.1150     8.2230     9.0700   346.5350   506.4550
 1211.0000    79.8030    12.0540     2.4810     0.0090   -69.2080     8.2350     9.0720   346.5350   506.4550
 1211.5000    81.9020    11.9980     2.4780     0.0100   -69.3010     8.2310     9.0750   346.5350   506.4550
 1212.0000    84.0480    11.9410     2.4750     0.0100   -69.3940     8.2250     9.0770   346.5350   506.4550
 1212.5000    86.1690    11.8830     2.4720     0.0110   -69.4880     8.2200     9.0790   346.5350   506.4550
 1213.0000    85.4690    11.8260     2.4730     0.0120   -69.5820     8.2140     9.0820   346.5350   506.4550
 1213.5000    85.9240    11.7740     2.4750     0.0120   -69.6780     8.2080     9.0840   346.5350   506.4550
 1214.0000    87.3980    11.7610     2.4780     0.0120   -69.6610     8.2030     9.0860   346.5350   506.4550
 1214.5000    87.1670    11.7300     2.4720     0.0110   -69.4890     8.1970     9.0890   346.5350   506.4550
 1215.0000    86.8460    11.6980     2.4650     0.0110   -69.3150     8.1910     9.0910   346.5350   506.4550
 1215.5000    86.1980    11.6660     2.4600     0.0100   -69.1420     8.1860     9.0930   346.5350   506.4550
 1216.0000    84.9280    11.6340     2.4560     0.0100   -68.9660     8.1800     9.0960   343.3200   506.4550
 1216.5000    83.8920    11.6020     2.4520     0.0090   -68.7970     8.1750     9.0980   339.4210   506.4550
 1217.0000    84.6290    11.5880     2.4480     0.0090   -68.4680     8.1690     9.1010   335.5230   506.4550
 1217.5000    86.8260    11.5750     2.4440     0.0080   -68.5350     8.1630     9.1030   331.6250   506.4550
 1218.0000    89.0290    11.5590     2.4410     0.0070   -68.8200     8.1520     9.1050   327.7270   506.4550
 1218.5000    91.2070    11.5430     2.4400     0.0070   -69.1010     8.1180     9.1080   323.8280   506.4550
 1219.0000    93.1340    11.5270     2.4390     0.0070   -69.3820     8.0870     9.0220   319.9300   506.4550
 1219.5000    93.3170    11.5110     2.4420     0.0100   -69.6600     8.0000     8.9240   316.0320   506.4550
 1220.0000    93.5400    11.5080     2.4460     0.0130   -69.8870     7.9200     8.8260   312.1340   506.4550
 1220.5000    93.9830    11.5030     2.4490     0.0170   -69.8830     7.8400     8.7270   308.2350   506.4550
 1221.0000    97.1800    11.4890     2.4530     0.0200   -69.6930     7.7590     8.6290   368.7130   506.4550
 1221.5000    98.6780    11.4750     2.4570     0.0230   -69.4010     7.6790     8.5430   445.1490   506.4550
 1222.0000    98.5100    11.4610     2.4600     0.0260   -69.1060     7.5990     8.4120   370.5940   506.4550
 1222.5000    96.1360    11.4470     2.4610     0.0270   -68.7900     7.5180     8.3110   296.0400   506.4550
 1223.0000    94.1680    11.4340     2.4570     0.0270   -68.6890     7.4380     8.2100   298.5450   506.4550
 1223.5000    94.5500    11.3910     2.4540     0.0280   -68.7580     7.3580     8.1100   311.5110   506.4550
 1224.0000    94.3860    11.3300     2.4540     0.0280   -68.8640     7.2770     7.9400   324.4770   506.4550
 1224.5000    93.7920    11.2710     2.4560     0.0290   -68.9710     7.1970     7.9190   337.4430   506.4550
 1225.0000    92.9620    11.2710     2.4580     0.0290   -69.0820     7.1500     7.8830   342.2910   506.4550
 1225.5000    93.4970    11.2750     2.4590     0.0300   -69.2030     7.0980     7.8460   328.0910   506.4550
 1226.0000    96.2650    11.2770     2.4590     0.0300   -69.4310     7.0460     7.8100   313.8900   506.4550
 1226.5000    98.2310    11.2800     2.4580     0.0300   -69.6590     6.9860     7.7960   306.9310   506.4550
 1227.0000    95.6690    11.2830     2.4570     0.0260   -69.8880     7.0150     7.7960   306.9310   506.4550
 1227.5000   100.3890    11.2880     2.4620     0.0220   -70.1170     7.0600     7.8090   306.9310   506.4550
 1228.0000    99.7310    11.2810     2.4670     0.0170   -70.3420     7.1050     7.8390   306.9310   506.4550
 1228.5000    98.0990    11.0330     2.4710     0.0130   -70.5770     7.1500     7.8680   306.9310   506.4550
 1229.0000    98.0440    10.7810     2.4720     0.0090   -70.4510     7.1960     7.8970   306.9310   506.4550
 1229.5000    99.1910    10.5850     2.4680     0.0050   -70.2650     7.2410     7.9270   306.9310   506.4550
 1230.0000   100.3380    10.5000     2.4640     0.0010   -70.0500     7.2860     7.9560   306.9310   506.4550
 1230.5000   101.4850    10.4480     2.4600    -0.0030   -69.8320     7.3310     7.9860   306.9310   506.4550
 1231.0000   102.5500    10.3960     2.4560    -0.0070   -69.6170     7.3800     8.0150   306.9310   506.4550
 1231.5000   102.1590    10.3450     2.4530    -0.0070   -69.5070     7.4250     8.0440   306.9310   506.4550
 1232.0000   101.7290    10.2930     2.4550    -0.0070   -69.6300     7.4750     8.0740   306.9310   506.4550
