~VERSION INFORMATION
 VERS.                2.0:   CWLS LOG ASCII STANDARD - VERSION 2.0
 WRAP.                 NO:   ONE LINE PER DEPTH STEP
~WELL INFORMATION
#MNEM.UNIT      DATA TYPE    INFORMATION
#----------   ------------   ------------------------------
 STRT.F            0.0000:   START DEPTH
 STOP.F         5673.0000:   STOP DEPTH
 STEP.F            0.5000:   STEP LENGTH
 NULL.          -999.2500:   NO VALUE
 COMP.       FLUOR DANIEL:   COMPANY
 WELL.   FLUOR "X" #63-10:   WELL
 FLD .             NPR #3:   FIELD
 LOC .      S10 T38N R78W:   LOCATION
 CNTY.            NATRONA:   COUNTY
 STAT.            WYOMING:   STATE
 CTRY. UNITED STATES OF AMERICA:   COUNTRY
 SRVC.      WESTERN ATLAS:   SERVICE COMPANY
 DATE.        02-MAR-1996:   LOGDATE
 API .     49025227690000:   API NUMBER
~CURVE INFORMATION
#MNEM.UNIT       API CODE    CURVE DESCRIPTION
#----------   ------------   ------------------------------
 DEPT.F                  :   
 GRD .GAPI   45 310 01 00:   GAMMA RAY FROM DENSITY LOG
 TEND.LBS    45 635 01 00:   TENSION FROM DENSITY LOG
 CALD.IN     45 280 60 00:   CALIPER FROM DENSITY LOG
 ZCOR.G/C3   45 356 01 00:   DENSITY CORRECTION
 ZDEN.G/C3   45 350 01 00:   BULK DENSITY
 CNC .DEC    42 890 03 00:   COMPENSATED NEUTRON POROSITY SANDSTONE
 SPR .MV     11 010 01 00:   SPONTANEOUS POTENTIAL FROM RESISTIVITY
 RD  .OHMM   11 220 10 00:   RESISTIVITY DEEP
 RS  .OHMM   11 220 09 00:   RESISTIVITY SHALLOW
~PARAMETER INFORMATION
#MNEM.UNIT          VALUE    DESCRIPTION
#----------   ------------   ------------------------------
 EKB .F         5196.0000:   Kelly bushing
 EGL .F         5186.0000:   Ground level
 EDF .F         5195.0000:   Drilling floor
 TD  .F         5674.0000:   Total depth
 CLNT.            A2DTECH:   Client Code
 SL  . 1688' FNL & 1730' FEL:   Surface Location
 PD  .                 GL:   Permanent Datum
 EPD .F              5186:   Elevation Permanent Datum
 LMF .                 KB:   Log Measured From
 DMF .                 KB:   Drilling Measured From
 DAPD.F                10:   Feet Above Permanent Datum
 DATE.        02-MAR-1996:   Date Logged [DD-MMM-YYYY]
 DD  .F              5674:   Depth driller
 DL  .F              5674:   Depth logger
 BLI .F              5663:   Bottom log interval
 CS1 .IN            9.625:   Casing size
 CBD1.      9.625" @ 448':   Casing driller 1
 CBL1.F               448:   Casing logger 1
 BS1 .IN             8.75:   Bit size
 BSD1.F              5674:   Depth drilled with bit1
 DFT .               CHEM:   Type fluid in hole
 DFD .                9.7:   Density
 DFV .                 53:   Viscosity
 DFPH.                9.0:   pH
 DFL .                9.2:   Fluid loss
 MSS .           FLOWLINE:   Source of sample
 RMS .OHMM          0.628:   Rm
 MST .F                71:   Rm Meas. temp.
 RMF .OHMM          0.477:   Rmf
 MFST.F                71:   Rmf Meas. temp.
 MFSS.               MEAS:   Source Rmf.
 RMC .OHMM          0.779:   Rmc
 MCST.F                71:   Rmc Meas. temp.
 MCSS.               MEAS:   Source Rmc.
 RMB .OHMM          0.251:   Rm. at BHT
 BHT .F               178:   BHT.
 TCS .F               4.5:   Time Circ. stopped
 MRT .HRS             178:   Maximum recorded temp.
 LUN .            HL-6530:   Logging unit number
 LUL .             CASPER:   Logging unit location
 ENGI.      PAT RASMUSSEN:   Recorded By
 ORIG.           5" PRINT:   Origin of data
 UWI .     49025227690000:   Unique Well ID
 WITN.         LAFRENIERE:   Witnessed by
 DICO.   A2D TECHNOLOGIES:   Digitizing Company
~OTHER INFORMATION
~A  DEPTH      GRD       TEND       CALD       ZCOR       ZDEN        CNC        SPR         RD         RS
# ...
 2847.0000   112.6145   -76.2423     8.5189     0.0634     2.5393     0.2357   -82.5184    12.7323     8.8661
 2847.5000   112.6216   -76.4618     8.5189     0.0694     2.5302     0.2309   -82.7794    12.7282     8.9903
 2848.0000   112.6273   -84.2223     8.5189     0.0709     2.5333     0.2252   -82.6394    12.9030     9.0534
 2848.5000   112.3304   -84.4374     8.5189     0.0724     2.5393     0.2210   -82.3817    13.2617     9.1169
 2849.0000   111.7351   -77.1561     8.5189     0.0664     2.5476     0.2168   -82.1170    13.5355     9.2446
 2849.5000   112.0751   -77.3711     8.5189     0.0634     2.5551     0.2159   -82.1388    13.6258     9.4391
 2850.0000   117.1696   -77.5863     8.5189     0.0604     2.5589     0.2159   -82.3037    13.4344     9.3853
 2850.5000   119.2927   -72.0774     8.5189     0.0424     2.5596     0.2140   -82.4727    12.7975     9.9174
 2851.0000   115.6995   -62.8975     8.5189     0.0319     2.5589     0.2077   -82.6424    12.7076    10.0541
 2851.5000   113.5829   -55.5766     8.5189     0.0334     2.5581     0.2074   -82.8192    12.6179    10.0525
 2852.0000   112.4203   -55.7168     8.5189     0.0426     2.5551     0.2206   -82.5271    12.7043     9.8369
 2852.5000   115.4536   -55.8570     8.5189     0.0589     2.5513     0.2347   -82.1731    12.0182     9.3141
 2853.0000   119.9887   -63.4935     8.5189     0.0649     2.5498     0.2428   -81.8170    11.0540     8.5718
 2853.5000   119.3536   -63.6687     8.5339     0.0619     2.5543     0.2504   -81.4545    10.2469     7.8888
 2854.0000   118.2154   -63.8090     8.5339     0.0559     2.5588     0.2467   -81.8078     9.9659     7.8332
 2854.5000   119.7427   -63.9492     8.5339     0.0499     2.5633     0.2371   -82.2444    10.1736     8.0516
 2855.0000   119.8091   -64.0929     8.5339     0.0454     2.5671     0.2335   -82.6899    10.9333     8.3914
 2855.5000   116.6651   -64.2647     8.5339     0.0409     2.5716     0.2344   -82.5945    11.6011     8.8771
 2856.0000   114.0709   -64.4049     8.5339     0.0589     2.5761     0.2344   -82.2482    11.9241     9.0517
 2856.5000   113.7867   -64.5452     8.5339     0.0649     2.5745     0.2332   -81.8935    11.6746     9.0502
 2857.0000   113.8079   -64.7205     8.5189     0.0649     2.5685     0.2299   -81.5413    11.2783     8.9249
 2857.5000   114.1515   -57.3294     8.5189     0.0632     2.5640     0.2277   -81.1874    11.2769     8.8010
 2858.0000   115.6534   -65.0010     8.5189     0.0499     2.5618     0.2241   -81.1744    11.3537     8.7998
 2858.5000   115.3650   -72.6387     8.5201     0.0619     2.5641     0.2214   -81.4444    11.9153     8.8600
 2859.0000   113.5790   -65.2814     8.5219     0.0649     2.5828     0.2181   -81.7193    12.7674     9.1195
 2859.5000   108.9280   -65.4567     8.5236     0.0634     2.5835     0.2088   -81.9945    14.8648    10.8972
 2860.0000    98.8583   -65.5969     8.5254     0.0634     2.5647     0.1946   -82.2670    17.1876    12.8610
 2860.5000    89.5379   -58.2408     8.5271     0.0634     2.5316     0.1856   -82.4310    23.7899    16.2643
 2861.0000    81.7236   -58.4161     8.5289     0.0649     2.4807     0.1820   -82.4296    29.2748    20.1467
 2861.5000    70.5708   -58.5564     8.5307     0.0694     2.4552     0.1850   -82.4301    31.8054    22.3439
 2862.0000    71.5209   -58.6966     8.5324     0.0769     2.4409     0.1943   -82.4318    32.6938    22.9671
 2862.5000    74.8512   -58.8719     8.5339     0.0934     2.4559     0.2054   -82.3509    30.2927    20.2779
 2863.0000    83.6031   -51.4808     8.5339     0.1009     2.4619     0.2171   -82.2530    26.9272    17.9041
 2863.5000    88.7910   -51.6560     8.5339     0.0949     2.4589     0.2249   -82.1547    23.9357    16.7066
 2864.0000    89.6627   -59.2953     8.5189     0.0919     2.4366     0.2282   -82.0567    22.6430    16.5889
 2864.5000    84.8646   -66.9641     8.5290     0.0874     2.4169     0.2219   -81.9588    22.7980    16.7018
 2865.0000    77.9539   -67.1043     8.5339     0.0937     2.4146     0.2144   -81.8608    23.5968    17.1676
 2865.5000    71.9469   -67.2445     8.5339     0.1009     2.4191     0.2066   -81.7628    24.6139    17.6482
 2866.0000    68.0482   -67.4199     8.5339     0.0979     2.4206     0.1989   -81.6646    25.9897    18.5179
 2866.5000    66.2580   -67.5601     8.5339     0.0934     2.4169     0.1963   -81.5670    27.2760    19.4330
 2867.0000    65.0744   -67.7003     8.5339     0.0949     2.4123     0.1987   -81.4680    28.2326    20.1135
 2867.5000    63.8824   -67.8411     8.5339     0.0979     2.4041     0.1981   -81.5368    29.2218    21.2934
 2868.0000    63.0000   -68.0158     8.5339     0.1009     2.3988     0.1962   -81.7309    30.4567    22.9286
 2868.5000    61.8164   -75.6522     8.5339     0.1009     2.3951     0.1927   -81.9273    31.7438    23.4065
 2869.0000    60.9298   -83.2887     8.5339     0.1039     2.3928     0.1900   -82.1238    33.1314    23.7284
 2869.5000    60.0390   -83.4333     8.5339     0.1069     2.3999     0.1906   -82.3179    34.7217    24.3894
 2870.0000    60.0602   -83.6042     8.5339     0.1099     2.4116     0.1908   -82.3867    36.1890    25.0696
 2870.5000    60.6839   -76.2131     8.5416     0.1052     2.4168     0.1884   -82.2847    37.9802    25.9475
 2871.0000    61.0021   -68.8906     8.5490     0.0949     2.4010     0.1842   -82.1842    41.2619    27.2471
 2871.5000    57.4047   -69.0674     8.5490     0.0844     2.3748     0.1794   -82.0842    46.0869    29.3753
 2872.0000    48.9880   -69.2077     8.5490     0.0814     2.3628     0.1722   -82.0607    50.0708    31.2560
 2872.5000    38.1658   -76.8442     8.5641     0.0769     2.3583     0.1620   -82.1341    52.2474    32.5748
 2873.0000    34.8653   -84.4827     8.5490     0.0694     2.3590     0.1559   -82.2069    55.1483    33.7148
 2873.5000    35.4890   -84.6559     8.5339     0.0499     2.3627     0.1502   -82.2801    56.2978    34.1806
 2874.0000    36.1084   -92.2924     8.5339     0.0424     2.3957     0.1439   -82.3539    57.8704    35.1328
 2874.5000    36.4309   -84.9325     8.5189     0.0589     2.4407     0.1337   -82.4258    61.5792    36.3619
 2875.0000    37.6527   -85.1117     8.5339     0.0784     2.4752     0.1162   -82.3614    69.2575    39.5002
 2875.5000    42.1878   -85.2519     8.5189     0.0949     2.4872     0.1057   -82.2877    78.9789    45.0357
 2876.0000    47.0241   -70.3645     8.5339     0.1069     2.4872     0.1015   -82.2142    88.3798    55.4000
 2876.5000    51.8646   -70.5399     8.5339     0.0979     2.4715     0.1006   -82.1409    98.5264    59.3574
 2877.0000    50.3756   -70.7151     8.5339     0.0754     2.4272     0.1057   -82.0709    90.6637    55.0043
 2877.5000    44.9709   -70.8554     8.5339     0.0304     2.4009     0.1207   -82.1560    76.7805    47.1554
 2878.0000    44.3855   -70.9956     8.5339     0.0212     2.3747     0.1348   -82.4458    61.0953    40.8544
 2878.5000    45.9128   -78.6357     8.5339     0.0169     2.3474     0.1480   -82.7337    55.0646    35.3319
 2879.0000    47.7371   -86.3036     8.5339     0.0169     2.3447     0.1528   -83.0226    54.6778    33.8927
 2879.5000    49.5613   -78.9125     8.5339     0.0169     2.3461     0.1516   -83.3112    54.6897    34.1222
 2880.0000    50.7831   -71.5892     8.5490     0.0169     2.3491     0.1474   -83.5999    54.6619    35.3170
 2880.5000    51.1013   -71.7668     8.5490     0.0199     2.3566     0.1438   -83.8890    54.6548    36.5549
 2881.0000    48.1106   -86.8995     8.5641     0.0019     2.3641     0.1432   -84.1784    53.8967    36.8024
 2881.5000    47.2240   -94.5361     8.5943     0.0034     2.3671     0.1540   -84.4368    50.9859    34.8177
 2882.0000    47.5422  -102.1739     8.6094     0.0139     2.3655     0.1624   -84.3958    47.2428    32.2653
 2882.5000    50.8767   -94.8165     8.6244     0.0139     2.3589     0.1697   -84.3136    43.1729    30.1074
 2883.0000    52.0985   -50.0143     8.6395     0.0139     2.3506     0.1738   -84.2319    40.5515    28.4837
