~VERSION INFORMATION
 VERS.                2.0:   CWLS LOG ASCII STANDARD - VERSION 2.0
 WRAP.                 NO:   ONE LINE PER DEPTH STEP
~WELL INFORMATION
#MNEM.UNIT      DATA TYPE    INFORMATION
#----------   ------------   ------------------------------
 STRT.F           27.5000:   START DEPTH
 STOP.F         5889.0000:   STOP DEPTH
 STEP.F            0.5000:   STEP LENGTH
 NULL.          -999.2500:   NO VALUE
 COMP.   LAWRENCE ALLISON:   COMPANY
 WELL. LAWRENCE "X" #25-11:   WELL
 FLD .        N.P.R NO. 3:   FIELD
 LOC .      S11 T38N R78W:   LOCATION
 CNTY.            NATRONA:   COUNTY
 STAT.            WYOMING:   STATE
 CTRY. UNITED STATES OF AMERICA:   COUNTRY
 SRVC.      DRESSER ATLAS:   SERVICE COMPANY
 DATE.        09-FEB-1983:   LOGDATE
 API .     49025109170000:   API NUMBER
~CURVE INFORMATION
#MNEM.UNIT       API CODE    CURVE DESCRIPTION
#----------   ------------   ------------------------------
 DEPT.F                  :   
 CN  .DEC    42 890 03 00:   NEUTRON POROSITY
 GRD .GAPI   45 310 01 00:   GAMMA RAY FROM DENSITY LOG
 CORR.G/C3   45 356 01 00:   DENSITY CORRECTION
 DEN .G/C3   45 350 01 00:   BULK DENSITY
 CALD.IN     45 280 60 00:   CALIPER FROM DENSITY LOG
 TEND.LBS    45 635 01 00:   TENSION FORM DENSITY LOG
 GRS .GAPI   60 310 01 00:   GAMMA RAY FROM SONIC LOG
 TENS.LBS    60 635 01 00:   TENSION FROM SONIC
 DT  .US/F   60 520 00 00:   DELTA TIME
 SPR .MV     11 010 01 00:   SPONTANEOUS POTENTIAL FROM RES.
 RD  .OHMM   11 220 10 00:   RESISTIVITY DEEP
 RS  .OHMM   11 220 09 00:   RESISTIVITY SHALLOW
 RMLL.OHMM   11 270 04 00:   MICRO LATEROLOG
 TENR.LBS    11 635 01 00:   TENSION FROM RES.
~PARAMETER INFORMATION
#MNEM.UNIT          VALUE    DESCRIPTION
#----------   ------------   ------------------------------
 EKB .F         5196.0000:   Kelly bushing
 EGL .F         5186.0000:   Ground level
 TD  .F         5883.0000:   Total depth
 CLNT.            A2DTECH:   Client Code
 SL  . 1989' FSL & 1148' FWL:   Surface Location
 PD  .                 GL:   Permanent Datum
 EPD .F              5186:   Elevation Permanent Datum
 LMF .                 KB:   Log Measured From
 DMF .                 KB:   Drilling Measured From
 DAPD.F                10:   Feet Above Permanent Datum
 DATE.        09-FEB-1983:   Date Logged [DD-MMM-YYYY]
 DD  .F              5883:   Depth driller
 DL  .F              5882:   Depth logger
 BLI .F              5871:   Bottom log interval
 TLI .F               700:   Top log interval
 CS1 .IN            9.625:   Casing size
 CBD1.      9.625" @ 701':   Casing driller 1
 CBL1.F               700:   Casing logger 1
 BS1 .IN             8.75:   Bit size
 BSD1.F              5883:   Depth drilled with bit1
 DFT .    HEC/DRISPAC/KCL:   Type fluid in hole
 DFD .                  9:   Density
 DFV .                 35:   Viscosity
 DFPH.                  8:   pH
 DFL .                6.4:   Fluid loss
 MSS .           FLOWLINE:   Source of sample
 RMS .OHMM           0.23:   Rm
 MST .F                50:   Rm Meas. temp.
 RMF .OHMM           0.17:   Rmf
 MFST.F                54:   Rmf Meas. temp.
 MFSS.               MEAS:   Source Rmf.
 BHT .F               176:   BHT.
 TCS .HRS              10:   Time Circ. stopped
 MRT .F               176:   Maximum recorded temp.
 LUN .               6274:   Logging unit number
 LUL .               GLTE:   Logging unit location
 ENGI.          TOLLEFSON:   Recorded By
 WITN.           JENNINGS:   Witnessed by
 ORIG.           5" PRINT:   Origin of data
 UWI .     49025109170000:   Unique Well ID
 DICO. A2D TECHNOLOGIES, INC.:   Digitizing Company
 RMC .OHMM           0.41:   Rmc
 MCST.F                54:   Rmc Meas. temp.
 MCSS.               MEAS:   Source Rmc.
~OTHER INFORMATION
~A  DEPTH       CN        GRD       CORR        DEN       CALD       TEND        GRS       TENS         DT        SPR         RD         RS       RMLL       TENR
# ...
  689.0000     0.3279    81.9044  -999.2500  -999.2500  -999.2500  -999.2500    62.9711  -999.2500  -999.2500  -999.2500  -999.2500  -999.2500  -999.2500  -999.2500
  689.5000     0.3280    81.8511  -999.2500  -999.2500  -999.2500  -999.2500    65.0568  -999.2500  -999.2500  -999.2500  -999.2500  -999.2500  -999.2500  -999.2500
  690.0000     0.3280    81.7979  -999.2500  -999.2500  -999.2500  -999.2500    64.4876  -999.2500  -999.2500  -999.2500  -999.2500  -999.2500  -999.2500  -999.2500
  690.5000     0.3280    81.7446  -999.2500  -999.2500  -999.2500  -999.2500    62.4435  -999.2500  -999.2500  -999.2500  -999.2500  -999.2500  -999.2500  -999.2500
  691.0000     0.3277    81.7108  -999.2500  -999.2500  -999.2500  -999.2500    61.5741  -999.2500  -999.2500  -999.2500  -999.2500  -999.2500  -999.2500  -999.2500
  691.5000     0.3262    82.3291  -999.2500  -999.2500  -999.2500  -999.2500    61.3000  -999.2500  -999.2500  -999.2500  -999.2500  -999.2500  -999.2500  -999.2500
  692.0000     0.3389    82.9438  -999.2500  -999.2500  -999.2500  -999.2500    61.3215  -999.2500  -999.2500  -999.2500  -999.2500  -999.2500  -999.2500  -999.2500
  692.5000     0.3677    81.7568  -999.2500  -999.2500  -999.2500  -999.2500    62.0008  -999.2500  -999.2500  -999.2500  -999.2500  -999.2500  -999.2500  -999.2500
  693.0000     0.3750    78.7714  -999.2500  -999.2500  -999.2500  -999.2500    64.6331  -999.2500  -999.2500  -999.2500  -999.2500  -999.2500  -999.2500  -999.2500
  693.5000     0.3654    77.8812  -999.2500  -999.2500  -999.2500  -999.2500    67.0048  -999.2500  -999.2500  -999.2500  -999.2500  -999.2500  -999.2500  -999.2500
  694.0000     0.3564    77.8988  -999.2500  -999.2500  -999.2500  -999.2500    67.6067  -999.2500  -999.2500  -999.2500  -999.2500  -999.2500  -999.2500  -999.2500
  694.5000     0.3579    79.1142  -999.2500  -999.2500  -999.2500  -999.2500    68.2095  -999.2500  -999.2500  -999.2500  -999.2500  -999.2500  -999.2500  -999.2500
  695.0000     0.3585    80.6334  -999.2500  -999.2500  -999.2500  -999.2500    68.2303  -999.2500  -999.2500  -999.2500  -999.2500  -999.2500  -999.2500  -999.2500
  695.5000     0.3468    81.5484  -999.2500  -999.2500  -999.2500  -999.2500    68.2511  -999.2500  -999.2500  -999.2500  -999.2500  -999.2500  -999.2500  -999.2500
  696.0000     0.3291    81.2587  -999.2500  -999.2500  -999.2500  -999.2500    67.3869  -999.2500  -999.2500  -999.2500  -999.2500  -999.2500  -999.2500  -999.2500
  696.5000     0.3355    82.7779  -999.2500  -999.2500  -999.2500  -999.2500    64.7529  -999.2500  -999.2500  -999.2500  -999.2500  -999.2500  -999.2500  -999.2500
  697.0000     0.3390    87.3001  -999.2500  -999.2500  -999.2500  -999.2500    63.8426  -999.2500  -999.2500  -999.2500  -999.2500  -999.2500  -999.2500  -999.2500
  697.5000     0.3237    92.3731  -999.2500  -999.2500  -999.2500  -999.2500    65.3844  -999.2500  -999.2500  -999.2500  -999.2500  -999.2500  -999.2500  -999.2500
  698.0000     0.3042   103.4341  -999.2500  -999.2500  -999.2500  -999.2500    67.4701  -999.2500  -999.2500  -999.2500  -999.2500  -999.2500  -999.2500  -999.2500
  698.5000     0.3054   109.8651  -999.2500  -999.2500  -999.2500  -999.2500    67.1960  -999.2500  -999.2500  -999.2500  -999.2500  -999.2500  -999.2500  -999.2500
  699.0000     0.3171   111.6846  -999.2500  -999.2500  -999.2500  -999.2500    64.2669  -999.2500  -999.2500  -999.2500  -999.2500  -999.2500  -999.2500  -999.2500
  699.5000     0.3225   111.9955  -999.2500  -999.2500  -999.2500  -999.2500    62.2176  -999.2500  -999.2500  -999.2500  -999.2500  -999.2500  -999.2500   -45.9968
  700.0000     0.3253   112.9141  -999.2500     2.3768    10.7808   -25.4980    65.1952  -999.2500  -999.2500  -999.2500     3.6900  -999.2500  -999.2500   -45.9968
  700.5000     0.3120   115.6309     0.2019     2.3768    11.4518   -25.4980    72.5969  -999.2500  -999.2500   186.6650     3.9819    11.4806     2.8535   -45.9968
  701.0000     0.3048   116.8498     0.1447     2.3799    11.7531   -25.4980    72.3215  -999.2500  -999.2500   182.9065     1.9884    20.9517     3.2742   -45.9968
  701.5000     0.3046   115.6592     0.0785     2.3829    12.0545   -25.4980    71.7048  -999.2500  -999.2500   179.1412     1.8039    24.7194     4.0542   -45.9968
  702.0000     0.3037   117.4787     0.0154     2.4674    12.2658   -25.4980    71.1938  -999.2500  -999.2500   175.5425 30441.7422    28.7519     5.4551   -45.9968
  702.5000     0.2998   118.1265    -0.0060     2.5066    12.4323   -25.4980    72.4250  -999.2500  -999.2500   173.7333 60316.3086    32.5390     6.0497   -45.9968
  703.0000     0.2787   116.8669    -0.0086     2.4908    12.5384   -25.4980    74.8058  -999.2500  -999.2500   172.6727 61998.5664    36.3183     6.2516   -45.9968
  703.5000     0.2667   114.8220    -0.0025     2.4735    12.6296    -9.6103    78.3519  -999.2500  -999.2500   171.6120 62417.1562    41.6751     6.2904   -45.9968
  704.0000     0.2655   113.6350    -0.0024     2.4622    12.7057     5.0822    85.4577  -999.2500  -999.2500   170.5070 61964.4414    41.0630     6.1963   -45.9968
  704.5000     0.2633   113.3483     0.0022     2.4540    12.7671    19.7747    91.6785  -999.2500  -999.2500   169.1881 60669.5547    40.4529     6.0629   -45.9968
  705.0000     0.2580   113.9973     0.0053     2.4510    12.8132    34.4673    94.0645  -999.2500  -999.2500   168.4269 59817.9922    39.0373     5.8090   -45.9968
  705.5000     0.2641   115.1825     0.0068     2.4541    12.8293    49.1598    94.9756  -999.2500  -999.2500   167.6656 58567.9609    35.6437     5.6839   -45.9968
  706.0000     0.2731   116.3978    -0.0081     2.4624    12.8303    63.8523    96.1817  -999.2500  -999.2500   166.8962 58553.0820    31.4376     5.6391   -45.9968
  706.5000     0.2770   117.6132    -0.0020     2.4686    12.8317    78.5448    98.5677  -999.2500  -999.2500   165.9902 58535.7227    26.0524     5.7136   -45.9968
  707.0000     0.2665   118.8824     0.0086     2.4708    12.8327    94.0239    98.7536  -999.2500  -999.2500   165.2290 58518.3711    20.2859     5.9486   -45.9968
  707.5000     0.2617   120.9483     0.0147     2.4618    12.8488    91.5588    95.6701  -999.2500  -999.2500   164.4677 58503.5000    17.2785     6.1097   -45.9968
  708.0000     0.2669   121.8634     0.0208     2.4264    12.8649    88.9542    92.7464  -999.2500  -999.2500   163.8562 58486.1602    16.5601     6.0182   -45.9968
  708.5000     0.2798   121.2769     0.0239     2.3910    12.8962    86.3496    91.5861  -999.2500  -999.2500   162.7923 30030.8906    15.6532     5.5329   -45.9968
  709.0000     0.2925   120.0702     0.0285     2.3330    12.9423    81.8327    93.9786  -999.2500  -999.2500   162.3305     0.2089    13.9910     3.9643   -45.9968
  709.5000     0.2991   118.9028     0.0436     2.2743    12.9884    63.6006    95.4797  -999.2500  -999.2500   161.8686     0.7701    12.3439     0.8570   -45.9968
  710.0000     0.2967   118.3164     0.0934     2.2509    13.0195    45.3685    96.9808  -999.2500  -999.2500   161.5565  4493.3931    10.6259     0.7004   -45.9968
  710.5000     0.2934   118.3340     0.1311     2.2700    13.0359    27.1365    98.1868  -999.2500  -999.2500   161.0943  7130.4497     9.9423     0.6759   -45.9968
  711.0000     0.2879   118.3484     0.1071     2.3369    13.0069    15.6937    99.0979  -999.2500  -999.2500   161.0787  7329.6333    10.4242     0.6990   -45.9968
  711.5000     0.2796   118.9665     0.0454     2.3890    12.9629    20.4691    99.0646  -999.2500  -999.2500   160.9162  6511.6597    11.1614     1.0877   -45.9968
  712.0000     0.2748   119.5812     0.0109     2.4176    12.8739    25.5578    98.8487  -999.2500  -999.2500   160.9035     0.7274    11.7906     3.9939   -45.9968
  712.5000     0.2769   120.1960     0.0004     2.4403    12.3462    32.0842    98.5558  -999.2500  -999.2500   160.5913     0.6832    12.2751     5.7593   -45.9968
  713.0000     0.2760   119.0089     0.0185     2.4501    11.6900    34.2629    98.3110  -999.2500  -999.2500   160.4257     0.5394    12.6054     5.9563   -45.9968
