~VERSION INFORMATION
 VERS.                2.0:   CWLS LOG ASCII STANDARD - VERSION 2.0
 WRAP.                 NO:   ONE LINE PER DEPTH STEP
~WELL INFORMATION
#MNEM.UNIT      DATA TYPE    INFORMATION
#----------   ------------   ------------------------------
 STRT.F            1.5000:   START DEPTH
 STOP.F          985.0000:   STOP DEPTH
 STEP.F            0.5000:   STEP LENGTH
 NULL.          -999.2500:   NO VALUE
 COMP.       FLUOR DANIEL:   COMPANY
 WELL.  FLUOR 41 "X" #1-2:   WELL
 FLD .          N.P.R. #3:   FIELD
 LOC .       S2 T38N R78W:   LOCATION
 CNTY.            NATRONA:   COUNTY
 STAT.            WYOMING:   STATE
 CTRY. UNITED STATES OF AMERICA:   COUNTRY
 SRVC.     ATLAS WIRELINE:   SERVICE COMPANY
 DATE.        09-AUG-1994:   LOGDATE
 API .     49025226450000:   API NUMBER
~CURVE INFORMATION
#MNEM.UNIT       API CODE    CURVE DESCRIPTION
#----------   ------------   ------------------------------
 DEPT.F                  :   
 GRR .GAPI   07 310 01 00:   GAMMA RAY FROM RESISTIVITY
 TENR.LBS    07 635 01 00:   TENSION FROM RESISTIVITY
 RILD.OHMM   07 120 46 00:   INDUCTION LOG DEEP RESISTIVITY
 RILM.OHMM   07 120 44 00:   INDUCTION LOG MEDIUM RESISTIVITY
~PARAMETER INFORMATION
#MNEM.UNIT          VALUE    DESCRIPTION
#----------   ------------   ------------------------------
 EKB .F         5143.0000:   Kelly bushing
 EGL .F         5133.0000:   Ground level
 EDF .F         5142.0000:   Drilling floor
 TD  .F          970.0000:   Total depth
 CLNT.            A2DTECH:   Client Code
 PD  .                 GL:   Permanent Datum
 EPD .F              5133:   Elevation Permanent Datum
 LMF .                 KB:   Log Measured From
 DMF .                 KB:   Drilling Measured From
 DAPD.F                10:   Feet Above Permanent Datum
 DATE.        09-AUG-1994:   Date Logged [DD-MMM-YYYY]
 DD  .F               970:   Depth driller
 DL  .F               970:   Depth logger
 BLI .F               962:   Bottom log interval
 TLI .F                 0:   Top log interval
 CS1 .IN            9.625:   Casing size
 CBD1.       9.625" @ 56':   Casing driller 1
 CBL1.F                59:   Casing logger 1
 BS1 .IN             8.75:   Bit size
 BSD1.F               970:   Depth drilled with bit1
 DFT .                AIR:   Type fluid in hole
 MRT .F                94:   Maximum recorded temp.
 LUN .            HL 6530:   Logging unit number
 LUL .             CASPER:   Logging unit location
 ENGI.      PAT RASMUSSEN:   Recorded By
 WITN.        GARY STRONG:   Witnessed by
 ORIG.           5" PRINT:   Origin of data
 UWI .     49025226450000:   Unique Well ID
 DICO. A2D TECHNOLOGIES, INC.:   Digitizing Company
 SL  . 173' FNL & 2204' FWL:   Surface Location
~OTHER INFORMATION
~A    DEPT      GRR      TENR       RILD       RILM   
# ...
  366.5000   118.4636   -26.6974     8.7470     8.5537
  367.0000   115.7263   -18.8035     8.8714     8.4920
  367.5000   111.1681   -10.9096     8.8083     8.4306
  368.0000   108.1273    -3.0121     8.6852     8.4278
  368.5000   107.8180   -10.1820     8.5639     8.4256
  369.0000   108.7226   -24.8785     8.3274     8.3067
  369.5000   107.8048   -39.4840     8.0975     8.0760
  370.0000   108.1024   -39.1202     7.8739     7.7431
  370.5000   109.3105   -38.7565     7.5953     7.4758
  371.0000   111.7326   -38.3927     7.2402     7.0575
  371.5000   111.7267   -38.0271     6.4756     6.2761
  372.0000   109.5923   -37.6506     5.1091     4.8477
  372.5000   108.6800   -37.2104     3.7860     4.0712
  373.0000   114.1355   -36.8467     3.3393     3.3483
  373.5000   127.1797   -36.4829     2.7607     2.9732
  374.0000   138.7065   -36.1191     2.4399     2.5855
  374.5000   148.1088   -35.7553     2.4566     2.5490
  375.0000   147.4960   -35.3916     2.4908     2.5691
  375.5000   147.4810   -27.4849     2.5787     2.6379
  376.0000   145.8694   -27.0430     2.8032     2.8873
  376.5000   135.0338   -26.6792     3.0900     3.2954
  377.0000   129.2616   -18.7853     3.5692     4.0048
  377.5000   118.0266   -18.4215     4.7579     4.9697
  378.0000   104.6672   -18.0577     5.6624     6.0395
  378.5000   101.6264   -17.6940     7.3777     7.6933
  379.0000   100.7101   -17.3193     8.7802     8.9812
  379.5000   101.9182   -24.4056    10.3048    10.2506
  380.0000   101.9108   -31.6629    10.9702    10.9878
  380.5000   100.0840   -38.7383    11.2904    11.2955
  381.0000    98.2572   -38.3745    11.1207    11.2140
  381.5000    97.6443   -38.0107    10.4434    10.3833
  382.0000    98.8524   -37.6470     8.6515     8.8895
  382.5000   102.4884   -37.2741     7.9013     7.7969
  383.0000   110.3975   -29.2983     6.7305     6.1497
  383.5000   117.1212   -28.9346     6.2745     5.3478
  384.0000   125.8381   -28.5708     6.1032     5.1632
  384.5000   134.0265   -35.8281     6.0179     5.3449
  385.0000   148.5881   -35.3734     6.0592     5.8098
  385.5000   145.2439   -35.0096     6.1009     6.4104
  386.0000   134.0089   -34.6458     6.1855     7.1074
  386.5000   112.1517   -41.8122     6.6309     7.7796
  387.0000   111.5389   -41.3575     7.3352     9.0668
  387.5000   112.7469   -48.6147     9.1971     9.5844
  388.0000   111.5257   -48.1600    10.1380    10.3456
  388.5000   106.0570   -32.7360    11.0206    11.0126
  389.0000   103.9267    -9.7819    11.6507    11.4799
  389.5000   100.5824    -1.8825    11.9783    11.8229
  390.0000   101.1835    -1.4333    12.1447    12.1311
  390.5000   102.9986    -8.6906    12.3135    12.2990
  391.0000   102.3843   -23.2961    12.4846    12.4675
  391.5000   101.1644   -30.5534    12.7462    12.5513
  392.0000   102.0690   -52.7800    12.9237    12.7241
  392.5000   106.9190   -44.7951    13.1033    13.1720
  393.0000   107.8251   -36.8976    13.1927    13.2606
  393.5000   104.4793   -36.4465    13.2877    13.2561
  394.0000   103.5630   -36.0827    13.4672    13.4386
  394.5000   103.2534   -43.3400    13.5596    13.5299
  395.0000   102.9428   -50.5064    13.6530    13.7162
  395.5000   103.2404   -57.6727    13.7466    13.8075
  396.0000   105.6625   -49.6879    13.8408    13.8038
  396.5000   109.6020   -41.7922    13.8385    13.8000
  397.0000   108.6857   -48.9603    13.9334    13.8929
  397.5000   105.3414   -56.1267    14.0289    13.8882
  398.0000   102.9074   -55.6720    14.2234    13.9969
  398.5000   105.6317   -40.2480    14.2215    14.0760
  399.0000   104.7153   -32.3540    14.4196    14.1712
  399.5000   103.4955   -31.9903    14.5180    14.2656
  400.0000   102.3841   -31.6265    14.8226    14.5632
  400.5000   100.1484   -38.7958    15.2897    15.2060
  401.0000   102.2706   -38.3447    15.9932    16.0502
  401.5000   102.2670   -37.9838    16.7888    16.1585
  402.0000   102.8710   -45.2433    17.8704    16.7377
  402.5000   104.6883   -59.8524    18.9292    18.0573
  403.0000   105.8994   -44.4277    20.5299    19.6292
  403.5000   106.5042   -28.9200    21.8525    21.0424
  404.0000   104.9831   -28.5591    23.4230    23.0341
  404.5000   100.1243   -28.1983    24.9321    24.1814
  405.0000    94.9519   -27.8374    26.9107    24.7047
  405.5000    94.3515   -35.0151    28.2735    25.2031
  406.0000    99.8114   -34.6458    29.2396    25.0229
  406.5000   107.0922   -34.1947    28.8273    24.6715
  407.0000   109.5180   -33.8338    27.6397    23.9881
  407.5000   106.7829   -33.4729    26.3170    23.0007
  408.0000   101.8592   -33.1121    25.0577    21.3761
  408.5000   100.0996   -32.7512    23.4924    20.1379
  409.0000   100.7037   -32.3795    21.4839    19.1748
  409.5000   101.9147   -39.5596    20.5988    18.2577
  410.0000   103.4292   -24.0483    19.7502    17.7520
  410.5000   105.8543    -8.6272    18.6745    17.6198
  411.0000   106.1548    -8.2663    17.9052    17.2560
  411.5000   104.0268   -15.4368    17.6526    17.1327
  412.0000   103.4169   -31.3250    17.5243    17.0102
  412.5000   104.6279   -37.3042    17.5196    16.8887
  413.0000   105.5355   -44.4734    17.5149    16.8853
  413.5000   106.4430   -51.6427    17.5102    16.8818
  414.0000   107.6823   -43.6615    17.3840    16.7604
  414.5000   107.9547   -35.7681    17.3793    16.6406
  415.0000   104.9161   -35.3194    17.1331    16.6373
  415.5000   101.8783   -34.9585    17.0096    16.6340
  416.0000   100.9657   -34.5977    16.8870    16.5151
  416.5000   105.8179   -41.8571    16.5333    16.2830
  417.0000   110.4016   -48.9458    16.0746    15.9421
  417.5000   110.0602   -41.0392    15.2947    15.3928
  418.0000   108.8433   -40.5941    13.3102    13.0184
  418.5000   110.3578   -40.2332    11.4955    11.5610
  419.0000   116.1212   -39.8724    10.7190    10.7732
  419.5000   124.0091   -39.5115     9.9950     9.7073
  420.0000   130.9865   -39.1506     8.9383     8.5012
  420.5000   130.0731   -38.7801     8.2107     7.8173
  421.0000   132.4973   -38.3387     7.2987     7.1385
  421.5000   135.2258   -30.4477     6.9494     6.9408
  422.0000   133.0985   -30.0868     6.8039     6.8432
  422.5000   132.4886   -29.7259     6.6614     6.8416
  423.0000   135.4033   -36.8976     6.5674     6.8884
  423.5000   140.3728   -36.5211     6.5201     6.9349
  424.0000   137.0315   -43.7036     6.4726     6.9335
  424.5000   130.0483   -65.9331     6.5166     6.9806
  425.0000   123.9756   -57.9519     6.5599     6.8822
  425.5000   123.6692   -42.5307     6.6040     6.8808
  426.0000   131.2528   -27.1084     6.6023     6.8316
  426.5000   133.9820   -26.6586     6.6467     6.8303
  427.0000   131.8540   -26.2977     6.6984     6.7814
  427.5000   129.7266   -33.4669     6.7363     6.7801
  428.0000   130.9377   -40.6362     6.7816     6.7784
  428.5000   133.3769   -40.2753     6.7793     6.8248
  429.0000   136.6974   -54.9747     6.7775     6.8708
  429.5000   135.7841   -46.9935     6.8231     6.8694
  430.0000   135.4777   -46.6326     6.8689     6.9161
  430.5000   136.0817   -53.8921     6.9151     6.9200
  431.0000   137.2928   -53.4410     6.9128     6.9617
  431.5000   136.9601   -45.5500     6.8629     6.9600
  432.0000   131.2164   -45.1807     6.8611     6.9586
  432.5000   126.6612   -44.7381     6.7644     6.8609
  433.0000   129.0862   -36.8471     6.7155     6.8118
  433.5000   133.3321   -36.4862     6.7134     6.7628
  434.0000   136.7001   -51.2758     6.7116     6.7614
  434.5000   134.1983   -65.8885     6.6632     6.7601
  435.0000   133.3227   -65.5120     6.6151     6.6651
  435.5000   132.7128   -57.5429     6.5675     6.5715
  436.0000   131.7994   -57.1820     6.5201     6.4792
  436.5000   127.8511   -49.2910     6.4727     6.4776
  437.0000   128.4552   -41.4000     6.4709     6.4763
  437.5000   132.1951   -33.5090     6.5149     6.4750
  438.0000   136.6429   -33.0579     6.5127     6.5193
  438.5000   136.9442   -32.6971     6.5565     6.5177
  439.0000   134.8161   -32.3795     6.5547     6.5620
