~VERSION INFORMATION
 VERS.                2.0:   CWLS LOG ASCII STANDARD - VERSION 2.0
 WRAP.                 NO:   ONE LINE PER DEPTH STEP
~WELL INFORMATION
#MNEM.UNIT      DATA TYPE    INFORMATION
#----------   ------------   ------------------------------
 STRT.F            0.0000:   START DEPTH
 STOP.F         3440.0000:   STOP DEPTH
 STEP.F            0.5000:   STEP LENGTH
 NULL.          -999.2500:   NO VALUE
 COMP. FLOOR DANIEL (NPSOR):   COMPANY
 WELL. FLOOR DANIEL "SHX" #48-34:   WELL
 FLD .                NPR:   FIELD
 LOC .      S34 T39N R78W:   LOCATION
 CNTY.            NATRONA:   COUNTY
 STAT.            WYOMING:   STATE
 CTRY. UNITED STATES OF AMERICA:   COUNTRY
 SRVC.      WESTERN ATLAS:   SERVICE COMPANY
 DATE.        06-APR-1995:   LOGDATE
 API .     49025109220000:   API NUMBER
~CURVE INFORMATION
#MNEM.UNIT       API CODE    CURVE DESCRIPTION
#----------   ------------   ------------------------------
 DEPT.F                  :   
 TEND.LBS    45 635 01 00:   TENSION FROM DENSITY LOG
 ZCOR.G/C3   45 356 01 00:   DENSITY CORRECTION
 ZDEN.G/C3   45 350 01 00:   BULK DENSITY
 CALD.IN     45 280 60 00:   CALIPER FROM DENSITY LOG
 CNC .DEC    42 890 03 00:   NEUTRON POROSITY SANDSTONE
 GRR .GAPI   07 310 01 00:   GAMMA RAY FROM RESISTIVITY
 TENR.LBS    07 635 01 00:   TENSION FROM RESISTIVITY
 RFOC.OHMM   07 220 04 00:   RESISTIVITY FOCUSED LOG RES.
 RILD.OHMM   07 120 46 00:   DEEP INDUCTION RESISTIVITY
 RILM.OHMM   07 120 44 00:   INDUCTION LOG MEDIUM RESISTIVITY
~PARAMETER INFORMATION
#MNEM.UNIT          VALUE    DESCRIPTION
#----------   ------------   ------------------------------
 EKB .F         5182.0000:   Kelly bushing
 EGL .F         5172.0000:   Ground level
 EDF .F            0.0000:   Drilling floor
 EPD .F            0.0000:   Permanent datum
 TD  .F         3442.0000:   Total depth
 DATE.        06-APR-1995:   Date logged
 CLNT.            A2DTECH:   Client Code
 SL  . 97' FSL & 2256 FWL:   Surface Location
 PD  .                 GL:   Permanent Datum
 DD  .F              3442:   Depth driller
 DL  .F              3422:   Depth logger
 BLI .F              3420:   Bottom log interval
 CS1 .IN            8.625:   Casing size
 CBD1.      8.625" @ 667':   Casing driller 1
 BS1 .IN            7.875:   Bit size
 BSD1.F               AIR:   Depth drilled with bit1
 ENGI.      PAT RASMUSSEN:   Recorded By
 WITN.        GARY STRONG:   Witnessed by
 ORIG.           5" PRINT:   Origin of data
 UWI .     49025109220000:   Unique Well ID
 DICO. A2D TECHNOLOGIES, INC.:   Digitizing Company
 MRT .F               142:   Maximum recorded temp.
~OTHER INFORMATION
~A    DEPT    TEND       ZCOR       ZDEN       CALD        CNC         GRR      TENR       RFOC       RILD       RILM   
# ...
 2713.5000   -82.0160     0.0230     2.5420     8.6030     0.1690   110.3850   -51.8480     9.3280     8.6530     8.7290
 2714.0000   -82.0160     0.0280     2.5390     8.6050     0.1660   107.2400   -54.5050     9.8580     8.5740     8.6290
 2714.5000   -82.0160     0.0320     2.5390     8.6070     0.1700   108.5070   -57.1630    10.1080     8.4960     8.5290
 2715.0000   -82.0160     0.0350     2.5380     8.6090     0.1740   109.3180   -59.8200    10.2120     8.4170     8.4290
 2715.5000   -82.0160     0.0330     2.5380     8.6110     0.1780   107.6570   -62.4780    10.2120     8.3390     8.2980
 2716.0000   -82.0160     0.0310     2.5330     8.6130     0.1820   106.8630   -65.1350    10.0280     8.2600     8.2120
 2716.5000   -82.0160     0.0300     2.5310     8.6150     0.1860   106.8590   -67.7930     8.6720     8.2120     8.2120
 2717.0000   -82.0160     0.0280     2.5310     8.6170     0.1840   108.1130   -70.4510     8.8310     8.2120     8.2120
 2717.5000   -82.0160     0.0260     2.5310     8.6190     0.1780   109.6260   -73.1080     9.3140     8.2120     8.2120
 2718.0000   -83.1780     0.0240     2.5310     8.6200     0.1730   109.0680   -75.7660     9.9040     8.2120     8.3800
 2718.5000   -84.6990     0.0220     2.5310     8.6190     0.1730   107.0280   -78.4230    10.3990     8.2920     8.5410
 2719.0000   -86.2200     0.0200     2.5270     8.6180     0.1750   106.1230   -81.0810    10.0160     8.4590     8.7020
 2719.5000   -87.7410     0.0210     2.5270     8.6180     0.1780   108.0390   -81.6860     9.6630     8.6270     8.8640
 2720.0000   -89.2620     0.0230     2.5280     8.6170     0.1800   110.4380   -80.4240     9.1580     8.7950     9.0250
 2720.5000   -90.7830     0.0230     2.5290     8.6160     0.1740   112.4780   -79.1620     9.3900     8.9630     9.1580
 2721.0000   -92.3040     0.0210     2.5280     8.6160     0.1690   111.7000   -77.8990     9.7970     9.1300     9.1580
 2721.5000   -93.8260     0.0190     2.5270     8.6150     0.1620   110.1350   -76.6370    10.2050     9.3250     9.1580
 2722.0000   -95.3470     0.0160     2.5240     8.6150     0.1630   109.1580   -75.3750    10.5900     9.5120     9.3010
 2722.5000   -96.8680     0.0140     2.5230     8.6140     0.1640   108.4910   -74.1120    10.3350     9.7350     9.4720
 2723.0000   -98.3890     0.0120     2.5230     8.6130     0.1650   109.9860   -72.8500    10.2120     9.8630     9.6440
 2723.5000   -99.9100     0.0140     2.5260     8.6130     0.1610   111.8230   -71.5880    10.6970     9.8940     9.8150
 2724.0000  -101.4310     0.0160     2.5300     8.6120     0.1580   111.1030   -70.3250    11.3780     9.9250     9.9870
 2724.5000  -101.7790     0.0190     2.5330     8.6110     0.1600   108.1470   -69.0630    11.8100     9.9550    10.1150
 2725.0000  -101.7790     0.0210     2.5310     8.6110     0.1620   106.1430   -67.8010    11.1830     9.9860    10.2280
 2725.5000  -101.7790     0.0230     2.5290     8.6100     0.1650   107.5920   -66.5380    10.6820    10.0170    10.3420
 2726.0000  -101.7790     0.0250     2.5310     8.6100     0.1620   108.1670   -65.2760    10.3990    10.2620    10.4560
 2726.5000  -101.7790     0.0310     2.5400     8.6090     0.1600   107.5420   -64.0140    10.5900    10.6320    10.5700
 2727.0000  -101.7790     0.0370     2.5480     8.6080     0.1570   106.8710   -62.7510    11.4730    11.0010    10.6840
 2727.5000  -101.7790     0.0440     2.5560     8.6080     0.1590   106.4050   -61.4890    12.2990    11.7360    10.7840
 2728.0000  -101.7790     0.0470     2.5520     8.6070     0.1610   105.8400   -60.2270    13.1700    12.8260    11.1830
 2728.5000  -101.7790     0.0430     2.5440     8.6060     0.1630   102.9370   -58.9640    13.2670    13.9150    10.9820
 2729.0000  -101.7790     0.0400     2.5390     8.6060     0.1650    99.7420   -57.7020    13.4110    14.2260    11.1830
 2729.5000  -101.7790     0.0370     2.5350     8.6050     0.1670   100.3890   -56.4400    13.0990    14.4220    11.1590
 2730.0000  -101.7790     0.0340     2.5330     8.6050     0.1690   103.4640   -55.1780    12.5820    13.7850    11.1200
 2730.5000  -101.7790     0.0320     2.5290     8.6040     0.1710   107.4480   -53.9150    12.0640    13.0080    11.0800
 2731.0000  -101.7790     0.0340     2.5310     8.6030     0.1740   111.6600   -52.6530    11.5460    12.2320    11.0400
 2731.5000  -101.7790     0.0360     2.5330     8.6030     0.1770   113.9510   -51.3910    11.3880    11.3880    11.0010
 2732.0000  -101.7790     0.0390     2.5360     8.6020     0.1740   110.3880   -50.1280    11.6470    11.9410    10.9820
 2732.5000  -101.7790     0.0390     2.5410     8.6010     0.1720   102.8850   -48.8660    12.1410    12.5980    10.9820
 2733.0000  -101.7790     0.0370     2.5450     8.6010     0.1690    99.6260   -47.6040    12.6350    13.2550    11.2100
 2733.5000  -101.7790     0.0350     2.5440     8.6000     0.1720    97.0540   -46.3410    12.9320    13.9070    11.4480
 2734.0000  -101.7790     0.0340     2.5390     8.5990     0.1740    96.5290   -45.0790    12.9320    13.9070    11.6860
 2734.5000  -101.7790     0.0320     2.5300     8.5990     0.1720    97.2060   -43.8170    12.9320    13.9070    11.9240
 2735.0000  -101.7790     0.0310     2.5190     8.5980     0.1690    97.9470   -45.6610    13.7690    13.9070    12.1610
 2735.5000  -101.7790     0.0290     2.5090     8.5980     0.1660   100.6960   -55.7590    15.0290    13.9070    12.3990
 2736.0000  -101.7790     0.0280     2.5070     8.5970     0.1670   103.1750   -54.5360    16.3770    13.9070    12.6370
 2736.5000  -101.7790     0.0260     2.5070     8.5960     0.1690   103.1890   -42.8990    16.3770    13.9070    12.8750
 2737.0000  -101.7790     0.0250     2.5030     8.5960     0.1710   102.6860   -42.8990    16.1360    13.9480    12.9900
 2737.5000  -101.7790     0.0230     2.4990     8.5950     0.1730   102.4320   -42.8990    15.9260    14.0030    13.0660
 2738.0000  -101.7790     0.0220     2.5010     8.5940     0.1700   102.0980   -42.8990    15.7170    14.0570    13.1420
 2738.5000  -101.7790     0.0200     2.5020     8.5940     0.1680   101.9100   -44.2890    15.5070    14.1120    13.1960
 2739.0000  -101.7790     0.0180     2.5020     8.5930     0.1700   101.7210   -46.4840    15.2970    14.1620    13.2370
 2739.5000  -101.7790     0.0170     2.5010     8.5930     0.1710   101.5620   -48.6790    15.1100    14.2980    13.2780
 2740.0000  -101.7790     0.0160     2.5010     8.5920     0.1700   101.3650   -50.8750    14.9550    14.4250    13.3190
 2740.5000  -101.7790     0.0170     2.4990     8.5910     0.1670   101.1560   -53.0700    15.9030    14.5520    13.3600
 2741.0000  -101.7790     0.0170     2.5050     8.5910     0.1640   100.0500   -55.2650    16.7500    14.6790    13.4020
 2741.5000  -101.7790     0.0180     2.5150     8.5900     0.1570    98.7700   -57.4610    17.5980    14.8060    13.3860
 2742.0000  -101.7790     0.0190     2.5250     8.5890     0.1600    97.6260   -59.6560    18.5980    14.9550    13.3530
 2742.5000  -101.7790     0.0190     2.5250     8.5890     0.1650    96.5540   -61.8510    16.6350    14.7670    13.3210
 2743.0000  -101.7790     0.0210     2.5220     8.5880     0.1700    98.5630   -62.6230    15.3300    14.5690    13.2880
 2743.5000  -101.7790     0.0250     2.5170     8.5880     0.1710   100.7140   -62.6230    14.9550    14.3870    13.2550
 2744.0000  -101.7790     0.0290     2.5180     8.5870     0.1690   101.7220   -62.6230    15.7880    14.2060    13.2220
 2744.5000  -101.7790     0.0310     2.5140     8.5860     0.1680   100.4040   -62.6230    16.9860    14.0250    13.1900
 2745.0000  -101.7790     0.0300     2.5090     8.5860     0.1700   100.4010   -62.6230    16.2220    13.9070    13.1690
 2745.5000   -99.0780     0.0290     2.5110     8.5850     0.1720   100.3340   -62.6230    13.9070    14.0130    13.2230
 2746.0000   -94.8950     0.0270     2.5110     8.5840     0.1740    99.5060   -62.6230    14.4300    14.1220    13.2790
 2746.5000   -90.7110     0.0260     2.5110     8.5840     0.1730    98.7490   -62.6230    15.7430    14.2320    13.3360
