~VERSION INFORMATION
 VERS.                2.0:   CWLS LOG ASCII STANDARD - VERSION 2.0
 WRAP.                 NO:   ONE LINE PER DEPTH STEP
~WELL INFORMATION
#MNEM.UNIT      DATA TYPE    INFORMATION
#----------   ------------   ------------------------------
 STRT.F          206.0000:   START DEPTH
 STOP.F         2974.0000:   STOP DEPTH
 STEP.F            0.5000:   STEP LENGTH
 NULL.          -999.2500:   NO VALUE
 COMP.    FENIX & SCISSON:   COMPANY
 WELL.    FENIX AX #32-21:   WELL
 FLD .                NPR:   FIELD
 LOC .      S21 T39N R78W:   LOCATION
 CNTY.            NATRONA:   COUNTY
 STAT.            WYOMING:   STATE
 CTRY. UNITED STATES OF AMERICA:   COUNTRY
 SRVC.              WELEX:   SERVICE COMPANY
 DATE.        29-JUL-1977:   LOGDATE
 API .     49025104050000:   API NUMBER
~CURVE INFORMATION
#MNEM.UNIT       API CODE    CURVE DESCRIPTION
#----------   ------------   ------------------------------
 DEPT.F                  :   
 SPR .MV     07 010 01 00:   SPONTANEOUS POTENTIAL
 RILM.OHMM   07 120 44 00:   INDUCTION LOG MEDIUM RESISTIVITY
 RILD.OHMM   07 120 46 00:   INDUCTION LOG DEEP RESISTIVITY
 SGRD.OHMM   07 220 05 00:   SHALLOW GUARD LOG RESISTIVITY
 CALD.IN     45 280 60 00:   CALIPER FROM DENSITY LOG
 RHOB.G/C3   45 350 01 00:   BULK DENSITY
 DCOR.G/C3   45 356 01 00:   DENSITY CORRECTION
 GRD .GAPI   45 310 01 00:   GAMMA RAY FROM DENSITY LOG
~PARAMETER INFORMATION
#MNEM.UNIT          VALUE    DESCRIPTION
#----------   ------------   ------------------------------
 EKB .F         4995.0000:   Kelly bushing
 EGL .F         4985.0000:   Ground level
 EDF .F            0.0000:   Drilling floor
 EPD .F         4985.0000:   Permanent datum
 TD  .F         2978.0000:   Total depth
 DATE.        29-JUL-1977:   Date logged
 CLNT.            A2DTECH:   Client Code
 SL  . 1040' FNL & 1500' FWL:   Surface Location
 PD  .                 GL:   Permanent Datum
 LMF .                 KB:   Log Measured From
 DMF .                 KB:   Drilling Measured From
 DAPD.F                10:   Feet Above Permanent Datum
 DD  .F              2972:   Depth driller
 DL  .F              2978:   Depth logger
 BLI .F              2976:   Bottom log interval
 TLI .F               120:   Top log interval
 CS1 .IN            8.625:   Casing size
 CBD1.      8.625" @ 205':   Casing driller 1
 CBL1.F               220:   Casing logger 1
 BS1 .IN            7.875:   Bit size
 BSD1.F              2972:   Depth drilled with bit1
 DFT .                KCL:   Type fluid in hole
 DFD .                9.2:   Density
 DFV .                 43:   Viscosity
 DFPH.                 10:   pH
 DFL .                  8:   Fluid loss
 MSS .            MUD PIT:   Source of sample
 RMS .OHMM            .21:   Rm
 MST .F                91:   Rm Meas. temp.
 RMF .OHMM            .18:   Rmf
 MFST.F                91:   Rmf Meas. temp.
 RMC .OHMM            .23:   Rmc
 MCST.F                91:   Rmc Meas. temp.
 MFSS.               MEAS:   Source Rmf.
 MCSS.               MEAS:   Source Rmc.
 RMB .OHMM            .17:   Rm. at BHT
 BHT .F               110:   BHT.
 TCS .HRS               3:   Time Circ. stopped
 MRT .F               110:   Maximum recorded temp.
 LUN .               9685:   Logging unit number
 LUL .             CASPER:   Logging unit location
 ENGI.   T JOYNER/ E HOCH:   Recorded By
 WITN.         PETTINGILL:   Witnessed by
 ORIG.     2.5", 5" PRINT:   Origin of data
 UWI .     49025104050000:   Unique Well ID
 DICO. A2D TECHNOLOGIES, INC.:   Digitizing Company
~OTHER INFORMATION
~A   DEPT      SPR       RILM       RILD       SGRD       CALD       RHOB       DCOR         GRD  
# ...
 1097.0000   -57.9970     7.6850     7.3510     9.8790     8.8080     2.5290     0.0700   112.3280
 1097.5000   -58.3740     7.5690     7.3390    10.1080     8.8020     2.5300     0.0680   111.7380
 1098.0000   -58.7510     7.3820     7.3270    10.2910     8.7960     2.5280     0.0660   111.3250
 1098.5000   -59.1280     7.4050     7.3150     9.7470     8.7900     2.5260     0.0640   110.9770
 1099.0000   -59.5060     7.4620     7.3030     9.3840     8.7840     2.5230     0.0620   112.2420
 1099.5000   -59.8830     7.5190     7.2920     9.6910     8.7780     2.5270     0.0610   111.5380
 1100.0000   -60.2610     7.5000     7.2800    10.1030     8.7720     2.5310     0.0640   110.9890
 1100.5000   -60.6380     7.4810     7.2680    10.0130     8.7660     2.5360     0.0680   110.2000
 1101.0000   -61.0120     7.4620     7.2560     9.7860     8.7600     2.5410     0.0660   110.3460
 1101.5000   -61.3970     7.4430     7.2440     9.9160     8.7540     2.5360     0.0630   111.0790
 1102.0000   -61.6200     7.4250     7.2320    10.2910     8.7490     2.5300     0.0600   111.5150
 1102.5000   -61.7150     7.4060     7.2200    10.2530     8.7420     2.5230     0.0610   110.7980
 1103.0000   -61.8210     7.3870     7.2080    10.1470     8.7400     2.5250     0.0630   110.1960
 1103.5000   -61.9260     7.3030     7.1960    10.0410     8.7420     2.5300     0.0640   110.6480
 1104.0000   -62.0280     7.1970     7.1850     9.9350     8.7430     2.5300     0.0600   111.5790
 1104.5000   -62.1350     7.0910     7.1730     9.8300     8.7440     2.5280     0.0570   112.4780
 1105.0000   -62.2350     6.9860     7.1610     9.7370     8.7450     2.5250     0.0520   113.0850
 1105.5000   -62.3430     6.8800     7.1490     9.9060     8.7450     2.5240     0.0480   112.2390
 1106.0000   -62.3500     6.7740     7.1370    10.1030     8.7460     2.5150     0.0410   111.8040
 1106.5000   -62.3520     6.6690     7.1250    10.0480     8.7470     2.5050     0.0360   113.4730
 1107.0000   -62.3500     6.5100     7.1160     9.8670     8.7480     2.4970     0.0290   114.6140
 1107.5000   -62.3510     6.5130     7.1300     9.7370     8.7490     2.4960     0.0310   113.4200
 1108.0000   -62.3500     6.6050     7.1430     9.8510     8.7500     2.4980     0.0350   112.2440
 1108.5000   -62.3530     6.6960     7.1580     9.9800     8.7510     2.5070     0.0390   111.0280
 1109.0000   -62.3230     6.7880     7.1720    10.1030     8.7520     2.5150     0.0400   110.1570
 1109.5000   -62.2570     6.8670     7.1860     9.9840     8.7530     2.5200     0.0400   111.5420
 1110.0000   -62.1940     6.9100     7.2000     9.8710     8.7540     2.5210     0.0410   112.7720
 1110.5000   -62.1300     6.9520     7.2140     9.7590     8.7550     2.5240     0.0530   114.2500
 1111.0000   -62.0660     6.9950     7.2280     9.5900     8.7560     2.5310     0.0560   114.4960
 1111.5000   -62.0030     7.0380     7.2430     9.6070     8.7570     2.5360     0.0520   113.6590
 1112.0000   -61.9390     7.0800     7.2570     9.8320     8.7580     2.5260     0.0480   112.8590
 1112.5000   -61.8750     7.1140     7.2710    10.1030     8.7590     2.5100     0.0440   112.4750
 1113.0000   -61.8110     7.2860     7.2850    10.1490     8.7600     2.5070     0.0470   113.1510
 1113.5000   -61.7490     7.4290     7.2990    10.2650     8.7610     2.5120     0.0510   112.4780
 1114.0000   -61.6820     7.5730     7.3130    10.3410     8.7620     2.5180     0.0560   111.2820
 1114.5000   -61.6230     7.7160     7.3270    10.4730     8.7630     2.5230     0.0510   110.1550
 1115.0000   -61.5660     7.8590     7.3410    10.6050     8.7640     2.5190     0.0450   111.0200
 1115.5000   -61.7090     8.0960     7.3560    10.7370     8.7650     2.5120     0.0390   112.3390
 1116.0000   -61.8660     7.8310     7.3690    10.8770     8.7660     2.5070     0.0330   111.7340
 1116.5000   -62.0300     7.0690     7.3800    10.7120     8.7670     2.5070     0.0340   109.9330
 1117.0000   -62.1880     6.2520     7.3540    10.5380     8.7680     2.5110     0.0370   109.9080
 1117.5000   -62.3490     6.2520     7.3320    10.3630     8.7690     2.5210     0.0410   112.0190
 1118.0000   -62.5090     6.2830     7.3080    10.1890     8.7700     2.5180     0.0440   111.1220
 1118.5000   -62.6690     6.3820     7.2850    10.1030     8.7710     2.5080     0.0440   111.7640
 1119.0000   -62.8290     6.4810     7.2610    10.1030     8.7720     2.4980     0.0440   113.5870
 1119.5000   -62.9890     6.5800     7.2380    10.1030     8.7730     2.4950     0.0440   114.6590
 1120.0000   -63.1500     6.6790     7.2140    10.1030     8.7740     2.4980     0.0450   114.0600
 1120.5000   -63.3100     6.9320     7.1910    10.1030     8.7750     2.5080     0.0480   113.4840
 1121.0000   -63.4700     7.3550     7.1670    10.1030     8.7760     2.5180     0.0520   113.9160
 1121.5000   -63.6300     7.7780     7.1440    10.1030     8.7770     2.5220     0.0520   116.2390
 1122.0000   -63.7910     8.0960     7.1200    10.1030     8.7780     2.5230     0.0510   116.0040
 1122.5000   -63.9430     8.0960     7.0970    10.1030     8.7790     2.5220     0.0490   115.5830
 1123.0000   -64.0750     8.0960     7.0730    10.1030     8.7800     2.5190     0.0480   115.0840
 1123.5000   -64.1920     8.0960     7.0500     9.9550     8.7770     2.5240     0.0460   114.6570
 1124.0000   -64.3310     8.2150     7.0260     9.7760     8.7740     2.5270     0.0440   114.1510
 1124.5000   -64.3420     8.4070     7.0030     9.5980     8.7700     2.5300     0.0450   114.1900
 1125.0000   -64.3420     8.7160     6.9840     9.3840     8.7670     2.5250     0.0470   114.6100
 1125.5000   -64.3440     8.6770     6.9720     9.3530     8.7640     2.5200     0.0460   114.9680
 1126.0000   -64.3400     8.5780     6.9620     9.3140     8.7610     2.5130     0.0410   115.3620
 1126.5000   -64.3260     8.2570     6.9510     9.2750     8.7570     2.5060     0.0360   115.6970
 1127.0000   -64.0550     7.8730     6.9410     9.2120     8.7540     2.4990     0.0310   116.1070
 1127.5000   -63.7540     7.4900     6.9310     9.3000     8.7510     2.4920     0.0260   116.5640
 1128.0000   -63.4650     7.1070     6.9210     9.5440     8.7480     2.4880     0.0250   118.3640
 1128.5000   -63.1780     6.8440     6.9110     9.7870     8.7450     2.4930     0.0280   119.9410
 1129.0000   -63.3360     6.8090     6.9000    10.0300     8.7410     2.4970     0.0290   118.3770
 1129.5000   -63.5290     6.7740     6.8900    10.2910     8.7380     2.5020     0.0380   117.7650
 1130.0000   -63.7300     6.7390     6.8800    10.0430     8.7350     2.5060     0.0440   119.3260
 1130.5000   -63.9280     6.7030     6.8700     9.7750     8.7320     2.5110     0.0520   116.7010
 1131.0000   -63.9420     6.6680     6.8590     9.5080     8.7290     2.5110     0.0460   119.1920
 1131.5000   -63.9520     6.6330     6.8720     9.2120     8.7250     2.5050     0.0410   121.5330
 1132.0000   -63.9280     6.5980     6.8990     9.1370     8.7220     2.5040     0.0360   120.6160
 1132.5000   -64.0890     6.5620     6.9240     9.0440     8.7190     2.5030     0.0390   118.9140
 1133.0000   -64.3470     6.5270     6.9480     9.1110     8.7160     2.5020     0.0410   119.5620
 1133.5000   -64.5820     6.4870     6.9730     9.1880     8.7120     2.5010     0.0440   120.1950
 1134.0000   -64.8170     6.5300     6.9980     9.2640     8.7090     2.4970     0.0430   119.8690
 1134.5000   -65.0560     6.6080     7.0230     9.3410     8.7060     2.4920     0.0400   119.0210
 1135.0000   -65.2920     6.5960     7.0480     9.3840     8.7030     2.4900     0.0370   119.4800
 1135.5000   -65.5290     6.5690     7.0730     9.3840     8.7000     2.4960     0.0340   120.5340
 1136.0000   -65.7670     6.5410     7.0970     9.6950     8.7010     2.5020     0.0330   121.4900
 1136.5000   -66.0040     6.5140     7.1220    10.0700     8.7020     2.5080     0.0380   122.5050
 1137.0000   -66.2360     6.4870     7.1470    10.2910     8.7040     2.5150     0.0420   122.0510
