~VERSION INFORMATION
 VERS.                2.0:   CWLS LOG ASCII STANDARD - VERSION 2.0
 WRAP.                 NO:   ONE LINE PER DEPTH STEP
~WELL INFORMATION
#MNEM.UNIT      DATA TYPE    INFORMATION
#----------   ------------   ------------------------------
 STRT.F          208.0000:   START DEPTH
 STOP.F         2980.0000:   STOP DEPTH
 STEP.F            0.5000:   STEP LENGTH
 NULL.          -999.2500:   NO VALUE
 COMP. FENIX & SCISSON INC:   COMPANY
 WELL. FENIX  32AX #28-28:   WELL
 FLD .        TEAPOT DOME:   FIELD
 LOC .      S28 T39N R78W:   LOCATION
 CNTY.            NATRONA:   COUNTY
 STAT.            WYOMING:   STATE
 CTRY. UNITED STATES OF AMERICA:   COUNTRY
 SRVC.           BIRDWELL:   SERVICE COMPANY
 DATE.        09-OCT-1977:   LOGDATE
 API .     49025104430000:   API NUMBER
~CURVE INFORMATION
#MNEM.UNIT       API CODE    CURVE DESCRIPTION
#----------   ------------   ------------------------------
 DEPT.F                  :   
 SPR .MV     05 010 01 00:   SPONTANEOUS POTENTIAL
 ILD .OHMM   05 120 46 00:   DEEP INDUCTION RESISTIVITY
 SN  .OHMM   05 040 16 00:   SHORT NORMAL
 GRD .GAPI   45 310 01 00:   GAMMA RAY FROM DENSITY LOG
 CALD.IN     45 280 60 00:   CALIPER FROM DENSITY LOG
 CORR.G/C3   45 356 01 00:   DENSITY CORRECTION
 DEN .G/C3   45 350 01 00:   BULK DENSITY
~PARAMETER INFORMATION
#MNEM.UNIT          VALUE    DESCRIPTION
#----------   ------------   ------------------------------
 EKB .F         5005.0000:   Kelly bushing
 EGL .F         4995.0000:   Ground level
 EDF .F            0.0000:   Drilling floor
 EPD .F         4995.0000:   Permanent datum
 TD  .F         2980.0000:   Total depth
 DATE.        09-OCT-1977:   Date logged
 CLNT.            A2DTECH:   Client Code
 SL  . 990' FNL & 1650' FWL:   Surface Location
 PD  .                 GL:   Permanent Datum
 DAPD.F                10:   Feet Above Permanent Datum
 DD  .F              2980:   Depth driller
 DL  .F              2979:   Depth logger
 BLI .F              2974:   Bottom log interval
 TLI .F               221:   Top log interval
 CS1 .IN            8.625:   Casing size
 CBD1.      8.625" @ 211':   Casing driller 1
 CBL1.F               221:   Casing logger 1
 BS1 .IN            7.875:   Bit size
 BSD1.F              2980:   Depth drilled with bit1
 DFT .            KCL GEL:   Type fluid in hole
 DFD .                8.8:   Density
 DFV .                 33:   Viscosity
 DFPH.                 11:   pH
 DFL .                6.4:   Fluid loss
 MSS .           FLOWLINE:   Source of sample
 RMS .OHMM            .52:   Rm
 MST .F                59:   Rm Meas. temp.
 RMF .OHMM            .67:   Rmf
 MFST.F                54:   Rmf Meas. temp.
 RMC .OHMM            .45:   Rmc
 MCST.F                56:   Rmc Meas. temp.
 MFSS.               MEAS:   Source Rmf.
 MCSS.               MEAS:   Source Rmc.
 RMB .OHMM            .35:   Rm. at BHT
 BHT .F                91:   BHT.
 TCS .HRS               3:   Time Circ. stopped
 MRT .F                91:   Maximum recorded temp.
 LUN .               2958:   Logging unit number
 LUL .             CASPER:   Logging unit location
 ENGI.                LAW:   Recorded By
 WITN.       W. PENINGELL:   Witnessed by
 ORIG.           5" PRINT:   Origin of data
 UWI .     49025104430000:   Unique Well ID
 DICO. A2D TECHNOLOGIES, INC.:   Digitizing Company
~OTHER INFORMATION
~A   DEPT      SPR        ILD         SN         GRD      CALD       CORR        DEN   
# ...
  754.0000   -43.2110     8.9640     8.5620   118.3920     8.1530     0.0280     2.5250
  754.5000   -43.2120     8.9700     8.5510   120.8490     8.1550     0.0220     2.5140
  755.0000   -43.2120     8.9750     8.5410   123.3200     8.1560     0.0220     2.5180
  755.5000   -43.2130     8.9810     8.5300   118.5670     8.1580     0.0230     2.5220
  756.0000   -43.2090     8.9870     8.5190   122.0940     8.1600     0.0250     2.5270
  756.5000   -43.1250     8.9930     8.5080   120.1090     8.1620     0.0280     2.5310
  757.0000   -42.8330     8.9960     8.4980   127.5880     8.1630     0.0300     2.5340
  757.5000   -42.5040     8.9840     8.4870   125.9430     8.1650     0.0280     2.5250
  758.0000   -42.0920     8.9750     8.4760   123.4550     8.1650     0.0250     2.5190
  758.5000   -42.2400     8.9650     8.4660   123.7030     8.1650     0.0220     2.5170
  759.0000   -42.5140     8.9560     8.4560   123.9030     8.1650     0.0170     2.5130
  759.5000   -42.5040     8.9470     8.4430   117.1900     8.1650     0.0110     2.5070
  760.0000   -42.3080     8.9380     8.4360   119.3600     8.1650     0.0080     2.5030
  760.5000   -42.1400     8.9290     8.6740   121.2540     8.1650     0.0090     2.5030
  761.0000   -42.0160     8.9210     8.8330   120.2150     8.1650     0.0100     2.5050
  761.5000   -42.0200     8.9090     8.7970   120.7440     8.1650     0.0090     2.5060
  762.0000   -42.1160     8.9920     8.7270   122.7860     8.1650     0.0070     2.5060
  762.5000   -42.6220     8.9980     8.6560   125.4350     8.1650     0.0110     2.5050
  763.0000   -42.6170     8.9970     8.5860   126.5580     8.1650     0.0140     2.5040
  763.5000   -42.6180     8.9930     8.5140   123.5380     8.1660     0.0130     2.5040
  764.0000   -42.9510     8.9750     8.5620   120.6470     8.1680     0.0110     2.5050
  764.5000   -43.5420     8.9570     8.5930   119.9130     8.1700     0.0100     2.5060
  765.0000   -44.0220     8.9390     8.5930   119.7420     8.1710     0.0140     2.5120
  765.5000   -43.9350     8.9140     8.5930   116.3750     8.1730     0.0190     2.5170
  766.0000   -43.8480     8.9570     8.5930   113.8280     8.1740     0.0220     2.5140
  766.5000   -43.8250     9.0220     8.5930   118.7580     8.1760     0.0260     2.5180
  767.0000   -44.2100     9.0790     8.6010   119.8960     8.1780     0.0260     2.5230
  767.5000   -44.5940     9.1270     8.6770   116.9100     8.1790     0.0240     2.5230
  768.0000   -44.3550     9.1930     8.7540   113.1560     8.1810     0.0240     2.5310
  768.5000   -44.0400     9.2630     8.8330   110.0430     8.1820     0.0240     2.5370
  769.0000   -43.2170     9.3570     8.7520   114.3990     8.1840     0.0220     2.5330
  769.5000   -42.2670     9.4510     8.9580   112.9380     8.1830     0.0180     2.5300
  770.0000   -42.0140     9.6400     9.1630   113.3270     8.1800     0.0140     2.5260
  770.5000   -42.0210     9.9530     8.9960   116.1200     8.1770     0.0170     2.5300
  771.0000   -42.0670     9.9250     9.2850   117.8700     8.1740     0.0210     2.5360
  771.5000   -42.1380     9.8920     9.5190   116.1780     8.1700     0.0190     2.5320
  772.0000   -42.2120     9.8620     9.6140   114.2660     8.1670     0.0120     2.5190
  772.5000   -42.4020     9.9340     9.6440   118.0000     8.1660     0.0120     2.5220
  773.0000   -42.6070    10.0010     9.6750   116.5960     8.1740     0.0120     2.5220
  773.5000   -42.6010    10.2240     9.7050   115.3390     8.1820     0.0120     2.5180
  774.0000   -43.1280    10.5780     9.7350   117.0780     8.1900     0.0180     2.5250
  774.5000   -43.4800    10.2310     9.7720   117.9530     8.1980     0.0180     2.5280
  775.0000   -43.8980    10.7140     9.7600   117.7370     8.2050     0.0190     2.5270
  775.5000   -44.8290    10.8370     9.7440   119.4260     8.2020     0.0170     2.5280
  776.0000   -45.7880    10.8710     9.7290   120.9880     8.1980     0.0150     2.5190
  776.5000   -45.3750    11.0110     9.7140   120.8840     8.1950     0.0160     2.5140
  777.0000   -44.8690    10.9560     9.6990   120.0360     8.1910     0.0170     2.5180
  777.5000   -44.3420    10.8390     9.6840   118.6620     8.1880     0.0160     2.5180
  778.0000   -44.3990    10.7110     9.6820   117.2300     8.1850     0.0180     2.5200
  778.5000   -44.4820    10.6050     9.6590   116.1960     8.1850     0.0230     2.5240
  779.0000   -44.5570    10.4880     9.4750   115.8400     8.1850     0.0270     2.5280
  779.5000   -44.5960    10.3710     9.2910   116.2080     8.1850     0.0320     2.5320
  780.0000   -43.0520    10.2540     9.1580   118.2830     8.1850     0.0320     2.5350
  780.5000   -42.8300    10.1370     9.1300   120.3300     8.2000     0.0300     2.5360
  781.0000   -42.6780    10.0200     9.1010   122.2850     8.2330     0.0320     2.5320
  781.5000   -42.6170     9.8790     9.0790   119.1170     8.2670     0.0340     2.5370
  782.0000   -42.6160     9.7070     8.9770   116.5130     8.2630     0.0300     2.5420
  782.5000   -42.6130     9.5940     8.8790   118.9070     8.1960     0.0210     2.5390
  783.0000   -42.6110     9.2480     8.7800   118.7350     8.1050     0.0170     2.5400
  783.5000   -42.1160     9.1630     8.6720   124.9970     8.0860     0.0210     2.5480
  784.0000   -41.8320     9.1320     8.6830   122.9680     8.0850     0.0200     2.5440
  784.5000   -42.0200     9.0790     8.6990   121.9870     8.0850     0.0170     2.5450
  785.0000   -42.4230     9.1600     8.7150   118.8370     8.0850     0.0170     2.5490
  785.5000   -43.9020     9.2480     8.7320   113.6840     8.0850     0.0190     2.5370
  786.0000   -44.9870     9.2170     8.7480   109.7710     8.0850     0.0100     2.5230
  786.5000   -43.2110     9.1680     8.7640   112.9290     8.0810     0.0130     2.5160
  787.0000   -43.2000     9.3330     8.7800   111.2020     8.0780     0.0160     2.5200
  787.5000   -43.2110     9.2070     8.7960   109.0730     8.0740     0.0190     2.5240
  788.0000   -43.2520     8.9960     8.8120   111.8330     8.0710     0.0220     2.5300
  788.5000   -43.2920     9.3010     8.8280   114.4870     8.0670     0.0250     2.5350
  789.0000   -43.3310     9.3330     8.8330   114.5130     8.0680     0.0290     2.5380
  789.5000   -43.3710     9.1570     8.6890   116.9650     8.0730     0.0270     2.5290
  790.0000   -43.4070     8.9960     8.5930   115.0040     8.0770     0.0210     2.5270
  790.5000   -43.2460     9.1630     8.7020   113.6820     8.0820     0.0150     2.5160
  791.0000   -43.0690     9.0150     8.7520   114.9930     8.1070     0.0130     2.5120
  791.5000   -42.8940     8.7520     8.5640   115.7540     8.1620     0.0120     2.5090
  792.0000   -42.7200     8.9690     8.3590   108.1370     8.2160     0.0130     2.5100
  792.5000   -42.6450     8.7020     8.3500   115.2260     8.2250     0.0140     2.5120
  793.0000   -42.7130     8.4360     8.3410   114.9650     8.2250     0.0090     2.5100
  793.5000   -42.7780     8.4360     8.3330   114.9740     8.2250     0.0090     2.5070
  794.0000   -42.7780     8.4360     8.3240   119.3630     8.2250     0.0110     2.5090
  794.5000   -42.6300     8.4360     8.3150   117.6010     8.2250     0.0070     2.5130
  795.0000   -42.4850     8.4360     8.3060   114.3660     8.2250     0.0070     2.5140
  795.5000   -42.4160     8.4360     8.2980   112.7710     8.2250     0.0070     2.5110
  796.0000   -42.4250     8.4340     8.2880   114.6120     8.2250     0.0040     2.5080
  796.5000   -42.7380     8.4970     8.2840   115.8220     8.2250     0.0080     2.5080
  797.0000   -43.0160     8.6020     8.4940   118.1430     8.2250     0.0140     2.5160
  797.5000   -42.8190     8.7070     8.6720   122.1490     8.2250     0.0210     2.5230
  798.0000   -42.8760     8.8130     8.5910   126.4050     8.2250     0.0180     2.5260
  798.5000   -42.9560     8.9140     8.5140   126.3750     8.2250     0.0150     2.5220
  799.0000   -43.0580     8.8630     8.5330   124.7730     8.2250     0.0160     2.5180
