~VERSION INFORMATION
 VERS.                2.0:   CWLS LOG ASCII STANDARD - VERSION 2.0
 WRAP.                 NO:   ONE LINE PER DEPTH STEP
~WELL INFORMATION
#MNEM.UNIT      DATA TYPE    INFORMATION
#----------   ------------   ------------------------------
 STRT.F          148.0000:   START DEPTH
 STOP.F         3394.0000:   STOP DEPTH
 STEP.F            0.5000:   STEP LENGTH
 NULL.          -999.2500:   NO VALUE
 COMP.    FENIX & SCISSON:   COMPANY
 WELL.  FENIX "AX" #28-10:   WELL
 FLD .        TEAPOT DOME:   FIELD
 LOC .      S10 T38N R78W:   LOCATION
 CNTY.            NATRONA:   COUNTY
 STAT.            WYOMING:   STATE
 CTRY. UNITED STATES OF AMERICA:   COUNTRY
 SRVC.       SCHLUMBERGER:   SERVICE COMPANY
 DATE.        03-MAR-1981:   LOGDATE
 API .     49025108680000:   API NUMBER
~CURVE INFORMATION
#MNEM.UNIT       API CODE    CURVE DESCRIPTION
#----------   ------------   ------------------------------
 DEPT.F                  :   
 SFL .OHMM   07 220 01 00:   SHALLOW FOCUSED LOG RESISTIVITY
 ILD .OHMM   07 120 46 00:   INDUCTION LOG DEEP RESISTIVITY
 ILM .OHMM   07 120 44 00:   INDUCTION LOG MEDIUM RESISTIVITY
 TENR.LBS    07 635 01 00:   TENSION
 SPR .MV     07 010 01 00:   SPONTANEOUS POTENTIAL
 CALD.IN     45 280 60 00:   CALIPER FROM DENSITY LOG
 GRD .GAPI   45 310 01 00:   GAMMA RAY FROM DENSITY LOG
 TEND.LBS    45 635 01 00:   TENSION FROM DENSITY LOG
 CORR.G/C3   45 356 01 00:   DENSITY CORRECTION
 RHOB.G/C3   45 350 01 00:   BULK DENSITY
~PARAMETER INFORMATION
#MNEM.UNIT          VALUE    DESCRIPTION
#----------   ------------   ------------------------------
 EKB .F         5241.0000:   Kelly bushing
 EGL .F         5231.0000:   Ground level
 EDF .F            0.0000:   Drilling floor
 TD  .F         3381.0000:   Total depth
 DATE.        03-MAR-1981:   Date logged
 CLNT.            A2DTECH:   Client Code
 SL  . 640' FSL & 720' FWL:   Surface Location
 PD  .                 GL:   Permanent Datum
 EPD .F              5231:   Elevation Permanent Datum
 LMF .                 KB:   Log Measured From
 DMF .                 KB:   Drilling Measured From
 DAPD.F                10:   Feet Above Permanent Datum
 DD  .F              3361:   Depth driller
 DL  .F              3381:   Depth logger
 BLI .F              3375:   Bottom log interval
 TLI .F               233:   Top log interval
 CS1 .IN            8.625:   Casing size
 CBD1.      8.625" @ 224':   Casing driller 1
 CBL1.F               233:   Casing logger 1
 BS1 .IN            7.875:   Bit size
 BSD1.F              3361:   Depth drilled with bit1
 DFT .           CHEM/GEL:   Type fluid in hole
 DFD .                  9:   Density
 DFV .                 40:   Viscosity
 DFPH.                8.5:   pH
 DFL .                 11:   Fluid loss
 MSS .           MUD/TANK:   Source of sample
 RMS .OHMM           2.52:   Rm
 MST .F                66:   Rm Meas. temp.
 RMF .OHMM            1.8:   Rmf
 MFST.F                67:   Rmf Meas. temp.
 MFSS.               MEAS:   Source Rmf.
 RMB .OHMM           1.47:   Rm. at BHT
 BHT .F               118:   BHT.
 TCS .HRS            0500:   Time Circ. stopped
 TLAB.HRS            0830:   Time logger at bottom
 MRT .F               118:   Maximum recorded temp.
 LUN .               8035:   Logging unit number
 LUL .               CSPR:   Logging unit location
 ENGI.            BEATTLE:   Recorded By
 WITN.              FIVAS:   Witnessed by
 ORIG.           5" PRINT:   Origin of data
 UWI .     49025108680000:   Unique Well ID
 DICO. A2D TECHNOLOGIES, INC.:   Digitizing Company
~OTHER INFORMATION
~A   DEPT      SFL        ILD        ILM       TENR        SPR         CALD       GRD      TEND       CORR       RHOB   
# ...
 3330.5000     9.1970     6.9450     7.3710   686.6090   -41.1820     8.1080    75.1800   732.9320     0.0090     2.3560
 3331.0000     9.1970     7.0760     7.3460   686.4210   -39.1760     8.1070    76.7140   732.9320     0.0090     2.3690
 3331.5000     8.3330     7.1290     7.3460   686.2330   -37.1660     8.1060    72.4110   732.9320     0.0090     2.3800
 3332.0000     7.0760     7.1760     7.6030   686.0440   -36.7330     8.1050    67.5000   732.9320     0.0070     2.3770
 3332.5000     7.4440     7.3640     7.8900   685.8560   -37.9170     8.1040    64.0720   732.9320     0.0050     2.3710
 3333.0000     7.9810     7.9110     8.1770   685.6670   -38.7000     8.1030    63.4370   732.9320     0.0040     2.3770
 3333.5000    10.4840     8.5330     8.4630   685.4790   -39.1120     8.1020    62.1750   732.9320     0.0190     2.4400
 3334.0000    11.0380     8.8170     8.7500   685.2900   -39.0250     8.1010    60.2640   732.9320     0.0360     2.5160
 3334.5000    12.2430     9.1470     9.0370   685.1020   -39.5580     8.1000    56.8610   732.9320     0.0510     2.5440
 3335.0000    13.4470     9.4760     9.1970   684.9140   -41.2200     8.0990    59.8470   732.9320     0.0560     2.4970
 3335.5000    14.6520     9.7280     9.3700   684.7250   -44.1820     8.0980    61.8220   732.9320     0.0440     2.4190
 3336.0000    15.8270     9.9120     9.5480   684.5370   -46.7800     8.0970    63.5490   732.9320     0.0300     2.3830
 3336.5000    15.1880     9.5030     9.4810   684.3480   -47.8730     8.0960    63.1740   732.9320     0.0180     2.3630
 3337.0000    12.2510     9.1030     9.1740   684.1600   -48.3080     8.0950    63.2240   732.9320     0.0190     2.3650
 3337.5000    10.2300     8.7040     8.8680   683.9710   -48.7250     8.0940    64.8250   732.9320     0.0210     2.3720
 3338.0000     9.3700     8.3040     8.5620   683.7830   -48.0270     8.0920    66.4310   732.9320     0.0240     2.3790
 3338.5000     9.3700     7.9050     8.2550   683.5950   -47.3980     8.0910    65.4530   732.9320     0.0300     2.3790
 3339.0000     9.3700     7.5050     7.9490   683.4060   -47.1290     8.0900    63.9750   732.9320     0.0350     2.3570
 3339.5000     9.3700     7.1060     7.6420   683.2180   -47.1840     8.0890    62.3990   732.9320     0.0320     2.3460
 3340.0000     9.0170     6.6900     7.3360   683.0290   -46.9350     8.0880    61.2540   732.9320     0.0280     2.3500
 3340.5000     8.5550     6.6900     7.0760   682.8410   -45.6810     8.0870    60.7100   732.9320     0.0250     2.3660
 3341.0000     8.0670     6.7140     7.0940   682.6520   -43.0610     8.0860    61.1050   732.9320     0.0210     2.3810
 3341.5000     8.2200     6.7850     7.1180   682.4640   -40.6960     8.0850    61.5250   732.9320     0.0180     2.3960
 3342.0000     8.5430     6.8560     7.1420   682.2760   -38.0040     8.0840    61.9900   732.9320     0.0150     2.4110
 3342.5000     9.0530     6.9270     7.1650   682.0870   -36.1770     8.0830    62.3970   732.9320     0.0230     2.4260
 3343.0000     9.1970     6.9980     7.1890   681.8990   -34.7620     8.0820    62.8730   732.9320     0.0250     2.4390
 3343.5000     9.0430     7.0680     7.2100   681.7100   -33.7610     8.0810    63.2980   732.9320     0.0260     2.4350
 3344.0000     8.7400     7.1390     7.3780   681.5220   -32.7420     8.0800    63.4930   732.9320     0.0250     2.4260
 3344.5000     8.4370     7.2100     7.5300   681.3330   -31.7360     8.0790    62.1530   732.9320     0.0190     2.4380
 3345.0000     8.2200     7.2810     7.6820   681.1450   -30.7310     8.0780    60.7810   732.9320     0.0120     2.4540
 3345.5000     7.9180     7.3460     7.8340   680.9570   -29.7170     8.0770    60.9380   732.9320     0.0070     2.4690
 3346.0000     8.5660     7.3460     7.9860   681.0510   -28.7130     8.0760    61.6980   732.9320     0.0070     2.4760
 3346.5000    10.4400     7.3460     8.1380   681.6390   -27.7110     8.0750    62.4550   732.9320     0.0100     2.4690
 3347.0000    11.0900     7.3460     8.3750   682.2270   -26.6730     8.0740    63.2180   732.9320     0.0100     2.4670
 3347.5000    11.3000     7.3460     8.2720   682.8150   -25.7500     8.0730    63.7390   732.9320     0.0070     2.4630
 3348.0000    11.3000     7.3460     8.0400   683.4020   -24.6180     8.0720    63.0950   732.9320     0.0070     2.4620
 3348.5000     9.7130     7.3460     7.8070   683.9900   -24.3330     8.0710    62.0350   732.9320     0.0170     2.4520
 3349.0000     8.2200     7.3460     7.5750   684.5780   -24.1150     8.0700    61.2530   732.9320     0.0150     2.4250
 3349.5000     8.4350     7.3460     7.3420   685.1660   -23.9380     8.0690    61.5240   732.9320     0.0120     2.4320
 3350.0000     8.8590     7.1370     7.1100   685.7540   -23.6770  -999.2500    62.2030   732.9320     0.0160     2.4620
 3350.5000     8.5650     6.9290     6.8780   686.3420   -23.3190  -999.2500    62.8780   732.9320     0.0220     2.4900
 3351.0000     7.8260     6.7210     6.6900   686.9300   -22.0380  -999.2500    63.5590   732.9320     0.0190     2.4990
 3351.5000     7.0760     6.5140     6.5660   687.5180   -21.0400  -999.2500    64.2340   732.9320     0.0100     2.4930
 3352.0000     7.5080     6.3060     6.4300   688.1060   -20.7370  -999.2500    64.8150   732.9320     0.0010     2.4880
 3352.5000     8.2480     6.0980     6.2910   688.6940   -20.3420  -999.2500  -999.2500   732.9320     0.0040     2.4950
 3353.0000     8.8590     5.8900     6.1530   689.2820   -20.0380  -999.2500  -999.2500   732.9320     0.0110     2.5070
 3353.5000     7.6570     5.7110     6.0150   689.8700   -19.9350  -999.2500  -999.2500   732.9320     0.0180     2.5190
 3354.0000     6.7280     5.5800     5.8770   690.4570   -19.7760  -999.2500  -999.2500   732.9320     0.0250     2.5250
 3354.5000     5.7590     5.4490     5.7380   691.0450   -19.6360  -999.2500  -999.2500   732.9320     0.0230     2.5170
 3355.0000     6.0970     5.3180     5.6000   691.6330   -19.4920  -999.2500  -999.2500   732.9320     0.0210     2.5150
 3355.5000     6.3250     5.1870     5.4620   692.2210   -19.3430  -999.2500  -999.2500   732.9320     0.0190     2.5230
 3356.0000     5.9230     5.0560     5.3440   692.8090   -19.2310  -999.2500  -999.2500   732.9320     0.0220     2.5320
 3356.5000     5.4050     4.9240     5.1780   693.3970   -19.1180  -999.2500  -999.2500   732.9320     0.0240     2.5440
 3357.0000     4.9580     4.7930     5.0880   693.9850   -18.9690  -999.2500  -999.2500   732.9320     0.0260     2.5460
 3357.5000     5.4010     4.6620     4.9990   694.5730   -18.8270  -999.2500  -999.2500   732.9320     0.0280     2.5430
 3358.0000     5.7460     4.6010     4.9090   695.1610   -18.6800  -999.2500  -999.2500   732.9320     0.0300     2.5410
 3358.5000     5.9790     4.6010     4.7760   695.7490   -18.5360  -999.2500  -999.2500   732.9320     0.0330     2.5400
 3359.0000     6.0920     4.5950     4.7850   696.3370   -18.4320  -999.2500  -999.2500   735.1760     0.0290     2.5360
 3359.5000     5.8190     4.5830     4.8020   696.9250   -18.5350  -999.2500  -999.2500   737.2290     0.0220     2.5270
 3360.0000     5.4370     4.5710     4.8200   697.5130   -18.6220  -999.2500  -999.2500   739.2830     0.0160     2.5170
 3360.5000     4.8660     4.5590     4.8370   698.1000   -18.7140  -999.2500  -999.2500   741.3370     0.0090     2.5180
 3361.0000     5.1220     4.5470     4.8540   698.6880   -18.8170  -999.2500  -999.2500   743.3900     0.0130     2.5230
 3361.5000     5.6300     4.5350     4.8700   699.2760   -18.8250  -999.2500  -999.2500   745.4440     0.0200     2.5290
 3362.0000     6.0920     4.5240     4.8820   699.8640   -18.8270  -999.2500  -999.2500   747.4980     0.0270     2.5330
 3362.5000     5.8070     4.5150     4.8940   700.4520   -18.8250  -999.2500  -999.2500   749.5510     0.0340     2.5310
 3363.0000     5.5460     4.5150     4.9060   701.0400   -18.8260  -999.2500  -999.2500   751.6050     0.0350     2.5290
 3363.5000     5.2850     4.5250     4.9180   701.6280   -18.8260  -999.2500  -999.2500   753.0120     0.0290     2.5270
