~VERSION INFORMATION
 VERS.                2.0:   CWLS LOG ASCII STANDARD - VERSION 2.0
 WRAP.                 NO:   ONE LINE PER DEPTH STEP
~WELL INFORMATION
#MNEM.UNIT      DATA TYPE    INFORMATION
#----------   ------------   ------------------------------
 STRT.F          261.0000:   START DEPTH
 STOP.F         2875.0000:   STOP DEPTH
 STEP.F            0.5000:   STEP LENGTH
 NULL.          -999.2500:   NO VALUE
 COMP.   LAWRENCE ALLISON:   COMPANY
 WELL. LAWRENCE ALLISON "X" #85-20:   WELL
 FLD .          N.P.R. #3:   FIELD
 LOC .      S20 T39N R78W:   LOCATION
 CNTY.            NATRONA:   COUNTY
 STAT.            WYOMING:   STATE
 CTRY. UNITED STATES OF AMERICA:   COUNTRY
 SRVC.      DRESSER ATLAS:   SERVICE COMPANY
 DATE.        23-JUL-1986:   LOGDATE
 API .     49025111030000:   API NUMBER
~CURVE INFORMATION
#MNEM.UNIT       API CODE    CURVE DESCRIPTION
#----------   ------------   ------------------------------
 DEPT.F                  :   
 CORR.G/C3   45 356 01 00:   DENSITY CORRECTION
 RHOB.G/C3   45 350 01 00:   BULK DENSITY
 CNC .DEC    42 890 03 00:   NEUTRON POROSITY SANDSTONE
 GRR .GAPI   07 310 01 00:   GAMMA RAY FROM RESISTIVITY
 CALR.IN     07 280 01 00:   CALIPER FROM RESISTIVITY
 SPR .MV     07 010 01 00:   SPONTANEOUS POTENTIAL
 TENR.LBS    07 635 01 00:   TENSION FROM RESISTIVITY
 RILD.OHMM   07 120 46 00:   DEEP INDUCTION RESISTIVITY
 RILM.OHMM   07 120 44 00:   INDUCTION LOG MEDIUM RESISTIVITY
 RFOC.OHMM   07 220 04 00:   RESISTIVITY FOCUSED LOG RES.
~PARAMETER INFORMATION
#MNEM.UNIT          VALUE    DESCRIPTION
#----------   ------------   ------------------------------
 EKB .F         5007.0000:   Kelly bushing
 EGL .F         4995.0000:   Ground level
 EDF .F            0.0000:   Drilling floor
 EPD .F         4995.0000:   Permanent datum
 TD  .F         2874.0000:   Total depth
 CLNT.            A2DTECH:   Client Code
 SL  . 307' FEL & 2237' FSL:   Surface Location
 DATE.        23-JUL-1986:   Date Logged [DD-MMM-YYYY]
 DD  .F              2870:   Depth driller
 DL  .F              2874:   Depth logger
 BLI .F              2872:   Bottom log interval
 TLI .F              2205:   Top log interval
 CS1 .              8.625:   Casing size
 CBD1.      8.625" @ 261':   Casing driller 1
 CBL1.IN              261:   Casing logger 1
 BS1 .IN            7.875:   Bit size
 BSD1.F              2870:   Depth drilled with bit1
 DFT .            KCL-GEL:   Type fluid in hole
 DFD .                9.0:   Density
 DFV .                 37:   Viscosity
 MSS .           MUD TANK:   Source of sample
 RMS .OHMM          0.257:   Rm
 MST .F                89:   Rm Meas. temp.
 RMF .OHMM           0.19:   Rmf
 MFST.F                89:   Rmf Meas. temp.
 MFSS.               CALC:   Source Rmf.
 RMC .OHMM           0.32:   Rmc
 MCST.F                89:   Rmc Meas. temp.
 MCSS.               CALC:   Source Rmc.
 RMB .OHMM           0.20:   Rm. at BHT
 BHT .F               116:   BHT.
 TCS .HRS               4:   Time Circ. stopped
 MRT .F               116:   Maximum recorded temp.
 LUN .            HL 6264:   Logging unit number
 LUL .           GILLETTE:   Logging unit location
 ENGI.      P.M. FAHLSING:   Recorded By
 WITN.           JENNINGS:   Witnessed by
 ORIG.         2.5" PRINT:   Origin of data
 UWI .     49025111030000:   Unique Well ID
 DICO. A2D TECHNOLOGIES, INC.:   Digitizing Company
~OTHER INFORMATION
~A   DEPT     CORR       RHOB        CNC         GRR        CALR      SPR        TENR       RILD      RILM         RFOC 
  261.0000  -999.2500  -999.2500  -999.2500    71.1370     8.5816   -21.7647   -73.3273    34.1825  1979.5458     0.2249
  261.5000  -999.2500  -999.2500  -999.2500    78.8352     8.9156   -40.5882   -72.6005    44.2932  1814.0735     0.3994
  262.0000  -999.2500  -999.2500  -999.2500    86.5333     9.1245   -60.8824   -71.8737    13.6063    45.9856     1.2605
  262.5000  -999.2500  -999.2500  -999.2500    87.7226     9.3457   -76.1765   -71.1469     3.6277     4.0522     2.4641
  263.0000  -999.2500  -999.2500  -999.2500    84.1782     9.5422   -81.2787   -70.4201     2.9885     2.7648     3.7140
  263.5000  -999.2500  -999.2500  -999.2500    83.0000     9.6795   -87.2477   -69.6933     2.6581     4.5706     4.6857
  264.0000  -999.2500  -999.2500  -999.2500    84.7817     9.7389   -94.1761   -68.9665     4.1947     6.5306     5.4454
  264.5000  -999.2500  -999.2500  -999.2500    88.3378     9.7982  -101.7647   -68.2397    16.3127     7.2446     5.7503
  265.0000  -999.2500  -999.2500  -999.2500    89.5271     9.8576  -104.7059   -67.5129    25.9894     8.3579     5.9896
  265.5000  -999.2500  -999.2500  -999.2500    88.9408     9.8872  -107.0588   -66.7861    14.0628     9.2007     6.2390
  266.0000  -999.2500  -999.2500  -999.2500    87.7633     9.9466  -109.4118   -66.0593     8.1466     9.9540     6.4104
  266.5000  -999.2500  -999.2500  -999.2500    91.3199    10.0059  -109.7059   -65.3325     7.3031     9.9508     6.5865
  267.0000  -999.2500  -999.2500  -999.2500    94.2843    10.0356  -108.5294   -64.6057     7.3021     9.8133     6.5847
  267.5000  -999.2500  -999.2500  -999.2500    93.6985    10.0653  -106.7647   -63.8789     7.4015     9.7630     6.6486
  268.0000  -999.2500  -999.2500  -999.2500    93.1126    10.1246  -102.6471   -63.1521     7.6052     9.6261     6.7754
  268.5000  -999.2500  -999.2500  -999.2500    91.9351    10.1543   -98.6473   -62.4253     8.4812     9.3137     6.8550
  269.0000  -999.2500  -999.2500  -999.2500    86.0238    10.1840   -95.0668   -61.6985     8.9558     8.0023     6.9475
  269.5000  -999.2500  -999.2500  -999.2500    84.8462    10.2136   -90.9216   -60.9717     8.5954     5.9449     7.0414
  270.0000  -999.2500  -999.2500  -999.2500    87.8107    10.3323   -87.6470   -60.2449     8.0275     5.4068     7.0392
  270.5000  -999.2500  -999.2500  -999.2500    91.9787    10.6588   -84.7919   -59.7923     7.6001     5.6673     7.0373
  271.0000  -999.2500  -999.2500  -999.2500    94.3510    10.9852   -82.5413   -59.4956     7.2943     5.8673     7.0354
  271.5000  -999.2500  -999.2500  -999.2500    94.9585    11.3116   -81.3412   -59.1988     7.1944     6.0292     7.0335
  272.0000  -999.2500  -999.2500  -999.2500    95.5266    11.4896   -80.8824   -58.9021     7.1935     6.0705     6.9360
  272.5000  -999.2500  -999.2500  -999.2500    95.4338    11.5490   -82.0981   -58.6054     7.1925     6.0270     6.9342
  273.0000  -999.2500  -999.2500  -999.2500    92.9347    11.5490   -84.4470   -58.3086     7.0941     5.9425     6.9323
  273.5000  -999.2500  -999.2500  -999.2500    88.4434    11.5786   -87.2117   -58.0119     6.9970     5.8592     6.8362
  274.0000  -999.2500  -999.2500  -999.2500    94.0912    11.5786   -90.5882   -57.7152     6.9012     5.7770     6.7415
  274.5000  -999.2500  -999.2500  -999.2500    97.5769    11.5490   -92.0588   -57.4184     6.7145     5.6624     6.6480
  275.0000  -999.2500  -999.2500  -999.2500   100.2963    11.5193   -93.8235   -57.1217     6.6226     5.6608     6.6462
  275.5000  -999.2500  -999.2500  -999.2500    93.2016    11.4599   -94.4118   -56.8249     6.6217     5.7367     6.6444
  276.0000  -999.2500  -999.2500  -999.2500    84.3317    11.3412   -93.8235   -56.5282     6.9090     6.1401     6.7342
  276.5000  -999.2500  -999.2500  -999.2500    83.6076    11.1929   -92.9412   -56.2315     7.3958     7.3299     6.9249
  277.0000  -999.2500  -999.2500  -999.2500    87.8938    11.0445   -91.7647   -55.9347     7.6994     8.8704     7.1170
  277.5000  -999.2500  -999.2500  -999.2500    92.6334    10.7774   -91.1765   -55.6380     7.9135    10.0267     7.3144
  278.0000  -999.2500  -999.2500  -999.2500    95.5978    10.4807   -91.4706   -55.3413     8.2453     9.8881     7.5301
  278.5000  -999.2500  -999.2500  -999.2500    99.1540    10.3323   -92.6471   -55.0445     8.4584     8.2787     7.8176
  279.0000  -999.2500  -999.2500  -999.2500   100.9350    10.2136   -93.5294   -54.7478     8.5922     7.2208     7.6758
  279.5000  -999.2500  -999.2500  -999.2500    97.9823    10.0950   -94.4118   -54.4511     8.8094     6.8354     7.2786
  280.0000  -999.2500  -999.2500  -999.2500   105.0888    10.0356   -95.0000   -54.1543     8.9292     6.7409     7.0782
  280.5000  -999.2500  -999.2500  -999.2500   106.8698    10.0356   -95.5882   -53.8576     8.9279     6.8319     6.9991
  281.0000  -999.2500  -999.2500  -999.2500   102.6941    10.0356   -96.1765   -53.5608     8.7770     6.8298     7.0938
  281.5000  -999.2500  -999.2500  -999.2500   102.1478    10.0356   -96.7686   -53.2641     8.5075     6.8280     7.0916
  282.0000  -999.2500  -999.2500  -999.2500   106.8876    10.0356   -97.3529   -52.9674     8.1608     6.9199     7.0897
  282.5000  -999.2500  -999.2500  -999.2500   105.5619    10.0059   -97.6471   -52.6706     7.7532     6.9180     7.0589
  283.0000  -999.2500  -999.2500  -999.2500   101.9880    10.0059   -97.6471   -52.3739     7.5414     6.8224     6.9895
  283.5000  -999.2500  -999.2500  -999.2500    99.1441    10.0059   -97.6471   -52.0772     7.3354     6.7281     6.8608
  284.0000  -999.2500  -999.2500  -999.2500    98.6268    10.0063   -97.9412   -51.7804     7.1005     6.3690     6.5493
  284.5000  -999.2500  -999.2500  -999.2500    98.7219    10.0356   -97.9922   -51.4837     6.7766     5.4799     6.0495
  285.0000  -999.2500  -999.2500  -999.2500    99.2308    10.0663   -98.2353   -51.1870     6.2714     4.8453     5.3696
  285.5000  -999.2500  -999.2500  -999.2500    99.2366    10.1259   -98.5294   -50.8902     5.9342     4.6497     4.9410
  286.0000  -999.2500  -999.2500  -999.2500    99.2426    10.1840   -98.5294   -50.5935     5.6152     4.8427     4.7857
  286.5000  -999.2500  -999.2500  -999.2500   100.0966    10.1840   -98.5294   -50.2967     5.3133     5.0436     4.9817
  287.0000  -999.2500  -999.2500  -999.2500   105.6850    10.1818   -98.5294   -50.0000     5.5625     5.3251     5.3394
  287.5000  -999.2500  -999.2500  -999.2500   113.0181    10.1543   -98.1373   -49.7033     6.0412     5.6223     5.6017
  288.0000  -999.2500  -999.2500  -999.2500   114.0584    10.1246   -97.5412   -49.4065     6.4674     5.8557     5.9186
  288.5000  -999.2500  -999.2500  -999.2500   108.0686    10.0950   -97.0588   -49.1098     6.7386     6.1825     6.2068
  289.0000  -999.2500  -999.2500  -999.2500   103.3018    10.0653   -96.8863   -48.8131     7.0211     6.5281     6.6980
  289.5000  -999.2500  -999.2500  -999.2500    99.8748    10.0356   -97.0588   -48.5163     7.2163     6.8018     7.0204
  290.0000  -999.2500  -999.2500  -999.2500   102.8400    10.0059   -97.3529   -48.2196     7.5596     7.0838     7.3542
  290.5000  -999.2500  -999.2500  -999.2500   106.0118    10.0059   -97.2078   -47.9229     7.6626     7.2793     7.5562
  291.0000  -999.2500  -999.2500  -999.2500   106.4013    10.0104   -97.0588   -47.6261     7.9815     7.4801     7.7638
  291.5000  -999.2500  -999.2500  -999.2500   101.7242    10.0356   -96.7647   -47.3294     8.2012     7.6784     7.9770
  292.0000  -999.2500  -999.2500  -999.2500    97.8934    10.0356   -96.7647   -47.0327     8.3130     7.7818     8.3091
  292.5000  -999.2500  -999.2500  -999.2500    98.3827    10.0653   -97.0588   -46.7359     8.4261     7.7796     8.4213
  293.0000  -999.2500  -999.2500  -999.2500   101.5349    10.0596   -97.9412   -46.4392     8.5406     7.7775     8.6527
  293.5000  -999.2500  -999.2500  -999.2500   106.0473    10.0356   -99.7059   -46.1424     8.6566     7.7753     8.6503
  294.0000  -999.2500  -999.2500  -999.2500   105.2939    10.0293  -101.4706   -45.8457     8.6554     7.7732     8.7674
