~VERSION INFORMATION
 VERS.                2.0:   CWLS LOG ASCII STANDARD - VERSION 2.0
 WRAP.                 NO:   ONE LINE PER DEPTH STEP
~WELL INFORMATION
#MNEM.UNIT      DATA TYPE    INFORMATION
#----------   ------------   ------------------------------
 STRT.F          261.0000:   START DEPTH
 STOP.F         2875.0000:   STOP DEPTH
 STEP.F            0.5000:   STEP LENGTH
 NULL.          -999.2500:   NO VALUE
 COMP.   LAWRENCE ALLISON:   COMPANY
 WELL. LAWRENCE ALLISON "X" #85-20:   WELL
 FLD .          N.P.R. #3:   FIELD
 LOC .      S20 T39N R78W:   LOCATION
 CNTY.            NATRONA:   COUNTY
 STAT.            WYOMING:   STATE
 CTRY. UNITED STATES OF AMERICA:   COUNTRY
 SRVC.      DRESSER ATLAS:   SERVICE COMPANY
 DATE.        23-JUL-1986:   LOGDATE
 API .     49025111030000:   API NUMBER
~CURVE INFORMATION
#MNEM.UNIT       API CODE    CURVE DESCRIPTION
#----------   ------------   ------------------------------
 DEPT.F                  :   
 CORR.G/C3   45 356 01 00:   DENSITY CORRECTION
 RHOB.G/C3   45 350 01 00:   BULK DENSITY
 CNC .DEC    42 890 03 00:   NEUTRON POROSITY SANDSTONE
 GRR .GAPI   07 310 01 00:   GAMMA RAY FROM RESISTIVITY
 CALR.IN     07 280 01 00:   CALIPER FROM RESISTIVITY
 SPR .MV     07 010 01 00:   SPONTANEOUS POTENTIAL
 TENR.LBS    07 635 01 00:   TENSION FROM RESISTIVITY
 RILD.OHMM   07 120 46 00:   DEEP INDUCTION RESISTIVITY
 RILM.OHMM   07 120 44 00:   INDUCTION LOG MEDIUM RESISTIVITY
 RFOC.OHMM   07 220 04 00:   RESISTIVITY FOCUSED LOG RES.
~PARAMETER INFORMATION
#MNEM.UNIT          VALUE    DESCRIPTION
#----------   ------------   ------------------------------
 EKB .F         5007.0000:   Kelly bushing
 EGL .F         4995.0000:   Ground level
 EDF .F            0.0000:   Drilling floor
 EPD .F         4995.0000:   Permanent datum
 TD  .F         2874.0000:   Total depth
 CLNT.            A2DTECH:   Client Code
 SL  . 307' FEL & 2237' FSL:   Surface Location
 DATE.        23-JUL-1986:   Date Logged [DD-MMM-YYYY]
 DD  .F              2870:   Depth driller
 DL  .F              2874:   Depth logger
 BLI .F              2872:   Bottom log interval
 TLI .F              2205:   Top log interval
 CS1 .              8.625:   Casing size
 CBD1.      8.625" @ 261':   Casing driller 1
 CBL1.IN              261:   Casing logger 1
 BS1 .IN            7.875:   Bit size
 BSD1.F              2870:   Depth drilled with bit1
 DFT .            KCL-GEL:   Type fluid in hole
 DFD .                9.0:   Density
 DFV .                 37:   Viscosity
 MSS .           MUD TANK:   Source of sample
 RMS .OHMM          0.257:   Rm
 MST .F                89:   Rm Meas. temp.
 RMF .OHMM           0.19:   Rmf
 MFST.F                89:   Rmf Meas. temp.
 MFSS.               CALC:   Source Rmf.
 RMC .OHMM           0.32:   Rmc
 MCST.F                89:   Rmc Meas. temp.
 MCSS.               CALC:   Source Rmc.
 RMB .OHMM           0.20:   Rm. at BHT
 BHT .F               116:   BHT.
 TCS .HRS               4:   Time Circ. stopped
 MRT .F               116:   Maximum recorded temp.
 LUN .            HL 6264:   Logging unit number
 LUL .           GILLETTE:   Logging unit location
 ENGI.      P.M. FAHLSING:   Recorded By
 WITN.           JENNINGS:   Witnessed by
 ORIG.         2.5" PRINT:   Origin of data
 UWI .     49025111030000:   Unique Well ID
 DICO. A2D TECHNOLOGIES, INC.:   Digitizing Company
~OTHER INFORMATION
~A   DEPT     CORR       RHOB        CNC         GRR        CALR      SPR        TENR       RILD      RILM         RFOC 
# ...
  931.0000  -999.2500  -999.2500  -999.2500    94.9968    10.4848   -89.5735   -88.1590     9.3173     7.8030     9.2090
  931.5000  -999.2500  -999.2500  -999.2500    95.5814    10.4840   -89.2868   -88.0201     9.3122     7.7987     9.2045
  932.0000  -999.2500  -999.2500  -999.2500    95.5726    10.4831   -89.0000   -87.8812     9.3072     7.7945     9.2643
  932.5000  -999.2500  -999.2500  -999.2500    94.3768    10.4822   -89.0087   -87.7423     9.3021     7.7902     9.3899
  933.0000  -999.2500  -999.2500  -999.2500    91.9940    10.4516   -88.7206   -87.6034     9.2971     7.7859     9.5171
  933.5000  -999.2500  -999.2500  -999.2500    90.2029    10.4507   -88.7291   -87.4645     9.2921     7.7817     9.5720
  934.0000  -999.2500  -999.2500  -999.2500    88.9932    10.4499   -88.7364   -87.3256     9.2870     7.7774     9.5674
  934.5000  -999.2500  -999.2500  -999.2500    87.8131    10.4787   -89.0378   -87.1867     9.2819     7.7732     9.5619
  935.0000  -999.2500  -999.2500  -999.2500    88.4172    10.5074   -89.0452   -87.0478     9.2769     7.7690     9.4274
  935.5000  -999.2500  -999.2500  -999.2500    89.5759    10.5362   -89.0525   -86.9089     9.2717     7.7648     9.4230
  936.0000  -999.2500  -999.2500  -999.2500    89.5668    10.5650   -89.3539   -86.7700     9.2667     7.7605     9.4185
  936.5000  -999.2500  -999.2500  -999.2500    89.5953    10.5641   -89.6553   -86.6311     9.2617     7.7562     9.4140
  937.0000  -999.2500  -999.2500  -999.2500    91.5030    10.5632   -90.2508   -86.4922     9.1311     7.7822     9.4095
  937.5000  -999.2500  -999.2500  -999.2500    98.8371    10.5623   -90.5522   -86.3533     9.1262     7.8549     9.2772
  938.0000  -999.2500  -999.2500  -999.2500   107.4460    10.5614   -90.8537   -86.2144     9.1039     7.7436     9.1468
  938.5000  -999.2500  -999.2500  -999.2500   105.8942    10.5605   -90.8609   -86.0755     8.9738     7.7394     9.1425
  939.0000  -999.2500  -999.2500  -999.2500   101.9090    10.5596   -90.5741   -85.9366     8.8660     7.7351     9.1381
  939.5000  -999.2500  -999.2500  -999.2500   100.7810    10.5642   -90.5814   -85.7977     8.8612     7.6261     9.1338
  940.0000  -999.2500  -999.2500  -999.2500   101.3656    10.5876   -90.2946   -85.6588     8.8563     7.5187     9.1295
  940.5000  -999.2500  -999.2500  -999.2500    96.6073    10.5866   -90.3019   -85.5199     8.8515     7.4127     9.1251
  941.0000  -999.2500  -999.2500  -999.2500    88.6115    10.5926   -90.3092   -85.3810     8.7267     7.2737     8.9968
  941.5000  -999.2500  -999.2500  -999.2500    85.2177    10.6146   -90.3165   -85.2421     8.5752     7.0731     8.7498
  942.0000  -999.2500  -999.2500  -999.2500    88.8900    10.6137   -90.3238   -85.1032     8.3381     6.8188     8.3938
  942.5000  -999.2500  -999.2500  -999.2500    97.2254    10.6128   -90.3311   -84.9643     8.1076     6.7228     8.0523
  943.0000  -999.2500  -999.2500  -999.2500   102.1346    10.6119   -90.0443   -84.8254     7.9145     6.7545     7.9391
  943.5000  -999.2500  -999.2500  -999.2500   103.6775    10.6110   -90.0516   -84.6865     7.9102     6.8814     7.9354
  944.0000  -999.2500  -999.2500  -999.2500   102.6948    10.6006   -89.7648   -84.5476     7.9058     7.1667     7.9316
  944.5000  -999.2500  -999.2500  -999.2500   100.0979    10.5795   -89.7720   -84.4087     8.0108     7.5238     7.9278
  945.0000  -999.2500  -999.2500  -999.2500    99.9506    10.5683   -89.4852   -84.2698     8.1165     7.7902     8.0333
  945.5000  -999.2500  -999.2500  -999.2500    99.3423    10.5481   -89.4926   -84.1309     8.2639     7.8929     8.2525
  946.0000  -999.2500  -999.2500  -999.2500    97.9902    10.5471   -89.5000   -83.9920     8.3746     7.8886     8.4795
  946.5000  -999.2500  -999.2500  -999.2500    96.5026    10.5166   -89.5073   -83.8531     8.7693     7.8843     8.8376
  947.0000  -999.2500  -999.2500  -999.2500   100.5401    10.5157   -89.5372   -83.7142     9.0829     7.8800     9.3277
  947.5000  -999.2500  -999.2500  -999.2500   101.2327    10.5148   -90.1372   -83.5753     9.2768     7.8757     9.5747
  948.0000  -999.2500  -999.2500  -999.2500    99.8615    10.5139   -90.7373   -83.4364     9.2165     7.8714     9.4279
  948.5000  -999.2500  -999.2500  -999.2500    98.6599    10.5131   -91.0073   -83.2975     9.0173     7.8165     9.1668
  949.0000  -999.2500  -999.2500  -999.2500    97.6439    10.5122   -91.0147   -83.1586     8.8336     7.7055     8.9127
  949.5000  -999.2500  -999.2500  -999.2500    97.0416    10.5113   -90.9775   -83.0197     8.7649     7.5960     8.6658
  950.0000  -999.2500  -999.2500  -999.2500    97.0326    10.5104   -90.6863   -82.8808     8.7601     7.4370     8.5418
  950.5000  -999.2500  -999.2500  -999.2500    97.0238    10.5095   -90.4479   -82.7419     8.7554     7.3818     8.3260
  951.0000  -999.2500  -999.2500  -999.2500    97.6099    10.5086   -90.1610   -82.6030     8.7506     7.3803     8.3220
  951.5000  -999.2500  -999.2500  -999.2500    98.1945    10.5077   -90.1069   -82.4641     8.7458     7.4248     8.4331
  952.0000  -999.2500  -999.2500  -999.2500    97.9623    10.5068   -89.8815   -82.3252     8.8612     7.5779     8.4286
  952.5000  -999.2500  -999.2500  -999.2500    95.7125    10.5059   -89.8897   -82.1863     8.7874     7.6220     8.5412
  953.0000  -999.2500  -999.2500  -999.2500    91.7647    10.5051   -89.8215   -82.0475     8.7315     7.5610     8.5365
  953.5000  -999.2500  -999.2500  -999.2500    94.8456    10.4743   -89.6093   -81.9086     8.7258     7.2530     8.4983
  954.0000  -999.2500  -999.2500  -999.2500   100.0712    10.4141   -89.6177   -81.7697     8.6029     6.9575     8.2628
  954.5000  -999.2500  -999.2500  -999.2500   102.7961    10.3835   -89.6250   -81.6308     8.4817     6.6740     8.1445
  955.0000  -999.2500  -999.2500  -999.2500   104.5795    10.3530   -89.7255   -81.4919     8.3622     6.7766     7.9189
  955.5000  -999.2500  -999.2500  -999.2500   106.3630    10.3521   -89.9338   -81.3530     8.2444     6.9611     7.8448
  956.0000  -999.2500  -999.2500  -999.2500   107.8774    10.3512   -89.9412   -81.2141     8.1283     7.1888     7.9498
  956.5000  -999.2500  -999.2500  -999.2500   108.5113    10.3503   -90.0549   -81.0752     8.1239     7.1849     7.9896
  957.0000  -999.2500  -999.2500  -999.2500   102.1272    10.3494   -90.3607   -80.9363     8.0095     7.1810     8.0978
  957.5000  -999.2500  -999.2500  -999.2500    92.4976    10.3485   -90.6667   -80.7974     8.1151     7.0798     8.2076
  958.0000  -999.2500  -999.2500  -999.2500    90.3620    10.3477   -90.9725   -80.6585     8.1107     6.9801     8.4334
  958.5000  -999.2500  -999.2500  -999.2500    91.5441    10.3468   -91.1544   -80.5196     8.1063     6.9763     8.4917
  959.0000  -999.2500  -999.2500  -999.2500    92.7181    10.3459   -91.1618   -80.3807     8.6745     6.8780     8.4304
  959.5000  -999.2500  -999.2500  -999.2500    92.3986    10.3450   -91.1691   -80.2418     8.5523     6.8743     8.3097
  960.0000  -999.2500  -999.2500  -999.2500    92.1068    10.3739   -91.0393   -80.1029     8.3784     6.8705     8.2505
  960.5000  -999.2500  -999.2500  -999.2500    92.4204    10.3729   -90.8897   -79.9640     8.1468     6.8668     8.0735
  961.0000  -999.2500  -999.2500  -999.2500    93.0110    10.4017   -90.6029   -79.8251     8.0848     6.8631     7.8498
  961.5000  -999.2500  -999.2500  -999.2500    93.2671    10.4008   -90.6103   -79.6862     7.9708     6.7664     7.7998
  962.0000  -999.2500  -999.2500  -999.2500    92.2373    10.3999   -90.4628   -79.5473     7.9665     6.6711     7.7954
  962.5000  -999.2500  -999.2500  -999.2500    85.0888    10.3991   -90.3309   -79.4084     7.9622     6.5771     7.7917
  963.0000  -999.2500  -999.2500  -999.2500    94.0366    10.3982   -90.3383   -79.2695     7.8499     6.5735     7.7880
  963.5000  -999.2500  -999.2500  -999.2500   102.1318    10.3973   -90.1775   -79.1306     7.6794     6.6602     7.7843
  964.0000  -999.2500  -999.2500  -999.2500   102.3541    10.3964   -89.8862   -78.9917     7.5696     6.6566     7.6748
