~VERSION INFORMATION
 VERS.                2.0:   CWLS LOG ASCII STANDARD - VERSION 2.0
 WRAP.                 NO:   ONE LINE PER DEPTH STEP
~WELL INFORMATION
#MNEM.UNIT      DATA TYPE    INFORMATION
#----------   ------------   ------------------------------
 STRT.F           40.0000:   START DEPTH
 STOP.F         3326.0000:   STOP DEPTH
 STEP.F            0.5000:   STEP LENGTH
 NULL.          -999.2500:   NO VALUE
 COMP.    FENIX & SCISSON:   COMPANY
 WELL.  FENIX "AX" #53-15:   WELL
 FLD .              NPR-3:   FIELD
 LOC .      S15 T38N R78W:   LOCATION
 CNTY.            NATRONA:   COUNTY
 STAT.            WYOMING:   STATE
 CTRY. UNITED STATES OF AMERICA:   COUNTRY
 SRVC.              WELEX:   SERVICE COMPANY
 DATE.        02-MAR-1977:   LOGDATE
 API .     49025102640000:   API NUMBER
~CURVE INFORMATION
#MNEM.UNIT       API CODE    CURVE DESCRIPTION
#----------   ------------   ------------------------------
 DEPT.F                  :   
 CALD.IN     42 280 60 00:   CALIPER
 TEND.LBS    42 635 01 00:   TENSION FROM NEUTRON POROSITY LOG
 GRD .GAPI   42 310 30 00:   GAMMA RAY
 NPHI.DEC    42 890 03 00:   NEUTRON POROSITY SANDSTONE
 DPHI.DEC    45 890 12 00:   DENSITY POROSITY SANDSTONE
 SPR .MV     07 010 01 00:   SPONTANEOUS POTENTIAL
 ILD .OHMM   07 120 46 00:   DEEP INDUCTION RESISTIVITY
 ILM .OHMM   07 120 44 00:   INDUCTION LOG MEDIUM RESISTIVITY
 SGRD.OHMM   07 220 05 00:   SHALLOW SHORT GUARD RESISTIVITY
~PARAMETER INFORMATION
#MNEM.UNIT          VALUE    DESCRIPTION
#----------   ------------   ------------------------------
 EKB .F            0.0000:   Kelly bushing
 EGL .F         5251.0000:   Ground level
 EDF .F            0.0000:   Drilling floor
 TD  .F          750.0000:   Total depth
 DATE.        02-MAR-1977:   Date logged
 CLNT.            A2DTECH:   Client Code
 SL  . 1650' FNL & 2360' FEL:   Surface Location
 PD  .                 GL:   Permanent Datum
 EPD .F              5253:   Elevation Permanent Datum
 LMF .                 GL:   Log Measured From
 DMF .                 GL:   Drilling Measured From
 DD  .F               750:   Depth driller
 DL  .F               747:   Depth logger
 BLI .F               745:   Bottom log interval
 CS1 .IN            8.625:   Casing size
 CBD1.       8.625" @ 40':   Casing driller 1
 CBL1.F                44:   Casing logger 1
 BS1 .IN            7.875:   Bit size
 BSD1.F               750:   Depth drilled with bit1
 DFT .           CHEM-GEL:   Type fluid in hole
 MSS .           FLOWLINE:   Source of sample
 RMS .OHMM          0.425:   Rm
 MST .F                56:   Rm Meas. temp.
 RMF .OHMM          0.466:   Rmf
 MFST.F                56:   Rmf Meas. temp.
 RMC .OHMM          0.712:   Rmc
 MCST.F                56:   Rmc Meas. temp.
 MFSS.               MEAS:   Source Rmf.
 MCSS.               MEAS:   Source Rmc.
 RMB .OHMM          0.350:   Rm. at BHT
 BHT .F                68:   BHT.
 TCS .HRS               2:   Time Circ. stopped
 MRT .F                68:   Maximum recorded temp.
 LUN .               8611:   Logging unit number
 LUL .            GILLETH:   Logging unit location
 ENGI.          D. LAWSON:   Recorded By
 WITN.           S. BURKL:   Witnessed by
 ORIG.           5" PRINT:   Origin of data
 UWI .     49025102640000:   Unique Well ID
 DICO. A2D TECHNOLOGIES, INC.:   Digitizing Company
~OTHER INFORMATION
~A   DEPT     CALD       TEND         GRD        NPHI     DPHI        SPR        ILD        ILM       SGRD   
# ...
 2412.5000     8.0270   254.7450   146.5760     0.3450     0.1500  -999.2500  -999.2500  -999.2500  -999.2500
 2413.0000     8.0290   269.8160   140.3330     0.3590     0.1520  -999.2500  -999.2500  -999.2500  -999.2500
 2413.5000     8.0310   266.4590   135.1730     0.3640     0.1330  -999.2500  -999.2500  -999.2500  -999.2500
 2414.0000     8.0320   254.7450   136.3340     0.3530     0.1210  -999.2500  -999.2500  -999.2500  -999.2500
 2414.5000     8.0340   264.7350   141.0670     0.3570     0.0890  -999.2500  -999.2500  -999.2500  -999.2500
 2415.0000     8.0350   264.7350   142.2770     0.3670     0.0900  -999.2500  -999.2500  -999.2500  -999.2500
 2415.5000     8.0370   264.7350   140.0150     0.3740     0.0980  -999.2500  -999.2500  -999.2500  -999.2500
 2416.0000     8.0390   264.7350   136.7610     0.3770     0.1020  -999.2500  -999.2500  -999.2500  -999.2500
 2416.5000     8.0400   264.7350   133.8670     0.3800     0.0990  -999.2500  -999.2500  -999.2500  -999.2500
 2417.0000     8.0420   264.7350   135.4300     0.3800     0.1020  -999.2500  -999.2500  -999.2500  -999.2500
 2417.5000     8.0430   264.7350   139.1580     0.3710     0.0990  -999.2500  -999.2500  -999.2500  -999.2500
 2418.0000     8.0450   264.7350   138.2120     0.3590     0.1070  -999.2500  -999.2500  -999.2500  -999.2500
 2418.5000     8.0470   264.7350   140.5190     0.3520     0.1120  -999.2500  -999.2500  -999.2500  -999.2500
 2419.0000     8.0480   264.7350   138.5040     0.3560     0.1300  -999.2500  -999.2500  -999.2500  -999.2500
 2419.5000     8.0490   268.9060   142.1440     0.3630     0.1450  -999.2500  -999.2500  -999.2500  -999.2500
 2420.0000     8.0870   281.4690   137.8540     0.3690     0.1440  -999.2500  -999.2500  -999.2500  -999.2500
 2420.5000     8.1270   274.7980   138.6370     0.3610     0.0950  -999.2500  -999.2500  -999.2500  -999.2500
 2421.0000     8.0790   256.5250   141.0550     0.3500     0.0700  -999.2500  -999.2500  -999.2500  -999.2500
 2421.5000     8.0680   247.3860   143.8740     0.3450     0.0820  -999.2500  -999.2500  -999.2500  -999.2500
 2422.0000     8.0650   246.6960   140.3520     0.3520     0.0920  -999.2500  -999.2500  -999.2500  -999.2500
 2422.5000     8.0620   235.1900   144.8170     0.3610     0.0860  -999.2500  -999.2500  -999.2500  -999.2500
 2423.0000     8.0600   237.7020   142.7560     0.3590     0.0820  -999.2500  -999.2500  -999.2500  -999.2500
 2423.5000     8.0570   240.2150   139.0290     0.3560     0.0860  -999.2500  -999.2500  -999.2500  -999.2500
 2424.0000     8.0540   242.7270   136.9360     0.3540     0.1100  -999.2500  -999.2500  -999.2500  -999.2500
 2424.5000     8.0510   245.2400   136.3580     0.3540     0.1300  -999.2500  -999.2500  -999.2500  -999.2500
 2425.0000     8.0790   247.7520   135.4140     0.3640     0.1460  -999.2500  -999.2500  -999.2500  -999.2500
 2425.5000     8.1400   250.2650   140.6910     0.3680     0.2080  -999.2500  -999.2500  -999.2500  -999.2500
 2426.0000     8.0970   252.7770   134.4450     0.3690     0.2220  -999.2500  -999.2500  -999.2500  -999.2500
 2426.5000     8.0080   256.7870   142.0810     0.3740     0.2100  -999.2500  -999.2500  -999.2500  -999.2500
 2427.0000     7.9910   266.2090   147.7240     0.3790     0.1780  -999.2500  -999.2500  -999.2500  -999.2500
 2427.5000     7.9900   275.6310   144.9110     0.3750     0.1670  -999.2500  -999.2500  -999.2500  -999.2500
 2428.0000     8.0030   284.7150   143.2750     0.3690     0.1230  -999.2500  -999.2500  -999.2500  -999.2500
 2428.5000     8.0170   244.7550   137.1310     0.3590     0.0950  -999.2500  -999.2500  -999.2500  -999.2500
 2429.0000     8.0310   264.7350   139.0420     0.3500     0.1000  -999.2500  -999.2500  -999.2500  -999.2500
 2429.5000     8.0450   244.9930   139.7420     0.3460     0.1110  -999.2500  -999.2500  -999.2500  -999.2500
 2430.0000     8.0580   257.7420   142.0500     0.3490     0.1140  -999.2500  -999.2500  -999.2500  -999.2500
 2430.5000     8.0720   268.0890   138.1230     0.3520     0.1480  -999.2500  -999.2500  -999.2500  -999.2500
 2431.0000     8.1330   234.7650   138.3480     0.3540     0.1670  -999.2500  -999.2500  -999.2500  -999.2500
 2431.5000     8.1970   274.7250   135.3280     0.3580     0.1800  -999.2500  -999.2500  -999.2500  -999.2500
 2432.0000     8.1920   193.5060   132.2230     0.3610     0.1740  -999.2500  -999.2500  -999.2500  -999.2500
 2432.5000     8.1050   314.6850   141.5740     0.3500     0.1100  -999.2500  -999.2500  -999.2500  -999.2500
 2433.0000     8.1050   284.8480   140.7270     0.3440     0.1100  -999.2500  -999.2500  -999.2500  -999.2500
 2433.5000     8.1220   254.7450   150.4210     0.3460     0.1030  -999.2500  -999.2500  -999.2500  -999.2500
 2434.0000     8.1390   264.7350   151.5920     0.3510     0.0950  -999.2500  -999.2500  -999.2500  -999.2500
 2434.5000     8.1570   260.1700   147.0320     0.3540     0.0840  -999.2500  -999.2500  -999.2500  -999.2500
 2435.0000     8.1700   254.7450   141.9440     0.3440     0.0840  -999.2500  -999.2500  -999.2500  -999.2500
 2435.5000     8.1700   274.7250   137.0940     0.3390     0.0950  -999.2500  -999.2500  -999.2500  -999.2500
 2436.0000     8.1700   274.7250   134.2600     0.3410     0.1050  -999.2500  -999.2500  -999.2500  -999.2500
 2436.5000     8.1700   235.8040   139.6840     0.3480     0.1010  -999.2500  -999.2500  -999.2500  -999.2500
 2437.0000     8.1700   296.4750   133.5530     0.3450     0.1080  -999.2500  -999.2500  -999.2500  -999.2500
 2437.5000     8.1700   239.0470   125.4680     0.3380     0.1040  -999.2500  -999.2500  -999.2500  -999.2500
 2438.0000     8.1550   334.6650   127.6220     0.3330     0.1170  -999.2500  -999.2500  -999.2500  -999.2500
 2438.5000     8.1380   271.5030   132.1730     0.3400     0.1100  -999.2500  -999.2500  -999.2500  -999.2500
 2439.0000     8.1300   270.3300   135.9720     0.3450     0.1000  -999.2500  -999.2500  -999.2500  -999.2500
 2439.5000     8.1070   280.7820   134.9610     0.3350     0.0910  -999.2500  -999.2500  -999.2500  -999.2500
 2440.0000     8.0900   270.2030   137.3280     0.3220     0.0990  -999.2500  -999.2500  -999.2500  -999.2500
 2440.5000     8.0890   259.6250   132.5120     0.3190     0.1040  -999.2500  -999.2500  -999.2500  -999.2500
 2441.0000     8.0880   249.0460   132.4550     0.3300     0.1060  -999.2500  -999.2500  -999.2500  -999.2500
 2441.5000     8.0870   244.7550   138.1720     0.3480     0.1100  -999.2500  -999.2500  -999.2500  -999.2500
 2442.0000     8.0860   244.7550   138.4060     0.3540     0.1060  -999.2500  -999.2500  -999.2500  -999.2500
 2442.5000     8.0850   254.8700   134.5800     0.3510     0.0920  -999.2500  -999.2500  -999.2500  -999.2500
 2443.0000     8.0840   264.7350   138.7570     0.3480     0.0930  -999.2500  -999.2500  -999.2500  -999.2500
 2443.5000     8.0830   262.5740   137.8390     0.3500     0.0980  -999.2500  -999.2500  -999.2500  -999.2500
 2444.0000     8.0820   259.9300   143.2400     0.3520     0.1060  -999.2500  -999.2500  -999.2500  -999.2500
 2444.5000     8.0800   257.2850   140.6530     0.3460     0.1100  -999.2500  -999.2500  -999.2500  -999.2500
 2445.0000     8.0790   254.7450   133.3800     0.3390     0.1160  -999.2500  -999.2500  -999.2500  -999.2500
 2445.5000     8.0780   211.2050   121.0770     0.3390     0.1040  -999.2500  -999.2500  -999.2500  -999.2500
 2446.0000     8.0770   324.6750   116.2980     0.3350     0.0890  -999.2500  -999.2500  -999.2500  -999.2500
 2446.5000     8.0760   248.4370   124.6430     0.3260     0.0990  -999.2500  -999.2500  -999.2500  -999.2500
 2447.0000     8.0750   262.7940   122.1410     0.3270     0.1080  -999.2500  -999.2500  -999.2500  -999.2500
 2447.5000     8.0740   272.6360   127.5020     0.3290     0.1130  -999.2500  -999.2500  -999.2500  -999.2500
 2448.0000     8.0730   281.7730   134.1150     0.3310     0.1130  -999.2500  -999.2500  -999.2500  -999.2500
 2448.5000     8.0710   273.3600   138.6380     0.3370     0.1360  -999.2500  -999.2500  -999.2500  -999.2500
