~VERSION INFORMATION
 VERS.                2.0:   CWLS LOG ASCII STANDARD - VERSION 2.0
 WRAP.                 NO:   ONE LINE PER DEPTH STEP
~WELL INFORMATION
#MNEM.UNIT      DATA TYPE    INFORMATION
#----------   ------------   ------------------------------
 STRT.F          208.0000:   START DEPTH
 STOP.F         2950.0000:   STOP DEPTH
 STEP.F            0.5000:   STEP LENGTH
 NULL.          -999.2500:   NO VALUE
 COMP.    FENIX & SCISSON:   COMPANY
 WELL.     FENIX A #56-28:   WELL
 FLD .                NPR:   FIELD
 LOC .      S28 T39N R78W:   LOCATION
 CNTY.            NATRONA:   COUNTY
 STAT.            WYOMING:   STATE
 CTRY. UNITED STATES OF AMERICA:   COUNTRY
 SRVC.              WELEX:   SERVICE COMPANY
 DATE.        20-AUG-1977:   LOGDATE
 API .     49025104140000:   API NUMBER
~CURVE INFORMATION
#MNEM.UNIT       API CODE    CURVE DESCRIPTION
#----------   ------------   ------------------------------
 DEPT.F                  :   
 SPR .MV     07 010 01 00:   SPONTANEOUS POTENTIAL
 RILM.OHMM   07 120 44 00:   INDUCTION LOG MEDIUM RESISTIVITY
 RILD.OHMM   07 120 46 00:   INDUCTION LOG DEEP RESISTIVITY
 SGRD.OHMM   07 220 05 00:   SHALLOW GUARD LOG RESISTIVITY
 CALD.IN     45 280 60 00:   CALIPER FROM DENSITY LOG
 DCOR.G/C3   45 356 01 00:   DENSITY CORRECTION
 GRD .GAPI   45 310 01 00:   GAMMA RAY FROM DENSITY LOG
 RHOB.G/C3   45 350 01 00:   BULK DENSITY
~PARAMETER INFORMATION
#MNEM.UNIT          VALUE    DESCRIPTION
#----------   ------------   ------------------------------
 EKB .F         5088.0000:   Kelly bushing
 EGL .F         5078.0000:   Ground level
 EDF .F            0.0000:   Drilling floor
 EPD .F         5078.0000:   Permanent datum
 TD  .F         2960.0000:   Total depth
 DATE.        20-AUG-1977:   Date logged
 CLNT.            A2DTECH:   Client Code
 SL  . 1650' FSL & 2310' FEL:   Surface Location
 PD  .                 GL:   Permanent Datum
 LMF .                 KB:   Log Measured From
 DMF .                 KB:   Drilling Measured From
 DAPD.F                10:   Feet Above Permanent Datum
 DD  .F              2960:   Depth driller
 DL  .F              2952:   Depth logger
 BLI .F              2950:   Bottom log interval
 TLI .F               210:   Top log interval
 CS1 .IN            8.625:   Casing size
 CBD1.      8.625" @ 215':   Casing driller 1
 CBL1.F               218:   Casing logger 1
 BS1 .IN            7.875:   Bit size
 BSD1.F              2960:   Depth drilled with bit1
 DFT .            KCL MUD:   Type fluid in hole
 DFD .                8.9:   Density
 DFV .                 60:   Viscosity
 DFPH.                 11:   pH
 DFL .                7.2:   Fluid loss
 MSS .           FLOWLINE:   Source of sample
 RMS .OHMM            .78:   Rm
 MST .F                81:   Rm Meas. temp.
 RMF .OHMM            .46:   Rmf
 MFST.F                81:   Rmf Meas. temp.
 RMC .OHMM           1.66:   Rmc
 MCST.F                81:   Rmc Meas. temp.
 MFSS.               CALC:   Source Rmf.
 MCSS.               CALC:   Source Rmc.
 RMB .OHMM            .56:   Rm. at BHT
 BHT .F               112:   BHT.
 TCS .HRS             2.5:   Time Circ. stopped
 MRT .F               112:   Maximum recorded temp.
 LUN .               8611:   Logging unit number
 LUL .             CASPER:   Logging unit location
 ENGI.             C DOAK:   Recorded By
 WITN.       B HARRINGTON:   Witnessed by
 ORIG.           5" PRINT:   Origin of data
 UWI .     49025104140000:   Unique Well ID
 DICO. A2D TECHNOLOGIES, INC.:   Digitizing Company
~OTHER INFORMATION
~A   DEPT      SPR       RILM       RILD       SGRD         CALD     DCOR        GRD       RHOB   
# ...
 1099.0000   -75.7440     9.9280     8.6060    11.7060     9.9910     0.0030   113.6650     2.4700
 1099.5000   -75.5970    10.2800     8.6760    12.5030     9.9870     0.0030   111.0730     2.4760
 1100.0000   -75.7650    10.6050     8.7460    13.3070     9.9820     0.0030   108.8360     2.4850
 1100.5000   -75.9350    10.9290     8.8160    12.9470     9.9780     0.0030   107.4660     2.4940
 1101.0000   -76.0200    11.2860     8.8850    13.7980     9.9730     0.0030   106.7550     2.5030
 1101.5000   -76.0790    11.1330     8.9550    14.7440     9.9690     0.0050   107.7850     2.5120
 1102.0000   -76.1370    10.8800     9.0250    15.4070     9.9680     0.0090   109.7090     2.5200
 1102.5000   -76.1940    10.9490     9.0950    13.6780     9.9700     0.0120   111.9520     2.5220
 1103.0000   -76.2520    11.0860     9.1650    13.6780     9.9730     0.0150   114.2740     2.5120
 1103.5000   -76.3100    11.1830     9.2350    13.8110     9.9750     0.0190   113.8510     2.5100
 1104.0000   -76.3700    11.1830     9.3120    14.0590     9.9770     0.0220   112.6460     2.5120
 1104.5000   -76.3730    11.1830     9.2900    13.6700     9.9800     0.0240   113.1000     2.5100
 1105.0000   -76.3730    11.2140     9.2650    12.9470     9.9820     0.0200   113.9810     2.5060
 1105.5000   -76.3730    11.2430     9.2410    13.1830     9.9840     0.0160   113.8800     2.5030
 1106.0000   -76.3730    11.2710     9.2170    13.5530     9.9870     0.0140   112.1290     2.5000
 1106.5000   -76.3720    11.2860     9.1930    13.4920     9.9890     0.0130   111.2240     2.4970
 1107.0000   -76.3470    11.1030     9.1680    13.4300     9.9910     0.0130   111.2070     2.4900
 1107.5000   -76.2540    10.9630     9.1440    13.6510     9.9940     0.0120   111.7620     2.4830
 1108.0000   -76.1640    10.8230     9.1200    13.8040     9.9960     0.0110   112.4180     2.4750
 1108.5000   -76.0740    10.6830     9.0960    13.2500     9.9980     0.0100   113.0820     2.4670
 1109.0000   -75.9850    10.5850     9.0710    12.5960    10.0010     0.0090   113.7460     2.4630
 1109.5000   -76.0480    10.7320     9.0040    12.6870    10.0030     0.0080   114.3500     2.4610
 1110.0000   -76.1210    10.8800     8.8940    12.8290    10.0060     0.0080   114.1440     2.4600
 1110.5000   -76.1940    10.7320     8.7840    13.0250    10.0050     0.0070   113.9720     2.4590
 1111.0000   -76.2670    10.5210     8.6740    13.2420    10.0030     0.0060   113.9840     2.4580
 1111.5000   -76.3400    10.3100     8.5640    13.4300    10.0020     0.0050   115.4110     2.4590
 1112.0000   -76.3670    10.0990     8.4540    13.0930    10.0010     0.0040   117.5710     2.4620
 1112.5000   -76.3580     9.8880     8.3440    12.4200     9.9990     0.0030   119.3720     2.4690
 1113.0000   -76.3480     9.6760     8.2500    11.8140     9.9980     0.0060   120.2820     2.4810
 1113.5000   -76.3390     9.5170     8.1930    12.0830     9.9960     0.0110   121.2300     2.4930
 1114.0000   -76.3290     9.4090     8.1360    12.2550     9.9950     0.0160   120.9650     2.5040
 1114.5000   -76.3200     9.3120     8.0800    11.5250     9.9940     0.0210   119.7980     2.5150
 1115.0000   -76.3100     9.4300     8.0230    10.6820     9.9920     0.0260   118.1640     2.5240
 1115.5000   -76.3010     9.5710     7.9660    11.0470     9.9910     0.0310   116.5490     2.5290
 1116.0000   -76.2910     9.4370     7.9100    12.1430     9.9890     0.0300   115.1570     2.5310
 1116.5000   -76.2810     9.1430     7.8250    11.9490     9.9880     0.0280   115.5370     2.5270
 1117.0000   -76.2720     9.2330     7.8350    11.6000     9.9870     0.0270   115.8990     2.5220
 1117.5000   -76.2620     9.3330     7.8560    11.4940     9.9850     0.0260   115.2440     2.5170
 1118.0000   -76.2530     9.4840     7.8760    11.7160     9.9840     0.0240   114.3450     2.5120
 1118.5000   -76.2430     9.4270     7.8970    12.0330     9.9830     0.0230   114.1520     2.5070
 1119.0000   -76.2340     9.3130     7.9170    12.2550     9.9810     0.0220   114.4310     2.5010
 1119.5000   -76.2240     9.1430     7.9380    11.6820     9.9800     0.0210   114.7380     2.4960
 1120.0000   -76.2150     9.3600     7.9580    11.2860     9.9780     0.0190   114.0260     2.4930
 1120.5000   -76.2050     9.8370     7.9790    11.7010     9.9770     0.0190   113.1200     2.4950
 1121.0000   -76.1960     9.7480     8.0000    11.8140     9.9760     0.0190   113.0810     2.4960
 1121.5000   -76.1860     9.5020     8.0200    12.0100     9.9740     0.0200   113.5180     2.4970
 1122.0000   -76.1770    10.2980     8.0430    12.5960     9.9730     0.0200   113.9670     2.4950
 1122.5000   -76.1950     9.1430     8.0340    12.3950     9.9710     0.0200   114.3000     2.4930
 1123.0000   -76.2150     9.9280     8.0260    12.0320     9.9700     0.0200   112.6770     2.4910
 1123.5000   -76.2340     9.0590     8.0170    12.3680     9.9690     0.0200   111.0440     2.4880
 1124.0000   -76.2530     9.3970     8.0080    12.1640     9.9670     0.0210   109.4490     2.4860
 1124.5000   -76.2730     9.0590     7.9990    11.7560     9.9670     0.0210   109.7790     2.4870
 1125.0000   -76.2920     9.5710     7.9900    11.3890     9.9690     0.0210   110.4140     2.4890
 1125.5000   -76.3110     9.1430     7.9810    12.0320     9.9700     0.0210   111.6240     2.4900
 1126.0000   -76.3300     9.1770     7.9700    11.6990     9.9720     0.0220   112.9440     2.4880
 1126.5000   -76.3500     9.2160     7.9970    11.0810     9.9740     0.0220   113.5790     2.4860
 1127.0000   -76.3680     9.2540     8.0360    11.3620     9.9750     0.0220   113.5650     2.4880
 1127.5000   -76.4200     9.2920     8.0760    11.7640     9.9770     0.0220   112.6690     2.4910
 1128.0000   -76.4770     9.9280     8.1150    12.3680     9.9780     0.0220   111.2540     2.4910
 1128.5000   -76.5330     9.3970     8.1540    12.2970     9.9800     0.0230   109.7080     2.4950
 1129.0000   -76.5160    10.1110     8.1940    12.1430     9.9810     0.0230   108.1800     2.5020
 1129.5000   -76.3870     9.9450     8.2330    12.5210     9.9830     0.0220   106.9210     2.5080
 1130.0000   -76.2590    10.0980     8.2730    12.9400     9.9850     0.0220   107.4180     2.5150
 1130.5000   -76.1310    10.2980     8.3120    13.1180     9.9860     0.0210   107.8840     2.5130
 1131.0000   -76.0000    10.2870     8.3510    13.1860     9.9740     0.0210   107.5590     2.5100
 1131.5000   -76.0360    10.2710     8.3910    12.6120     9.9620     0.0210   106.8400     2.5070
 1132.0000   -76.1020    10.2540     8.4300    12.1430     9.9500     0.0200   107.6850     2.5090
 1132.5000   -76.1690    10.2380     8.4690    12.8600     9.9300     0.0200   109.6040     2.5150
 1133.0000   -76.2370    10.2220     8.4970    13.1860     9.9090     0.0190   112.0710     2.5230
 1133.5000   -76.3040    10.2040     8.4500    12.9470     9.8880     0.0200   114.4660     2.5310
 1134.0000   -76.3710    10.0970     8.4140    12.9470     9.8670     0.0220   116.4660     2.5390
 1134.5000   -76.4370     9.9280     8.3780    12.4320     9.8460     0.0250   115.8110     2.5480
 1135.0000   -76.5040    10.1890     8.3410    12.0320     9.8250     0.0270   114.6500     2.5460
 1135.5000   -76.5690    10.3930     8.3050    12.6080     9.8070     0.0290   111.2000     2.5410
 1136.0000   -76.6170     9.8970     8.2690    12.9470     9.8010     0.0220   108.1590     2.5280
 1136.5000   -76.6640     9.3120     8.2330    12.7820     9.7950     0.0140   109.1120     2.5060
 1137.0000   -76.7110     9.5370     8.1970    12.4260     9.7900     0.0120   110.1340     2.4850
 1137.5000   -76.7590    10.0190     8.1610    11.8140     9.7990     0.0110   111.2420     2.4740
 1138.0000   -76.7200     9.7660     8.1250    11.9510     9.8090     0.0100   112.7590     2.4820
 1138.5000   -76.6690     9.3120     8.0880    12.1430     9.8180     0.0080   114.2470     2.4820
 1139.0000   -76.6170    10.0190     8.0520    11.8140     9.8270     0.0070   115.7320     2.4760
