~VERSION INFORMATION
 VERS.                2.0:   CWLS LOG ASCII STANDARD - VERSION 2.0
 WRAP.                 NO:   ONE LINE PER DEPTH STEP
~WELL INFORMATION
#MNEM.UNIT      DATA TYPE    INFORMATION
#----------   ------------   ------------------------------
 STRT.F          200.0000:   START DEPTH
 STOP.F         3209.0000:   STOP DEPTH
 STEP.F            0.5000:   STEP LENGTH
 NULL.          -999.2500:   NO VALUE
 COMP.    FENIX & SCISSON:   COMPANY
 WELL. FENIX & SCISSON "AX" #88-3:   WELL
 FLD .             NPR #3:   FIELD
 LOC .       S3 T38N R78W:   LOCATION
 CNTY.            NATRONA:   COUNTY
 STAT.            WYOMING:   STATE
 CTRY. UNITED STATES OF AMERICA:   COUNTRY
 SRVC.              WELEX:   SERVICE COMPANY
 DATE.        27-JUL-1977:   LOGDATE
 API .     49025104060000:   API NUMBER
~CURVE INFORMATION
#MNEM.UNIT       API CODE    CURVE DESCRIPTION
#----------   ------------   ------------------------------
 DEPT.F                  :   
 CALD.IN     45 280 60 00:   CALIPER FROM DENSITY LOG
 GRD .GAPI   45 310 01 00:   GAMMA RAY FROM DENSITY LOG
 RHOB.G/C3   45 350 01 00:   BULK DENSITY
 CORR.G/C3   45 356 01 00:   DENSITY CORRECTION
 NPHI.DEC    42 890 03 00:   NEUTRON POROSITY SANDSTONE
 SPR .MV     07 010 01 00:   SPONTANEOUS POTENTIAL
 SGRD.OHMM   07 220 05 00:   GUARD LOG RESISTIVITY
 FORX.OHMM   07 000 00 00:   
~PARAMETER INFORMATION
#MNEM.UNIT          VALUE    DESCRIPTION
#----------   ------------   ------------------------------
 EKB .F         5134.0000:   Kelly bushing
 EGL .F         5124.0000:   Ground level
 EDF .F            0.0000:   Drilling floor
 TD  .F         3211.0000:   Total depth
 CLNT.            A2DTECH:   Client Code
 SL  . 230' FSL & 380' FEL:   Surface Location
 PD  .                 GL:   Permanent Datum
 EPD .F              5124:   Elevation Permanent Datum
 LMF .                 KB:   Log Measured From
 DMF .                 KB:   Drilling Measured From
 DAPD.F                10:   Feet Above Permanent Datum
 DATE.        27-JUL-1977:   Date Logged [DD-MMM-YYYY]
 DD  .F              3200:   Depth driller
 DL  .F              3211:   Depth logger
 BLI .F              3210:   Bottom log interval
 TLI .F               200:   Top log interval
 CS1 .IN            8.625:   Casing size
 CBD1.      8.625" @ 218':   Casing driller 1
 CBL1.F               218:   Casing logger 1
 BS1 .IN            7.875:   Bit size
 BSD1.F              3200:   Depth drilled with bit1
 DFT .            KCL MUD:   Type fluid in hole
 DFD .                9.2:   Density
 DFV .                 36:   Viscosity
 DFPH.                9.5:   pH
 DFL .                9.6:   Fluid loss
 MSS .           FLOWLINE:   Source of sample
 RMS .OHMM           0.61:   Rm
 MST .F                85:   Rm Meas. temp.
 RMF .OHMM           0.53:   Rmf
 MFST.F                85:   Rmf Meas. temp.
 MFSS.               FANN:   Source Rmf.
 RMC .OHMM           0.48:   Rmc
 MCST.F                85:   Rmc Meas. temp.
 MCSS.                KIT:   Source Rmc.
 RMB .OHMM           0.42:   Rm. at BHT
 BHT .F               122:   BHT.
 TCS .HRS             2.5:   Time Circ. stopped
 MRT .F               122:   Maximum recorded temp.
 LUN .               8611:   Logging unit number
 LUL .             CASPER:   Logging unit location
 ENGI.            C. DOAK:   Recorded By
 WITN.      E. HARRINGTON:   Witnessed by
 ORIG.      2.5" 5" PRINT:   Origin of data
 UWI .     49025104060000:   Unique Well ID
 DICO. A2D TECHNOLOGIES, INC.:   Digitizing Company
~OTHER INFORMATION
~A   DEPT       CALD       GRD        RHOB      CORR        NPHI       SPR      SGRD         FORX 
# ...
  807.5000    11.4734    87.2099     2.4953     0.0705     0.2845   -72.2976     5.8941     7.4671
  808.0000    11.4754    87.0911     2.4917     0.0693     0.2840   -72.3491     5.8954     7.5504
  808.5000    11.4776    88.2368     2.4926     0.0696     0.2834   -72.3598     5.8966     7.6565
  809.0000    11.4799    89.4178     2.4956     0.0713     0.2835   -72.3702     5.9790     7.6586
  809.5000    11.4823    90.1848     2.4995     0.0731     0.2860   -72.3783     5.9803     7.8135
  810.0000    11.4846    91.0104     2.5035     0.0755     0.2930   -72.3879     5.9815     7.8754
  810.5000    11.4717    91.4547     2.5072     0.0781     0.3002   -72.3970     5.9373     7.8776
  811.0000    11.4739    91.4922     2.5044     0.0799     0.3027   -72.4061     5.9026     7.6674
  811.5000    11.4532    91.2326     2.5009     0.0792     0.3030   -72.4153     5.9040     7.6694
  812.0000    11.4484    90.9760     2.4970     0.0774     0.3030   -72.4244     5.8248     7.5669
  812.5000    11.4357    90.4160     2.4912     0.0766     0.3018   -72.4336     5.8260     7.4661
  813.0000    11.4230    89.8425     2.4863     0.0748     0.3006   -72.4427     5.8442     7.4683
  813.5000    11.4102    89.0052     2.4787     0.0736     0.2994   -72.4519     5.8868     7.4703
  814.0000    11.3890    87.8634     2.4728     0.0738     0.2982   -72.4611     5.9099     7.4723
  814.5000    11.3851    86.4150     2.4692     0.0726     0.2911   -72.4702     5.9121     7.4769
  815.0000    11.3578    85.2638     2.4738     0.0729     0.2845   -72.4794     5.9938     7.5794
  815.5000    11.3376    83.8960     2.4805     0.0746     0.2792   -72.4885     6.0776     7.4783
  816.0000    11.3154    82.6642     2.4884     0.0779     0.2801   -72.4977     5.9961     7.4804
  816.5000    11.2829    81.8102     2.4944     0.0826     0.2989   -72.5069     5.8952     7.4825
  817.0000    11.2620    82.1694     2.4975     0.0874     0.3017   -72.5160     5.8116     7.3510
  817.5000    11.2344    84.5692     2.5028     0.0898     0.3045   -72.5252     5.5464     7.2841
  818.0000    11.2216    86.0926     2.5060     0.0924     0.3083   -72.5344     5.4208     7.1874
  818.5000    11.2459    85.5357     2.5075     0.0942     0.3184   -72.5435     5.3068     7.1413
  819.0000    11.2862    83.1958     2.5047     0.0939     0.3202   -72.5527     5.1966     7.0936
  819.5000    11.3065    81.2452     2.4980     0.0926     0.3196   -72.5618     4.8907     5.5466
  820.0000    11.3691    80.0019     2.4914     0.0904     0.3155   -72.5710     4.6311     4.4570
  820.5000    11.4273    83.3730     2.4840     0.0891     0.3107   -72.5802     4.6320     6.1075
  821.0000    11.4628    86.7934     2.4804     0.0865     0.3077   -72.5893     4.6967     7.7791
  821.5000    11.5211    89.3759     2.4858     0.0841     0.3059   -72.5985     4.8946     6.7251
  822.0000    11.5530    93.8314     2.4952     0.0794     0.3102   -72.6077     5.0314     6.6354
  822.5000    11.5850    96.5435     2.5025     0.0781     0.3180   -72.6168     5.1720     6.7286
  823.0000    11.5424    97.1754     2.5052     0.0784     0.3239   -72.6260     5.3179     7.0141
  823.5000    11.4852    95.3432     2.5084     0.0847     0.3258   -72.6351     5.4653     7.2090
  824.0000    11.4132    93.8663     2.5110     0.0865     0.3262   -72.6443     5.4664     7.0874
  824.5000    11.3640    93.7206     2.5081     0.0852     0.3212   -72.6535     5.4533     6.9048
  825.0000    11.3127    94.6508     2.5060     0.0810     0.3164   -72.6626     5.3209     6.8304
  825.5000    11.2707    95.9138     2.5091     0.0797     0.3128   -72.6718     5.3676     7.1129
  826.0000    11.2504    97.4098     2.5145     0.0784     0.3119   -72.6809     5.5743     7.5215
  826.5000    11.2154    97.7445     2.5093     0.0763     0.3122   -72.6901     5.5914     7.4801
  827.0000    11.2027    96.5963     2.4990     0.0745     0.3131   -72.6992     5.4372     7.2269
  827.5000    11.1900    94.5506     2.4931     0.0703     0.3113   -72.7084     5.3265     7.0224
  828.0000    11.1923    92.2106     2.4872     0.0687     0.3077   -72.7177     5.3278     6.9362
  828.5000    11.1799    90.4651     2.4873     0.0667     0.3006   -72.7264     5.3288     7.2292
  829.0000    11.1818    87.8280     2.4918     0.0635     0.2994   -72.7361     5.4033     7.7432
  829.5000    11.1841    86.0594     2.4946     0.0631     0.2994   -72.7463     5.5544     7.4337
  830.0000    11.1863    85.2284     2.4975     0.0625     0.3012   -72.7791     5.6320     7.2349
  830.5000    11.2034    85.2753     2.5035     0.0613     0.3042   -72.8124     5.5565     7.0415
  831.0000    11.2059    85.3356     2.5081     0.0631     0.3107   -72.8466     5.4821     6.7600
  831.5000    11.2079    85.6444     2.5097     0.0633     0.3155   -72.8803     5.4833     6.8652
  832.0000    11.2106    86.1082     2.5038     0.0635     0.3129   -72.9141     5.5755     9.9220
  832.5000    11.2124    86.5924     2.4927     0.0638     0.3095   -72.9479     5.9756     8.4808
  833.0000    11.2146    86.9487     2.4891     0.0626     0.3097   -72.9817     6.2215     7.7215
  833.5000    11.2168    87.5881     2.4974     0.0598     0.3108   -73.0155     6.1867     7.3483
  834.0000    11.2192    88.2187     2.5035     0.0571     0.3113   -73.0494     6.0161     7.3505
  834.5000    11.2276    88.2593     2.4954     0.0558     0.3119   -73.0832     5.9596     7.3889
  835.0000    11.2385    87.7025     2.4858     0.0561     0.3138   -73.1170     6.0432     7.6021
  835.5000    11.2408    86.2541     2.4747     0.0548     0.3209   -73.1508     6.0445     7.8730
  836.0000    11.2583    84.5086     2.4591     0.0551     0.3238   -73.1846     6.1290     8.3315
  836.5000    11.2601    83.0602     2.4502     0.0568     0.3185   -73.2184     6.2150     8.6046
  837.0000    11.2626    82.2062     2.4511     0.0594     0.3119   -73.2522     6.4768     8.2149
  837.5000    11.2649    81.6493     2.4602     0.0622     0.3095   -73.2860     6.5039     8.1054
  838.0000    11.2668    81.6900     2.4701     0.0681     0.3089   -73.3198     6.3911     8.1075
  838.5000    11.2542    82.6253     2.4780     0.0729     0.3095   -73.3536     6.4806     8.2214
  839.0000    11.2567    84.3031     2.4972     0.0791     0.3107   -73.3874     6.6618     8.4518
  839.5000    11.2586    85.9692     2.5085     0.0809     0.3107   -73.4212     6.8480     8.5706
  840.0000    11.2612    86.0067     2.4981     0.0826     0.3107   -73.4550     6.8494     8.5728
  840.5000    11.2634    84.8555     2.5027     0.0829     0.3119   -73.4888     6.5700     8.2173
  841.0000    11.2653    83.7043     2.5088     0.0801     0.3132   -73.5227     6.4667     7.8888
  841.5000    11.2675    82.1723     2.5000     0.0758     0.3181   -73.5565     6.2127     7.7959
  842.0000    11.2699    80.4874     2.4829     0.0701     0.3228   -73.5903     6.1246     8.1777
  842.5000    11.2723    79.0620     2.4805     0.0643     0.3273   -73.6241     5.9793     8.3525
  843.0000    11.2742    79.4061     2.4711     0.0587     0.3367   -73.6579     5.9807     8.1636
  843.5000    11.2765    82.4154     2.4653     0.0589     0.3451   -73.6917     5.9819     7.8249
  844.0000    11.2791    84.2359     2.4646     0.0607     0.3464   -73.7255     6.0436     7.5960
  844.5000    11.2813    84.0010     2.4797     0.0629     0.3447   -73.7593     6.0963     7.5981
  845.0000    11.2680    81.9335     2.4910     0.0642     0.3422   -73.7931     6.2131     7.7668
  845.5000    11.2707    79.9741     2.4986     0.0654     0.3413   -73.8271     6.3239     8.0304
  846.0000    11.2395    78.4362     2.4979     0.0647     0.3437   -73.8603     6.5007     8.1432
  846.5000    11.2303    77.2975     2.4920     0.0649     0.3434   -73.8952     6.5020     8.1722
  847.0000    11.2229    76.4466     2.4990     0.0652     0.3416   -73.9241     6.4149     8.0368
  847.5000    11.1971    77.3756     2.4961     0.0640     0.3398   -73.9620     6.2429     8.0389
