~VERSION INFORMATION
 VERS.                2.0:   CWLS LOG ASCII STANDARD - VERSION 2.0
 WRAP.                 NO:   ONE LINE PER DEPTH STEP
~WELL INFORMATION
#MNEM.UNIT      DATA TYPE    INFORMATION
#----------   ------------   ------------------------------
 STRT.F          297.0000:   START DEPTH
 STOP.F         2946.0000:   STOP DEPTH
 STEP.F            0.5000:   STEP LENGTH
 NULL.          -999.2500:   NO VALUE
 COMP.    FENIX & SCISSON:   COMPANY
 WELL. FENIX & SCISSON SH "X" #17-10:   WELL
 FLD .             NPR #3:   FIELD
 LOC .      S10 T38N R78W:   LOCATION
 CNTY.            NATRONA:   COUNTY
 STAT.            WYOMING:   STATE
 CTRY. UNITED STATES OF AMERICA:   COUNTRY
 SRVC.       SCHLUMBERGER:   SERVICE COMPANY
 DATE.        05-APR-1977:   LOGDATE
 API .     49025103310000:   API NUMBER
~CURVE INFORMATION
#MNEM.UNIT       API CODE    CURVE DESCRIPTION
#----------   ------------   ------------------------------
 DEPT.F                  :   
 SPR .MV     07 010 01 00:   SPONTANEOUS POTENTIAL
 ILD .OHMM   07 120 46 00:   DEEP INDUCTION RESISTIVITY
 ILM .OHMM   07 120 44 00:   INDUCTION LOG MEDIUM RESISTIVITY
 LL8 .OHMM   07 220 08 00:   LATEROLOG-8 RES.
 CALD.IN     45 280 60 00:   CALIPER FROM DENSITY LOG
 GRD .GAPI   45 310 01 00:   GAMMA RAY FROM DENSITY LOG
 CORR.G/C3   45 356 01 00:   DENSITY CORRECTION
 RHOB.G/C3   45 350 01 00:   BULK DENSITY
~PARAMETER INFORMATION
#MNEM.UNIT          VALUE    DESCRIPTION
#----------   ------------   ------------------------------
 EKB .F         5270.0000:   Kelly bushing
 EGL .F         5260.0000:   Ground level
 TD  .F         2950.0000:   Total depth
 CLNT.            A2DTECH:   Client Code
 SL  . 205' FWL & 1115' FSL:   Surface Location
 DATE.        05-APR-1977:   Date Logged [DD-MMM-YYYY]
 DD  .F              2950:   Depth driller
 DL  .F              2948:   Depth logger
 BLI .F              2946:   Bottom log interval
 TLI .F               310:   Top log interval
 CS1 .              10.75:   Casing size
 CBD1.      10.75" @ 300':   Casing driller 1
 CBL1.IN              310:   Casing logger 1
 BS1 .IN            8.625:   Bit size
 BSD1.F              2950:   Depth drilled with bit1
 DFT .                KCL:   Type fluid in hole
 DFD .                9.0:   Density
 DFV .                 33:   Viscosity
 DFL .                  9:   Fluid loss
 MSS .            MUD PIT:   Source of sample
 RMS .OHMM          0.153:   Rm
 MST .F                60:   Rm Meas. temp.
 RMF .OHMM          0.130:   Rmf
 MFST.F                60:   Rmf Meas. temp.
 MFSS.               MEAS:   Source Rmf.
 RMC .OHMM          0.229:   Rmc
 MCST.F                60:   Rmc Meas. temp.
 MCSS.               CALC:   Source Rmc.
 RMB .OHMM           0.08:   Rm. at BHT
 BHT .F               115:   BHT.
 TCS .HRS               6:   Time Circ. stopped
 MRT .F               115:   Maximum recorded temp.
 LUN .               7689:   Logging unit number
 LUL .               CODY:   Logging unit location
 ENGI.             RASMUS:   Recorded By
 WITN.              LYONS:   Witnessed by
 ORIG.         2.5" PRINT:   Origin of data
 UWI .     49025103310000:   Unique Well ID
 DICO. A2D TECHNOLOGIES, INC.:   Digitizing Company
 PD  .                 GL:   Permanent Datum
 EPD .               5260:   Elevation Permanent Datum
 LMF .                 KB:   Log Measured From
 DMF .                 KB:   Drilling Measured From
 DAPD.                 10:   Feet Above Permanent Datum
~OTHER INFORMATION
~A   DEPT      SPR        ILD        ILM        LL8       CALD        GRD       CORR       RHOB   
# ...
 1350.0000   -50.0015     4.5617     4.7306     9.3682     9.4506   104.0936     0.0355     2.5371
 1350.5000   -50.2868     4.5000     4.6667     9.3075     9.5397   105.5692     0.0422     2.5430
 1351.0000   -50.5722     4.5003     4.6037     9.3694     9.5700   106.4600     0.0450     2.5470
 1351.5000   -50.5618     4.5006     4.5415     9.3701     9.5946   107.3275     0.0325     2.5363
 1352.0000   -50.5529     4.5009     4.8113     9.2977     9.5953   107.0099     0.0251     2.5191
 1352.5000   -50.5441     4.5012     5.2169     9.1187     9.5961   106.4618     0.0251     2.5108
 1353.0000   -50.5353     4.5015     5.5124     8.8736     9.5968   108.5144     0.0251     2.5162
 1353.5000   -50.5265     4.5019     5.7381     8.8742     9.5975   107.3236     0.0251     2.5328
 1354.0000   -50.5177     4.5022     5.8899     8.8748     9.5906   106.4483     0.0281     2.5365
 1354.5000   -50.5088     4.5025     5.9813     8.9975     9.5696   106.1579     0.0311     2.5219
 1355.0000   -50.3627     4.5028     6.0539     9.2474     9.5412   105.6136     0.0192     2.5148
 1355.5000   -50.0560     4.5031     6.0543     9.2480     9.5419   106.1694     0.0237     2.5163
 1356.0000   -49.8941     4.5034     6.0547     9.1230     9.5132   105.9220     0.0188     2.5185
 1356.5000   -49.8853     4.5037     6.0552     9.1237     9.5141   104.7505     0.0043     2.5192
 1357.0000   -49.8765     4.5363     6.0556     9.1244     9.5148   104.4794     0.0015     2.5118
 1357.5000   -49.7108     4.6000     6.0727     9.1250     9.4861   104.9220     0.0030     2.5037
 1358.0000   -49.5647     4.6645     6.1397     9.1256     9.5162   105.0643     0.0096     2.5031
 1358.5000   -49.5559     4.6938     6.2441     9.2518     9.5170   104.9064     0.0196     2.5115
 1359.0000   -49.5471     4.7588     6.3975     9.2524     9.5177   102.4407     0.0258     2.5093
 1359.5000   -49.5382     4.7591     6.4861     9.2530     9.4891    99.8888     0.0325     2.5140
 1360.0000   -49.5277     4.7595     6.3753     9.1281     9.4898    93.9778     0.0319     2.5289
 1360.5000   -49.8130     4.7598     6.2263     9.2543     9.4906    93.3977     0.0238     2.5333
 1361.0000   -49.8042     4.7601     6.1422     9.5113     9.4913    93.6970     0.0144     2.5245
 1361.5000   -49.7955     4.7604     6.1427     9.6429     9.4920    95.7496     0.0152     2.5068
 1362.0000   -49.7867     4.7608     6.1432     9.3835     9.4927   101.8957     0.0163     2.5034
 1362.5000   -49.7780     4.7395     6.1717     9.2568     9.4935   103.3635     0.0072     2.5127
 1363.0000   -49.7692     4.6966     6.3443     9.6448     9.4942   103.9541     0.0000     2.5186
 1363.5000   -50.0545     4.6331     6.4896     9.7782     9.4949   104.8372     0.0158     2.5216
 1364.0000   -50.0458     4.5704     6.4900     9.9134     9.4957   105.1354     0.0197     2.5231
 1364.5000   -50.0370     4.5708     6.4905     9.9099     9.4964   105.0782     0.0237     2.5216
 1365.0000   -50.0282     4.5711     6.4909     9.6474     9.4678   101.5592     0.0231     2.5231
 1365.5000   -49.7254     4.6344     6.6181     9.5171     9.4685   100.4734     0.0201     2.5246
 1366.0000   -49.7166     4.7262     6.8032     9.7932     9.4399   103.8051     0.0184     2.5290
 1366.5000   -49.7078     4.8293     6.8570    10.2063     9.3820   104.8710     0.0214     2.5334
 1367.0000   -49.6991     4.8962     6.8575    10.4746     9.3827   103.9299     0.0243     2.5364
 1367.5000   -49.6903     4.9959     6.9019    10.6403     9.3835   103.7131     0.0266     2.5349
 1368.0000   -49.6815     5.0660     6.9528    10.9385     9.4135   106.4012     0.0259     2.5364
 1368.5000   -49.3787     5.2079     6.9532    11.2177     9.4729   108.7427     0.0192     2.5467
 1369.0000   -49.3699     5.2810     6.9059    11.2185     9.5616   107.9540     0.0163     2.5460
 1369.5000   -49.3611     5.3170     6.8114    11.2192     9.5917   103.9746     0.0109     2.5356
 1370.0000   -49.3524     5.3906     6.6270    11.0676     9.6510   103.6257     0.0050     2.5260
 1370.5000   -49.3436     5.4316     6.4476    11.0684     9.7104   102.5783     0.0030     2.5170
 1371.0000   -49.3348     5.4657     6.3593    11.1103     9.7698   102.8772     0.0030     2.5051
 1371.5000   -49.3261     5.4234     6.3215    11.2223     9.8292   102.8830     0.0044     2.5051
 1372.0000   -49.3173     5.3921     6.3220    11.2230     9.8303   101.4970     0.0104     2.5140
 1372.5000   -49.3085     5.3192     6.3225    11.2238     9.8607    98.8023     0.0148     2.5232
 1373.0000   -49.2998     5.3196     6.2371    11.3790     9.9193    97.9310     0.0178     2.5276
 1373.5000   -49.2910     5.2477     6.2375    11.3798     9.9494   100.8607     0.0192     2.5321
 1374.0000   -49.5765     5.1767     6.1532    11.3805     9.9501   104.9601     0.0192     2.5306
 1374.5000   -49.5676     5.1067     6.0702    11.3813     9.9802   106.1355     0.0148     2.5262
 1375.0000   -50.1471     5.1070     5.9882    11.3821     9.9809   101.7553     0.0030     2.5247
 1375.5000   -50.1382     5.1074     5.9072    11.3829     9.9844    99.4220     0.0163     2.5321
 1376.0000   -49.8353     5.1077     5.7485    11.3836    10.0117    98.8430     0.0237     2.5439
 1376.5000   -49.5323     5.1081     5.5939    11.3845    10.0124   100.3108     0.0266     2.5498
 1377.0000   -49.5236     5.1084     5.5182    11.3852     9.9801   101.4862     0.0178     2.5542
 1377.5000   -49.5147     5.1088     5.5187    11.3589     9.8549   102.9540     0.0207     2.5557
 1378.0000   -49.4824     5.1091     5.5191    11.0797     9.7080   102.9598     0.0311     2.5483
 1378.5000   -49.2030     5.1094     5.5954    11.0487     9.6000   100.3340     0.0370     2.5410
 1379.0000   -49.1941     5.1098     5.5957    10.8968     9.5124    98.8779     0.0444     2.5366
 1379.5000   -49.1853     5.1101     5.5961    10.6010     9.4779    98.2983     0.0385     2.5321
 1380.0000   -49.1765     5.1105     5.6735    10.3134     9.4017    98.8895     0.0281     2.5292
 1380.5000   -49.2107     5.1108     5.6739    10.0335     9.3731   100.3573     0.0207     2.5248
 1381.0000   -49.4536     5.1112     5.6743     9.8015     9.3739   100.6555     0.0148     2.5204
 1381.5000   -49.4441     5.0421     5.6747     9.8023     9.4040   100.9537     0.0089     2.5189
 1382.0000   -49.4353     5.0424     5.5839     9.8029     9.4340   102.7139     0.0105     2.5233
 1382.5000   -49.4853     5.0427     5.5074     9.8036     9.4641   102.7583     0.0326     2.5337
 1383.0000   -50.0068     5.0431     5.3583     9.8043     9.5020   100.6787     0.0400     2.5410
 1383.5000   -49.9971     4.9749     5.1268     9.7524     9.5407    99.2225     0.0429     2.5455
 1384.0000   -49.9882     4.9752     4.9195     9.5412     9.5922    98.3512     0.0334     2.5425
 1384.5000   -49.9794     4.8412     4.6884     9.4124     9.6226    98.3570     0.0204     2.5322
 1385.0000   -49.9706     4.7757     4.6251     9.4130     9.6437    98.9476     0.0163     2.5263
 1385.5000   -49.9618     4.7111     4.6433     9.6745     9.6444    99.5382     0.0192     2.5293
 1386.0000   -49.9529     4.6474     4.8123     9.8083     9.6451    99.8364     0.0190     2.5293
 1386.5000   -50.2396     4.5846     5.1119     9.8090     9.6459   101.8890     0.0178     2.5278
 1387.0000   -50.2294     4.5849     5.2782     9.8097     9.6466   103.0644     0.0198     2.5278
 1387.5000   -50.2206     4.5852     5.4762     9.8103     9.6473   104.2398     0.0272     2.5323
 1388.0000   -50.2118     4.5855     5.6293     9.8110     9.6481   105.1228     0.0328     2.5441
 1388.5000   -50.2029     4.5858     5.7582     9.8117     9.6488   105.1132     0.0359     2.5486
 1389.0000   -50.1942     4.6493     5.8379     9.8123     9.6496   103.3335     0.0251     2.5529
 1389.5000   -50.1853     4.6496     5.8383     9.9480     9.6503   101.6314     0.0044     2.5350
 1390.0000   -50.1764     4.6499     5.8387     9.9487     9.6383   102.9438     0.0089     2.5287
