~VERSION INFORMATION
 VERS.                2.0:   CWLS LOG ASCII STANDARD - VERSION 2.0
 WRAP.                 NO:   ONE LINE PER DEPTH STEP
~WELL INFORMATION
#MNEM.UNIT      DATA TYPE    INFORMATION
#----------   ------------   ------------------------------
 STRT.F            0.0000:   START DEPTH
 STOP.F         4700.0000:   STOP DEPTH
 STEP.F            0.5000:   STEP LENGTH
 NULL.          -999.2500:   NO VALUE
 COMP. LAWRENCE ALLISON & ASSOCIATES:   COMPANY
 WELL. LAWRENCE NPR 3 "X" #33-23:   WELL
 FLD .                NPR:   FIELD
 LOC .      S23 T38N R78W:   LOCATION
 CNTY.            NATRONA:   COUNTY
 STAT.            WYOMING:   STATE
 CTRY. UNITED STATES OF AMERICA:   COUNTRY
 SRVC.      DRESSER ATLAS:   SERVICE COMPANY
 DATE.        12-NOV-1984:   LOGDATE
 API .     49025109930000:   API NUMBER
~CURVE INFORMATION
#MNEM.UNIT       API CODE    CURVE DESCRIPTION
#----------   ------------   ------------------------------
 DEPT.F                  :   
 TEND.LBS    45 635 01 00:   TENSION FROM DENSITY LOG
 CALD.IN     45 280 60 00:   CALIPER FROM DENSITY LOG
 CORR.G/C3   45 356 01 00:   DENSITY CORRECTION
 DEN .G/C3   45 350 01 00:   BULK DENSITY
 CNC .DEC    42 890 03 00:   NEUTRON PORISITY SANDSTONE
 SPR .MV     07 010 01 00:   SPONTANEOUS POTENTIAL
 GRR .GAPI   07 310 01 00:   GAMMA RAY FROM RESISTIVITY
 RFOC.OHMM   07 220 01 00:   RESISTIVITY FOCUSED LOG RES.
 ILM .OHMM   07 120 44 00:   INDUCTION LOG MEDIUM RESISTIVITY
 ILD .OHMM   07 120 46 00:   INDUCTION LOG DEEP RESISTIVITY
 TENS.LBS    60 635 01 00:   TENSION FROM SONIC LOG
 DT  .US/F   60 520 00 00:   DELTA TIME
 TENR.LBS    07 635 01 00:   TENSION
~PARAMETER INFORMATION
#MNEM.UNIT          VALUE    DESCRIPTION
#----------   ------------   ------------------------------
 EKB .F         5308.0000:   Kelly bushing
 EGL .F         5296.0000:   Ground level
 EDF .F            0.0000:   Drilling floor
 EPD .F            0.0000:   Permanent datum
 TD  .F         4695.0000:   Total depth
 DATE.        12-NOV-1984:   Date logged
 CLNT.            A2DTECH:   Client Code
 SL  . 1415' FNL & 1874' FWL:   Surface Location
 PD  .                 GL:   Permanent Datum
 LMF .                 KB:   Log Measured From
 DMF .                 KB:   Drilling Measured From
 DAPD.F                12:   Feet Above Permanent Datum
 DD  .F              4695:   Depth driller
 DL  .F              4694:   Depth logger
 BLI .F              4691:   Bottom log interval
 TLI .F              1205:   Top log interval
 CS1 .IN            8.625:   Casing size
 CBD1.     8.625" @ 1206':   Casing driller 1
 CBL1.F              1205:   Casing logger 1
 BS1 .IN            7.875:   Bit size
 BSD1.F              4695:   Depth drilled with bit1
 DFT .     GFL/KCL/STAFLO:   Type fluid in hole
 DFD .                9.2:   Density
 DFV .                 45:   Viscosity
 DFPH.                  8:   pH
 DFL .                 10:   Fluid loss
 MSS .           FLOWLINE:   Source of sample
 RMS .OHMM            .51:   Rm
 MST .F                72:   Rm Meas. temp.
 RMF .OHMM            .43:   Rmf
 MFST.F                70:   Rmf Meas. temp.
 RMC .OHMM            .64:   Rmc
 MCST.F                72:   Rmc Meas. temp.
 MFSS.               MEAS:   Source Rmf.
 MCSS.               CALC:   Source Rmc.
 RMB .OHMM           .272:   Rm. at BHT
 BHT .F               135:   BHT.
 TCS .HRS               4:   Time Circ. stopped
 MRT .F               135:   Maximum recorded temp.
 LUN .               6274:   Logging unit number
 LUL .               GLTE:   Logging unit location
 ENGI.             RAUTIO:   Recorded By
 ORIG.           5" PRINT:   Origin of data
 UWI .     49025109930000:   Unique Well ID
 DICO. A2D TECHNOLOGIES, INC.:   Digitizing Company
~OTHER INFORMATION
~A    DEPT    TEND       CALD       CORR        DEN        CNC        SPR         GRR      RFOC        ILM        ILD       TENS         DT       TENR   
# ...
 1586.0000   -79.3170    10.2860    -0.0120     2.5010     0.2630   -27.5170    93.9630     6.5240     6.7870     6.9570   -94.7470    89.8160   -52.2610
 1586.5000   -79.3170    10.2890    -0.0340     2.4990     0.2620   -27.3920    94.1080     6.5360     6.7580     6.9650   -95.4640    89.8840   -52.3700
 1587.0000   -79.3170    10.2920    -0.0240     2.5100     0.2600   -27.3730    94.2920     6.5510     6.7280     6.9750   -96.1810    89.9520   -52.4790
 1587.5000   -79.3170    10.2950    -0.0080     2.5210     0.2590   -27.3730    92.9340     6.5670     6.7060     6.9840   -96.8980    90.0200   -52.5880
 1588.0000   -79.3170    10.2980     0.0080     2.5330     0.2460   -27.5230    91.3780     6.5820     6.7500     6.9940   -97.6150    90.0880   -52.6970
 1588.5000   -79.3170    10.3010     0.0170     2.5420     0.2410   -27.8570    89.9810     6.5970     6.7920     7.0040   -98.3320    90.1560   -52.8060
 1589.0000   -79.3170    10.3040     0.0180     2.5360     0.2370   -28.1890    90.7230     6.6130     6.8350     7.0130   -99.0950    90.0980   -52.9150
 1589.5000   -79.3170    10.3070     0.0190     2.5270     0.2330   -28.5210    91.4940     6.6280     6.8770     7.0460   -99.0950    89.7870   -53.0240
 1590.0000   -79.3170    10.3090     0.0020     2.5200     0.2310   -28.8530    92.2650     6.6450     6.9190     7.1380   -99.0950    89.4760   -53.1330
 1590.5000   -79.3170    10.3120    -0.0010     2.5260     0.2330   -29.1110    93.0340     6.7990     6.9690     7.2300   -99.0950    89.1650   -53.2420
 1591.0000   -79.3170    10.3150     0.0140     2.5400     0.2350   -28.8120    92.0380     6.9700     7.0820     7.3210   -99.0950    88.8540   -53.3510
 1591.5000   -79.3170    10.3180     0.0420     2.5530     0.2370   -28.5030    90.8700     7.1120     7.1940     7.4190   -99.0950    88.5420   -53.4600
 1592.0000   -79.3170    10.3220     0.0450     2.5490     0.2380   -28.3690    91.1060     7.1930     7.3070     7.5840   -99.0950    88.2310   -53.5690
 1592.5000   -79.3170    10.3170     0.0290     2.5410     0.2360   -28.3970    92.5400     7.2740     7.4200     7.7620   -99.0950    88.0090   -53.6770
 1593.0000   -79.3170    10.3050     0.0050     2.5210     0.2350   -28.4230    93.9790     7.3560     7.5320     7.9110   -99.0950    88.1040   -53.7860
 1593.5000   -79.3170    10.2940     0.0140     2.5270     0.2400   -28.4500    95.4080     7.4370     7.6370     7.9160   -99.0950    88.2000   -53.8950
 1594.0000   -79.3170    10.2810     0.0350     2.5280     0.2480   -28.4770    95.6900     7.5180     7.7020     7.9220   -99.0950    88.2950   -54.0040
 1594.5000   -79.3170    10.2490     0.0240     2.5270     0.2510   -28.5040    94.5640     7.5990     7.7670     7.9280   -99.0950    88.3900   -54.1130
 1595.0000   -78.3850    10.2150     0.0000     2.5230     0.2490   -28.5320    95.6660     7.6960     7.7600     7.9330   -99.0950    88.4860   -54.2220
 1595.5000   -77.2560    10.2010    -0.0120     2.5220     0.2430   -28.5510    99.0280     7.6710     7.7520     7.9390   -99.0950    88.5920   -54.3310
 1596.0000   -76.1280    10.1990    -0.0050     2.5200     0.2390   -28.3750    98.5080     7.6300     7.7450     7.9440   -99.0950    88.5380   -54.4400
 1596.5000   -75.0000    10.1960     0.0050     2.5140     0.2470   -28.1940    96.0640     7.5880     7.7370     7.9500   -99.0950    88.4780   -54.5490
 1597.0000   -73.8720    10.1930    -0.0040     2.5050     0.2570   -28.0090    94.5270     7.5470     7.7300     7.9560   -99.0950    88.4180   -54.6580
 1597.5000   -72.7440    10.1900    -0.0360     2.4960     0.2680   -27.8030    94.1940     7.5050     7.7220     7.9610   -99.0950    88.3580   -54.7670
 1598.0000   -71.6150    10.1870    -0.0470     2.4970     0.2720   -28.0130    93.9060     7.4630     7.7150     7.9670   -99.0950    88.2980   -54.8760
 1598.5000   -70.4870    10.1850    -0.0170     2.4990     0.2630   -28.1050    94.4720     7.4220     7.7070     7.9720   -99.0950    88.2390   -54.9850
 1599.0000   -69.3590    10.1820     0.0030     2.5010     0.2540   -28.1210    95.0220     7.3800     7.7000     7.9780   -99.0950    88.1890   -55.0940
 1599.5000   -68.2310    10.1790     0.0080     2.5080     0.2460   -28.0380    95.0680     7.3510     7.6960     7.9830   -99.0950    88.0700   -55.2030
 1600.0000   -67.1030    10.1760    -0.0050     2.5080     0.2380   -27.9690    92.5970     7.5930     7.6960     7.9670   -99.0950    87.9180   -55.3120
 1600.5000   -65.9750    10.1730    -0.0310     2.5010     0.2300   -28.0440    89.2080     7.7810     7.6960     7.9480   -99.0950    87.7660   -55.4210
 1601.0000   -64.8460    10.1710    -0.0300     2.4990     0.2300   -28.1170    87.6020     7.9740     7.6960     7.9290   -99.0950    87.5860   -55.5300
 1601.5000   -63.7180    10.1680    -0.0270     2.5070     0.2410   -28.1900    89.9780     7.8770     7.6940     7.9100   -99.0950    87.6200   -55.5340
 1602.0000   -62.5900    10.1650    -0.0130     2.5210     0.2540   -28.2630    92.3580     7.7810     7.6710     7.8910   -99.0950    87.6620   -55.4360
 1602.5000   -61.4620    10.1630     0.0090     2.5340     0.2630   -28.3350    92.9950     7.6850     7.6480     7.8710   -99.0950    87.7050   -55.3390
 1603.0000   -60.3340    10.1630     0.0170     2.5470     0.2600   -28.4080    93.6110     7.5890     7.6250     7.8520   -99.0950    87.7470   -55.2420
 1603.5000   -59.2370    10.1630     0.0210     2.5480     0.2570   -28.4810    94.2540     7.4920     7.6020     7.8330   -99.0950    87.7870   -55.1450
 1604.0000   -58.4860    10.1630     0.0060     2.5440     0.2460   -28.5590    95.0720     7.3960     7.5790     7.8140   -99.0950    87.9780   -55.0480
 1604.5000   -57.7560    10.1630    -0.0080     2.5420     0.2360   -28.7600    95.3670     7.3000     7.5570     7.7950   -99.0950    88.2670   -54.9500
 1605.0000   -57.0250    10.1630     0.0200     2.5450     0.2380   -28.9700    95.2300     7.2170     7.5340     7.7760   -99.0950    88.5920   -54.8530
 1605.5000   -56.2950    10.1630     0.0430     2.5480     0.2400   -29.1140    95.1280     7.2090     7.5110     7.7480   -99.0950    88.5920   -54.7560
 1606.0000   -55.5640    10.1630     0.0430     2.5480     0.2420   -28.8520    93.5360     7.2000     7.4880     7.7120   -99.0950    88.5920   -54.6590
 1606.5000   -54.8340    10.1630     0.0360     2.5460     0.2430   -28.5940    91.8470     7.1920     7.4650     7.6760   -99.0950    88.5920   -54.5620
 1607.0000   -54.1030    10.1630     0.0190     2.5430     0.2420   -28.3380    91.8830     7.1830     7.4420     7.6410   -99.0950    88.5920   -54.4640
 1607.5000   -53.3730    10.1630     0.0040     2.5400     0.2390   -28.0820    91.3950     7.1750     7.4190     7.6050   -99.0950    88.5510   -54.3670
 1608.0000   -52.6420    10.1630    -0.0130     2.5370     0.2390   -27.8240    88.5890     7.1660     7.4120     7.5690   -99.0950    88.4730   -54.2700
 1608.5000   -51.9120    10.1630    -0.0200     2.5340     0.2420   -27.5800    85.8300     7.1580     7.4040     7.5340   -99.0950    88.3950   -54.1730
 1609.0000   -51.1820    10.1630    -0.0230     2.5340     0.2460   -27.6600    83.6380     7.1490     7.3970     7.4980   -99.0950    88.3170   -54.0760
 1609.5000   -50.4510    10.1630    -0.0200     2.5350     0.2490   -27.7540    85.1760     7.1400     7.3890     7.4620   -99.0950    88.2390   -53.9780
 1610.0000   -49.7210    10.1630    -0.0110     2.5330     0.2490   -27.8470    88.1050     7.1320     7.3820     7.4260   -99.0950    88.2410   -53.8810
 1610.5000   -48.9900    10.1630    -0.0010     2.5280     0.2460   -27.9390    90.9560     7.1230     7.3750     7.4190   -99.0950    88.3860   -53.7840
 1611.0000   -48.2600    10.1630     0.0050     2.5290     0.2430   -28.0320    93.1560     7.1150     7.3670     7.4190   -99.0950    88.5310   -53.6870
 1611.5000   -47.5290    10.1630     0.0180     2.5370     0.2390   -28.1240    95.1780     7.1060     7.3600     7.4190   -99.0950    88.5920   -53.5900
