~VERSION INFORMATION
 VERS.                2.0:   CWLS LOG ASCII STANDARD - VERSION 2.0
 WRAP.                 NO:   ONE LINE PER DEPTH STEP
~WELL INFORMATION
#MNEM.UNIT      DATA TYPE    INFORMATION
#----------   ------------   ------------------------------
 STRT.F          620.0000:   START DEPTH
 STOP.F         4350.5000:   STOP DEPTH
 STEP.F            0.5000:   STEP LENGTH
 NULL.          -999.2500:   NO VALUE
 COMP.    FENIX & SCISSON:   COMPANY
 WELL. FENIX NPR 3 "LX" #25-10:   WELL
 FLD .                NPR:   FIELD
 LOC .      S10 T38N R78W:   LOCATION
 CNTY.            NATRONA:   COUNTY
 STAT.            WYOMING:   STATE
 CTRY. UNITED STATES OF AMERICA:   COUNTRY
 SRVC.              WELEX:   SERVICE COMPANY
 DATE.        06-MAR-1980:   LOGDATE
 API .     49025108070000:   API NUMBER
~CURVE INFORMATION
#MNEM.UNIT       API CODE    CURVE DESCRIPTION
#----------   ------------   ------------------------------
 DEPT.F                  :   
 CALD.IN     45 280 60 00:   CALIPER FROM DENSITY LOG
 GRD .GAPI   45 310 01 00:   GAMMA RAY FROM DENSITY LOG
 RHOB.G/C3   45 350 01 00:   BULK DENSITY
 CORR.G/C3   45 356 01 00:   DENSITY CORRECTION
 NPHI.DEC    42 890 03 00:   NEUTRON POROSITY SANDSTONE
 SPR .MV     07 010 01 00:   SPONTANEOUS POTENTIAL
 ILD .OHMM   07 120 46 00:   DEEP INDUCTION RESISTIVITY
 ILM .OHMM   07 120 44 00:   INDUCTION LOG MEDIUM RESISTIVITY
 SGRD.OHMM   07 220 05 00:   SHALLOW SHORT GUARD RESISTIVITY
~PARAMETER INFORMATION
#MNEM.UNIT          VALUE    DESCRIPTION
#----------   ------------   ------------------------------
 EKB .F         5247.0000:   Kelly bushing
 EGL .F         5237.0000:   Ground level
 EDF .F            0.0000:   Drilling floor
 TD  .F         4352.0000:   Total depth
 DATE.        06-MAR-1980:   Date logged
 CLNT.            A2DTECH:   Client Code
 SL  . 1075' FWL & 2450' FSL:   Surface Location
 PD  .                 GL:   Permanent Datum
 EPD .F              5237:   Elevation Permanent Datum
 LMF .                 KB:   Log Measured From
 DMF .                 KB:   Drilling Measured From
 DAPD.F                10:   Feet Above Permanent Datum
 DD  .F              4350:   Depth driller
 DL  .F              4352:   Depth logger
 BLI .F              4350:   Bottom log interval
 TLI .F               630:   Top log interval
 CS1 .IN            8.625:   Casing size
 CBD1.      8.625" @ 600':   Casing driller 1
 CBL1.F               632:   Casing logger 1
 BS1 .IN            7.875:   Bit size
 BSD1.F              4350:   Depth drilled with bit1
 DFT .           CHEM/GEL:   Type fluid in hole
 DFD .                8.9:   Density
 DFV .                 47:   Viscosity
 DFPH.               10.3:   pH
 DFL .                 10:   Fluid loss
 MSS .           FLOWLINE:   Source of sample
 RMS .OHMM            .89:   Rm
 MST .F                90:   Rm Meas. temp.
 RMF .OHMM            .71:   Rmf
 MFST.F                90:   Rmf Meas. temp.
 RMC .OHMM           1.06:   Rmc
 MCST.F                90:   Rmc Meas. temp.
 MFSS.               MEAS:   Source Rmf.
 MCSS.               MEAS:   Source Rmc.
 RMB .OHMM            .60:   Rm. at BHT
 BHT .F               112:   BHT.
 TCS .HRS               1:   Time Circ. stopped
 MRT .F               132:   Maximum recorded temp.
 LUN .               1892:   Logging unit number
 LUL .             CASPER:   Logging unit location
 ENGI.               REIN:   Recorded By
 WITN.           DINSMORE:   Witnessed by
 ORIG.           5" PRINT:   Origin of data
 UWI .     49025108070000:   Unique Well ID
 DICO. A2D TECHNOLOGIES, INC.:   Digitizing Company
~OTHER INFORMATION
~A   DEPT     CALD        GRD       RHOB       CORR       NPHI         SPR       ILD        ILM         SGRD 
# ...
 2335.5000    10.7050    84.7370     2.1890    -0.0600     0.1930   -24.7940     5.9340     6.9760    10.8190
 2336.0000    10.7020    83.0430     2.1950    -0.0600     0.1900   -24.8690     6.0310     7.3820    11.4960
 2336.5000    10.6930    81.4600     2.2010    -0.0600     0.1880   -25.2430     6.1280     7.3290    10.6140
 2337.0000    10.6820    79.8440     2.2060    -0.0600     0.1850   -25.5590     6.2250     7.2520     9.8040
 2337.5000    10.6700    78.0800     2.2050    -0.0600     0.1820   -25.8720     6.3230     7.1750     9.4260
 2338.0000    10.6610    76.9230     2.1960    -0.0640     0.1790   -25.8940     6.4200     7.0990     9.2360
 2338.5000    10.6580    76.8190     2.1870    -0.0670     0.1750   -25.8930     6.4870     6.9840     9.0470
 2339.0000    10.6530    76.6040     2.1880    -0.0680     0.1760   -25.8860     6.4870     7.0140     8.8780
 2339.5000    10.6490    76.1870     2.1940    -0.0680     0.1780   -25.6460     6.4870     7.0730     9.3350
 2340.0000    10.6450    75.5150     2.1990    -0.0680     0.1800   -25.3300     6.4870     7.1320     9.7450
 2340.5000    10.6410    75.5900     2.2060    -0.0670     0.1830   -25.0140     6.4870     7.1900    10.1560
 2341.0000    10.6370    76.2090     2.2020    -0.0650     0.1850   -24.7000     6.4870     7.2490    10.6240
 2341.5000    10.6330    77.1980     2.1890    -0.0640     0.1880   -24.3960     6.4870     7.3080    10.5060
 2342.0000    10.6290    78.5850     2.1720    -0.0700     0.1920   -24.0650     6.4870     7.3740    10.2690
 2342.5000    10.6250    79.9660     2.1530    -0.0780     0.1930   -23.7640     6.5190     7.3570    10.0330
 2343.0000    10.6230    80.6770     2.1390    -0.0850     0.1960   -23.5740     6.6110     7.3230     9.7970
 2343.5000    10.6330    80.1460     2.1270    -0.0900     0.1990   -24.2440     6.7040     7.2890     9.7370
 2344.0000    10.6430    79.5490     2.1230    -0.0940     0.2020   -24.8110     6.8560     7.2550     9.7370
 2344.5000    10.6530    80.3390     2.1180    -0.0960     0.2080   -25.4270     6.8240     7.2470    10.0060
 2345.0000    10.6620    81.9800     2.1110    -0.0960     0.2130   -25.8710     6.7310     7.2470    10.2400
 2345.5000    10.6720    83.4810     2.1030    -0.0960     0.2180   -25.7320     6.6380     7.2470    10.4830
 2346.0000    10.6820    84.9610     2.1040    -0.0950     0.2200   -25.6280     6.5450     7.0250     9.9130
 2346.5000    10.6910    86.4960     2.1140    -0.0880     0.2200   -25.4950     6.4120     6.7950     9.3230
 2347.0000    10.7010    87.9740     2.1190    -0.0810     0.2190   -25.3650     6.2100     6.5650     8.7320
 2347.5000    10.7110    89.1220     2.1270    -0.0760     0.2180   -25.2920     6.0080     6.3350     8.1420
 2348.0000    10.7210    90.2460     2.1360    -0.0720     0.2150   -25.2990     5.8060     6.1050     7.6590
 2348.5000    10.7300    90.4230     2.1420    -0.0670     0.2110   -25.2980     5.6030     5.8740     7.4140
 2349.0000    10.7400    89.4850     2.1430    -0.0640     0.2110   -25.2980     5.4010     5.6400     7.2470
 2349.5000    10.7420    88.4490     2.1470    -0.0650     0.2110   -25.2960     5.1980     5.7140     7.3820
 2350.0000    10.7420    90.6130     2.1510    -0.0660     0.2100   -25.3010     5.2160     5.8630     8.3610
 2350.5000    10.7420    89.1050     2.1540    -0.0680     0.2120   -25.2960     5.2340     6.0110     9.2120
 2351.0000    10.7420    89.8690     2.1540    -0.0690     0.2140   -25.2770     5.2520     6.2520     8.9030
 2351.5000    10.7420    90.0780     2.1500    -0.0700     0.2110   -25.0210     5.2700     6.1660     8.3780
 2352.0000    10.7420    89.8720     2.1460    -0.0720     0.2100   -24.8080     5.2880     5.9380     7.8540
 2352.5000    10.7420    89.7380     2.1420    -0.0730     0.2110   -24.5670     5.3060     5.7010     7.5190
 2353.0000    10.7420    88.8180     2.1400    -0.0740     0.2110   -24.3530     5.3240     5.7990     7.7840
 2353.5000    10.7420    87.1610     2.1420    -0.0760     0.2090   -24.1330     5.3420     5.9020     8.2460
 2354.0000    10.7420    86.8390     2.1450    -0.0770     0.2070   -24.3300     5.3600     6.0050     8.2460
 2354.5000    10.7420    87.4390     2.1480    -0.0780     0.2060   -24.5550     5.3780     6.1070     8.2460
 2355.0000    10.7420    88.7640     2.1470    -0.0790     0.2060   -24.7960     5.3940     6.2100     8.1310
 2355.5000    10.7420    90.7890     2.1450    -0.0760     0.2100   -25.0260     5.6130     6.3120     8.6910
 2356.0000    10.7420    93.1610     2.1460    -0.0710     0.2140   -25.2580     5.8090     6.4150     9.5210
 2356.5000    10.7420    95.3010     2.1510    -0.0660     0.2190   -25.4930     6.0250     6.5790    10.1030
 2357.0000    10.7420    97.4720     2.1540    -0.0610     0.2220   -25.7300     6.0250     6.9840    10.1030
 2357.5000    10.7410    99.6550     2.1520    -0.0560     0.2220   -25.8890     5.9410     6.7440     9.2120
 2358.0000    10.7560   101.6140     2.1460    -0.0540     0.2220   -25.9010     5.8180     6.3940     8.2150
 2358.5000    10.7860   105.1390     2.1390    -0.0520     0.2260   -25.8040     5.6940     6.1380     7.3820
 2359.0000    10.8140   105.0070     2.1340    -0.0500     0.2240   -25.6450     5.5710     6.0150     7.2750
 2359.5000    10.8420   102.4460     2.1290    -0.0480     0.2220   -25.5070     5.4480     5.8720     7.1520
 2360.0000    10.8700   100.8320     2.1250    -0.0460     0.2200   -25.3230     5.3250     5.7300     7.0290
 2360.5000    10.8980    98.8820     2.1240    -0.0440     0.2200   -25.5440     5.2010     5.5870     6.8560
 2361.0000    10.9270    97.3900     2.1230    -0.0380     0.2230   -25.9790     5.0780     5.4450     6.9890
 2361.5000    10.9550    97.4070     2.1410    -0.0320     0.2260   -26.4460     4.9550     5.3020     7.1140
 2362.0000    10.9790    98.7750     2.1730    -0.0190     0.2290   -26.2580     4.8320     5.1600     6.9840
 2362.5000    10.9800   100.4470     2.2060     0.0000     0.2300   -25.9960     4.7080     5.1030     7.2470
 2363.0000    10.9800   102.0380     2.2390     0.0170     0.2280   -25.7010     4.5850     5.1030     7.1010
 2363.5000    10.9800   103.7680     2.2750     0.0430     0.2260   -25.4360     4.4850     5.1340     6.9180
 2364.0000    10.9800   104.5180     2.3140     0.0750     0.2240   -25.1600     4.5450     5.1850     6.7310
 2364.5000    10.9800   105.2730     2.3640     0.1040     0.2250   -24.8530     4.6230     5.2360     7.0380
 2365.0000    10.9810   106.0310     2.3890     0.1330     0.2270   -24.7690     4.7000     5.2880     7.5750
 2365.5000    10.9730   106.0470     2.4200     0.1540     0.2260   -25.0310     4.7780     5.3390     8.2460
 2366.0000    10.9450   105.6180     2.4350     0.1690     0.2240   -25.2590     4.8690     5.3940     8.2200
 2366.5000    10.9180   105.2720     2.4470     0.1860     0.2240   -25.4950     4.9850     5.5100     8.1460
 2367.0000    10.8900   104.7160     2.4380     0.1870     0.2250   -25.7340     5.1000     5.6330     8.0960
 2367.5000    10.8630   103.9780     2.4290     0.1880     0.2270   -25.9680     5.2160     5.7560     8.3420
 2368.0000    10.8350   103.3420     2.4370     0.1880     0.2270   -26.2060     5.3320     5.8790     8.6090
 2368.5000    10.8080   103.8830     2.4490     0.1930     0.2270   -26.4410     5.4480     6.0020     8.8750
 2369.0000    10.7830   104.4000     2.4610     0.1990     0.2270   -26.6770     5.5640     6.1380     9.1410
 2369.5000    10.7820   104.9830     2.4580     0.1960     0.2260   -26.9200     5.6800     6.1990     9.3840
 2370.0000    10.7810   104.3680     2.4430     0.1730     0.2250   -27.0870     5.7960     6.2680     9.0490
 2370.5000    10.7820   102.4250     2.4030     0.1460     0.2230   -27.1730     5.9120     6.3360     8.5610
 2371.0000    10.7820   100.3910     2.3620     0.1200     0.2240   -27.2840     6.0280     6.4050     8.4000
 2371.5000    10.7820    99.7990     2.3210     0.0920     0.2260   -27.3850     6.1380     6.4740     8.6170
