~VERSION INFORMATION
 VERS.                2.0:   CWLS LOG ASCII STANDARD - VERSION 2.0
 WRAP.                 NO:   ONE LINE PER DEPTH STEP
~WELL INFORMATION
#MNEM.UNIT      DATA TYPE    INFORMATION
#----------   ------------   ------------------------------
 STRT.F            0.0000:   START DEPTH
 STOP.F         1071.5000:   STOP DEPTH
 STEP.F            0.5000:   STEP LENGTH
 NULL.          -999.2500:   NO VALUE
 COMP.       FLUOR DANIEL:   COMPANY
 WELL.     FLUOR X #82-22:   WELL
 FLD .                NPR:   FIELD
 LOC .      S22 T38N R78W:   LOCATION
 CNTY.            NATRONA:   COUNTY
 STAT.            WYOMING:   STATE
 CTRY. UNITED STATES OF AMERICA:   COUNTRY
 SRVC.      WESTERN ATLAS:   SERVICE COMPANY
 DATE.        19-SEP-1994:   LOGDATE
 API .     49025226520000:   API NUMBER
~CURVE INFORMATION
#MNEM.UNIT       API CODE    CURVE DESCRIPTION
#----------   ------------   ------------------------------
 DEPT.F                  :   
 GRR .GAPI   07 310 01 00:   GAMMA RAY FROM RESISTIVITY
 TENR.LBS    07 635 01 00:   TENSION
 ILD .OHMM   07 120 46 00:   INDUCTION LOG DEEP RESISTIVITY
 ILM .OHMM   07 120 44 00:   INDUCTION LOG MEDIUM RESISTIVITY
~PARAMETER INFORMATION
#MNEM.UNIT          VALUE    DESCRIPTION
#----------   ------------   ------------------------------
 EKB .F         5288.0000:   Kelly bushing
 EGL .F         5278.0000:   Ground level
 EDF .F         5287.0000:   Drilling floor
 EPD .F         5278.0000:   Permanent datum
 TD  .F         1062.0000:   Total depth
 DATE.        19-SEP-1994:   Date logged
 CLNT.            A2DTECH:   Client Code
 SL  . 937' FNL & 347' FEL:   Surface Location
 PD  .                 GL:   Permanent Datum
 LMF .                 KB:   Log Measured From
 DMF .                 KB:   Drilling Measured From
 DAPD.F                10:   Feet Above Permanent Datum
 DD  .F              1060:   Depth driller
 DL  .F              1062:   Depth logger
 BLI .F              1054:   Bottom log interval
 CS1 .IN            9.625:   Casing size
 CBD1.       9.625" @ 77':   Casing driller 1
 CBL1.F                78:   Casing logger 1
 BS1 .IN             8.75:   Bit size
 BSD1.F              1060:   Depth drilled with bit1
 DFT .                AIR:   Type fluid in hole
 LUN .            HL 6530:   Logging unit number
 LUL .             CASPER:   Logging unit location
 ENGI.      PAT RASMUSSEN:   Recorded By
 WITN.        GARY STRONG:   Witnessed by
 ORIG.           5" PRINT:   Origin of data
 UWI .     49025226520000:   Unique Well ID
 DICO. A2D TECHNOLOGIES, INC.:   Digitizing Company
~OTHER INFORMATION
~A    DEPT      GRR      TENR        ILD        ILM   
# ...
 1022.0000   110.6050   170.3720    10.2790    10.2520
 1022.5000   110.9040   170.8490    10.1870    10.1890
 1023.0000   111.2500   171.3260    10.0950    10.1260
 1023.5000   111.5860   171.8030    10.0030    10.0640
 1024.0000   112.8530   172.2800     9.9110    10.0090
 1024.5000   114.1940   172.7570     9.7940     9.9640
 1025.0000   112.3100   173.2340     9.6490     9.9190
 1025.5000   109.7450   173.7110     9.5980     9.8740
 1026.0000   108.8340   174.1880     9.5480     9.7850
 1026.5000   111.1760   174.6650     9.4970     9.6090
 1027.0000   112.4840   175.1420     9.3710     9.4340
 1027.5000   112.3190   175.6190     9.2230     9.2780
 1028.0000   112.0690   176.0950     9.0740     9.1260
 1028.5000   114.2300   176.5720     8.9260     8.9750
 1029.0000   116.6990   177.0490     8.7780     8.8240
 1029.5000   116.8190   177.5650     8.5890     8.4510
 1030.0000   115.4670   180.0980     8.0800     8.0290
 1030.5000   114.8950   182.8580     7.5720     7.6480
 1031.0000   115.5660   185.6170     7.0630     7.1970
 1031.5000   114.2780   188.3770     6.5040     6.5370
 1032.0000   113.6400   191.1360     5.9110     5.8760
 1032.5000   116.1270   193.8960     5.3180     5.2160
 1033.0000   121.4050   196.6550     5.0050     4.8100
 1033.5000   128.6920   199.4140     5.0050     4.7650
 1034.0000   136.7040   202.1740     5.0050     4.7350
 1034.5000   142.4100   204.9330     5.0050     5.4120
 1035.0000   142.6780   207.7460     5.1430     5.9240
 1035.5000   134.3770   209.6890     5.5160     6.4350
 1036.0000   124.6270   211.6700     5.9510     6.9470
 1036.5000   115.2040   213.6510     6.6050     7.4590
 1037.0000   108.4190   215.6320     7.2600     7.9700
 1037.5000   106.3490   217.6130     7.8860     8.3790
 1038.0000   107.8470   219.5940     8.4300     8.5370
 1038.5000   109.2360   221.5760     8.6010     8.6960
 1039.0000  -999.2500   223.5570     8.7710     8.8550
 1039.5000  -999.2500   225.5380     8.9420     9.0140
 1040.0000  -999.2500   227.5190     9.1120     9.1730
 1040.5000  -999.2500   229.5000     9.2820     9.3320
 1041.0000  -999.2500   231.4810     9.4530     9.4910
 1041.5000  -999.2500   233.4620     9.6230     9.6490
 1042.0000  -999.2500   235.4430     9.7940     9.8080
 1042.5000  -999.2500   237.4250     9.9640     9.9670
 1043.0000  -999.2500   241.2220    10.1350    10.1260
 1043.5000  -999.2500   245.6370    10.3050    10.2850
 1044.0000  -999.2500   250.0520    10.4480    10.4440
 1044.5000  -999.2500   254.4670    10.5490    10.5800
 1045.0000  -999.2500   258.8820    10.6510    10.7030
 1045.5000  -999.2500   263.2970    10.7520    10.8260
 1046.0000  -999.2500   268.1090    10.8540    10.9490
 1046.5000  -999.2500   268.1090    10.9550    11.0720
 1047.0000  -999.2500   268.1090    11.0560    11.1950
 1047.5000  -999.2500   268.1090    11.1580    11.3180
 1048.0000  -999.2500   268.1090    11.2590    11.4410
 1048.5000  -999.2500   268.1090    11.3610    11.5640
 1049.0000  -999.2500   268.1090    11.4840    11.6870
 1049.5000  -999.2500   268.1090    11.6330    11.8490
 1050.0000  -999.2500   269.1280    11.7390    11.8280
 1050.5000  -999.2500   272.6070    11.7390    11.7990
 1051.0000  -999.2500   276.0860    11.7270    11.7690
 1051.5000  -999.2500   279.5640    11.7030    11.7400
 1052.0000  -999.2500   283.0430    11.6790    11.7100
 1052.5000  -999.2500   286.5220    11.6550    11.6800
 1053.0000  -999.2500   290.0010    11.6310    11.6510
 1053.5000  -999.2500   293.4800    11.6320    11.6210
 1054.0000  -999.2500   296.9590    11.6310    11.5920
 1054.5000  -999.2500   300.4370    11.6310    11.5620
 1055.0000  -999.2500   303.9160    11.6310    11.5320
 1055.5000  -999.2500   307.3950     0.2290    11.5170
 1056.0000  -999.2500   305.4870  -999.2500    11.5080
 1056.5000  -999.2500   301.5400  -999.2500    11.4980
 1057.0000  -999.2500   299.4220  -999.2500    11.4890
 1057.5000  -999.2500   305.8350  -999.2500    11.4800
 1058.0000  -999.2500   312.2480  -999.2500    11.4700
 1058.5000  -999.2500   318.4100  -999.2500    11.4610
 1059.0000  -999.2500   353.9570  -999.2500    11.4520
 1059.5000  -999.2500   388.1620  -999.2500    11.4420
 1060.0000  -999.2500   408.9540  -999.2500    11.4330
 1060.5000  -999.2500   299.2960  -999.2500    11.4240
 1061.0000  -999.2500   158.1990  -999.2500    11.4170
 1061.5000  -999.2500    32.6960  -999.2500    11.4170
 1062.0000  -999.2500   -64.2190  -999.2500    11.4170
 1062.5000  -999.2500  -110.4790  -999.2500  -999.2500
 1063.0000  -999.2500  -121.2800  -999.2500  -999.2500
 1063.5000  -999.2500  -132.0820  -999.2500  -999.2500
 1064.0000  -999.2500  -142.8840  -999.2500  -999.2500
 1064.5000  -999.2500  -145.3500  -999.2500  -999.2500
 1065.0000  -999.2500  -146.4900  -999.2500  -999.2500
 1065.5000  -999.2500  -147.6300  -999.2500  -999.2500
 1066.0000  -999.2500  -148.7700  -999.2500  -999.2500
 1066.5000  -999.2500  -149.9110  -999.2500  -999.2500
 1067.0000  -999.2500  -151.0510  -999.2500  -999.2500
 1067.5000  -999.2500  -152.1910  -999.2500  -999.2500
 1068.0000  -999.2500  -153.3310  -999.2500  -999.2500
 1068.5000  -999.2500  -154.4270  -999.2500  -999.2500
 1069.0000  -999.2500  -176.5590  -999.2500  -999.2500
 1069.5000  -999.2500  -181.0210  -999.2500  -999.2500
 1070.0000  -999.2500  -185.4820  -999.2500  -999.2500
 1070.5000  -999.2500  -189.9440  -999.2500  -999.2500
 1071.0000  -999.2500  -194.6680  -999.2500  -999.2500
 1071.5000  -999.2500  -229.1610  -999.2500  -999.2500
