~VERSION INFORMATION
 VERS.                2.0:   CWLS LOG ASCII STANDARD - VERSION 2.0
 WRAP.                 NO:   ONE LINE PER DEPTH STEP
~WELL INFORMATION
#MNEM.UNIT      DATA TYPE    INFORMATION
#----------   ------------   ------------------------------
 STRT.F          198.0000:   START DEPTH
 STOP.F         3252.0000:   STOP DEPTH
 STEP.F            0.5000:   STEP LENGTH
 NULL.          -999.2500:   NO VALUE
 COMP. FENIX & SCISSON - U.S. NAVY:   COMPANY
 WELL.   FENIX A X #21-33:   WELL
 FLD .              NPR-3:   FIELD
 LOC .      S33 T39N R78W:   LOCATION
 CNTY.            NATRONA:   COUNTY
 STAT.            WYOMING:   STATE
 CTRY. UNITED STATES OF AMERICA:   COUNTRY
 SRVC.              WELEX:   SERVICE COMPANY
 DATE.        06-JUN-1977:   LOGDATE
 API .     49025103750000:   API NUMBER
~CURVE INFORMATION
#MNEM.UNIT       API CODE    CURVE DESCRIPTION
#----------   ------------   ------------------------------
 DEPT.F                  :   
 CALD.IN     45 280 60 00:   CALIPER FROM DENSITY LOG
 GRD .GAPI   45 310 01 00:   GAMMA RAY FROM DENSITY LOG
 RHOB.G/C3   45 350 01 00:   BULK DENSITY
 CORR.G/C3   45 356 01 00:   DENSITY CORRECTION
 NPHI.DEC    42 890 01 00:   NEUTRON POROSITY LIMESTONE
 SPR .MV     07 010 01 00:   SPONTANEOUS POTENTIAL
 GURD.OHMM   07 220 05 00:   GUARD LOG RESISTIVITY
 FORX.OHMM   07 220 00 00:   FORMATION FACTOR
~PARAMETER INFORMATION
#MNEM.UNIT          VALUE    DESCRIPTION
#----------   ------------   ------------------------------
 EKB .F         5147.0000:   Kelly bushing
 EGL .F         5137.0000:   Ground level
 EDF .F            0.0000:   Drilling floor
 EPD .F            0.0000:   Permanent datum
 TD  .F         3254.0000:   Total depth
 CLNT.            A2DTECH:   Client Code
 SL  . 660' FNL & 1320' FWL:   Surface Location
 PD  .                 GL:   Permanent Datum
 DAPD.F                10:   Feet Above Permanent Datum
 DATE.        06-JUN-1977:   Date Logged [DD-MMM-YYYY]
 DD  .F              3249:   Depth driller
 DL  .F              3254:   Depth logger
 BLI .F              3252:   Bottom log interval
 TLI .F               200:   Top log interval
 CS1 .IN            8.625:   Casing size
 CBD1.      8.625" @ 204':   Casing driller 1
 CBL1.F               221:   Casing logger 1
 BS1 .IN            7.875:   Bit size
 BSD1.F              3249:   Depth drilled with bit1
 DFT .            KCL MUD:   Type fluid in hole
 DFD .                  9:   Density
 DFV .                134:   Viscosity
 DFPH.                7.5:   pH
 DFL .                7.8:   Fluid loss
 MSS .           FLOWLINE:   Source of sample
 RMS .OHMM           0.64:   Rm
 MST .F                85:   Rm Meas. temp.
 RMF .OHMM           0.61:   Rmf
 MFST.F                85:   Rmf Meas. temp.
 MFSS.           FANN KIT:   Source Rmf.
 RMC .OHMM              1:   Rmc
 MCST.F                85:   Rmc Meas. temp.
 MCSS.           FANN KIT:   Source Rmc.
 RMB .OHMM           0.46:   Rm. at BHT
 BHT .F               116:   BHT.
 TCS .HRS             2.5:   Time Circ. stopped
 MRT .F               116:   Maximum recorded temp.
 LUN .               8611:   Logging unit number
 LUL .             CASPER:   Logging unit location
 ENGI.            C. DOAK:   Recorded By
 WITN.      B. HARRINGTON:   Witnessed by
 ORIG.           5" PRINT:   Origin of data
 UWI .     49025103750000:   Unique Well ID
 DICO. A2D TECHNOLOGIES, INC.:   Digitizing Company
~OTHER INFORMATION
~A   DEPT     CALD         GRD      RHOB       CORR       NPHI        SPR       GURD       FORX   
# ...
 1980.0000     8.9821   108.9878     2.4669     0.0250     0.3480   -40.7942     9.9848     5.7913
 1980.5000     8.9835   109.6042     2.4744     0.0326     0.3460   -40.8007    10.2383     5.6733
 1981.0000     8.9848   109.9593     2.4708     0.0356     0.3445   -40.8072    11.0016     5.5580
 1981.5000     8.9862   110.8397     2.4626     0.0358     0.3448   -40.8137    11.4086     5.5229
 1982.0000     8.9875   112.6458     2.4500     0.0343     0.3466   -40.8202    10.8620     5.8142
 1982.5000     8.9888   114.7495     2.4310     0.0300     0.3472   -40.8267    10.2683     6.0250
 1983.0000     8.9902   115.6785     2.4170     0.0241     0.3468   -40.8332    10.9557     5.9445
 1983.5000     8.9915   113.2828     2.4077     0.0227     0.3453   -40.8398    11.4421     5.7823
 1984.0000     8.9929   110.7978     2.4108     0.0198     0.3440   -40.8462    11.2886     5.6647
 1984.5000     8.9945   106.7987     2.4221     0.0229     0.3440   -40.8465    10.9016     5.6690
 1985.0000     8.9806   108.0095     2.4296     0.0245     0.3442   -40.8465    11.0663     5.6734
 1985.5000     8.9822   111.6013     2.4290     0.0276     0.3445   -40.8465    11.2332     5.7590
 1986.0000     8.9835   114.0026     2.4253     0.0292     0.3451   -40.8465    10.9897     6.0145
 1986.5000     8.9848   115.5111     2.4179     0.0263     0.3457   -40.8465     9.9435     6.0191
 1987.0000     8.9709   117.0196     2.4195     0.0235     0.3466   -40.8465     9.4901     6.0237
 1987.5000     8.9574   119.4209     2.4271     0.0265     0.3472   -40.8465     9.7731     6.0713
 1988.0000     8.9590   121.8222     2.4369     0.0296     0.3481   -40.8465    11.4382     5.8413
 1988.5000     8.9603   124.5212     2.4415     0.0312     0.3487   -40.8465    11.9460     5.2259
 1989.0000     8.9616   127.2381     2.4407     0.0328     0.3493   -40.8465    11.1334     5.0947
 1989.5000     8.9620   131.2409     2.4394     0.0344     0.3495   -40.8465    10.7501     5.5536
 1990.0000     8.9620   135.5993     2.4462     0.0360     0.3498   -40.8465    11.1497     5.8830
 1990.5000     8.9621   137.4054     2.4560     0.0361     0.3492   -40.8465    11.4801     5.8458
 1991.0000     8.9621   138.0210     2.4591     0.0347     0.3485   -40.8465    11.8204     5.7269
 1991.5000     8.9622   137.7387     2.4540     0.0348     0.3482   -40.8465    11.3345     5.7313
 1992.0000     8.9622   137.1689     2.4481     0.0320     0.3475   -40.8465    11.0244     5.8593
 1992.5000     8.9623   136.2913     2.4332     0.0261     0.3466   -40.8465    11.7965     5.9056
 1993.0000     8.9623   134.8287     2.4303     0.0262     0.3453   -40.8465    12.3746     5.9523
 1993.5000     8.9624   134.5001     2.4424     0.0278     0.3433   -40.8465    12.7413     5.9146
 1994.0000     8.9624   137.2504     2.4454     0.0294     0.3421   -40.8465    12.7506     5.9648
 1994.5000     8.9625   141.1518     2.4417     0.0310     0.3415   -40.8465    12.9429     6.3710
 1995.0000     8.9628   144.1666     2.4461     0.0326     0.3411   -40.8465    13.5175     6.8350
 1995.5000     8.9642   145.0496     2.4532     0.0342     0.3408   -40.8465    12.8700     6.9368
 1996.0000     8.9506   140.0156     2.4458     0.0328     0.3402   -40.8465    11.9095     6.2859
 1996.5000     8.9535   134.3812     2.4309     0.0314     0.3392   -40.8465    10.8649     6.0281
 1997.0000     8.9684   132.0206     2.4243     0.0270     0.3385   -40.8465    10.9505     5.9043
 1997.5000     8.9697   131.4457     2.4221     0.0286     0.3376   -40.8465    12.1068     5.9522
 1998.0000     8.9558   131.7637     2.4335     0.0317     0.3360   -40.8465    12.1157     5.7488
 1998.5000     8.9575   133.8675     2.4455     0.0333     0.3347   -40.8465    11.9376     5.3575
 1999.0000     8.9588   136.2688     2.4553     0.0337     0.3338   -40.8465    11.2863     6.0513
 1999.5000     8.9303   138.9940     2.4591     0.0365     0.3328   -40.8465    11.0692     6.2305
 2000.0000     8.9465   135.4167     2.4637     0.0396     0.3323   -40.8465    11.8116     6.1038
 2000.5000     8.9479   133.3468     2.4699     0.0412     0.3309   -40.8465    12.1612     5.9796
 2001.0000     8.9340   133.0579     2.4792     0.0443     0.3302   -40.8465    12.1697     5.8997
 2001.5000     8.9205   134.5604     2.4864     0.0474     0.3311   -40.8465     9.4927     5.8624
 2002.0000     8.9221   138.1434     2.4873     0.0505     0.3326   -40.8465    10.4203     5.8254
 2002.5000     8.9085   138.2141     2.4859     0.0476     0.3338   -40.8465    11.6854     5.8726
 2003.0000     8.9098   133.5914     2.4860     0.0462     0.3338   -40.8465    11.0463     5.9612
 2003.5000     8.9112   124.7743     2.4808     0.0463     0.3331   -40.8465    11.8715     6.1378
 2004.0000     8.9128   119.1449     2.4585     0.0434     0.3322   -40.8465    13.6001     6.3647
 2004.5000     8.9141   117.6684     2.4451     0.0359     0.3300   -40.8465    12.3188     6.5532
 2005.0000     8.9154   115.5966     2.4302     0.0287     0.3284   -40.8464     4.9216     6.6050
 2005.5000     8.9315   115.3076     2.4109     0.0243     0.3267   -40.8467     9.4799     6.3793
 2006.0000     8.9329   120.3816     2.4020     0.0184     0.3240   -40.8324    12.3447     4.1679
 2006.5000     8.9342   124.5598     2.3991     0.0186     0.3221   -40.8122    12.7986     4.3027
 2007.0000     8.9355   129.0552     2.4046     0.0217     0.3202   -40.7917    13.4642     5.8603
 2007.5000     8.9219   135.8324     2.4120     0.0233     0.3186   -40.7712    14.5709     6.6789
 2008.0000     8.9235   141.5617     2.4121     0.0249     0.3180   -40.7507    14.1715     7.1764
 2008.5000     8.9254   144.8470     2.4107     0.0250     0.3179   -40.7303    15.1200     7.6562
 2009.0000     8.9274   147.5372     2.4078     0.0266     0.3179   -40.7098    15.9035     7.8272
 2009.5000     8.9293   152.0130     2.4071     0.0267     0.3182   -40.6893    15.2493     7.8332
 2010.0000     8.9312   163.0365     2.4192     0.0253     0.3181   -40.6689    16.4452     7.7822
 2010.5000     8.9331   170.1909     2.4275     0.0299     0.3184   -40.6484    16.8707     8.1870
 2011.0000     8.9351   179.7263     2.4350     0.0315     0.3184   -40.6280    15.6138     8.3106
 2011.5000     8.9370   175.9439     2.4367     0.0316     0.3192   -40.6075    14.6552     8.1996
 2012.0000     8.9389   146.4180     2.4300     0.0301     0.3205   -40.5870    14.3531     7.9759
 2012.5000     8.9408   135.4176     2.4293     0.0288     0.3220   -40.5666    16.4459     7.7033
 2013.0000     8.9428   130.9649     2.4285     0.0289     0.3232   -40.5461    15.5464     7.2194
 2013.5000     8.9447   127.1074     2.4273     0.0290     0.3234   -40.5256    13.3000     6.8371
 2014.0000     8.9466   123.8291     2.4251     0.0291     0.3234   -40.5048    15.5682     7.0410
 2014.5000     8.9485   121.9840     2.4252     0.0292     0.3233   -40.4836    16.6097     7.3013
 2015.0000     8.9505   120.2968     2.4283     0.0293     0.3230   -40.4703    17.5952     7.6252
 2015.5000     8.9524   125.0732     2.4344     0.0309     0.3227   -40.6004    16.2815     7.9635
 2016.0000     8.9543   131.9300     2.4412     0.0310     0.3229   -40.6580    15.1594     8.3168
 2016.5000     8.9562   134.6201     2.4435     0.0311     0.3229   -40.6796    14.4320     8.8729
 2017.0000     8.9582   133.1436     2.4406     0.0297     0.3229   -40.7019    15.4153     9.2009
 2017.5000     8.9601   131.0718     2.4302     0.0298     0.3228   -40.7253    11.3588     8.9499
 2018.0000     8.9620   129.8928     2.4139     0.0269     0.3234   -40.7487    15.3274     8.5221
 2018.5000     8.9639   129.6068     2.4047     0.0241     0.3237   -40.7721    16.1188     7.8873
 2019.0000     8.9659   132.8951     2.3958     0.0197     0.3236   -40.7955    16.5988     7.0371
 2019.5000     8.9678   135.5852     2.3895     0.0183     0.3223   -40.8189    17.3321     6.1598
 2020.0000     8.9697   127.2634     2.3866     0.0138     0.3217   -40.8422    15.4801     7.0571
