~VERSION INFORMATION
 VERS.                2.0:   CWLS LOG ASCII STANDARD - VERSION 2.0
 WRAP.                 NO:   ONE LINE PER DEPTH STEP
~WELL INFORMATION
#MNEM.UNIT      DATA TYPE    INFORMATION
#----------   ------------   ------------------------------
 STRT.F          508.0000:   START DEPTH
 STOP.F         3170.0000:   STOP DEPTH
 STEP.F            0.5000:   STEP LENGTH
 NULL.          -999.2500:   NO VALUE
 COMP. FENIX & SCISSON - U.S. NAVY:   COMPANY
 WELL. FENIX NPR-3 "A" #58-34:   WELL
 FLD .                NPR:   FIELD
 LOC .      S34 T39N R78W:   LOCATION
 CNTY.            NATRONA:   COUNTY
 STAT.            WYOMING:   STATE
 CTRY. UNITED STATES OF AMERICA:   COUNTRY
 SRVC.       SCHLUMBERGER:   SERVICE COMPANY
 DATE.        15-MAR-1977:   LOGDATE
 API .     49025103180000:   API NUMBER
~CURVE INFORMATION
#MNEM.UNIT       API CODE    CURVE DESCRIPTION
#----------   ------------   ------------------------------
 DEPT.F                  :   
 CALD.IN     45 280 60 00:   CALIPER FROM DENSITY LOG
 GRD .GAPI   45 310 01 00:   GAMMA RAY FROM DENSITY LOG
 RHOB.G/C3   45 350 01 00:   BULK DENSITY
 CORR.G/C3   45 356 01 00:   DENSITY CORRECTION
 SPR .MV     07 010 01 00:   SPONTANEOUS POTENTIAL
 LL8 .OHMM   07 220 08 00:   LATEROLOG-8 RES.
 ILD .OHMM   07 120 46 00:   DEEP INDUCTION RESISTIVITY
 ILM .OHMM   07 120 44 00:   INDUCTION LOG MEDIUM RESISTIVITY
~PARAMETER INFORMATION
#MNEM.UNIT          VALUE    DESCRIPTION
#----------   ------------   ------------------------------
 EKB .F         5129.0000:   Kelly bushing
 EGL .F         5117.0000:   Ground level
 EDF .F            0.0000:   Drilling floor
 EPD .F            0.0000:   Permanent datum
 TD  .F         3170.0000:   Total depth
 DATE.        15-MAR-1977:   Date logged
 CLNT.            A2DTECH:   Client Code
 SL  . 2310' FEL & 330' FSL:   Surface Location
 PD  .                 GL:   Permanent Datum
 DAPD.F                12:   Feet Above Permanent Datum
 DD  .F              3170:   Depth driller
 DL  .F              3170:   Depth logger
 BLI .F              3169:   Bottom log interval
 TLI .F               508:   Top log interval
 CS1 .IN            8.625:   Casing size
 CBD1.      8.625" @ 524':   Casing driller 1
 CBL1.F               522:   Casing logger 1
 BS1 .IN            7.875:   Bit size
 BSD1.F              3170:   Depth drilled with bit1
 DFT .                KCL:   Type fluid in hole
 DFD .                9.2:   Density
 DFV .                 36:   Viscosity
 DFPH.                  9:   pH
 DFL .                  9:   Fluid loss
 MSS .                PIT:   Source of sample
 RMS .OHMM             .3:   Rm
 MST .F                58:   Rm Meas. temp.
 RMF .OHMM            .29:   Rmf
 MFST.F                58:   Rmf Meas. temp.
 MFSS.               MEAS:   Source Rmf.
 RMB .OHMM            .15:   Rm. at BHT
 BHT .F               120:   BHT.
 TCS .HRS               6:   Time Circ. stopped
 MRT .F               120:   Maximum recorded temp.
 LUN .               7711:   Logging unit number
 LUL .               CSPR:   Logging unit location
 ENGI.             SAYLER:   Recorded By
 WITN.               JAPP:   Witnessed by
 ORIG.           5" PRINT:   Origin of data
 UWI .     49025103180000:   Unique Well ID
 DICO. A2D TECHNOLOGIES, INC.:   Digitizing Company
~OTHER INFORMATION
~A   DEPT       CALD       GRD      RHOB        CORR       SPR        LL8        ILD        ILM   
# ...
 1723.0000     8.4604   143.0861     2.4831     0.0532   -52.9305     8.5240     7.0608     7.3252
 1723.5000     8.4799   143.2765     2.4721     0.1345   -52.4195     8.0655     7.0586     7.3893
 1724.0000     8.5380   144.0593     2.4460     0.1364   -51.5493     7.7728     7.0565     7.3884
 1724.5000     8.4975   146.6378     2.4169     0.0110   -51.7778     8.0606     6.9895     7.3861
 1725.0000     8.5166   148.2160     2.5491     0.0029   -51.5668     8.4360     6.9874     7.3839
 1725.5000     8.5751   148.4066     2.5751     0.0109   -51.5755     8.9922     6.9853     7.3142
 1726.0000     8.5743   147.6047     2.5850     0.0148   -51.3645     9.0723     6.9193     7.2447
 1726.5000     8.4541   147.1998     2.5850     0.0138   -50.9338     8.8236     6.9172     7.1106
 1727.0000     8.4334   148.5812     2.5800     0.0107   -50.7228     8.5817     6.7271     7.0434
 1727.5000     8.4127   149.9627     2.5629     0.0077   -50.5119     8.2704     6.6636     6.9769
 1728.0000     8.4118   151.7411     2.5508     0.0076   -50.7403     8.1178     6.7231     6.9110
 1728.5000     8.4110   155.6437     2.5488     0.0066   -50.9688     8.3400     6.5987     6.7831
 1729.0000     8.4101   160.9975     2.5488     0.0126   -50.9775     8.2629     6.5364     6.7191
 1729.5000     8.4092   161.1872     2.5577     0.0186   -50.5468     8.4132     6.4746     6.6556
 1730.0000     8.4084   161.9741     2.5687     0.0185   -49.8964     8.4881     6.4727     6.5928
 1730.5000     8.4075   157.3965     2.5677     0.0285   -49.6854     8.1051     6.4104     6.5908
 1731.0000     8.4066   153.8147     2.5616     0.0164   -50.1336     7.9555     6.3511     6.5888
 1731.5000     8.4058   151.0269     2.5606     0.0144   -50.3620     7.8806     6.2911     6.5869
 1732.0000     8.4049   151.6135     2.5615     0.0083   -50.8120     7.8064     6.2892     6.5247
 1732.5000     8.4040   156.1701     2.5535     0.0053   -50.8207     7.8759     6.1728     6.4631
 1733.0000     8.4033   158.3448     2.5414     0.0022   -50.8294     7.8735     6.2855     6.4611
 1733.5000     8.4227   157.7405     2.5364     0.0032   -50.6184     7.8712     6.3416     6.5188
 1734.0000     8.4213   155.5481     2.5373     0.0081   -51.0666     7.8688     6.3397     6.5770
 1734.5000     8.4403   151.9661     2.5623     0.0111   -50.6359     7.9388     6.2795     6.6970
 1735.0000     8.4394   151.5602     2.5643     0.0071   -50.6446     8.0832     6.3355     6.8192
 1735.5000     8.4385   152.1468     2.5652     0.0100   -50.8731     8.3060     6.5708     7.0077
 1736.0000     8.4377   152.1379     2.5672     0.0150   -50.6621     8.3035     6.5688     7.2678
 1736.5000     8.4368   150.3406     2.5662     0.0059   -50.6709     8.7701     6.7504     7.3327
 1737.0000     8.4366   149.7362     2.5661     0.0029   -50.4599     8.7674     6.8115     7.3982
 1737.5000     8.4351   149.9258     2.5671     0.0058   -50.4686     8.7648     6.9349     7.3960
 1738.0000     8.4342   150.5124     2.5781     0.0188   -50.2576     8.7621     7.1270     7.3937
 1738.5000     8.4535   148.9942     2.5860     0.0148   -50.4861     8.7595     7.1244     7.3915
 1739.0000     8.4722   149.1848     2.5810     0.0147   -50.2751     8.5979     7.1223     7.3893
 1739.5000     8.4514   151.3607     2.5779     0.0227   -50.0641     8.5953     7.1201     7.3862
 1740.0000     8.4506   155.0395     2.5729     0.0237   -50.0728     8.5927     6.9884     7.3354
 1740.5000     8.4497   156.0286     2.5528     0.0216   -50.3013     8.5901     6.9224     7.3147
 1741.0000     8.4687   157.4095     2.5478     0.0186   -50.7495     8.3548     6.8571     7.2465
 1741.5000     8.4678   157.9963     2.5537     0.0135   -50.9780     8.1258     6.7923     7.1772
 1742.0000     8.4074   158.9801     2.5587     0.0095   -51.2064     8.0489     6.6057     7.1095
 1742.5000     8.4462   155.1990     2.5757     0.0124   -50.7757     8.0464     6.4835     7.0424
 1743.0000     8.4652   151.2176     2.5666     0.0064   -51.0042     8.1927     6.3636     6.8489
 1743.5000     8.4445   149.8189     2.5616     0.0053   -51.6721     8.1903     6.3035     6.7222
 1744.0000     8.4635   152.1943     2.5545     0.0013   -52.2023     7.9659     6.2440     6.5979
 1744.5000     8.4626   158.1418     2.5505    -0.0008   -52.4308     7.8909     6.2433     6.5959
 1745.0000     8.4816   161.5101     2.5485     0.0002   -52.6592     7.8885     6.1833     6.5336
 1745.5000     8.4807   163.0845     2.5514     0.0031   -52.6680     8.0320     6.1256     6.4720
 1746.0000     8.4600   161.0936     2.5524     0.0041   -52.2372     7.8838     6.1231     6.4700
 1746.5000     8.4790   157.9080     2.5463     0.0041   -51.5868     7.6678     6.1209     6.4681
 1747.0000     8.4781   157.8991     2.5343     0.0030   -51.0758     7.7361     6.1191     6.4662
 1747.5000     8.4574   159.2802     2.5252    -0.0010   -51.0845     7.8049     6.0613     6.4642
 1748.0000     8.4764   161.0585     2.5102    -0.0011   -51.0915     7.8026     6.1719     6.4028
 1748.5000     8.4755   163.6292     2.5231     0.0019   -50.6626     7.9444     6.1136     6.4009
 1749.0000     8.4747   162.2322     2.5341     0.0038   -50.4516     7.8696     6.1118     6.3990
 1749.5000     8.4738   160.2378     2.5311     0.0028   -50.0209     7.7245     6.1100     6.3386
 1750.0000     8.4729   158.6351     2.5190     0.0028   -50.0296     7.5129     6.1082     6.3368
 1750.5000     8.4721   159.6244     2.5140     0.0007   -50.2581     7.4422     6.1064     6.3349
 1751.0000     8.4712   161.2042     2.5259     0.0047   -51.0080     7.4400     5.8844     6.3906
 1751.5000     8.4703   162.7840     2.5319     0.0026   -51.2347     7.5062     5.8826     6.2732
 1752.0000     8.4695   162.1760     2.5359    -0.0024   -51.4632     7.7129     5.8809     6.2140
 1752.5000     8.4686   163.3640     2.5248    -0.0065   -51.4719     7.7106     5.8791     6.2122
 1753.0000     8.4876   165.9367     2.5228    -0.0015   -51.7004     7.8508     5.8774     6.2103
 1753.5000     8.4871   167.9138     2.5448     0.0045   -51.9288     7.8484     5.8763     6.2657
 1754.0000     8.4859   169.2952     2.5497     0.0104   -52.1573     7.9911     5.9828     6.2639
 1754.5000     8.4850   172.2653     2.5527     0.0164   -52.3858     7.7009     5.9263     6.3198
 1755.0000     8.5042   171.8594     2.5527     0.0184   -52.6142     7.6285     5.9246     6.3762
 1755.5000     8.4833   170.6591     2.5406     0.0123   -52.6230     7.5567     5.9774     6.4331
 1756.0000     8.4824   169.2603     2.5326     0.0053   -52.6317     7.6239     5.9210     6.5504
 1756.5000     8.5014   163.6892     2.5325     0.0032   -52.8602     7.8339     5.9739     6.6088
 1757.0000     8.5011   162.6874     2.5405     0.0002   -52.8689     7.9036     6.1956     6.7293
 1757.5000     8.4993   162.8772     2.5374     0.0021   -52.6579     8.0472     6.1948     6.8520
 1758.0000     8.4988   164.6576     2.5374     0.0041   -52.4469     8.1188     6.1933     6.8500
 1758.5000     8.5176   168.4223     2.5544     0.0060   -52.0162     8.1910     6.2333     6.8479
 1759.0000     8.4971   169.6052     2.5453     0.0040   -51.5855     8.2639     6.2736     6.8459
 1759.5000     8.4962   169.1992     2.5373     0.0040   -51.3745     8.3374     6.3141     6.8438
 1760.0000     8.4953   168.9919     2.5372     0.0059   -50.8635     8.3349     6.3549     6.7792
 1760.5000     8.5143   164.8106     2.5412     0.0059   -50.6525     8.3324     6.4128     6.7153
 1761.0000     8.5135   163.4116     2.5542     0.0058   -50.2218     8.3299     6.3534     6.6519
 1761.5000     8.5126   163.4028     2.5541     0.0048   -49.7911     8.2515     6.2356     6.6499
 1762.0000     8.5117   164.1885     2.5481     0.0027   -49.7998     8.2490     6.4669     6.6480
 1762.5000     8.5109   165.7704     2.5460     0.0027   -50.0283     8.0969     6.4654     6.6460
 1763.0000     8.5100   167.3506     2.5380     0.0006   -50.2567     8.0945     6.2300     6.6436
