~VERSION INFORMATION
 VERS.                2.0:   CWLS LOG ASCII STANDARD - VERSION 2.0
 WRAP.                 NO:   ONE LINE PER DEPTH STEP
~WELL INFORMATION
#MNEM.UNIT      DATA TYPE    INFORMATION
#----------   ------------   ------------------------------
 STRT.F            7.5000:   START DEPTH
 STOP.F         5700.0000:   STOP DEPTH
 STEP.F            0.5000:   STEP LENGTH
 NULL.          -999.2500:   NO VALUE
 COMP. FLUOR DANIEL (NPOSR):   COMPANY
 WELL.   FLOUR "X" #52-10:   WELL
 FLD .             NPR #3:   FIELD
 LOC .      S10 T38N R78W:   LOCATION
 CNTY.            NATRONA:   COUNTY
 STAT.            WYOMING:   STATE
 CTRY. UNITED STATES OF AMERICA:   COUNTRY
 SRVC.      WESTERN ATLAS:   SERVICE COMPANY
 DATE.        12-JAN-1996:   LOGDATE
 API .     49025227600000:   API NUMBER
~CURVE INFORMATION
#MNEM.UNIT       API CODE    CURVE DESCRIPTION
#----------   ------------   ------------------------------
 DEPT.F                  :   
 TENR.LBS    11 635 01 00:   TENSION
 GRR .GAPI   11 310 01 00:   GAMMA RAY FROM RESISTIVITY
 LLD .OHMM   11 220 10 00:   LATEROLOG DEEP
 LLS .OHMM   11 220 09 00:   LATEROLOG SHALLOW
 SPR .MV     11 010 01 00:   SPONTANEOUS POTENTIAL
 CALD.IN     45 280 60 00:   CALIPER FROM DENSITY LOG
 TEND.LBS    45 635 01 00:   TENSION FROM DENSITY LOG
 ZCOR.G/C3   45 356 01 00:   DENSITY CORRECTION
 ZDEN.G/C3   45 350 01 00:   BULK DENSITY
 CNC .DEC    42 890 03 00:   NEUTRON POROSITY SANDSTONE
~PARAMETER INFORMATION
#MNEM.UNIT          VALUE    DESCRIPTION
#----------   ------------   ------------------------------
 EKB .F         5196.0000:   Kelly bushing
 EGL .F         5186.0000:   Ground level
 EDF .F         5195.0000:   Drilling floor
 TD  .F         5699.0000:   Total depth
 DATE.        12-JAN-1996:   Date logged
 CLNT.            A2DTECH:   Client Code
 SL  . 1032' FNL & 2536' FEL:   Surface Location
 PD  .                 GL:   Permanent Datum
 EPD .F              5186:   Elevation Permanent Datum
 LMF .                 KB:   Log Measured From
 DMF .                 KB:   Drilling Measured From
 DAPD.F                11:   Feet Above Permanent Datum
 DD  .F              5699:   Depth driller
 DL  .F              5699:   Depth logger
 BLI .F              5687:   Bottom log interval
 CS1 .IN            9.625:   Casing size
 CBD1.      9.625" @ 520':   Casing driller 1
 CBL1.F               522:   Casing logger 1
 BS1 .IN             8.75:   Bit size
 BSD1.F              5699:   Depth drilled with bit1
 DFT .               CHEM:   Type fluid in hole
 DFD .                9.8:   Density
 DFV .                 50:   Viscosity
 DFPH.                9.5:   pH
 DFL .                8.4:   Fluid loss
 MSS .           FLOWLINE:   Source of sample
 RMS .OHMM          0.515:   Rm
 MST .F                66:   Rm Meas. temp.
 RMF .OHMM          0.499:   Rmf
 MFST.F                66:   Rmf Meas. temp.
 RMC .OHMM          0.761:   Rmc
 MCST.F                66:   Rmc Meas. temp.
 MFSS.               MEAS:   Source Rmf.
 MCSS.               MEAS:   Source Rmc.
 RMB .OHMM          0.233:   Rm. at BHT
 BHT .F               174:   BHT.
 TCS .HRS               6:   Time Circ. stopped
 MRT .F               174:   Maximum recorded temp.
 LUN .            HL 6530:   Logging unit number
 LUL .             CASPER:   Logging unit location
 ENGI.        VERN RAUTIO:   Recorded By
 WITN. LAFRENIERE/OPSAL/HARDY:   Witnessed by
 ORIG.     2.5", 5" PRINT:   Origin of data
 UWI .     49025227600000:   Unique Well ID
 DICO. A2D TECHNOLOGIES, INC.:   Digitizing Company
~OTHER INFORMATION
~A    DEPT    TENR         GRR       LLD        LLS        SPR       CALD       TEND       ZCOR       ZDEN        CNC   
# ...
 2252.0000   -24.0960    87.8150     4.2850     3.8310   -81.1620  -999.2500  -999.2500  -999.2500  -999.2500  -999.2500
 2252.5000   -25.5350    85.5280     4.4780     3.9530   -81.4000  -999.2500  -999.2500  -999.2500  -999.2500  -999.2500
 2253.0000   -28.9690    83.2270     4.6610     4.0200   -81.7090  -999.2500  -999.2500  -999.2500  -999.2500  -999.2500
 2253.5000   -32.4030    80.9090     4.6690     3.9990   -82.0210  -999.2500  -999.2500  -999.2500  -999.2500  -999.2500
 2254.0000   -30.8100    78.5310     4.6750     3.9830   -82.3310  -999.2500  -999.2500  -999.2500  -999.2500  -999.2500
 2254.5000   -24.0920    79.1520     4.6820     3.8590   -82.6420  -999.2500  -999.2500  -999.2500  -999.2500  -999.2500
 2255.0000   -17.3740    81.1010     4.6890     3.7230   -82.9560  -999.2500  -999.2500  -999.2500  -999.2500  -999.2500
 2255.5000   -10.6560    83.5930     4.6960     3.5870   -83.1860  -999.2500  -999.2500  -999.2500  -999.2500  -999.2500
 2256.0000    -4.0160    82.6720     4.7030     3.5320   -83.4150  -999.2500  -999.2500  -999.2500  -999.2500  -999.2500
 2256.5000    -7.7380    82.3040     4.8530     3.5560   -83.6440  -999.2500  -999.2500  -999.2500  -999.2500  -999.2500
 2257.0000   -11.4170    86.9490     5.3060     3.8200   -83.7710  -999.2500  -999.2500  -999.2500  -999.2500  -999.2500
 2257.5000   -15.0960    93.3880     5.7580     4.1230   -83.7700  -999.2500  -999.2500  -999.2500  -999.2500  -999.2500
 2258.0000   -18.7750    97.1060     5.9830     4.4510   -83.7700  -999.2500  -999.2500  -999.2500  -999.2500  -999.2500
 2258.5000   -22.4540    98.3530     5.9830     4.4510   -83.7710  -999.2500  -999.2500  -999.2500  -999.2500  -999.2500
 2259.0000   -24.0960    99.5610     5.8140     4.1740   -83.6020  -999.2500  -999.2500  -999.2500  -999.2500  -999.2500
 2259.5000   -24.0960    99.6230     5.5100     3.9310   -83.3020  -999.2500  -999.2500  -999.2500  -999.2500  -999.2500
 2260.0000   -24.0960    97.1420     5.2050     3.6880   -83.0000  -999.2500  -999.2500  -999.2500  -999.2500  -999.2500
 2260.5000   -24.0960    93.4860     4.9390     3.4940   -82.6970  -999.2500  -999.2500  -999.2500  -999.2500  -999.2500
 2261.0000   -24.0960    93.8910     4.7980     3.3520   -82.3980  -999.2500  -999.2500  -999.2500  -999.2500  -999.2500
 2261.5000   -24.0960    95.9660     4.6570     3.2730   -82.3020  -999.2500  -999.2500  -999.2500  -999.2500  -999.2500
 2262.0000   -24.0960    97.8330     4.5310     3.2170   -82.2380  -999.2500  -999.2500  -999.2500  -999.2500  -999.2500
 2262.5000   -24.0960    97.7960     4.5070     3.2090   -82.1770  -999.2500  -999.2500  -999.2500  -999.2500  -999.2500
 2263.0000   -24.0960    97.8080     4.4830     3.2010   -81.8730  -999.2500  -999.2500  -999.2500  -999.2500  -999.2500
 2263.5000   -24.0960    97.6610     4.4600     3.1930   -81.4940  -999.2500  -999.2500  -999.2500  -999.2500  -999.2500
 2264.0000   -24.0960    93.8230     4.3000     3.1170   -81.3910  -999.2500  -999.2500  -999.2500  -999.2500  -999.2500
 2264.5000   -24.0960    89.8350     4.0530     2.9960   -81.4480  -999.2500  -999.2500  -999.2500  -999.2500  -999.2500
 2265.0000   -19.9260    87.5800     3.7890     2.8400   -81.5100  -999.2500  -999.2500  -999.2500  -999.2500  -999.2500
 2265.5000   -15.9640    86.6690     3.4750     2.5890   -81.6320  -999.2500  -999.2500  -999.2500  -999.2500  -999.2500
 2266.0000   -12.0020    84.4070     3.1610     2.3390   -81.9560  -999.2500  -999.2500  -999.2500  -999.2500  -999.2500
 2266.5000    -8.0400    85.2840     3.0180     2.2240   -82.2660  -999.2500  -999.2500  -999.2500  -999.2500  -999.2500
 2267.0000    -4.0780    90.0560     3.2200     2.2570   -82.5710  -999.2500  -999.2500  -999.2500  -999.2500  -999.2500
 2267.5000    -0.1160    94.8230     3.5880     2.4390   -82.5610  -999.2500  -999.2500  -999.2500  -999.2500  -999.2500
 2268.0000     3.8460    94.7320     3.9620     2.6570   -82.0370  -999.2500  -999.2500  -999.2500  -999.2500  -999.2500
 2268.5000     4.6400    94.1420     4.2020     2.9160   -81.5200  -999.2500  -999.2500  -999.2500  -999.2500  -999.2500
 2269.0000    -0.7820    93.4940     4.2890     2.9360   -81.0030  -999.2500  -999.2500  -999.2500  -999.2500  -999.2500
 2269.5000    -6.2040    92.8480     3.9750     2.7570   -80.5160  -999.2500  -999.2500  -999.2500  -999.2500  -999.2500
 2270.0000   -11.6250    91.7510     3.9010     2.5550   -80.3930  -999.2500  -999.2500  -999.2500  -999.2500  -999.2500
 2270.5000   -14.0560    90.2560     3.8390     2.5900   -80.2600  -999.2500  -999.2500  -999.2500  -999.2500  -999.2500
 2271.0000   -14.0560    89.2640     3.9830     2.6520   -80.1250  -999.2500  -999.2500  -999.2500  -999.2500  -999.2500
 2271.5000   -14.0560    89.0320     4.0140     2.7010   -79.9890  -999.2500  -999.2500  -999.2500  -999.2500  -999.2500
 2272.0000   -14.0560    88.1710     4.0580     2.7010   -79.9090  -999.2500  -999.2500  -999.2500  -999.2500  -999.2500
 2272.5000   -14.0560    86.4450     4.0250     2.6600   -79.8590  -999.2500  -999.2500  -999.2500  -999.2500  -999.2500
 2273.0000   -14.0560    84.8150     3.9870     2.5970   -79.8100  -999.2500  -999.2500  -999.2500  -999.2500  -999.2500
 2273.5000   -14.0560    83.3020     3.9460     2.5330   -79.7590  -999.2500  -999.2500  -999.2500  -999.2500  -999.2500
 2274.0000   -14.0560    81.7110     3.8350     2.4700   -80.0010  -999.2500  -999.2500  -999.2500  -999.2500  -999.2500
 2274.5000   -14.0560    79.4830     3.7150     2.4100   -80.4900  -999.2500  -999.2500  -999.2500  -999.2500  -999.2500
 2275.0000   -14.3350    77.2360     3.6650     2.3730   -80.9800  -999.2500  -999.2500  -999.2500  -999.2500  -999.2500
 2275.5000   -15.7660    76.5590     3.6870     2.3920   -81.4740  -999.2500  -999.2500  -999.2500  -999.2500  -999.2500
 2276.0000   -17.1970    77.4410     3.7310     2.4570   -81.6220  -999.2500  -999.2500  -999.2500  -999.2500  -999.2500
 2276.5000   -18.6270    79.9890     3.8740     2.5550   -81.7050  -999.2500  -999.2500  -999.2500  -999.2500  -999.2500
 2277.0000   -20.0580    82.0840     3.8540     2.5420   -81.7870  -999.2500  -999.2500  -999.2500  -999.2500  -999.2500
 2277.5000   -21.4890    81.6440     3.8310     2.5180   -81.8690  -999.2500  -999.2500  -999.2500  -999.2500  -999.2500
 2278.0000   -22.9190    76.7360     3.8030     2.4850   -81.9580  -999.2500  -999.2500  -999.2500  -999.2500  -999.2500
 2278.5000   -23.6400    77.6680     3.8950     2.5090   -82.1520  -999.2500  -999.2500  -999.2500  -999.2500  -999.2500
 2279.0000   -21.0640    79.7800     4.0160     2.5680   -82.0570  -999.2500  -999.2500  -999.2500  -999.2500  -999.2500
 2279.5000   -18.4890    81.9950     4.1330     2.6270   -81.9270  -999.2500  -999.2500  -999.2500  -999.2500  -999.2500
 2280.0000   -15.9140    84.1370     4.0340     2.5550   -81.7950  -999.2500  -999.2500  -999.2500  -999.2500  -999.2500
 2280.5000   -14.0560    84.4710     3.9830     2.5320   -81.8010  -999.2500  -999.2500  -999.2500  -999.2500  -999.2500
 2281.0000   -14.0560    84.6470     3.9940     2.5510   -81.8700  -999.2500  -999.2500  -999.2500  -999.2500  -999.2500
 2281.5000   -14.0560    86.1680     4.0280     2.6120   -81.9480  -999.2500  -999.2500  -999.2500  -999.2500  -999.2500
 2282.0000   -14.0560    85.9370     4.0580     2.6520   -81.5980  -999.2500  -999.2500  -999.2500  -999.2500  -999.2500
 2282.5000   -14.0560    84.0370     3.6840     2.4850   -81.1240  -999.2500  -999.2500  -999.2500  -999.2500  -999.2500
 2283.0000   -19.4250    80.2120     3.3620     2.2300   -80.7350  -999.2500  -999.2500  -999.2500  -999.2500  -999.2500
 2283.5000   -24.8470    76.2990     2.9900     2.0090   -80.7460  -999.2500  -999.2500  -999.2500  -999.2500  -999.2500
 2284.0000   -30.2680    72.3980     3.0830     2.0250   -80.9110  -999.2500  -999.2500  -999.2500  -999.2500  -999.2500
 2284.5000   -34.1370    71.1910     3.2310     2.1390   -81.6690  -999.2500  -999.2500  -999.2500  -999.2500  -999.2500
 2285.0000   -28.5140    77.4350     3.4760     2.2900   -82.4030  -999.2500  -999.2500  -999.2500  -999.2500  -999.2500
