~VERSION INFORMATION
 VERS.                2.0:   CWLS LOG ASCII STANDARD - VERSION 2.0
 WRAP.                 NO:   ONE LINE PER DEPTH STEP
~WELL INFORMATION
#MNEM.UNIT      DATA TYPE    INFORMATION
#----------   ------------   ------------------------------
 STRT.F          250.5000:   START DEPTH
 STOP.F         2849.5000:   STOP DEPTH
 STEP.F            0.5000:   STEP LENGTH
 NULL.          -999.2500:   NO VALUE
 COMP. FENIX & SCISSON U.S. NAVY:   COMPANY
 WELL.   FENIX "A" #25-21:   WELL
 FLD .           N P R #3:   FIELD
 LOC .      S21 T39N R78W:   LOCATION
 CNTY.            NATRONA:   COUNTY
 STAT.            WYOMING:   STATE
 CTRY. UNITED STATES OF AMERICA:   COUNTRY
 SRVC.       SCHLUMBERGER:   SERVICE COMPANY
 DATE.        14-MAR-1977:   LOGDATE
 API .     49025103140000:   API NUMBER
~CURVE INFORMATION
#MNEM.UNIT       API CODE    CURVE DESCRIPTION
#----------   ------------   ------------------------------
 DEPT.F                  :   
 CALD.IN     45 280 60 00:   CALIPER FROM DENSITY LOG
 GRD .GAPI   45 310 01 00:   GAMMA RAY FROM DENSITY LOG
 RHOB.G/C3   45 350 01 00:   BULK DENSITY
 CORR.G/C3   45 356 01 00:   DENSITY CORRECTION
 SPR .MV     07 010 01 00:   SPONTANEOUS POTENTIAL
 LL8 .OHMM   07 220 08 00:   LATEROLOG-8 RES.
 ILM .OHMM   07 120 44 00:   INDUCTION LOG MEDIUM RESISTIVITY
 ILD .OHMM   07 120 46 00:   DEEP INDUCTION RESISTIVITY
~PARAMETER INFORMATION
#MNEM.UNIT          VALUE    DESCRIPTION
#----------   ------------   ------------------------------
 EKB .F         4963.0000:   Kelly bushing
 EGL .F         4953.0000:   Ground level
 EDF .F            0.0000:   Drilling floor
 TD  .F         2848.0000:   Total depth
 DATE.        14-MAR-1977:   Date logged
 CLNT.            A2DTECH:   Client Code
 SL  . 990' FWL & 2310' FSL:   Surface Location
 PD  .                 GL:   Permanent Datum
 DD  .F              2847:   Depth driller
 DL  .F              2848:   Depth logger
 BLI .F              2842:   Bottom log interval
 CS1 .IN            8.625:   Casing size
 CBD1.      8.625" @ 259':   Casing driller 1
 CBL1.F               261:   Casing logger 1
 BS1 .IN            7.875:   Bit size
 DFT .                KCL:   Type fluid in hole
 DFD .                9.2:   Density
 DFV .                 37:   Viscosity
 DFPH.                8.5:   pH
 DFL .                8.6:   Fluid loss
 MSS .           FLOWLINE:   Source of sample
 RMS .OHMM          0.226:   Rm
 MST .F                72:   Rm Meas. temp.
 RMF .OHMM          0.190:   Rmf
 MFST.F                72:   Rmf Meas. temp.
 MFSS.               MEAS:   Source Rmf.
 RMB .OHMM           .139:   Rm. at BHT
 BHT .F               117:   BHT.
 TCS .HRS            1800:   Time Circ. stopped
 MRT .F               117:   Maximum recorded temp.
 LUN .               5642:   Logging unit number
 LUL .               CSPR:   Logging unit location
 ENGI.         JIM MARTIN:   Recorded By
 WITN.               JAPP:   Witnessed by
 ORIG.           5" PRINT:   Origin of data
 UWI .     49025103140000:   Unique Well ID
 DICO. A2D TECHNOLOGIES, INC.:   Digitizing Company
 DAPD.                 10:   Feet Above Permanent Datum
 BSD1.               2847:   Depth drilled with bit1
 EPD .               4953:   Elevation Permanent Datum
 LMF .                 KB:   Log Measured From
 DMF .                 KB:   Drilling Measured From
 TLI .                261:   Top log interval
 TLAB.               2400:   Time logger at bottom
~OTHER INFORMATION
~A   DEPT     CALD         GRD      RHOB       CORR        SPR        LL8        ILM        ILD   
# ...
 1627.5000     9.2490   148.6370     2.5070     0.0320   -61.6390     7.0970     6.5520     6.8480
 1628.0000     9.2590   143.9950     2.5040     0.0200   -61.5610     7.9380     6.3910     6.7860
 1628.5000     9.2700   143.8920     2.5050     0.0280   -61.2120     8.0430     6.2300     6.6910
 1629.0000     9.2800   149.7330     2.5200     0.0520   -60.8680     7.9690     6.0690     6.4450
 1629.5000     9.2910   156.9180     2.5330     0.0660   -60.5260     6.5500     5.9080     6.2150
 1630.0000     9.3400   158.4020     2.5270     0.0670   -60.3090     5.6700     5.7470     5.9850
 1630.5000     9.3040   157.3800     2.5100     0.0460   -60.3690     6.5070     5.5850     5.7560
 1631.0000     9.2410   155.8630     2.5190     0.0370   -60.4220     7.1360     5.4650     5.7220
 1631.5000     9.1780   157.7920     2.5280     0.0890   -60.4750     4.4640     5.4650     5.9350
 1632.0000     9.1140   163.2270     2.5150     0.0510   -60.5280     5.2460     5.8860     6.1860
 1632.5000     9.0510   168.9440     2.4620     0.0130   -60.5810     7.9300     6.2870     6.4360
 1633.0000     8.9880   174.6570     2.4870     0.0220   -60.6350     9.0650     6.6880     6.6860
 1633.5000     8.9600   180.3710     2.5080     0.0050   -60.6860     9.2330     7.0890     6.9690
 1634.0000     8.9570   187.0750     2.4980     0.0170   -60.5780     9.1410     7.4900     7.3570
 1634.5000     8.9550   195.6870     2.4960     0.0200   -60.4500     9.0520     7.9920     7.7450
 1635.0000     8.9520   204.2900     2.4910     0.0140   -60.3210     8.9820     7.9690     7.9690
 1635.5000     8.9500   212.9260     2.4730     0.0080   -60.1940     9.4610     7.7630     7.6320
 1636.0000     8.9470   221.4300     2.4540     0.0170   -60.1150     9.8480     7.1460     7.0750
 1636.5000     8.9450   225.1890     2.4370     0.0460   -60.1920     6.6300     6.5290     6.5180
 1637.0000     8.9420   216.3700     2.4420     0.0600   -60.2650     5.8580     5.9120     5.9610
 1637.5000     8.9410   208.9950     2.4070     0.0450   -60.3370     4.9390     5.1240     5.5160
 1638.0000     8.9200   205.8560     2.4610     0.0590   -60.4110     5.7970     5.3490     5.6400
 1638.5000     8.8910   210.6720     2.4220     0.0120   -60.4860     6.8720     5.9370     5.7960
 1639.0000     8.8610   225.2420     2.4540     0.0200   -60.4160     7.9460     6.2740     5.9510
 1639.5000     8.8310   241.1670     2.4980     0.0290   -60.3230     9.0200     7.0470     6.3760
 1640.0000     8.8100   250.2390     2.4730     0.0070   -60.2300    10.0940     7.8300     7.2300
 1640.5000     8.7920   251.9830     2.4450     0.0100   -60.1330    11.4100     8.6130     8.0830
 1641.0000     8.7820   257.2440     2.4300     0.0110   -60.3030    11.3800     9.3960     8.9370
 1641.5000     8.7840   262.0720     2.4450     0.0140   -60.6260    11.3050    10.1790     9.7900
 1642.0000     8.7870   263.1780     2.4560     0.0310   -60.9000    11.9490    10.9620    10.6000
 1642.5000     8.7890   273.1250     2.4270     0.0210   -60.8910    13.5890    11.6030    11.0480
 1643.0000     8.7910   288.4730     2.4320     0.0120   -60.8880    13.0150    12.0570    11.5150
 1643.5000     8.7940   300.8070     2.4410     0.0010   -60.7380    11.7290    12.5090    11.8240
 1644.0000     8.7960   300.2530     2.4320     0.0090   -60.3240    12.1940    13.0210    12.3980
 1644.5000     8.7980   300.0080     2.4140     0.0070   -59.9000    12.8120    13.5890    12.9720
 1645.0000     8.8010   300.2260     2.4060    -0.0010   -59.3530    13.4540    13.7510    13.4650
 1645.5000     8.8030   260.3920     2.4030     0.0020   -58.6050    14.2580    13.8570    13.4900
 1646.0000     8.8050   220.7270     2.4000    -0.0030   -57.7130    15.0620    13.9700    13.5250
 1646.5000     8.8080   190.9540     2.4080    -0.0010   -56.9670    15.6000    13.9700    13.5590
 1647.0000     8.8100   178.8520     2.4150     0.0020   -56.5040    14.7130    13.9700    13.5890
 1647.5000     8.8130   166.9200     2.4100     0.0040   -56.1260    14.0450    13.7120    13.3910
 1648.0000     8.8150   162.0680     2.4160     0.0050   -56.0260    13.5890    13.4650    12.9780
 1648.5000     8.8170   167.2090     2.4230     0.0060   -55.9290    13.8420    13.5540    13.0090
 1649.0000     8.8200   175.3010     2.4310     0.0070   -55.8300    14.0680    13.6780    13.0980
 1649.5000     8.8230   185.6730     2.4380     0.0060   -55.7780    14.2930    13.7150    12.9340
 1650.0000     8.8340   195.8980     2.4440     0.0040   -56.0740    14.3610    13.1550    12.6100
 1650.5000     8.8450   206.4290     2.4450     0.0010   -56.3760    13.3120    12.7260    12.2860
 1651.0000     8.8560   209.0950     2.4470     0.0000   -56.6750    12.7420    12.5090    12.0570
 1651.5000     8.8670   204.3520     2.4480     0.0110   -56.9750    13.2240    12.6250    12.0570
 1652.0000     8.8780   190.8340     2.4770     0.0340   -57.1280    13.7150    12.7420    12.0570
 1652.5000     8.8890   167.3440     2.5190     0.0500   -57.1290    12.9120    11.9660    11.7290
 1653.0000     8.9000   146.3630     2.4950     0.0390   -57.1180    11.7350    11.3050    11.9080
 1653.5000     8.9110   132.2150     2.4790     0.0280   -56.8780    10.5580    11.3050    12.2840
 1654.0000     8.9210   118.0690     2.4760     0.0290   -56.6440    11.7710    11.8210    12.6590
 1654.5000     8.9260   110.6440     2.4800     0.0030   -56.4020    13.3370    12.2260    12.8590
 1655.0000     8.9350   116.6210     2.4960     0.0180   -56.3610    14.4930    12.2810    12.2740
 1655.5000     8.9450   130.9500     2.4920     0.0210   -56.3920    12.7950    11.9360    11.8370
 1656.0000     8.9550   129.2710     2.4960     0.0090   -56.4250    11.0990    11.6220    12.0440
 1656.5000     8.9610   124.9040     2.5020    -0.0010   -56.4580    11.3600    11.7740    12.1930
 1657.0000     8.9650   125.3590     2.5070    -0.0020   -56.4910    11.8370    11.9560    12.3790
 1657.5000     8.9690   138.1840     2.5020     0.0080   -56.5230    11.5230    12.0570    12.1360
 1658.0000     8.9730   146.1650     2.4800     0.0140   -56.6350    10.8100    11.5080    11.7320
 1658.5000     8.9780   154.7250     2.4860     0.0170   -56.7850    10.3640    10.9970    11.3290
 1659.0000     8.9820   152.3490     2.4940     0.0250   -56.9340    10.2650    10.7970    10.9970
 1659.5000     8.9860   146.6520     2.5000     0.0360   -57.0840    10.1670    10.5640    10.9030
 1660.0000     8.9900   142.0540     2.4840     0.0230   -57.2330    10.0310    10.3110    10.7880
 1660.5000     8.9950   142.5830     2.4690     0.0060   -57.3810    10.1090    10.3510    10.6980
 1661.0000     8.9990   145.6690     2.4820     0.0070   -57.5370    10.2960    10.4470    10.8530
 1661.5000     9.0030   148.2240     2.4990     0.0110   -57.9150    10.4070    10.5430    10.9430
 1662.0000     9.0070   145.7320     2.4890     0.0130   -58.2850    10.3090    10.6000    10.9970
 1662.5000     9.0120   142.7950     2.4860     0.0160   -58.6380    10.1470    10.3240    10.7960
 1663.0000     9.0160   145.7750     2.5000     0.0130   -58.9230     9.9850    10.1870    10.5950
 1663.5000     9.0200   150.0940     2.5020     0.0080   -58.9460     9.8240    10.0500    10.3940
 1664.0000     9.0240   149.8920     2.4900     0.0100   -58.9760     9.7580     9.9390    10.3110
 1664.5000     9.0280   150.3760     2.4830     0.0180   -59.0030     9.7580    10.0310    10.3110
 1665.0000     9.0330   151.4070     2.4850     0.0260   -59.0300     9.7580    10.0140    10.3110
 1665.5000     9.0370   152.8910     2.4890     0.0250   -59.0560     9.7580     9.9970    10.3110
 1666.0000     9.0410   155.1500     2.4900     0.0160   -59.0830     9.7580     9.9800    10.3110
 1666.5000     9.0450   157.5820     2.4940     0.0210   -59.1110     9.7580     9.9630    10.2660
 1667.0000     9.0500   159.9710     2.4980     0.0270   -59.1940     9.7570     9.9470    10.2080
 1667.5000     9.0540   162.1470     2.5030     0.0320   -59.2740     9.7560     9.9300    10.1500
