~VERSION INFORMATION
 VERS.                2.0:   CWLS LOG ASCII STANDARD - VERSION 2.0
 WRAP.                 NO:   ONE LINE PER DEPTH STEP
~WELL INFORMATION
#MNEM.UNIT      DATA TYPE    INFORMATION
#----------   ------------   ------------------------------
 STRT.F            0.0000:   START DEPTH
 STOP.F         5786.0000:   STOP DEPTH
 STEP.F            0.5000:   STEP LENGTH
 NULL.          -999.2500:   NO VALUE
 COMP. U.S. DEPARTMENT OF ENERGY:   COMPANY
 WELL. DEPARTMENT "X" #2-3:   WELL
 FLD .           N P R #3:   FIELD
 LOC .       S3 T38N R78W:   LOCATION
 CNTY.            NATRONA:   COUNTY
 STAT.            WYOMING:   STATE
 CTRY. UNITED STATES OF AMERICA:   COUNTRY
 SRVC.       BAKER HUHGES:   SERVICE COMPANY
 DATE.        14-JUL-2002:   LOGDATE
 API .     49025230540000:   API NUMBER
~CURVE INFORMATION
#MNEM.UNIT       API CODE    CURVE DESCRIPTION
#----------   ------------   ------------------------------
 DEPT.F                  :   
 TEND.LBS    45 635 01 00:   TENSION FROM DENSITY LOG
 CALD.IN     45 280 60 00:   CALIPER FROM DENSITY LOG
 ZCOR.G/C3   45 356 01 00:   DENSITY CORRECTION
 PE  .B/E    45 358 01 00:   PHOTOELECTRIC FACTOR
 ZDEN.G/C3   45 350 01 00:   BULK DENSITY
 CNCF.DEC    42 890 03 00:   NEUTRON POROSITY
 TENS.LBS    60 635 01 00:   TENSION FROM SONIC
 DT  .US/F   60 520 00 00:   DELTA TIME
 RD  .OHMM   11 220 10 00:   RESISTIVITY DEEP
 TENR.LBS    11 635 01 00:   TENSION FROM RES. LOG
 RS  .OHMM   11 220 09 00:   RESISTIVITY SHALLOW
 GRR .GAPI   11 310 01 00:   GAMMA RAY FROM RES.
 RMLL.OHMM   11 270 04 00:   MICRO LATEROLOG
 SPR .MV     11 010 01 00:   SPONTANEOUS POTENTIAL FROM RES.
~PARAMETER INFORMATION
#MNEM.UNIT          VALUE    DESCRIPTION
#----------   ------------   ------------------------------
 EKB .F         5164.7000:   Kelly bushing
 EGL .F         5154.7000:   Ground level
 EDF .F         5163.7000:   Drilling floor
 TD  .F         5773.0000:   Total depth
 DATE.        14-JUL-2002:   Date logged
 CLNT.            A2DTECH:   Client Code
 SL  . 838' FNL & 2128' FWL:   Surface Location
 PD  .                 GL:   Permanent Datum
 EPD .F            5154.7:   Elevation Permanent Datum
 LMF .                 KB:   Log Measured From
 DMF .                 KB:   Drilling Measured From
 DD  .F              5770:   Depth driller
 DL  .F              5773:   Depth logger
 BLI .F              5770:   Bottom log interval
 CS1 .IN            9.625:   Casing size
 CBD1.       9.625 @ 578':   Casing driller 1
 CBL1.F               578:   Casing logger 1
 BS1 .IN             8.75:   Bit size
 DFT .       GEL/CHEMICAL:   Type fluid in hole
 DFD .                  9:   Density
 DFV .                 45:   Viscosity
 DFPH.                8.5:   pH
 DFL .                9.6:   Fluid loss
 MSS .           FLOWLINE:   Source of sample
 RMS .OHMM          0.568:   Rm
 MST .F                91:   Rm Meas. temp.
 RMF .OHMM          0.490:   Rmf
 MFST.F                92:   Rmf Meas. temp.
 RMC .OHMM          1.072:   Rmc
 MCST.F                90:   Rmc Meas. temp.
 MFSS.               MEAS:   Source Rmf.
 RMB .OHMM          0.291:   Rm. at BHT
 BHT .F               184:   BHT.
 TCS .HRS               8:   Time Circ. stopped
 MRT .F               184:   Maximum recorded temp.
 LUN .            HL-6530:   Logging unit number
 LUL .             CASPER:   Logging unit location
 ENGI.           VERCIMAK:   Recorded By
 WITN.              HARDY:   Witnessed by
 ORIG.           5" PRINT:   Origin of data
 UWI .     49025230540000:   Unique Well ID
 DICO. A2D TECHNOLOGIES, INC.:   Digitizing Company
~OTHER INFORMATION
~A    DEPT    TEND       CALD       ZCOR         PE       ZDEN       CNCF       TENS         DT         RD       TENR         RS         GRR      RMLL        SPR   
# ...
  563.5000  -999.2500  -999.2500  -999.2500  -999.2500  -999.2500     0.4870  -999.2500    56.2840  -999.2500  -999.2500  -999.2500    61.6380  -999.2500  -999.2500
  564.0000  -999.2500  -999.2500  -999.2500  -999.2500  -999.2500     0.5010  -999.2500    59.3950  -999.2500  -999.2500  -999.2500    62.6630  -999.2500  -999.2500
  564.5000  -999.2500  -999.2500  -999.2500  -999.2500  -999.2500     0.4900  -999.2500    62.6950  -999.2500  -999.2500  -999.2500    63.1750  -999.2500  -999.2500
  565.0000  -999.2500  -999.2500  -999.2500  -999.2500  -999.2500     0.4670  -999.2500    62.8960  -999.2500  -999.2500  -999.2500    60.9770  -999.2500  -999.2500
  565.5000  -999.2500  -999.2500  -999.2500  -999.2500  -999.2500     0.4410  -999.2500    60.1970  -999.2500  -999.2500  -999.2500    59.3330  -999.2500  -999.2500
  566.0000  -999.2500  -999.2500  -999.2500  -999.2500  -999.2500     0.4320  -999.2500    56.9960  -999.2500  -999.2500  -999.2500    60.8380  -999.2500  -999.2500
  566.5000  -999.2500  -999.2500  -999.2500  -999.2500  -999.2500     0.4300  -999.2500    53.8780  -999.2500  -999.2500  -999.2500    62.3590  -999.2500  -999.2500
  567.0000  -999.2500  -999.2500  -999.2500  -999.2500  -999.2500     0.4180  -999.2500    53.6480  -999.2500  -999.2500  -999.2500    63.2500  -999.2500  -999.2500
  567.5000  -999.2500  -999.2500  -999.2500  -999.2500  -999.2500     0.4050  -999.2500    53.9410  -999.2500  -999.2500  -999.2500    63.5170  -999.2500  -999.2500
  568.0000  -999.2500  -999.2500  -999.2500  -999.2500  -999.2500     0.4030  -999.2500    54.2330  -999.2500  -999.2500  -999.2500    63.7850  -999.2500  -999.2500
  568.5000  -999.2500  -999.2500  -999.2500  -999.2500  -999.2500     0.4340  -999.2500    54.3070  -999.2500  -999.2500  -999.2500    64.4600  -999.2500  -999.2500
  569.0000  -999.2500  -999.2500  -999.2500  -999.2500  -999.2500     0.4290  -999.2500    54.1650  -999.2500  -999.2500  -999.2500    65.6780  -999.2500  -999.2500
  569.5000  -999.2500  -999.2500  -999.2500  -999.2500  -999.2500     0.4170  -999.2500    54.0230  -999.2500  -999.2500  -999.2500    66.9030  -999.2500  -999.2500
  570.0000  -999.2500  -999.2500  -999.2500  -999.2500  -999.2500     0.4080  -999.2500    53.8780  -999.2500  -999.2500  -999.2500    67.1280  -999.2500  -999.2500
  570.5000  -999.2500  -999.2500  -999.2500  -999.2500  -999.2500     0.4330  -999.2500    53.8780  -999.2500  -999.2500  -999.2500    66.8630  -999.2500  -999.2500
  571.0000  -999.2500  -999.2500  -999.2500  -999.2500  -999.2500     0.4570  -999.2500    54.1120  -999.2500  -999.2500  -999.2500    65.1340  -999.2500  -999.2500
  571.5000  -999.2500  -999.2500  -999.2500  -999.2500  -999.2500     0.4820  -999.2500    55.0260  -999.2500  -999.2500  -999.2500    64.3390  -999.2500  -999.2500
  572.0000  -999.2500  -999.2500  -999.2500  -999.2500  -999.2500     0.5170   -54.6090    61.8770  -999.2500  -999.2500  -999.2500    64.2190  -999.2500  -999.2500
  572.5000  -999.2500  -999.2500  -999.2500  -999.2500  -999.2500     0.5140   -74.6490    69.7630  -999.2500  -999.2500  -999.2500    65.3110  -999.2500  -999.2500
  573.0000  -999.2500  -999.2500  -999.2500  -999.2500  -999.2500     0.5040   -74.6490    77.6480  -999.2500  -999.2500  -999.2500    66.3500  -999.2500  -999.2500
  573.5000  -999.2500  -999.2500  -999.2500  -999.2500  -999.2500     0.4970   -74.6490    86.0420  -999.2500  -999.2500  -999.2500    67.0540  -999.2500  -999.2500
  574.0000  -999.2500  -999.2500  -999.2500  -999.2500  -999.2500     0.5090   -71.8860    89.9700  -999.2500  -999.2500  -999.2500    66.6070  -999.2500  -999.2500
  574.5000  -999.2500  -999.2500  -999.2500  -999.2500  -999.2500     0.5200   -68.9320    94.2590  -999.2500  -999.2500  -999.2500    66.1970  -999.2500  -999.2500
  575.0000  -999.2500  -999.2500  -999.2500  -999.2500     2.0320     0.5200   -65.9780    94.5590  -999.2500  -999.2500  -999.2500    66.5700  -999.2500  -999.2500
  575.5000  -999.2500  -999.2500  -999.2500  -999.2500     2.0950     0.4990   -63.0240    90.9750  -999.2500  -999.2500  -999.2500    68.1220  -999.2500  -999.2500
  576.0000   -44.3030  -999.2500  -999.2500  -999.2500     2.1150     0.4720   -60.0700    87.3910  -999.2500  -999.2500  -999.2500    68.6270  -999.2500  -999.2500
  576.5000   -41.1560  -999.2500  -999.2500  -999.2500     2.1410     0.4440   -57.1160    86.1420  -999.2500  -999.2500  -999.2500    65.6470  -999.2500  -999.2500
  577.0000   -38.0090  -999.2500    -0.3410     6.1930     2.2500     0.4180   -54.1620    86.5870     0.2070  -999.2500     0.7310    60.8530  -999.2500  -999.2500
  577.5000   -34.8620  -999.2500    -0.0840     5.1710     2.3950     0.4200   -51.2080    92.5290     2.2710  -999.2500     2.6680    60.3910  -999.2500  -183.5510
  578.0000   -32.5020     9.4000     0.1080     4.1160     2.4790     0.4190   -48.2540    99.1380     4.6640  -999.2500     4.6060    68.2120  -999.2500  -200.2780
  578.5000   -29.3550     9.6500     0.1280     3.3900     2.4490     0.4090   -45.3000   100.6940     7.0460  -999.2500     5.5990    76.9580  -999.2500  -209.7960
  579.0000   -26.2090     9.8730     0.1300     3.0820     2.3910     0.3980   -40.4970   100.4530     7.3100   -25.6360     6.0270    86.0460  -999.2500  -211.3630
  579.5000   -23.0620    10.5140     0.1620     2.6490     2.3250     0.3880   -35.1070   100.2120     6.4140   -13.4110     5.8690    89.7530  -999.2500  -210.5660
  580.0000   -19.9150    11.0820     0.2340     2.2470     2.2840     0.3830   -29.7170   100.7130     4.7370    -1.1850     5.5550    91.0260  -999.2500  -208.9090
  580.5000   -16.7680    11.7930     0.2950     1.9350     2.2820     0.3880   -24.5490   103.7000     3.7020     4.4910     5.1550    91.5440  -999.2500  -207.4760
  581.0000   -17.1600    12.4300     0.3200     1.6230     2.3050     0.3850   -24.5490   106.6870     3.8570    -0.2770     5.3260    91.7620  -999.2500  -208.7210
  581.5000   -22.0900    12.7750     0.3280     1.5300     2.3360     0.3610   -24.5490   107.0840     4.1130    -5.7110     5.5790    90.4180  -999.2500  -210.1660
  582.0000   -25.0000    12.5710     0.3360     1.4800     2.3610     0.3480   -24.5490   104.0420     4.3690   -11.1440     5.8330    89.6300  -999.2500  -211.6190
  582.5000   -25.0000    12.2980     0.3440     1.5060     2.3850     0.3450   -25.5260   101.6640     4.6250   -16.5780     6.0870    93.1670  -999.2500  -213.0660
  583.0000   -25.0000    12.2470     0.3520     1.5990     2.3720     0.3390   -33.2060   100.4790     4.8360   -22.0120     6.1950    96.9710  -999.2500  -213.9890
  583.5000   -25.0000    12.3280     0.3570     1.6900     2.3540     0.3280   -40.8870   100.6000     4.8490   -25.4490     6.1140   100.3790  -999.2500  -214.6710
  584.0000   -25.0000    12.4420     0.3570     1.7720     2.3210     0.3240   -48.5670   101.2260     4.8620   -25.4490     6.0090   100.4960  -999.2500  -215.4470
  584.5000   -25.0000    12.3890     0.3450     1.8340     2.2810     0.3450   -54.6090   101.1450     4.8750   -25.4490     5.9170    99.1710  -999.2500  -216.2240
  585.0000   -25.0000    12.1750     0.3290     1.9060     2.2340     0.3600   -48.0960    99.5880     4.8880   -25.4490     5.8610    97.8950  -999.2500  -216.9990
  585.5000   -25.0000    12.0810     0.3130     2.0870     2.1680     0.3730   -41.6960    98.0180     4.9010   -25.4490     5.8480    96.6220  -999.2500  -217.7760
  586.0000   -25.0000    12.0240     0.2990     2.4770     2.1210     0.3630   -35.2960    96.4470     4.9130   -23.0450     5.8350    96.6520  -999.2500  -218.5570
  586.5000   -25.0000    11.9700     0.2900     2.5450     2.1150     0.3580   -34.5690    95.9620     4.9230   -20.8220     5.8220    96.9610  -999.2500  -219.3640
  587.0000   -25.0000    11.9110     0.2820     2.3770     2.1630     0.3720   -34.5690    96.8000     4.7020   -18.5990     5.8090    95.3700  -999.2500  -220.5230
  587.5000   -25.0000    11.8460     0.2640     2.1220     2.2000     0.3950   -34.5690   101.7090     4.4380   -16.3760     5.5620    93.6410  -999.2500  -221.1140
