~VERSION INFORMATION
 VERS.                2.0:   CWLS LOG ASCII STANDARD - VERSION 2.0
 WRAP.                 NO:   ONE LINE PER DEPTH STEP
~WELL INFORMATION
#MNEM.UNIT      DATA TYPE    INFORMATION
#----------   ------------   ------------------------------
 STRT.F            0.5000:   START DEPTH
 STOP.F         4256.0000:   STOP DEPTH
 STEP.F            0.5000:   STEP LENGTH
 NULL.          -999.2500:   NO VALUE
 COMP. LAWRENCE-ALLISON & ASSOC:   COMPANY
 WELL. LAWRENCE "X" #64-15:   WELL
 FLD .        N.P.R. NO.3:   FIELD
 LOC .      S15 T38N R78W:   LOCATION
 CNTY.            NATRONA:   COUNTY
 STAT.            WYOMING:   STATE
 CTRY. UNITED STATES OF AMERICA:   COUNTRY
 SRVC.      DRESSER ATLAS:   SERVICE COMPANY
 DATE.        13-SEP-1984:   LOGDATE
 API .     49025111610000:   API NUMBER
~CURVE INFORMATION
#MNEM.UNIT       API CODE    CURVE DESCRIPTION
#----------   ------------   ------------------------------
 DEPT.F                  :   
 TENR.LBS    07 635 01 00:   TENSION FROM RESISTIVITY
 GRR .GAPI   07 310 01 00:   GAMMA RAY FROM RESISTIVITY
 RFOC.OHMM   07 220 04 00:   RESISTIVITY FOCUSED LOG RES.
 RILD.OHMM   07 120 46 00:   DEEP INDUCTION RESISTIVITY
 RILM.OHMM   07 120 44 00:   INDUCTION LOG MEDIUM RESISTIVITY
 SPR .MV     07 010 01 00:   SPONTANEOUS POTENTIAL
 DT  .US/F   60 520 00 00:   DELTA TIME
 TENS.LBS    60 635 01 00:   TENSION FROM SONIC
 CALD.IN     45 280 60 00:   CALIPER FROM DENSITY LOG
 TEND.LBS    45 635 01 00:   TENSION FORM DENSITY LOG
 CORR.G/C3   45 356 01 00:   DENSITY CORRECTION
 DEN .G/C3   45 350 01 00:   BULK DENSITY
 CNC .DEC    42 890 03 00:   NEUTRON POROSITY SANDSTONE
~PARAMETER INFORMATION
#MNEM.UNIT          VALUE    DESCRIPTION
#----------   ------------   ------------------------------
 EKB .F         5294.0000:   Kelly bushing
 EGL .F         5282.0000:   Ground level
 TD  .F         4256.0000:   Total depth
 CLNT.            A2DTECH:   Client Code
 SL  . 2299' FNL & 1785' FEL:   Surface Location
 PD  .                 GL:   Permanent Datum
 EPD .F              5282:   Elevation Permanent Datum
 LMF .                 KB:   Log Measured From
 DMF .                 KB:   Drilling Measured From
 DAPD.F                12:   Feet Above Permanent Datum
 DATE.        13-SEP-1984:   Date Logged [DD-MMM-YYYY]
 DD  .F              4256:   Depth driller
 DL  .F              4248:   Depth logger
 BLI .F              4246:   Bottom log interval
 TLI .F                 0:   Top log interval
 CS1 .IN            8.625:   Casing size
 CBD1.      8.625" @ 817':   Casing driller 1
 CBL1.F               814:   Casing logger 1
 BS1 .IN            7.875:   Bit size
 BSD1.F              4256:   Depth drilled with bit1
 DFT .            KCL-GEL:   Type fluid in hole
 DFD .                  9:   Density
 DFV .                 40:   Viscosity
 DFPH.                8.6:   pH
 DFL .               11.8:   Fluid loss
 MSS .            MUDTANK:   Source of sample
 RMS .OHMM           0.38:   Rm
 MST .F                74:   Rm Meas. temp.
 RMF .OHMM           0.31:   Rmf
 MFST.F                72:   Rmf Meas. temp.
 MFSS.               MEAS:   Source Rmf.
 RMC .OHMM           0.48:   Rmc
 MCST.F                74:   Rmc Meas. temp.
 MCSS.               CALC:   Source Rmc.
 RMB .OHMM           0.22:   Rm. at BHT
 BHT .F               134:   BHT.
 TCS .HRS               4:   Time Circ. stopped
 MRT .F               134:   Maximum recorded temp.
 LUN .            HL-6274:   Logging unit number
 LUL .           GILLETTE:   Logging unit location
 ENGI.             RAUTIO:   Recorded By
 WITN.            JOHNSON:   Witnessed by
 ORIG.        2" 5" PRINT:   Origin of data
 UWI .     49025111610000:   Unique Well ID
 DICO. A2D TECHNOLOGIES, INC.:   Digitizing Company
~OTHER INFORMATION
~A    DEPT    TENR         GRR      RFOC       RILD       RILM        SPR         DT       TENS       CALD       TEND       CORR        DEN        CNC   
# ...
 1040.5000   -67.1435    84.7709     8.6019     8.2535     8.3829   -20.4749    90.6938   -59.7801     9.9212   -75.6972    -0.0198     2.4892     0.2532
 1041.0000   -68.5724    82.6831     8.4819     8.1960     8.3599   -20.7714    90.6967   -59.4083     9.8575   -75.6972    -0.0258     2.4862     0.2412
 1041.5000   -70.0014    81.1969     8.4218     8.1954     8.3291   -21.2159    90.7846   -59.0364     9.7943   -75.6972    -0.0197     2.4855     0.2388
 1042.0000   -71.4304    80.9137     8.4200     8.1949     8.3319   -21.2834    90.7025   -58.6646     9.7317   -75.6954    -0.0137     2.4863     0.2389
 1042.5000   -72.8594    82.1386     8.4183     8.1943     8.2761   -21.3569    90.4059   -58.2928     9.6808   -68.3955    -0.0257     2.4878     0.2478
 1043.0000   -74.2883    84.2614     8.3350     8.1937     8.2789   -21.2024    90.4088   -57.9209     9.6553   -76.5261    -0.0286     2.4879     0.2493
 1043.5000   -75.7173    86.0835     8.2416     8.1931     8.2812   -21.1971    90.6369   -57.5491     9.6500   -65.7371    -0.0301     2.4879     0.2490
 1044.0000   -77.1463    86.6981     8.1831     8.1925     8.2834   -21.1927    91.0152   -57.1772     9.6504   -55.7769    -0.0316     2.4895     0.2466
 1044.5000   -78.5753    85.5170     8.1742     8.1920     8.2285   -20.8885    91.1683   -56.8052     9.6516   -47.3772    -0.0285     2.4925     0.2394
 1045.0000   -80.0042    84.9331     8.1235     8.1914     8.2308   -20.5843    91.3214   -56.4335     9.6528   -55.7769    -0.0208     2.4978     0.2340
 1045.5000   -81.4332    85.2514     8.0101     8.1344     8.1768   -20.1301    91.3251   -56.0617     9.6540   -45.8167     0.0016     2.5024     0.2334
 1046.0000   -82.8622    86.4921     7.9533     8.0777     8.1790   -19.9758    91.4775   -55.7769     9.6552   -55.7769    -0.0104     2.5022     0.2340
 1046.5000   -84.2912    86.1931     7.8968     8.0213     8.1248   -19.6716    91.6312   -55.7768     9.6564   -47.1116    -0.0224     2.4873     0.2376
 1047.0000   -85.7201    85.9055     7.8952     7.9654     8.1270   -19.5172    91.7843   -55.7767     9.6575   -45.8167    -0.0224     2.4836     0.2484
 1047.5000   -87.1491    86.5289     7.8936     7.9099     8.0175   -19.5127    91.9373   -55.7769     9.6587   -55.7769    -0.0193     2.4851     0.2577
 1048.0000   -88.5781    87.4487     7.8372     7.8005     7.9644   -19.9583    92.4410   -55.7769     9.6599   -43.5923    -0.0132     2.4867     0.2688
 1048.5000   -90.0071    86.8647     7.8359     7.7462     7.9666   -20.2527    92.7404   -55.7769     9.6611   -35.8566    -0.0102     2.4869     0.2722
 1049.0000   -91.4360    86.5771     7.8218     7.6922     7.9138   -20.5492    92.9647   -55.7769     9.6623   -55.7769    -0.0313     2.4784     0.2609
 1049.5000   -92.8650    87.5013     7.7784     7.6917     7.8614   -20.6948    92.9640   -55.7769     9.6635   -55.7769    -0.0403     2.4762     0.2535
 1050.0000   -94.2940    88.7218     7.7232     7.6381     7.7555   -20.9891    92.8132   -55.7769     9.6647   -65.7371    -0.0418     2.4770     0.2450
 1050.5000   -95.0000    88.7393     7.7217     7.6316     7.7041   -21.1358    92.8224   -55.7769     9.6658   -65.7371    -0.0406     2.4853     0.2479
 1051.0000   -95.0000    87.5583     7.7201     7.6146     7.6922   -21.1303    93.1116   -55.7769     9.6670   -65.7371    -0.0371     2.4861     0.2667
 1051.5000   -95.0000    87.5758     7.7186     7.5975     7.5897   -21.2759    93.4110   -55.7769     9.6682   -65.7371    -0.0265     2.4861     0.2724
 1052.0000   -95.0000    87.7683     7.7170     7.5804     7.4982   -21.2714    93.6353   -55.7769     9.6694   -65.7371    -0.0129     2.4816     0.2676
 1052.5000   -95.0000    88.7985     7.7150     7.5634     7.4480   -21.2660    93.6346   -55.7769     9.6706   -65.7371    -0.0161     2.4786     0.2646
 1053.0000   -95.0000    88.8131     7.7135     7.5463     7.3476   -21.2616    93.4838   -55.7769     9.6718   -65.7371    -0.0188     2.4816     0.2634
 1053.5000   -95.0000    87.3240     7.5942     7.5292     7.3490   -21.2572    93.4831   -55.7769     9.6729   -65.7371    -0.0188     2.4861     0.2616
 1054.0000   -95.0000    86.4361     7.3970     7.5122     7.3506   -21.4039    93.6374   -55.6836     9.6741   -65.7371    -0.0142     2.4914     0.2628
 1054.5000   -95.0000    87.0828     7.3954     7.4951     7.3520   -21.5494    94.0818   -55.1098     9.6753   -65.7371    -0.0096     2.4967     0.2658
 1055.0000   -95.0000    88.8722     7.3936     7.4448     7.3028   -21.5439    94.2311   -54.5361     9.6765   -65.7371     0.0025     2.5043     0.2673
 1055.5000   -95.0000    87.9876     7.3921     7.4467     7.3047   -21.3896    94.1552   -53.9624     9.6777   -65.7371     0.0211     2.5111     0.2658
 1056.0000   -95.0000    86.4984     7.3907     7.4482     7.3061   -21.3852    93.9294   -53.3887     9.6789   -65.7371     0.0297     2.5119     0.2628
 1056.5000   -95.0000    86.2086     7.4409     7.3983     7.1083   -21.2293    93.7786   -52.8150     9.6800   -65.7371    -0.0184     2.5119     0.2613
 1057.0000   -95.0000    87.7307     7.3367     7.1976     6.9157   -21.1053    93.7029   -52.2413     9.6812   -65.7371    -0.0214     2.5134     0.2610
 1057.5000   -95.0000    90.7528     7.2344     6.8584     6.6821   -20.9668    93.7772   -51.6676     9.6824   -55.7769    -0.0198     2.5134     0.2617
 1058.0000   -95.0000    93.7749     6.8884     6.6548     6.4563   -20.6655    94.1715   -51.0939     9.6836   -63.2470    -0.0047     2.5150     0.2523
 1058.5000   -95.0000    94.9925     6.5047     6.4914     6.1952   -20.5142    94.8258   -50.5202     9.6848   -55.7769    -0.0001     2.5067     0.2491
 1059.0000   -95.0000    94.6469     6.2519     6.4034     6.0274   -20.5127    95.2002   -49.9465     9.6860   -45.8167    -0.0216     2.5067     0.2479
 1059.5000   -95.0000    87.8074     6.1647     6.2731     5.9048   -20.3613    95.2747   -49.3728     9.6871   -35.8566    -0.0361     2.5075     0.2554
 1060.0000   -95.0000    80.9047     6.2063     6.1456     5.9473   -20.1899    94.8987   -48.7991     9.6883   -42.0817    -0.0240     2.5128     0.2599
 1060.5000   -95.0000    80.0134     6.3352     6.1469     6.0313   -19.9083    94.5228   -48.2254     9.6895   -54.5319     0.0001     2.5165     0.2611
 1061.0000   -95.0000    83.9414     6.4222     6.1481     6.2448   -19.6070    94.6722   -47.6517     9.6901   -55.7769     0.0002     2.5188     0.2593
 1061.5000   -95.0000    86.0613     6.5556     6.2784     6.3770   -19.3057    97.3520   -47.0780     9.6791   -55.7769     0.0183     2.5234     0.2581
 1062.0000   -95.0000    87.5797     6.7401     6.4115     6.5571   -19.1543   101.8723   -46.5043     9.6610   -55.7307     0.0490     2.5378     0.2569
 1062.5000   -95.0000    88.4965     6.8861     6.6388     6.7892   -18.8530   102.9969   -45.9306     9.6427   -55.7574     0.0545     2.5486     0.2557
 1063.0000   -95.0000    88.8120     7.0694     6.8266     6.9329   -19.4512   103.3714   -45.3569     9.6245   -65.8471     0.0336     2.5483     0.2539
 1063.5000   -95.0000    88.1805     7.1665     7.0198     7.0796   -20.4992   101.7201   -44.7832     9.6062   -75.6972     0.0125     2.5378     0.2526
 1064.0000   -95.0000    87.3410     7.2152     7.1231     7.1342   -21.1156    99.9939   -44.2094     9.5879   -55.7769     0.0036     2.5076     0.2503
 1064.5000   -95.0000    86.7541     7.3139     7.2704     7.2815   -21.5455    98.9000   -43.6357     9.5705   -55.7769     0.0413     2.5016     0.2671
 1065.0000   -95.0000    87.3702     7.3633     7.4245     7.3335   -21.6939    96.7666   -43.0620     9.5698   -65.7371     0.0761     2.5031     0.2708
 1065.5000   -95.0000    87.9864     7.4129     7.5296     7.3858   -21.6925    94.4403   -42.4883     9.5672   -68.9385     0.1302     2.5020     0.2669
 1066.0000   -95.0000    88.9032     7.4628     7.5835     7.4386   -21.6910    92.6391   -41.9146     9.5644   -72.4957     0.1934     2.4873     0.2659
