~VERSION INFORMATION
 VERS.                2.0:   CWLS LOG ASCII STANDARD - VERSION 2.0
 WRAP.                 NO:   ONE LINE PER DEPTH STEP
~WELL INFORMATION
#MNEM.UNIT      DATA TYPE    INFORMATION
#----------   ------------   ------------------------------
 STRT.F          200.0000:   START DEPTH
 STOP.F         3098.0000:   STOP DEPTH
 STEP.F            0.5000:   STEP LENGTH
 NULL.          -999.2500:   NO VALUE
 COMP.    FENIX & SCISSON:   COMPANY
 WELL.   FENIX "AX" #74-3:   WELL
 FLD .              N P R:   FIELD
 LOC .       S3 T38N R78W:   LOCATION
 CNTY.            NATRONA:   COUNTY
 STAT.            WYOMING:   STATE
 CTRY. UNITED STATES OF AMERICA:   COUNTRY
 SRVC.              WELEX:   SERVICE COMPANY
 DATE.        17-AUG-1977:   LOGDATE
 API .     49025104120000:   API NUMBER
~CURVE INFORMATION
#MNEM.UNIT       API CODE    CURVE DESCRIPTION
#----------   ------------   ------------------------------
 DEPT.F                  :   
 CALD.IN     45 280 60 00:   CALIPER FROM DENSITY LOG
 SPR .MV     07 010 01 00:   SPONTANEOUS POTENTIAL
 NPHI.DEC    42 890 00 00:   NEUTRON POROSITY
 GRD .GAPI   45 310 01 00:   GAMMA RAY FROM DENSITY LOG
 CORR.G/C3   45 356 01 00:   DENSITY CORRECTION
 RHOB.G/C3   45 350 01 00:   BULK DENSITY
 SGRD.OHMM   07 220 05 00:   SHALLOW SHORT GUARD RESISTIVITY
 ILD .OHMM   07 120 46 00:   DEEP INDUCTION RESISTIVITY
 ILM .OHMM   07 120 44 00:   INDUCTION LOG MEDIUM RESISTIVITY
~PARAMETER INFORMATION
#MNEM.UNIT          VALUE    DESCRIPTION
#----------   ------------   ------------------------------
 EKB .F         5141.0000:   Kelly bushing
 EGL .F         5131.0000:   Ground level
 EDF .F            0.0000:   Drilling floor
 TD  .F         3100.0000:   Total depth
 DATE.        17-AUG-1977:   Date logged
 CLNT.            A2DTECH:   Client Code
 SL  . 2272' FNL & 1060' FEL:   Surface Location
 PD  .                 GL:   Permanent Datum
 EPD .F              5131:   Elevation Permanent Datum
 LMF .                 KB:   Log Measured From
 DMF .                 KB:   Drilling Measured From
 DD  .F              3100:   Depth driller
 DL  .F              3100:   Depth logger
 BLI .F              3098:   Bottom log interval
 TLI .F               200:   Top log interval
 CS1 .IN            8.625:   Casing size
 CBD1.      8.625" @ 215':   Casing driller 1
 CBL1.F               218:   Casing logger 1
 BS1 .IN            7.875:   Bit size
 DFT .            KCL MUD:   Type fluid in hole
 DFD .                8.8:   Density
 DFV .                 33:   Viscosity
 DFPH.                9.5:   pH
 DFL .               10.6:   Fluid loss
 MSS .           FLOWLINE:   Source of sample
 RMS .OHMM            .67:   Rm
 MST .F                98:   Rm Meas. temp.
 RMF .OHMM            .64:   Rmf
 MFST.F                98:   Rmf Meas. temp.
 RMC .OHMM            .31:   Rmc
 MCST.F                98:   Rmc Meas. temp.
 MFSS.           MEASURED:   Source Rmf.
 RMB .OHMM            .57:   Rm. at BHT
 BHT .F               115:   BHT.
 TCS .HRS               3:   Time Circ. stopped
 MRT .F               115:   Maximum recorded temp.
 LUN .               8611:   Logging unit number
 LUL .             CASPER:   Logging unit location
 ENGI.            C. DOAK:   Recorded By
 WITN.     MR. PETTINGILL:   Witnessed by
 ORIG.           5" PRINT:   Origin of data
 UWI .     49025104120000:   Unique Well ID
 DICO. A2D TECHNOLOGIES, INC.:   Digitizing Company
 BSD1.               3100:   Depth drilled with bit1
~OTHER INFORMATION
~A   DEPT       CALD      SPR       NPHI          GRD      CORR        RHOB     SGRD        ILD        ILM   
# ...
 1733.0000    11.0740   -65.8650     0.3580   116.6540     0.0920     2.2350     4.8440     4.0790     4.4240
 1733.5000    11.3560   -65.7660     0.3590   116.4740     0.0950     2.2080     5.5490     4.4800     4.6980
 1734.0000    11.0630   -65.6690     0.3600   117.2160     0.0970     2.1940     6.2540     4.8810     4.9720
 1734.5000    10.3320   -65.6280     0.3610   117.9910     0.0850     2.1850     6.9590     5.2300     5.2460
 1735.0000    10.1970   -65.7220     0.3610   117.4970     0.0830     2.1980     7.3390     5.1350     5.5260
 1735.5000    10.0850   -65.8140     0.3600   116.0330     0.0850     2.2100     7.3390     5.0640     5.5260
 1736.0000     9.8630   -65.9070     0.3590   114.5580     0.0900     2.2300     7.2310     5.0420     5.4890
 1736.5000     9.7850   -65.9930     0.3590   113.3340     0.0990     2.2650     7.1400     5.1470     5.5510
 1737.0000     9.8650   -66.0140     0.3580   114.4530     0.1060     2.2900     7.0750     5.1840     5.6130
 1737.5000     9.9710   -66.0360     0.3580   115.5420     0.1060     2.3100     7.1540     5.2210     5.6800
 1738.0000     9.8860   -66.0590     0.3620   116.1610     0.1040     2.3260     7.2060     5.2590     5.6800
 1738.5000     9.8820   -66.0820     0.3650   114.9990     0.0940     2.3240     6.8560     5.2780     5.6840
 1739.0000    10.1440   -66.1040     0.3690   114.1740     0.0840     2.3230     6.5720     5.2720     5.6890
 1739.5000    10.4170   -66.1270     0.3730   115.5550     0.0740     2.3460     6.2810     5.2670     5.6940
 1740.0000    10.6950   -66.1500     0.3770   116.9200     0.0660     2.3680     6.1320     5.2620     5.6990
 1740.5000    10.9210   -66.1730     0.3780   118.2950     0.0640     2.3720     6.1110     5.2580     5.7030
 1741.0000    10.9790   -66.1950     0.3780   118.6760     0.0620     2.3780     6.1110     5.2530     5.7080
 1741.5000    10.9890   -66.2180     0.3740   118.3710     0.0600     2.3930     6.1110     5.2480     5.7130
 1742.0000    10.9460   -66.2410     0.3700   118.0570     0.0660     2.4150     6.3960     5.2440     5.7170
 1742.5000    10.1220   -66.2640     0.3650   118.1710     0.0730     2.4280     6.6940     5.2390     5.7220
 1743.0000    10.2130   -66.2860     0.3610   118.7390     0.0800     2.4150     6.9930     5.2340     5.7270
 1743.5000    10.2970   -66.3090     0.3570   119.3110     0.0880     2.3950     7.1400     5.2300     5.7320
 1744.0000    10.2640   -66.3320     0.3590   119.9060     0.1020     2.3780     6.9380     5.4760     5.8060
 1744.5000    10.1170   -66.3550     0.3610   118.1500     0.1160     2.3360     6.8210     5.6950     5.9430
 1745.0000    10.2040   -66.3770     0.3620   115.9100     0.1190     2.2910     6.8210     5.9140     6.0790
 1745.5000    10.3270   -66.4000     0.3640   114.5170     0.1220     2.2540     6.9290     6.1110     6.2150
 1746.0000    10.4480   -66.4230     0.3660   116.6730     0.1260     2.2380     7.0900     6.1110     6.3510
 1746.5000    10.3970   -66.4450     0.3700   119.1840     0.1240     2.2470     7.2510     6.0950     6.4870
 1747.0000    10.4880   -66.4680     0.3730   121.6910     0.1220     2.2580     7.4070     6.0750     6.6230
 1747.5000    10.6150   -66.4910     0.3760   124.2220     0.1200     2.2720     7.5430     6.0550     6.6970
 1748.0000    10.7260   -66.5140     0.3790   124.9820     0.1180     2.3370     7.1740     6.0000     6.6730
 1748.5000    10.6910   -66.5360     0.3760   122.8070     0.1140     2.3420     6.9360     5.9460     6.5940
 1749.0000    10.7300   -66.5590     0.3730   121.8050     0.1010     2.3310     6.8840     5.8910     6.5160
 1749.5000    10.8880   -66.5820     0.3690   122.3100     0.0880     2.3220     6.8660     5.6960     6.4370
 1750.0000    11.0310   -66.6050     0.3660   122.6070     0.0750     2.3420     6.8440     5.5510     6.3590
 1750.5000    10.8990   -66.6270     0.3640   121.7080     0.0620     2.3660     6.8210     5.4050     6.2810
 1751.0000    10.7380   -66.6500     0.3630   119.9610     0.0520     2.3900     6.8210     5.2300     6.2020
 1751.5000    10.7480   -66.6730     0.3620   118.1950     0.0480     2.4030     6.8210     5.3710     6.1240
 1752.0000    10.8090   -66.6960     0.3580   117.9190     0.0470     2.4180     6.8210     5.5480     6.1110
 1752.5000    10.7250   -66.7180     0.3530   119.3010     0.0470     2.4450     6.8340     5.7250     6.1820
 1753.0000    10.6700   -66.7410     0.3480   121.3520     0.0480     2.4700     6.8740     5.9020     6.3100
 1753.5000    10.6260   -66.7610     0.3460   123.3670     0.0490     2.4830     7.2910     6.0790     6.3970
 1754.0000    10.4420   -66.8350     0.3450   124.6660     0.0500     2.4960     7.8170     6.2810     6.4560
 1754.5000    10.2970   -66.9230     0.3420   124.5620     0.0480     2.5080     8.3440     6.2240     6.4710
 1755.0000    10.1750   -67.0110     0.3380   122.9620     0.0440     2.5130     8.4970     6.1670     6.4930
 1755.5000     9.9240   -67.0990     0.3340   123.0160     0.0410     2.5190     8.4190     6.1670     6.5160
 1756.0000     9.6230   -67.1870     0.3300   123.9750     0.0420     2.5240     8.1940     6.1670     6.5380
 1756.5000     9.2280   -67.2750     0.3260   125.0070     0.0460     2.5300     8.0070     6.1670     6.5600
 1757.0000     9.2810   -67.3630     0.3220   125.3560     0.0500     2.5350     7.8200     6.1670     6.5830
 1757.5000     9.3410   -67.4520     0.3180   124.3920     0.0510     2.5260     7.6330     6.1770     6.6050
 1758.0000     9.3990   -67.5360     0.3150   123.0420     0.0470     2.5130     7.4460     6.1910     6.6270
 1758.5000     9.4560   -67.5250     0.3130   121.6840     0.0440     2.5040     7.2890     6.2040     6.6360
 1759.0000     9.5140   -67.4540     0.3150   120.3330     0.0410     2.4950     7.1400     6.2240     6.5750
 1759.5000     9.5740   -67.3850     0.3180   118.9760     0.0390     2.4860     7.2720     6.0730     6.3030
 1760.0000     9.5970   -67.3170     0.3210   118.3410     0.0430     2.4770     7.0770     5.7770     6.0520
 1760.5000     9.6010   -67.2480     0.3250   118.1320     0.0480     2.4680     6.9300     5.4820     5.8010
 1761.0000     9.6040   -67.1800     0.3280   117.7560     0.0520     2.4590     6.7830     5.1360     5.5510
 1761.5000     9.6070   -67.1110     0.3310   116.8370     0.0570     2.4510     6.6360     4.7610     5.3270
 1762.0000     9.6110   -67.0420     0.3340   115.9340     0.0600     2.4420     6.4880     4.3870     4.9680
 1762.5000     9.6140   -66.9740     0.3440   114.9950     0.0560     2.4260     6.3390     4.0120     4.5770
 1763.0000     9.5920   -66.9050     0.3550   115.9140     0.0530     2.3870     5.6320     3.3400     4.1850
 1763.5000     9.5250   -66.8360     0.3650   117.8290     0.0490     2.3500     3.9540     2.5500     3.8310
 1764.0000     9.4590   -66.7670     0.3700   119.7740     0.0460     2.3120     2.3800     2.3160     3.7620
 1764.5000     9.3920   -66.7630     0.3750   121.7380     0.0420     2.2740     3.4710     2.5830     3.9420
 1765.0000     9.3270   -66.7630     0.3770   121.4330     0.0390     2.2550     4.6380     3.2640     4.1370
 1765.5000     9.3790   -66.7640     0.3790   120.9670     0.0380     2.2780     5.8050     3.9020     4.3330
 1766.0000     9.4390   -66.7640     0.3780   120.5280     0.0560     2.3470     7.0750     4.1910     4.5280
 1766.5000     9.4960   -66.7640     0.3710   121.0360     0.1050     2.4610     7.1240     4.4630     4.7240
 1767.0000     9.4480   -66.7640     0.3620   122.6880     0.1050     2.4560     7.1790     4.7350     4.9200
 1767.5000     9.3070   -66.7640     0.3510   124.3290     0.1040     2.4460     7.2330     4.9960     5.1150
 1768.0000     9.2390   -66.7640     0.3410   125.9690     0.0990     2.4260     7.2870     5.1400     5.3060
 1768.5000     9.2880   -66.7640     0.3380   126.9240     0.0820     2.4070     7.3410     5.2880     5.4940
 1769.0000     9.3820   -66.7640     0.3390   126.3440     0.0690     2.4080     7.3950     5.4390     5.6820
