~VERSION INFORMATION
 VERS.                2.0:   CWLS LOG ASCII STANDARD - VERSION 2.0
 WRAP.                 NO:   ONE LINE PER DEPTH STEP
~WELL INFORMATION
#MNEM.UNIT      DATA TYPE    INFORMATION
#----------   ------------   ------------------------------
 STRT.F          388.0000:   START DEPTH
 STOP.F         3166.0000:   STOP DEPTH
 STEP.F            0.5000:   STEP LENGTH
 NULL.          -999.2500:   NO VALUE
 COMP.    PENIX & SCISSON:   COMPANY
 WELL. PENIX NPR 3 "AX" #34-28:   WELL
 FLD .                NPR:   FIELD
 LOC .      S28 T39N R78W:   LOCATION
 CNTY.            NATRONA:   COUNTY
 STAT.            WYOMING:   STATE
 CTRY. UNITED STATES OF AMERICA:   COUNTRY
 SRVC.              WELEX:   SERVICE COMPANY
 DATE.        15-DEC-1978:   LOGDATE
 API .     49025107950000:   API NUMBER
~CURVE INFORMATION
#MNEM.UNIT       API CODE    CURVE DESCRIPTION
#----------   ------------   ------------------------------
 DEPT.F                  :   
 CALD.IN     45 280 60 00:   CALIPER FROM DENSITY LOG
 GRD .GAPI   45 310 01 00:   GAMMA RAY FROM DENSITY LOG
 RHOB.G/C3   45 350 01 00:   BULK DENSITY
 CORR.G/C3   45 356 01 00:   DENSITY CORRECTION
 NPHI.DEC    42 890 03 00:   NEUTRON POROSITY SANDSTONE
 SPR .MV     07 010 01 00:   SPONTANEOUS POTENTIAL
 SGRD.OHMM   07 220 05 00:   SHALLOW GUARD
 ILD .OHMM   07 120 46 00:   DEEP INDUCTION RESISTIVITY
 ILM .OHMM   07 120 44 00:   INDUCTION LOG MEDIUM RESISTIVITY
 TENR.LBS    07 635 01 00:   TENSION FROM RESISTIVITY
~PARAMETER INFORMATION
#MNEM.UNIT          VALUE    DESCRIPTION
#----------   ------------   ------------------------------
 EKB .F         5039.0000:   Kelly bushing
 EGL .F         5029.0000:   Ground level
 EDF .F            0.0000:   Drilling floor
 TD  .F         3159.0000:   Total depth
 DATE.        15-DEC-1978:   Date logged
 CLNT.            A2DTECH:   Client Code
 SL  . 2434' FNL & 1651' FWL:   Surface Location
 PD  .                 GL:   Permanent Datum
 EPD .F              5029:   Elevation Permanent Datum
 LMF .                 KB:   Log Measured From
 DMF .                 KB:   Drilling Measured From
 DAPD.F                10:   Feet Above Permanent Datum
 DD  .F              3155:   Depth driller
 DL  .F              3159:   Depth logger
 BLI .F              3157:   Bottom log interval
 TLI .F               350:   Top log interval
 CS1 .IN            8.625:   Casing size
 CBD1.      8.625" @ 383':   Casing driller 1
 CBL1.F               398:   Casing logger 1
 BS1 .IN            7.875:   Bit size
 BSD1.F              3155:   Depth drilled with bit1
 DFT .           CHEM/GEL:   Type fluid in hole
 DFD .                8.5:   Density
 DFV .                 55:   Viscosity
 DFPH.                 10:   pH
 DFL .               10.8:   Fluid loss
 MSS .           FLOWLINE:   Source of sample
 RMS .OHMM           1.65:   Rm
 MST .F                65:   Rm Meas. temp.
 RMF .OHMM           1.32:   Rmf
 MFST.F                65:   Rmf Meas. temp.
 RMC .OHMM           1.98:   Rmc
 MCST.F                65:   Rmc Meas. temp.
 MFSS.               CALC:   Source Rmf.
 RMB .OHMM              1:   Rm. at BHT
 BHT .F               107:   BHT.
 TCS .HRS               8:   Time Circ. stopped
 MRT .F               107:   Maximum recorded temp.
 LUN .               1892:   Logging unit number
 LUL .             CASPER:   Logging unit location
 ENGI.               REIN:   Recorded By
 WITN.              AMEND:   Witnessed by
 ORIG.           5" PRINT:   Origin of data
 UWI .     49025107950000:   Unique Well ID
 DICO. A2D TECHNOLOGIES, INC.:   Digitizing Company
~OTHER INFORMATION
~A   DEPT     CALD         GRD      RHOB       CORR       NPHI        SPR       SGRD        ILD        ILM       TENR   
# ...
 1661.0000     8.3486   131.0384     2.5511     0.0288     0.2540    -6.7431     9.0696     6.1184     7.0286  1422.8975
 1661.5000     8.3483   134.2499     2.5420     0.0227     0.2548    -6.7480     9.1534     6.1178     7.0279  1421.8982
 1662.0000     8.3481   140.2770     2.5339     0.0267     0.2593    -6.7529     8.9825     6.1169     7.0269  1420.8990
 1662.5000     8.3479   139.0636     2.5258     0.0247     0.2593    -6.9588     8.8980     6.2308     7.1545  1419.8997
 1663.0000     8.3476   139.8614     2.5097     0.0186     0.2593    -6.9637     8.5718     6.2296     7.1532  1418.9005
 1663.5000     8.3473   142.2667     2.5107     0.0226     0.2589    -6.9686     8.4912     6.2288     7.1524  1417.9012
 1664.0000     8.3672   135.0216     2.5157     0.0408     0.2613    -6.7725     7.9550     6.2277     6.9641  1416.9020
 1664.5000     8.3670   131.3952     2.5207     0.0489     0.2649    -6.3755     7.8799     6.2269     6.8987  1415.9028
 1665.0000     8.3668   126.9633     2.4955     0.0428     0.2673    -6.1805     7.8062     6.2263     6.7705  1414.9036
 1665.5000     8.3464   126.9620     2.4531     0.0347     0.2677    -6.5873     7.3816     6.1098     6.5218  1413.9043
 1666.0000     8.3661   126.9530     2.4057     0.0286     0.2694    -5.9893     6.9798     5.7234     6.2824  1412.9052
 1666.5000     8.3459   121.7171     2.3755     0.0306     0.2714    -5.5923     6.7867     5.3113     6.1221  1411.9059
 1667.0000     8.3657   120.9052     2.3472     0.0468     0.2718    -5.1953     6.0696     4.9293     5.6919  1410.9066
 1667.5000     8.3654   120.4968     2.3300     0.0528     0.2738    -4.7984     5.6337     4.5320     5.2437  1409.9073
 1668.0000     8.4255   119.6862     2.2711     0.0548     0.2710    -5.0042     5.0382     4.0899     4.7439  1408.9082
 1668.5000     8.4255   119.2778     2.2122     0.0629     0.2682    -4.8082     4.3412     3.7957     4.4105  1407.9089
 1669.0000     8.4854   116.8563     2.1596     0.0629     0.2682    -4.6112     4.1052     3.3937     3.9540  1406.9097
 1669.5000     8.5253   116.0496     2.1313     0.0588     0.2682    -4.6142     4.2596     3.1494     3.8659  1405.9105
 1670.0000     8.6457   128.1017     2.1646     0.0466     0.2682    -5.0032     4.5881     3.1197     3.6890  1404.9113
 1670.5000     8.5853   128.0978     2.5135     0.0343     0.2613    -5.3922     5.6285     3.0618     3.7233  1403.9120
 1671.0000     8.4830   125.6788     2.5488     0.0222     0.2609    -5.7813     6.8407     3.0612     4.2810  1423.1892
 1671.5000     8.3808   126.0746     2.5689     0.0303     0.2597    -6.2443     7.6466     3.0895     4.4847  1423.5841
 1672.0000     8.3431   125.2640     2.5548     0.0201     0.2597    -6.2492     8.1594     3.2667     5.1080  1423.9789
 1672.5000     8.3631   124.8556     2.5608     0.0201     0.2597    -6.2531     8.3112     3.7909     5.3014  1424.3737
 1673.0000     8.3895   126.4574     2.5588     0.0140     0.2597    -6.4570     8.3880     4.1218     6.0950  1424.7686
 1673.5000     8.4159   129.6662     2.5547     0.0120     0.2605    -6.6658     8.5438     4.4401     6.2673  1445.3925
 1674.0000     8.4226   130.4639     2.5497     0.0079     0.2589    -7.0725     8.7028     4.7827     6.5651  1445.7872
 1674.5000     8.4421   129.6533     2.5436     0.0058     0.2581    -7.0774     8.7827     5.6024     6.8131  1446.1819
 1675.0000     8.4019   126.8326     2.5446     0.0099     0.2548    -7.4842     9.0291     5.7608     6.8760  1446.5767
 1675.5000     8.4019   128.0323     2.5466     0.0200     0.2536    -7.4891     9.1122     6.3218     7.0700  1446.9712
 1676.0000     8.3814   128.0259     2.5547     0.0321     0.2492    -7.4939     9.1108     6.3804     7.4052  1447.3658
 1676.5000     8.3990   129.6275     2.5637     0.0402     0.2484    -7.9016     9.1091     6.7459     7.4738  1447.7606
 1677.0000     8.4011   128.8171     2.5536     0.0422     0.2476    -7.9065     9.1933     6.8719     7.6127  1448.1553
 1677.5000     8.4007   128.0053     2.5577     0.0442     0.2484    -8.3133     9.1915     7.0651     7.6118  1428.3218
 1678.0000     8.4005   131.6168     2.5607     0.0442     0.2492    -7.9163     9.1907     7.0642     7.6103  1408.4885
 1678.5000     8.3802   133.2182     2.5637     0.0381     0.2488    -7.9212     9.2744     7.0631     7.6803  1429.1115
 1679.0000     8.3799   135.2215     2.5627     0.0320     0.2476    -7.9261     9.3593     6.9965     7.7510  1409.2783
 1679.5000     8.3796   137.2248     2.5546     0.0238     0.2456    -7.9310     9.6224     6.9302     7.8226  1429.9010
 1680.0000     8.3995   137.6188     2.5414     0.0055     0.2464    -7.7350     9.6209     6.9295     7.9366  1430.2957
 1680.5000     8.3994   132.7888     2.5384     0.0035     0.2456    -7.5390     9.7083     6.9284     7.9354  1450.9181
 1681.0000     8.3850   132.7823     2.5344    -0.0026     0.2448    -7.5439     9.7074     6.9269     7.9337  1431.0853
 1681.5000     8.3707   137.5990     2.5253    -0.0087     0.2432    -7.5488     9.6164     6.9260     7.9327  1431.4801
 1682.0000     8.3382   140.0039     2.5253    -0.0047     0.2436    -7.5537     9.6148     6.9254     7.9320  1452.1021
 1682.5000     8.3380   138.3896     2.5333    -0.0047     0.2452    -7.3577     9.6136     6.9239     7.9303  1452.4968
 1683.0000     8.3377   134.3639     2.5444    -0.0007     0.2468    -7.7643     9.5232     6.9230     7.9293  1452.8914
 1683.5000     8.3374   126.3181     2.5565     0.0074     0.2484    -7.9701     9.6103     6.9215     7.9276  1493.7400
 1684.0000     8.3774   128.3225     2.5696     0.0277     0.2484    -8.1759     9.8805     6.9208     7.9269  1433.5328
 1684.5000     8.3771   130.3254     2.5736     0.0378     0.2492    -8.1808     9.6073     6.9193     7.9252  1454.1543
 1685.0000     8.3768   132.7289     2.5857     0.0499     0.2512    -8.1857     9.6057     6.9189     7.9247  1454.5490
 1685.5000     8.3767   133.5306     2.5917     0.0540     0.2512    -8.3914     9.5154     6.9819     7.9952  1454.9434
 1686.0000     8.3764   126.2862     2.5917     0.0499     0.2516    -8.3963     9.4258     6.9810     7.9942  1455.3380
 1686.5000     8.3761   127.4854     2.5816     0.0478     0.2464    -8.6021     9.0804     6.9799     7.9930  1455.7327
 1687.0000     8.3358   131.8992     2.5725     0.0316     0.2448    -8.8078     9.0790     6.9786     7.9915  1456.1273
 1687.5000     8.3354   133.9019     2.5533     0.0133     0.2423    -8.8157     9.0776     6.9779     7.9908  1436.2958
 1688.0000     8.3553   137.5104     2.5452     0.0011     0.2399    -8.4477     9.1606     6.9766     7.9893  1456.9165
 1688.5000     8.3350   136.7002     2.5432     0.0051     0.2415    -8.0210     9.0744     6.9111     7.9160  1457.3112
 1689.0000     8.3548   137.4972     2.5381     0.0051     0.2472    -8.2258     9.2432     6.9096     7.9143  1417.2542
 1689.5000     8.3345   137.4906     2.5250     0.0010     0.2492    -8.4315     9.5918     6.9087     7.9134  1397.4232
 1690.0000     8.3342   138.6894     2.5099    -0.0051     0.2532    -8.8381     9.2403     6.9076     7.9122  1397.8181
 1690.5000     8.3340   140.6917     2.5058    -0.0051     0.2589    -8.8430     9.5888     6.9068     7.9112  1438.6639
 1691.0000     8.3538   141.4886     2.5209    -0.0011     0.2649    -9.4504     9.4986     6.9059     7.9102  1439.0587
 1691.5000     8.3739   139.4730     2.5290     0.0050     0.2665    -9.6542     8.8989     6.9683     7.5774  1459.6787
 1692.0000     8.4136   130.6251     2.5260     0.0252     0.2665    -9.6610     8.5728     6.9026     7.5069  1460.0732
 1692.5000     8.3732   136.2444     2.5249     0.0354     0.2669    -9.6659     8.2586     6.9020     7.2989  1440.2427
 1693.0000     8.3847   139.0500     2.5229     0.0414     0.2653    -9.4680     8.2573     6.9011     7.2303  1420.4124
 1693.5000     8.3927   143.0581     2.5188     0.0515     0.2645    -9.0721     8.2560     6.9000     7.0296  1461.2570
 1694.0000     8.4126   143.0540     2.5087     0.0576     0.2633    -8.6763     8.1784     6.8990     6.8988  1461.6516
