~VERSION INFORMATION
 VERS.                2.0:   CWLS LOG ASCII STANDARD - VERSION 2.0
 WRAP.                 NO:   ONE LINE PER DEPTH STEP
~WELL INFORMATION
#MNEM.UNIT      DATA TYPE    INFORMATION
#----------   ------------   ------------------------------
 STRT.F           63.5000:   START DEPTH
 STOP.F         4112.0000:   STOP DEPTH
 STEP.F            0.5000:   STEP LENGTH
 NULL.          -999.2500:   NO VALUE
 COMP. LAWRENCE-ALLISON & ASSOC:   COMPANY
 WELL. LAWRENCE "X" #34-34:   WELL
 FLD .           N.P.R.#3:   FIELD
 LOC .      S34 T39N R78W:   LOCATION
 CNTY.            NATRONA:   COUNTY
 STAT.            WYOMING:   STATE
 CTRY. UNITED STATES OF AMERICA:   COUNTRY
 SRVC.      DRESSER ATLAS:   SERVICE COMPANY
 DATE.        19-OCT-1983:   LOGDATE
 API .     49025109440000:   API NUMBER
~CURVE INFORMATION
#MNEM.UNIT       API CODE    CURVE DESCRIPTION
#----------   ------------   ------------------------------
 DEPT.F                  :   
 AC  .US/F   60 250 00 00:   ACCOUSTIC
 TENS.LBS    60 635 01 00:   TENSION FROM SONIC
 ILD .OHMM   07 120 46 00:   DEEP INDUCTION RESISTIVITY
 ILM .OHMM   07 120 44 00:   INDUCTION LOG MEDIUM RESISTIVITY
 RFOC.OHMM   07 220 04 00:   RESISTIVITY FOCUSED LOG RES.
 TENR.LBS    07 635 01 00:   TENSION FROM RESISTIVITY
 SPR .MV     07 010 01 00:   SPONTANEOUS POTENTIAL
 GRR .GAPI   07 310 01 00:   GAMMA RAY FROM RESISTIVITY
 CALD.IN     45 280 60 00:   CALIPER FROM DENSITY LOG
 RHOB.G/C3   45 350 01 00:   BULK DENSITY
 CORR.G/C3   45 356 01 00:   DENSITY CORRECTION
 TEND.LBS    45 635 01 00:   TENSION FROM DENSITY LOG
 NPHI.DEC    42 890 03 00:   NEUTRON POROSITY SANDSTONE
~PARAMETER INFORMATION
#MNEM.UNIT          VALUE    DESCRIPTION
#----------   ------------   ------------------------------
 EKB .F         5100.0000:   Kelly bushing
 EGL .F         5090.0000:   Ground level
 TD  .F         4107.0000:   Total depth
 DATE.        19-OCT-1983:   Date logged
 CLNT.            A2DTECH:   Client Code
 SL  . 1997' FNL & 1661' FWL:   Surface Location
 PD  .                 GL:   Permanent Datum
 EPD .F              5090:   Elevation Permanent Datum
 LMF .                 KB:   Log Measured From
 DMF .                 KB:   Drilling Measured From
 DAPD.F                10:   Feet Above Permanent Datum
 DD  .F              4107:   Depth driller
 DL  .F              4102:   Depth logger
 BLI .F              4100:   Bottom log interval
 CS1 .IN            9.625:   Casing size
 CBD1.      9.625" @ 695':   Casing driller 1
 CBL1.F               696:   Casing logger 1
 BS1 .IN            7.875:   Bit size
 BSD1.F              4107:   Depth drilled with bit1
 DFT .            GEL-KCL:   Type fluid in hole
 DFD .                  9:   Density
 DFV .                 43:   Viscosity
 DFPH.                  9:   pH
 DFL .                 11:   Fluid loss
 MSS .           FLOWLINE:   Source of sample
 RMS .OHMM          0.313:   Rm
 MST .F                72:   Rm Meas. temp.
 RMF .OHMM          0.265:   Rmf
 MFST.F                68:   Rmf Meas. temp.
 RMC .OHMM          0.598:   Rmc
 MCST.F                68:   Rmc Meas. temp.
 MFSS.               MEAS:   Source Rmf.
 MCSS.               MEAS:   Source Rmc.
 RMB .OHMM          0.173:   Rm. at BHT
 BHT .F               130:   BHT.
 TCS .HRS               4:   Time Circ. stopped
 MRT .F               130:   Maximum recorded temp.
 LUN .               6774:   Logging unit number
 LUL .               GLTE:   Logging unit location
 ENGI.           FAHLEING:   Recorded By
 WITN.           JENNINGS:   Witnessed by
 ORIG.           5" PRINT:   Origin of data
 UWI .     49025109440000:   Unique Well ID
 DICO. A2D TECHNOLOGIES, INC.:   Digitizing Company
~OTHER INFORMATION
~A   DEPT       AC       TENS        ILD        ILM       RFOC       TENR        SPR         GRR      CALD       RHOB       CORR       TEND       NPHI   
# ...
  687.5000  -999.2500  -999.2500     3.0950  -999.2500     0.2950   -62.5630  -999.2500    59.9950  -999.2500  -999.2500  -999.2500  -999.2500     0.2780
  688.0000  -999.2500  -999.2500     3.0510  -999.2500     0.2900   -62.5630  -999.2500    59.7390  -999.2500  -999.2500  -999.2500  -999.2500     0.2850
  688.5000  -999.2500  -999.2500     3.0070  -999.2500     0.2840   -62.5630  -999.2500    59.4750  -999.2500  -999.2500  -999.2500  -999.2500     0.2860
  689.0000  -999.2500  -999.2500     2.9630  -999.2500     0.2790   -62.5630  -999.2500    59.2380  -999.2500  -999.2500  -999.2500  -999.2500     0.2770
  689.5000  -999.2500  -999.2500     2.9190  -999.2500     0.2790   -62.5630  -999.2500    60.5400  -999.2500  -999.2500  -999.2500  -999.2500     0.2680
  690.0000  -999.2500  -999.2500     2.8750  -999.2500     0.2800   -62.5630  -999.2500    61.9990  -999.2500  -999.2500  -999.2500  -999.2500     0.2660
  690.5000  -999.2500  -999.2500     2.8450  -999.2500     0.2810   -62.5630  -999.2500    62.1090  -999.2500  -999.2500  -999.2500  -999.2500     0.2650
  691.0000  -999.2500  -999.2500     3.1230  -999.2500     0.2820   -62.5630  -999.2500    60.5110  -999.2500  -999.2500  -999.2500  -999.2500     0.2590
  691.5000  -999.2500  -999.2500     3.0770  -999.2500     0.2820   -62.5630  -999.2500    58.7280  -999.2500  -999.2500  -999.2500  -999.2500     0.2570
  692.0000  -999.2500  -999.2500     2.9900  -999.2500     0.2830   -62.5630  -999.2500    57.8410  -999.2500  -999.2500  -999.2500  -999.2500     0.2620
  692.5000  -999.2500  -999.2500     2.8980  -999.2500     0.2840   -62.5630  -999.2500    57.6220     9.7070  -999.2500  -999.2500  -999.2500     0.2660
  693.0000  -999.2500  -999.2500     3.0250  -999.2500     0.2820   -62.5630  -999.2500    58.8690     9.7070  -999.2500  -999.2500  -999.2500     0.2680
  693.5000  -999.2500  -999.2500     3.2540  -999.2500     0.2810   -62.5630  -999.2500    60.1780     9.7070  -999.2500  -999.2500  -999.2500     0.2690
  694.0000  -999.2500  -999.2500     4.4660  -999.2500     0.2800   -62.5630  -999.2500    61.2090     9.7070  -999.2500  -999.2500  -999.2500     0.2620
  694.5000  -999.2500  -999.2500    22.5300  -999.2500     0.2790   -62.5630  -999.2500    60.9920     9.7070  -999.2500  -999.2500    19.0160     0.2540
  695.0000  -999.2500  -999.2500  1813.3300  -999.2500     0.2840   -62.5630  -999.2500    61.6820     9.7080  -999.2500  -999.2500    19.6820     0.2580
  695.5000  -999.2500  -999.2500  1806.6240  -999.2500     0.2970   -62.5630  -999.2500    68.3410     9.7190  -999.2500  -999.2500    20.3490     0.2670
  696.0000  -999.2500  -999.2500  1952.8879  -999.2500     0.3140   -62.5630  -999.2500    75.9240     9.7660  -999.2500  -999.2500    21.0150     0.2860
  696.5000  -999.2500  -999.2500  2028.1920  -999.2500     0.8090   -62.5630  -999.2500    83.0650     9.8020     2.2150  -999.2500    21.5150     0.2930
  697.0000  -999.2500  -999.2500   709.4360  -999.2500     1.6960   -62.5630  -999.2500    83.0880     9.8750     2.3720  -999.2500    22.1820     0.2950
  697.5000  -999.2500  -999.2500     7.7760  -999.2500     2.5830   -62.5630  -999.2500    81.7410     9.9750     2.5500     0.0530    22.8480     0.2820
  698.0000  -999.2500  -999.2500     3.9500     2.8980     3.5880   -62.5630  -999.2500    80.1140    10.1080     2.5710     0.1730    23.5150     0.2700
  698.5000  -999.2500  -999.2500     1.9040     4.1800     4.8420   -62.5630  -999.2500    80.1040    10.2300     2.5360     0.1730    24.1810     0.2590
  699.0000  -999.2500  -999.2500     1.9040     5.5830     4.9550   -62.5630  -999.2500    80.9180    10.3640     2.5040     0.1630    24.8480     0.2580
  699.5000  -999.2500  -999.2500     2.5950     6.6350     5.0730   -62.8670  -999.2500    81.7910    10.5210     2.4920     0.1520    25.5140     0.2630
  700.0000  -999.2500  -999.2500     4.7020     8.0380     5.0850   -63.4920    -5.0490    83.3440    11.0320     2.4970     0.1220    26.1810     0.2670
  700.5000  -999.2500  -999.2500     7.4580     9.8410     5.0960   -64.1170    -8.8880    87.0620    11.5970     2.5080     0.0910    26.8470     0.2700
  701.0000  -999.2500  -999.2500     8.2420     9.7470     5.1070   -64.7420   -12.7280    90.7540    11.9380     2.5180     0.0650    27.5130     0.2710
  701.5000  -999.2500  -999.2500     7.5380     9.1770     5.1180   -65.3670   -15.4150    90.5610    12.3610     2.5280     0.0440    28.1800     0.2750
  702.0000  -999.2500  -999.2500     6.7780     7.9470     5.2170   -65.9920   -17.7330    90.1250    12.3890     2.5370     0.0420    23.7010     0.2760
  702.5000  -999.2500  -999.2500     6.4660     7.9940     5.3050   -66.6170   -19.0530    89.6770    12.3840     2.5350     0.0460     9.0820     0.2570
  703.0000  -999.2500  -999.2500     6.5990     8.5550     5.3930   -67.2430   -19.1300    88.4660    12.4010     2.5320     0.0500    -5.5360     0.2550
  703.5000  -999.2500  -999.2500     6.8230     8.0250     5.4810   -67.8680   -18.1830    85.8030    12.4170     2.5290     0.0620    -6.1300     0.2590
  704.0000  -999.2500  -999.2500     7.4310     7.3410     5.5690   -68.4930   -17.2760    84.8700    12.4330     2.5240     0.0800     4.1030     0.2730
  704.5000  -999.2500  -999.2500     8.0390     6.6570     5.6580   -69.1180   -16.3680    88.5210    12.4470     2.5180     0.0670    14.3360     0.2860
  705.0000  -999.2500  -999.2500     8.6360     6.3630     5.6740   -69.7430   -15.4690    93.1420    12.4620     2.5150     0.0400    -0.6470     0.2880
  705.5000  -999.2500  -999.2500     8.7980     5.9450     5.6740   -70.3680   -14.7470    94.8980    12.4710     2.5170     0.0430   -23.3870     0.2770
  706.0000  -999.2500  -999.2500     8.1770     5.9830     5.5180   -70.9930   -15.0190    95.4160    12.4520     2.5240     0.0520   -46.1270     0.2670
  706.5000  -999.2500  -999.2500     7.5750     6.0700     5.2660   -71.6190   -15.2670    96.1610    12.4330     2.5310     0.0610   -68.8670     0.2670
  707.0000  -999.2500  -999.2500     6.9730     6.1570     5.3750   -72.2440   -15.5120    98.0800    12.4140     2.5370     0.0590   -73.4760     0.2690
  707.5000  -999.2500  -999.2500     6.7420     6.2880     5.5400   -72.8690   -15.7570    99.9810    12.3960     2.5350     0.0570   -74.4150     0.2670
  708.0000  -999.2500  -999.2500     6.6920     6.2800     5.7050   -73.4940   -15.9840   101.5100    12.3730     2.5220     0.0550   -75.3530     0.2610
  708.5000  -999.2500  -999.2500     6.6420     6.2650     5.8700   -74.1190   -16.1230   101.4540    11.9640     2.5060     0.0560   -76.2920     0.2660
  709.0000  -999.2500  -999.2500     6.5880     6.2490     6.1140   -74.7440   -16.2660   101.5330    11.5090     2.4950     0.0560   -77.2310     0.2700
  709.5000  -999.2500  -999.2500     6.6320     6.2340     6.0340   -75.3690   -16.4090   103.4450    11.0520     2.5020     0.0570   -78.1700     0.2630
  710.0000  -999.2500  -999.2500     6.6810     6.2180     5.8810   -75.9950   -16.5520   105.3450    10.6000     2.5150     0.0610   -79.1090     0.2530
  710.5000  -999.2500  -999.2500     6.7120     6.2030     5.7280   -76.6200   -16.6950   106.5700    10.1950     2.5290     0.0670   -80.0470     0.2540
  711.0000  -999.2500  -999.2500     6.6590     6.1870     5.5690   -77.2450   -16.8380   105.1770    10.0770     2.5330     0.0720   -80.9860     0.2650
  711.5000  -999.2500  -999.2500     6.6200     6.1720     5.5690   -77.8700   -16.9800   103.4780    10.1600     2.5290     0.0730   -81.9250     0.2770
  712.0000  -999.2500  -999.2500     6.5420     6.1460     5.5690   -78.4950   -17.1190   105.1900    10.1430     2.5230     0.0580   -82.8640     0.2770
  712.5000  -999.2500  -999.2500     6.2910     6.1190     5.6840   -79.1200   -17.5560   108.5800    10.1260     2.5090     0.0400   -83.8030     0.2580
  713.0000  -999.2500  -999.2500     6.0410     5.9820     5.8000   -79.7460   -18.1140   111.9800    10.1080     2.4940     0.0230   -84.7420     0.2570
