~VERSION INFORMATION
 VERS.                2.0:   CWLS LOG ASCII STANDARD - VERSION 2.0
 WRAP.                 NO:   ONE LINE PER DEPTH STEP
~WELL INFORMATION
#MNEM.UNIT      DATA TYPE    INFORMATION
#----------   ------------   ------------------------------
 STRT.F            4.0000:   START DEPTH
 STOP.F         3266.0000:   STOP DEPTH
 STEP.F            0.5000:   STEP LENGTH
 NULL.          -999.2500:   NO VALUE
 COMP. LAWRENCE ALLISON & ASSOSCIATES:   COMPANY
 WELL. LAWRENCE "X" #27-11:   WELL
 FLD .          N.P.R. #3:   FIELD
 LOC .      S11 T38N R78W:   LOCATION
 CNTY.            NATRONA:   COUNTY
 STAT.            WYOMING:   STATE
 CTRY. UNITED STATES OF AMERICA:   COUNTRY
 SRVC.      DRESSER ATLAS:   SERVICE COMPANY
 DATE.        22-AUG-1986:   LOGDATE
 API .     49025111070000:   API NUMBER
~CURVE INFORMATION
#MNEM.UNIT       API CODE    CURVE DESCRIPTION
#----------   ------------   ------------------------------
 DEPT.F                  :   
 SPR .MV     07 010 01 00:   SPONTANEOUS POTENTIAL
 TENR.LBS    06 635 01 00:   TENSION FROM RESISTIVITY
 GRR .GAPI   07 310 01 00:   GAMMA RAY FROM RESISTIVITY
 RILD.OHMM   07 120 46 00:   DEEP INDUCTION RESISTIVITY
 RILM.OHMM   07 120 44 00:   INDUCTION LOG MEDIUM RESISTIVITY
 RFOC.OHMM   07 220 04 00:   RESISTIVITY FOCUSED LOG RES.
 NPHI.DEC    42 890 03 00:   NEUTRON POROSITY SANDSTONE
 CALD.IN     45 280 60 00:   CALIPER FROM DENSITY LOG
 RHOB.G/C3   45 350 01 00:   BULK DENSITY
 CORR.G/C3   45 356 01 00:   DENSITY CORRECTION
 TEND.LBS    45 635 01 00:   TENSION FORM DENSITY LOG
~PARAMETER INFORMATION
#MNEM.UNIT          VALUE    DESCRIPTION
#----------   ------------   ------------------------------
 EKB .F         5206.0000:   Kelly bushing
 EGL .F         5194.0000:   Ground level
 EDF .F         5205.0000:   Drilling floor
 EPD .F         5194.0000:   Permanent datum
 TD  .F         3250.0000:   Total depth
 CLNT.            A2DTECH:   Client Code
 SL  . 1197' FSL & 1088' FWL:   Surface Location
 PD  .                 GL:   Permanent Datum
 DAPD.F                12:   Feet Above Permanent Datum
 DATE.        22-AUG-1986:   Date Logged [DD-MMM-YYYY]
 DD  .F              3250:   Depth driller
 DL  .F              3246:   Depth logger
 BLI .F              3243:   Bottom log interval
 TLI .F               683:   Top log interval
 CS1 .IN            8.625:   Casing size
 CBD1.      8.625" @ 672':   Casing driller 1
 CBL1.F               673:   Casing logger 1
 BS1 .IN            7.875:   Bit size
 BSD1.F              3250:   Depth drilled with bit1
 DFT .            KCL-GEL:   Type fluid in hole
 DFD .                8.9:   Density
 DFV .                 35:   Viscosity
 MSS .               TANK:   Source of sample
 RMS .OHMM           0.31:   Rm
 MST .F                70:   Rm Meas. temp.
 RMF .OHMM           0.29:   Rmf
 MFST.F                67:   Rmf Meas. temp.
 MFSS.               CALC:   Source Rmf.
 RMC .OHMM           0.46:   Rmc
 MCST.F                70:   Rmc Meas. temp.
 MCSS.               CALC:   Source Rmc.
 RMB .OHMM           0.16:   Rm. at BHT
 BHT .F               136:   BHT.
 TCS .HRS               4:   Time Circ. stopped
 MRT .F               136:   Maximum recorded temp.
 LUN .            HL-6426:   Logging unit number
 LUL .          RK. SPGS.:   Logging unit location
 ENGI.               RALL:   Recorded By
 WITN.             STRONG:   Witnessed by
 ORIG.           5" PRINT:   Origin of data
 UWI .     49025111070000:   Unique Well ID
 DICO. A2D TECHNOLOGIES, INC.:   Digitizing Company
~OTHER INFORMATION
~A    DEPT     SPR       TENR         GRR      RILD       RILM       RFOC       NPHI       CALD       RHOB       CORR       TEND   
# ...
 3054.0000   -38.2519   -62.4286   122.8456     5.8889     6.0222     6.1651     0.2231     9.8577     2.5273    -0.0020   -67.4985
 3054.5000   -38.5569   -62.0676   118.2922     5.9322     6.0254     6.3435     0.2255     9.8574     2.5281     0.0078   -67.3535
 3055.0000   -39.0139   -55.2903   114.9546     6.0937     5.9865     6.4356     0.2264     9.8571     2.5288     0.0101   -67.2085
 3055.5000   -39.4706   -55.5637   114.0486     6.0950     5.9062     6.3926     0.2261     9.8568     2.5266     0.0108   -67.0634
 3056.0000   -39.7756   -55.7823   114.9678     6.0538     5.8680     6.3958     0.2258     9.8413     2.5198     0.0138   -66.9184
 3056.5000   -40.2323   -56.0010   118.6210     5.9298     5.7042     6.3984     0.2286     9.8258     2.5151     0.0176   -66.7674
 3057.0000   -40.8407   -56.2197   123.7941     5.6480     5.5541     6.4010     0.2358     9.7647     2.5115     0.0191   -59.0634
 3057.5000   -41.2999   -56.4394   126.8394     5.4553     5.5175     6.4037     0.2395     9.7188     2.5145     0.0183   -58.9124
 3058.0000   -41.9062   -56.7119   127.4532     5.3808     5.4818     6.1004     0.2413     9.7337     2.5251     0.0168   -55.6149
 3058.5000   -42.2112   -56.9305   126.2432     5.4196     5.5632     5.8517     0.2419     9.7486     2.5349     0.0152   -51.0514
 3059.0000   -42.5161   -57.1492   128.1580     5.5028     5.6847     5.5740     0.2445     9.7483     2.5395     0.0145   -50.9063
 3059.5000   -42.5176   -57.3680   132.9434     5.6540     5.7279     5.5367     0.2522     9.7480     2.5380     0.0175   -50.7251
 3060.0000   -42.2152   -57.5867   135.0769     5.7347     5.7813     5.6488     0.2538     9.7477     2.5319     0.0237   -50.6042
 3060.5000   -41.7618   -57.8054   132.0432     5.8165     5.7984     5.9035     0.2404     9.7322     2.5201     0.0349   -50.4532
 3061.0000   -41.1391   -58.0303   124.7542     5.8177     5.7602     6.2020     0.2268     9.7167     2.4979     0.0356   -50.2900
 3061.5000   -40.2476   -58.2974   122.3283     5.7783     5.7559     6.4257     0.2240     9.7164     2.4949     0.0106   -50.1451
 3062.0000   -39.7935   -58.5162   122.3343     5.7393     5.7245     6.5183     0.2268     9.7161     2.5100    -0.0038   -50.0000
 3062.5000   -39.3401   -58.7349   120.6687     5.6217     5.6867     6.2532     0.2309     9.7158     2.5259     0.0000   -49.8489
 3063.0000   -39.1894   -58.9394   114.7487     5.4680     5.5319     5.9564     0.2359     9.7003     2.5365     0.0023   -49.6979
 3063.5000   -39.0395   -59.1723   115.3625     5.2814     5.3431     5.6737     0.2408     9.7000     2.5350     0.0021   -57.0816
 3064.0000   -38.8892   -59.3939   118.7118     5.0305     5.1247     5.4807     0.2465     9.6997     2.5327    -0.0016   -56.9366
 3064.5000   -38.7393   -59.6645   123.2769     4.7582     4.6631     5.4834     0.2493     9.6994     2.5297     0.0075   -56.7915
 3065.0000   -38.7407   -59.8831   126.9302     4.3714     3.8727     5.4857     0.2438     9.7143     2.5267     0.0113   -56.6465
 3065.5000   -38.5905   -60.1018   127.8480     3.6509     3.3195     5.4490     0.2414     9.7139     2.5214     0.0128   -56.4955
 3066.0000   -38.5919   -60.3205   128.4631     3.0453     2.9263     5.3759     0.2617     9.7137     2.5146     0.0112   -63.8973
 3066.5000   -38.4416   -52.9546   134.2440     2.7240     2.5260     4.9446     0.2962     9.7286     2.4912     0.0105   -65.6363
 3067.0000   -38.2913   -53.1821   150.0554     2.5946     2.4057     3.8403     0.3344     9.7283     2.4534     0.0097   -71.1481
 3067.5000   -38.1411   -60.9848   186.6315     2.5769     2.7123     2.7673     0.3457     9.7279     2.3673     0.0165   -78.5438
 3068.0000   -38.2946   -61.2500   216.3295     2.6321     3.1008     2.1512     0.3290     9.7276     2.2688     0.0263   -78.3867
 3068.5000   -39.5101   -61.4687   213.5997     2.7528     3.3513     2.4075     0.2814     9.6513     2.2839     0.0187   -78.2175
 3069.0000   -40.2702   -61.6874   187.1613     3.0492     3.6221     3.9325     0.2417     9.5751     2.3588    -0.0032   -78.0725
 3069.5000   -40.8787   -61.9061   154.6444     3.4825     4.4112     6.1162     0.2190     9.5444     2.4693    -0.0101   -77.9275
 3070.0000   -41.0319   -62.1249   116.3285     4.0053     5.0079     7.0881     0.2078     9.5289     2.5162     0.0084   -70.2417
 3070.5000   -41.0334   -62.3485   107.5451     4.6713     5.4636     6.9924     0.2096     9.5285     2.5222     0.0103   -70.0846
 3071.0000   -40.7317   -62.6169   107.2456     5.3351     5.8503     6.8979     0.2103     9.5282     2.5200     0.0050   -69.9396
 3071.5000   -40.4293   -62.8356   106.0371     5.9757     6.4123     6.8525     0.2069     9.5279     2.5185    -0.0003   -62.2356
 3072.0000   -39.8241   -63.0543   104.8257     6.4450     6.4602     6.8074     0.2081     9.5124     2.5177    -0.0003   -62.0605
 3072.5000   -39.5217   -63.2731   107.2646     6.6753     6.4174     6.6693     0.2188     9.5122     2.5155    -0.0011   -60.6739
 3073.0000   -39.0683   -63.4918   107.5744     6.4927     6.3306     6.6242     0.2254     9.4967     2.5094    -0.0018   -54.2175
 3073.5000   -38.6146   -63.7122   107.2763     6.2276     6.1151     6.2675     0.2251     9.4811     2.5041    -0.0049   -54.0786
 3074.0000   -38.3125   -63.9838   110.3231     5.9317     5.9064     5.9695     0.2218     9.4656     2.5019    -0.0056   -53.9275
 3074.5000   -38.0109   -64.2026   113.9764     5.6891     5.7451     5.8069     0.2151     9.4653     2.5004    -0.0026   -53.7764
 3075.0000   -37.8602   -64.4213   117.6297     5.4827     5.5882     5.7290     0.2200     9.4650     2.4989    -0.0011   -53.6254
 3075.5000   -37.7099   -64.6400   116.4197     5.2345     5.3597     5.6907     0.2321     9.4495     2.4966    -0.0019   -53.4562
 3076.0000   -37.7118   -64.8587   114.9058     4.9167     5.0333     5.6144     0.2379     9.4340     2.4890    -0.0027   -45.7704
 3076.5000   -37.7132   -65.0774   115.6748     4.6505     4.7105     5.4560     0.2403     9.4337     2.4815    -0.0034   -45.6193
 3077.0000   -37.8858   -65.3031   120.6941     4.3987     4.1674     5.2762     0.2412     9.4334     2.4729    -0.0050   -45.4683
 3077.5000   -38.4752   -57.9390   124.9552     4.0178     3.6998     5.0967     0.2431     9.4331     2.4717    -0.0057   -45.3172
 3078.0000   -38.9319   -58.2125   128.0006     3.4527     3.3078     4.9574     0.2491     9.4480     2.4747     0.0018   -45.1420
 3078.5000   -39.3886   -58.4311   132.2618     2.8549     2.9573     4.7892     0.2637     9.4629     2.4724     0.0033   -45.0151
 3079.0000   -39.6936   -66.2256   143.2109     2.5358     2.7193     4.4049     0.2819     9.4778     2.4520     0.0025   -44.8640
 3079.5000   -39.5432   -66.4443   156.8945     2.3819     2.4918     3.9006     0.3073     9.4775     2.4339     0.0010   -44.7070
 3080.0000   -39.0794   -66.6666   170.5782     2.3328     2.3814     2.9994     0.3170     9.4772     2.4216    -0.0013   -44.5619
 3080.5000   -38.6357   -66.9364   189.4290     2.3334     2.4334     2.3814     0.3203     9.4617     2.4150    -0.0021   -51.9698
 3081.0000   -38.6376   -67.1551   195.5139     2.3841     2.5751     2.4500     0.3131     9.4158     2.4430    -0.0021   -51.8127
 3081.5000   -39.0942   -67.3738   190.0486     2.5209     2.8826     2.7999     0.2918     9.3851     2.4869    -0.0021   -51.6435
 3082.0000   -39.5509   -67.5925   171.1962     2.8194     3.2956     4.0601     0.2587     9.3848     2.5353     0.0002   -51.5106
 3082.5000   -39.8559   -60.2273   139.6059     3.2426     3.9303     5.8194     0.2390     9.3845     2.5436     0.0160   -58.9124
 3083.0000   -40.0091   -60.4545   124.7181     3.8083     4.3997     6.2292     0.2368     9.3690     2.5413     0.0175   -58.7614
 3083.5000   -40.0106   -60.6818   119.8608     4.3800     4.9251     6.1883     0.2396     9.3535     2.5318     0.0168   -58.6103
 3084.0000   -40.0124   -60.9462   119.8666     4.8987     5.3983     6.1914     0.2390     9.3228     2.5126     0.0092   -58.4592
