~VERSION INFORMATION
 VERS.                2.0:   CWLS LOG ASCII STANDARD - VERSION 2.0
 WRAP.                 NO:   ONE LINE PER DEPTH STEP
~WELL INFORMATION
#MNEM.UNIT      DATA TYPE    INFORMATION
#----------   ------------   ------------------------------
 STRT.F            0.0000:   START DEPTH
 STOP.F         1165.5000:   STOP DEPTH
 STEP.F            0.5000:   STEP LENGTH
 NULL.          -999.2500:   NO VALUE
 COMP.   JOHN BROWN E & C:   COMPANY
 WELL. BROWN NPR 3 "X" 1 #63-14:   WELL
 FLD .                NPR:   FIELD
 LOC .      S14 T38N R78W:   LOCATION
 CNTY.            NATRONA:   COUNTY
 STAT.            WYOMING:   STATE
 CTRY. UNITED STATES OF AMERICA:   COUNTRY
 SRVC.     ATLAS WIRELINE:   SERVICE COMPANY
 DATE.        15-JAN-1992:   LOGDATE
 API .     49025224960000:   API NUMBER
~CURVE INFORMATION
#MNEM.UNIT       API CODE    CURVE DESCRIPTION
#----------   ------------   ------------------------------
 DEPT.F                  :   
 GRR .GAPI   07 310 01 00:   GAMMA RAY FROM RESISTIVITY
 RILD.OHMM   07 120 46 00:   INDUCTION LOG DEEP RESISTIVITY
 RILM.OHMM   07 120 44 00:   INDUCTION LOG MEDIUM RESISTIVITY
 TENR.LBS    07 635 01 00:   TENSION
~PARAMETER INFORMATION
#MNEM.UNIT          VALUE    DESCRIPTION
#----------   ------------   ------------------------------
 EKB .F         5270.0000:   Kelly bushing
 EGL .F         5260.0000:   Ground level
 EDF .F         5269.0000:   Drilling floor
 TD  .F         1160.0000:   Total depth
 DATE.        15-JAN-1992:   Date logged
 CLNT.            A2DTECH:   Client Code
 SL  . 1893' FNL & 1971' FEL:   Surface Location
 PD  .                 GL:   Permanent Datum
 EPD .F              5260:   Elevation Permanent Datum
 LMF .                 KB:   Log Measured From
 DMF .                 KB:   Drilling Measured From
 DAPD.F                10:   Feet Above Permanent Datum
 DD  .F              1160:   Depth driller
 DL  .F              1158:   Depth logger
 BLI .F              1150:   Bottom log interval
 CS1 .IN            9.625:   Casing size
 CBD1.       9.625" @ 50':   Casing driller 1
 CBL1.F                48:   Casing logger 1
 BS1 .IN             8.75:   Bit size
 BSD1.F              1160:   Depth drilled with bit1
 DFT .                AIR:   Type fluid in hole
 MRT .F                90:   Maximum recorded temp.
 LUN .            HL-6274:   Logging unit number
 LUL .             CASPER:   Logging unit location
 ENGI.             RAUTIO:   Recorded By
 WITN.        GARY STRONG:   Witnessed by
 ORIG.           5" PRINT:   Origin of data
 UWI .     49025224960000:   Unique Well ID
 DICO. A2D TECHNOLOGIES, INC.:   Digitizing Company
 TLI .F                 0:   Top log interval
~OTHER INFORMATION
~A    DEPT      GRR      RILD       RILM       TENR   
# ...
  803.0000   150.2570     4.6160     4.7120    18.1470
  803.5000   151.4290     4.3780     4.4920    18.2610
  804.0000   152.8670     4.1410     4.2710    18.3750
  804.5000   155.5420     3.9090     4.0570    18.4880
  805.0000   156.3580     3.8020     4.0850    18.6020
  805.5000   154.5890     4.0830     4.2660    18.7160
  806.0000   152.6900     4.3760     4.5650    18.8300
  806.5000   152.3830     4.6680     4.8640    18.9440
  807.0000   152.9420     4.9600     5.1630    19.0580
  807.5000   153.4850     5.2370     5.4620    19.1720
  808.0000   155.3290     5.4800     5.7180    19.2860
  808.5000   156.4600     5.7220     5.8930    19.4000
  809.0000   154.2540     5.9650     6.0830    19.5140
  809.5000   151.1540     6.2160     6.2720    19.6280
  810.0000   150.9840     6.2460     6.3980    19.7420
  810.5000   151.1990     6.2770     6.4150    19.8560
  811.0000   151.4110     6.3080     6.4330    19.9700
  811.5000   151.6350     6.4500     6.4510    20.0840
  812.0000   153.5870     6.4430     6.4690    20.1980
  812.5000   155.9870     6.4310     6.4870    20.3120
  813.0000   158.0080     6.4190     6.5050    20.4260
  813.5000   157.4090     6.4070     6.5110    20.5400
  814.0000   154.9890     6.3950     6.5110    20.6540
  814.5000   152.0800     6.3830     6.5110    20.7680
  815.0000   149.2750     6.3710     6.5110    20.8820
  815.5000   149.1340     6.3590     6.5110    20.9960
  816.0000   150.8370     6.3470     6.5110    21.1100
  816.5000   152.8670     6.3320     6.5110    21.2240
  817.0000   154.9070     6.3380     6.5110    21.3380
  817.5000   156.9520     6.3540     6.5140    21.4520
  818.0000   156.9730     6.3700     6.5250    21.5660
  818.5000   156.6550     6.3870     6.5350    21.6800
  819.0000   156.0640     6.4030     6.5450    21.7940
  819.5000   154.5300     6.4190     6.5550    21.9080
  820.0000   153.4550     6.4350     6.5660    22.0220
  820.5000   155.6480     6.4500     6.5730    22.1360
  821.0000   157.3050     6.3370     6.4600    22.2500
  821.5000   157.4620     6.2310     6.3730    22.3640
  822.0000   157.9360     6.1260     6.2860    22.4780
  822.5000   160.1900     6.0200     6.1990    22.5920
  823.0000   162.4430     5.9140     6.0920    22.7060
  823.5000   164.7480     5.7710     5.9680    22.8200
  824.0000   165.2900     5.7070     5.8430    22.9340
  824.5000   162.5160     5.6410     5.7180    23.0480
  825.0000   159.0050     5.5740     5.6580    23.1620
  825.5000   155.4400     5.3300     5.5610    23.2760
  826.0000   155.9910     5.0350     5.3180    23.3900
  826.5000   158.7270     4.7390     5.0080    23.5040
  827.0000   161.0840     4.4850     4.6980    23.6180
  827.5000   162.0050     4.2800     4.4100    23.7320
  828.0000   162.8150     4.1330     4.4100    23.8460
  828.5000   161.7260     4.4010     4.4510    23.9600
  829.0000   158.4790     4.6100     4.6750    24.0740
  829.5000   155.5780     4.8190     4.8800    24.1880
  830.0000   154.2910     5.0280     5.0620    24.3020
  830.5000   153.1500     5.2380     5.3200    24.4150
  831.0000   152.9350     5.4470     5.5780    24.5290
  831.5000   151.0880     5.6560     5.8370    24.6430
  832.0000   147.7880     5.8790     6.0450    24.7570
  832.5000   144.4940     5.9340     6.0450    24.8710
  833.0000   144.4130     5.7230     5.9890    24.9850
  833.5000   147.3560     5.3490     5.6070    25.0990
  834.0000   150.4710     5.0680     5.1740    25.2130
  834.5000   152.6340     4.7030     4.7410    25.3270
  835.0000   153.1710     4.4350     4.3080    25.4410
  835.5000   154.3220     4.3760     4.1550    25.5550
  836.0000   158.1160     4.3170     4.0950    25.6690
  836.5000   161.8330     4.2570     4.0950    25.7830
  837.0000   160.1420     4.1710     4.2250    25.8970
  837.5000   154.7760     4.2100     4.3410    26.0110
  838.0000   150.4810     4.3970     4.5660    26.1250
  838.5000   149.6690     4.7320     4.9200    26.2390
  839.0000   150.6630     5.0670     5.2740    26.3530
  839.5000   150.0400     5.4020     5.6280    26.4670
  840.0000   150.8200     5.7200     5.9820    26.5810
  840.5000   151.8140     5.9710     6.2490    26.6950
  841.0000   150.1900     6.2230     6.4970    26.8090
  841.5000   147.6990     6.4740     6.6710    26.9230
  842.0000   145.8300     6.7260     6.7550    26.9390
  842.5000   145.4370     6.7800     6.8390    26.9390
  843.0000   144.1730     6.8280     6.9230    26.9390
  843.5000   141.2420     6.8750     7.0430    26.9390
  844.0000   138.5340     6.9230     7.1020    26.9390
  844.5000   141.6870     6.9710     7.1620    26.9390
  845.0000   145.1570     7.0190     7.2220    26.9390
  845.5000   147.0540     7.0670     7.2820    26.9390
  846.0000   142.1760     7.1140     7.3420    26.9390
  846.5000   137.1390     7.1430     7.4130    26.9390
  847.0000   137.0610     7.1190     7.3890    26.9390
  847.5000   138.7410     7.1010     7.3480    26.9390
  848.0000   140.5230     7.0770     7.3070    26.9390
  848.5000   144.6280     7.1630     7.2770    26.9390
  849.0000   146.0680     7.2940     7.4350    26.9390
  849.5000   146.4880     7.4260     7.5850    26.9390
  850.0000   145.1050     7.5580     7.7350    26.9390
  850.5000   143.7940     7.6890     7.8720    26.9390
  851.0000   141.6740     7.8210     7.9840    26.9390
  851.5000   138.8190     7.9530     8.0950    26.9390
  852.0000   135.9560     7.9840     8.2860    26.9390
  852.5000   133.2190     7.5590     8.0870    26.9390
  853.0000   133.0670     7.0770     7.5100    26.9390
  853.5000   136.4670     6.2300     6.7170    26.9390
  854.0000   141.4430     5.3890     5.9230    26.9390
  854.5000   146.1440     4.6520     5.1290    26.9390
  855.0000   152.1600     4.2100     4.8840    26.9390
  855.5000   159.7100     4.2490     4.8390    26.9390
  856.0000   164.7130     4.6680     4.8970    26.9390
  856.5000   160.0390     5.0500     5.1430    26.9390
  857.0000   151.3830     5.4320     5.6540    26.9390
  857.5000   143.1750     5.8250     6.2670    26.9390
  858.0000   137.4110     6.4120     6.9610    26.9390
  858.5000   131.6080     7.1700     7.6540    26.9390
  859.0000   128.8150     7.9280     8.1650    26.9390
  859.5000   130.4440     8.2340     8.4200    26.9390
  860.0000   132.1500     8.4410     8.6750    26.9390
  860.5000   133.8500     8.5200     8.7600    26.9390
  861.0000   133.9670     8.4380     8.5860    26.9390
  861.5000   135.0560     8.3450     8.4670    26.9390
  862.0000   136.2600     8.2520     8.3630    26.9390
  862.5000   136.7400     8.2100     8.3810    26.9390
  863.0000   136.7470     8.3120     8.5010    26.9390
  863.5000   136.8340     8.4960     8.6790    26.9390
  864.0000   136.9580     8.6790     8.8420    26.9390
  864.5000   137.0510     9.4150     9.9870    26.9390
  865.0000   135.0270    10.4860    11.4060    26.9390
  865.5000   130.1370    11.5570    12.8250    26.9390
  866.0000   120.9100    12.6290    14.2430    26.9390
  866.5000   104.1650    13.7000    15.6620    26.9390
  867.0000    87.5210    14.8640    17.2420    26.9390
  867.5000    70.7640    16.1450    17.9500    26.9390
  868.0000    60.8590    17.5470    18.7250    26.9390
  868.5000    55.7610    18.9490    19.2610    26.9390
  869.0000    60.9370    19.2720    19.8150    26.9390
  869.5000    69.1530    19.2720    19.7370    26.9390
  870.0000    74.3910    19.0470    19.4510    26.9390
  870.5000    78.3260    18.5030    19.0020    26.9390
  871.0000    78.1230    17.9600    18.4550    26.9390
  871.5000    78.0470    17.4160    17.9090    26.9390
  872.0000    80.3920    17.0150    17.3630    26.9390
  872.5000    84.3350    16.5470    16.7690    26.9390
  873.0000    87.9790    16.0780    16.2330    26.9390
  873.5000    87.3270    15.5280    15.6460    26.9390
  874.0000    86.0080    14.9060    15.0580    26.9390
  874.5000    85.1390    14.2850    14.4710    26.9390
  875.0000    92.2240    13.6640    13.8840    26.9390
  875.5000   100.1140    13.0540    13.2980    26.9390
