~VERSION INFORMATION
 VERS.                2.0:   CWLS LOG ASCII STANDARD - VERSION 2.0
 WRAP.                 NO:   ONE LINE PER DEPTH STEP
~WELL INFORMATION
#MNEM.UNIT      DATA TYPE    INFORMATION
#----------   ------------   ------------------------------
 STRT.F            0.0000:   START DEPTH
 STOP.F         4030.0000:   STOP DEPTH
 STEP.F            0.5000:   STEP LENGTH
 NULL.          -999.2500:   NO VALUE
 COMP.  FENIX AND SCISSON:   COMPANY
 WELL.  FENIX "LX" #33-10:   WELL
 FLD . TEAPOT DOME (NPR #3):   FIELD
 LOC .      S10 T38N R78W:   LOCATION
 CNTY.            NATRONA:   COUNTY
 STAT.            WYOMING:   STATE
 CTRY. UNITED STATES OF AMERICA:   COUNTRY
 SRVC.       SCHLUMBERGER:   SERVICE COMPANY
 DATE.        03-APR-1978:   LOGDATE
 API .     49025105980000:   API NUMBER
~CURVE INFORMATION
#MNEM.UNIT       API CODE    CURVE DESCRIPTION
#----------   ------------   ------------------------------
 DEPT.F                  :   
 SPR .MV     07 010 01 00:   SPONTANEOUS POTENTIAL
 ILD .OHMM   07 120 46 00:   DEEP INDUCTION RESISTIVITY
 SFL .OHMM   07 220 01 00:   SHALLOW FOCUSED LOG RESISTIVITY
 ILM .OHMM   07 120 44 00:   INDUCTION LOG MEDIUM RESISTIVITY
 NPHI.DEC    42 890 03 00:   NEUTRON POROSITY SANDSTONE
 GRD .GAPI   45 310 01 00:   GAMMA RAY FROM DENSITY LOG
 CALD.IN     45 280 60 00:   CALIPER FROM DENSITY LOG
 RHOB.G/C3   45 350 01 00:   BULK DENSITY
 CORR.G/C3   45 356 01 00:   DENSITY CORRECTION
~PARAMETER INFORMATION
#MNEM.UNIT          VALUE    DESCRIPTION
#----------   ------------   ------------------------------
 EKB .F         5232.0000:   Kelly bushing
 EGL .F         5222.0000:   Ground level
 EDF .F            0.0000:   Drilling floor
 EPD .F         5222.0000:   Permanent datum
 TD  .F         4040.0000:   Total depth
 DATE.        03-APR-1978:   Date logged
 CLNT.            A2DTECH:   Client Code
 SL  . 1700' FNL & 1700' FWL:   Surface Location
 PD  .                 GL:   Permanent Datum
 DD  .F              4040:   Depth driller
 DL  .F              4031:   Depth logger
 BLI .F              4025:   Bottom log interval
 CS1 .IN            8.625:   Casing size
 CBD1.      8.625" @ 503':   Casing driller 1
 CBL1.F               504:   Casing logger 1
 BS1 .IN            7.875:   Bit size
 DFT .           CHEM GEL:   Type fluid in hole
 DFD .                9.5:   Density
 DFV .                 43:   Viscosity
 DFPH.               11.5:   pH
 DFL .                4.4:   Fluid loss
 MSS .            MUD PIT:   Source of sample
 RMS .OHMM           1.16:   Rm
 MST .F                80:   Rm Meas. temp.
 RMF .OHMM           0.93:   Rmf
 MFST.F                80:   Rmf Meas. temp.
 RMC .OHMM           1.74:   Rmc
 MCST.F                80:   Rmc Meas. temp.
 MFSS.               MEAS:   Source Rmf.
 RMB .OHMM          0.742:   Rm. at BHT
 BHT .F               125:   BHT.
 TCS .HRS            0800:   Time Circ. stopped
 MRT .F               125:   Maximum recorded temp.
 LUN .               7660:   Logging unit number
 LUL .                GLT:   Logging unit location
 ENGI.            TOEPPER:   Recorded By
 WITN.           MCGINLEY:   Witnessed by
 ORIG.         2.5" PRINT:   Origin of data
 UWI .     49025105980000:   Unique Well ID
 DICO. A2D TECHNOLOGIES, INC.:   Digitizing Company
 DAPD.                 10:   Feet Above Permanent Datum
 BSD1.               4040:   Depth drilled with bit1
 MCSS.               CALC:   Source Rmc.
 LMF .                 KB:   Log Measured From
 DMF .                 KB:   Drilling Measured From
 TLI .                504:   Top log interval
 TLAB.               1000:   Time logger at bottom
~OTHER INFORMATION
~A    DEPT     SPR        ILD        SFL        ILM       NPHI         GRD      CALD       RHOB       CORR   
# ...
 3978.5000   -22.7170     3.4100     6.6370     3.5560     0.3950   100.6430     8.1340     2.5250     0.2330
 3979.0000   -22.8970     3.1690     5.5450     3.3680     0.3920   104.5040     8.1900     2.4290     0.1160
 3979.5000   -22.8750     2.9270     4.2280     3.1800     0.3900   107.2450     8.2380     2.5060     0.1550
 3980.0000   -22.5160     2.6860     3.4530     2.9920     0.3960   110.1310     8.3120     2.4800     0.2010
 3980.5000   -22.5140     2.5350     3.3750     2.8310     0.4020   112.8020     8.2720     2.4770     0.1740
 3981.0000   -22.5130     2.4360     3.3010     2.7560     0.4010   116.1140     8.2190     2.4910     0.1460
 3981.5000   -22.5100     2.3370     3.3370     2.6800     0.4000   117.7260     8.1600     2.5420     0.1810
 3982.0000   -22.4380     2.2440     3.3710     2.6050     0.4060   119.9810     8.1060     2.5090     0.2130
 3982.5000   -22.0630     2.2440     3.4240     2.5300     0.4170   118.9170     8.0500     2.4640     0.0910
 3983.0000   -22.1340     2.3390     3.3530     2.4600     0.3830   115.1900     7.9950     2.5220     0.0310
 3983.5000   -22.1370     2.5460     3.2400     2.6610     0.3490   110.4350     7.9390     2.5880     0.0520
 3984.0000   -22.5150     2.7540     4.4400     2.8490     0.2710   107.5620     7.9320     2.6260     0.0740
 3984.5000   -22.4810     2.9610     5.8220     3.0380     0.2760   117.2570     7.9440     2.6090     0.0450
 3985.0000   -22.6490     3.1680     7.2040     3.2270     0.3150   125.0300     7.9550     2.5730     0.0510
 3985.5000   -22.9710     3.3750     8.7450     3.4160     0.3250   133.4820     7.9660     2.6070     0.1630
 3986.0000   -23.3420     3.5820     7.2530     3.6050     0.3550   136.2070     7.9770     2.5690     0.1380
 3986.5000   -23.3120     3.7900     5.5660     3.7940     0.3510   138.8510     7.9880     2.5200     0.0480
 3987.0000   -23.0470     3.8940     4.0400     4.0400     0.3420   141.2400     8.0000     2.5780     0.0920
 3987.5000   -22.5360     3.6770     4.4110     3.9040     0.3290   144.0060     8.0040     2.6190     0.1420
 3988.0000   -22.5360     3.4670     4.9420     3.7080     0.3630   143.2720     7.9970     2.6100     0.1930
 3988.5000   -22.5580     3.2560     5.5230     3.5120     0.3960   139.3920     7.9880     2.6530     0.2500
 3989.0000   -22.5860     3.0460     5.5230     3.3160     0.4250   136.1800     7.9800     2.5230     0.1970
 3989.5000   -22.6090     2.9020     4.5760     3.1810     0.4000   127.2700     7.9710     2.5320     0.1320
 3990.0000   -22.6340     3.1990     3.5620     3.4270     0.3680   119.4550     7.9620     2.5630     0.0530
 3990.5000   -22.6590     3.5230     3.7540     3.9020     0.3130   111.4200     7.9530     2.6470     0.0030
 3991.0000   -22.6840     3.8470     7.0670     4.3770     0.2600   105.7570     7.9450     2.7260     0.0260
 3991.5000   -22.7090     4.1710    10.6520     4.8520     0.2630   111.5630     7.9360     2.6970     0.0490
 3992.0000   -22.7340     4.4950    14.8180     5.3270     0.2640   116.2920     7.9260     2.6340     0.0540
 3992.5000   -22.7590     4.8200    14.0560     5.8020     0.2530   121.6800     7.9340     2.5900     0.0480
 3993.0000   -22.7840     5.2030    12.5300     6.2770     0.2710   126.7130     7.9510     2.5800     0.0590
 3993.5000   -22.8050     5.1560    11.0050     6.3980     0.2900   131.9320     7.9660     2.5740     0.0720
 3994.0000   -22.8400     5.0610     9.1040     5.7480     0.3050   137.0790     7.9810     2.5430     0.0810
 3994.5000   -22.8500     4.5210     6.8950     5.0630     0.3170   141.9800     7.9970     2.5660     0.1010
 3995.0000   -22.8810     3.8340     5.0380     4.3790     0.3350   147.9980     8.0120     2.5520     0.1260
 3995.5000   -22.9810     3.1470     4.5880     3.6940     0.3560   149.2430     8.0280     2.5180     0.1500
 3996.0000   -23.3640     2.7650     4.1990     3.1240     0.3770   144.9060     8.0430     2.4850     0.1650
 3996.5000   -23.6770     2.6150     3.8110     2.7750     0.3990   126.7520     8.0580     2.4520     0.1730
 3997.0000   -24.0910     2.5520     3.4230     2.5990     0.4070   111.5570     8.0750     2.4190     0.1470
 3997.5000   -24.1960     2.5050     3.1270     2.8750     0.3780    94.9170     8.0740     2.3850     0.0860
 3998.0000   -24.5150     2.8960     3.0110     3.2160     0.3580    79.2290     8.0400     2.3590    -0.0020
 3998.5000   -24.4910     3.2960     3.2610     3.5560     0.2120    63.5740     8.0100     2.5180     0.0040
 3999.0000   -24.6910     3.6180     3.7640     3.8960     0.1700    56.0580     7.9790     2.5120     0.0420
 3999.5000   -26.4970     5.8900     4.2690     5.5300     0.1440    48.5230     7.9470     2.4900     0.0740
 4000.0000   -28.2980     7.7980    17.2650     7.5010     0.1490    44.1560     7.9160     2.4730     0.0560
 4000.5000   -28.4830     9.7050    16.2330     9.4720     0.1590    41.6210     7.8870     2.5030     0.0370
 4001.0000   -28.5190    11.6120    15.1800    11.4430     0.1490    39.0240     7.8900     2.5270     0.0100
 4001.5000   -28.4600    13.5190    14.7850    13.4140     0.1390    36.7150     7.8950     2.5580     0.0150
 4002.0000   -28.5080    16.6410    14.3650    16.6410     0.1320    32.1660     7.9000     2.5390     0.0300
 4002.5000   -28.4170    16.2400    17.9110    16.3380     0.1570    36.1880     7.9050     2.4970     0.0240
 4003.0000   -28.0400    15.4620    15.8620    15.4620     0.1740    42.9790     7.9100     2.4590     0.0110
 4003.5000   -27.6830    13.2380    13.7270    12.2840     0.2230    62.0980     7.9150     2.4290     0.0260
 4004.0000   -27.5030    11.3100    11.5920     9.5290     0.2890   105.2190     7.9200     2.4490     0.1020
 4004.5000   -27.1900     9.3810     9.4570     6.7730     0.4140  -999.2500     7.9250     2.3550     0.1580
 4005.0000   -25.5290     7.4530     7.3220     4.0180     0.4900  -999.2500     7.9260     2.3650     0.0500
 4005.5000   -24.0720     5.5250     5.1870     2.9660     0.4510  -999.2500     7.9280     2.3990     0.0110
 4006.0000   -22.5040     3.5960     2.4150     2.5840     0.4190  -999.2500     7.9300     2.4290     0.0210
 4006.5000   -22.0820     2.1680     2.4740     2.1630     0.3870  -999.2500     7.9310     2.4560     0.0450
 4007.0000   -22.1120     1.9130     2.5990     2.0440     0.3980  -999.2500     7.9330     2.4900     0.0710
 4007.5000   -22.1140     1.6580     2.5160     1.9110     0.4090  -999.2500     7.9340     2.4830     0.0840
 4008.0000   -22.1040     1.5090     2.2210     1.7780     0.4120  -999.2500     7.9360     2.4670     0.0640
 4008.5000   -22.1140     1.4760     1.9260     1.7000     0.3820  -999.2500     7.9380     2.4530     0.0470
 4009.0000   -22.1150     1.4430     1.7670     1.6500     0.3720  -999.2500     7.9390     2.4380     0.0410
 4009.5000   -22.4620     1.4110     1.9080     1.6110     0.3970  -999.2500     7.9410     2.4140     0.0520
 4010.0000   -22.8930     1.3660     2.2030     1.6230     0.4140  -999.2500     7.9430     2.4190     0.0670
 4010.5000   -22.9110     1.3910     2.1490     1.6370     0.3980  -999.2500     7.9440     2.4400     0.0610
 4011.0000   -22.8980     1.4300     1.8330     1.6500     0.3790  -999.2500     7.9460     2.3950     0.0290
 4011.5000   -22.9320     1.4700     1.8670     1.6640     0.3600  -999.2500     7.9470     2.4110     0.0370
 4012.0000   -22.6270     1.5090     1.8670     1.6720     0.3450  -999.2500     7.9490     2.4040     0.0350
 4012.5000   -22.1900     1.5530     1.8670     1.7470  -999.2500  -999.2500     7.9510     2.4220     0.0290
 4013.0000   -22.1030     1.5610     2.1780     1.8710  -999.2500  -999.2500     7.9520     2.4100     0.0250
 4013.5000   -22.1040     1.5680     2.4380     1.9730  -999.2500  -999.2500     7.9540     2.3810     0.0410
 4014.0000   -22.1300     1.5740     2.5990     1.9000  -999.2500  -999.2500     7.9560     2.3970     0.0850
 4014.5000   -22.0900     1.5810     2.3580     1.8020  -999.2500  -999.2500     7.9570     2.4660     0.1490
