~VERSION INFORMATION
 VERS.                2.0:   CWLS LOG ASCII STANDARD - VERSION 2.0
 WRAP.                 NO:   ONE LINE PER DEPTH STEP
~WELL INFORMATION
#MNEM.UNIT      DATA TYPE    INFORMATION
#----------   ------------   ------------------------------
 STRT.F          387.0000:   START DEPTH
 STOP.F         2921.0000:   STOP DEPTH
 STEP.F            0.5000:   STEP LENGTH
 NULL.          -999.2500:   NO VALUE
 COMP.    FENIX & SCISSON:   COMPANY
 WELL.  FENIX  "A" #21-28:   WELL
 FLD .          N.P.R. #3:   FIELD
 LOC .      S28 T39N R78W:   LOCATION
 CNTY.            NATRONA:   COUNTY
 STAT.            WYOMING:   STATE
 CTRY. UNITED STATES OF AMERICA:   COUNTRY
 SRVC.       SCHLUMBERGER:   SERVICE COMPANY
 DATE.        30-APR-1977:   LOGDATE
 API .     49025103550000:   API NUMBER
~CURVE INFORMATION
#MNEM.UNIT       API CODE    CURVE DESCRIPTION
#----------   ------------   ------------------------------
 DEPT.F                  :   
 SPR .MV     07 010 01 00:   SPONTANEOUS POTENTIAL
 ILD .OHMM   07 120 46 00:   DEEP INDUCTION RESISTIVITY
 ILM .OHMM   07 120 44 00:   INDUCTION LOG MEDIUM RESISTIVITY
 LL8 .OHMM   07 220 08 00:   LATEROLOG-8 RES.
 GRD .GAPI   45 310 01 00:   GAMMA RAY FROM DENSITY LOG
 CALD.IN     45 280 60 00:   CALIPER FROM DENSITY LOG
 CORR.G/C3   45 356 01 00:   DENSITY CORRECTION
 RHOB.G/C3   45 350 01 00:   BULK DENSITY
~PARAMETER INFORMATION
#MNEM.UNIT          VALUE    DESCRIPTION
#----------   ------------   ------------------------------
 EKB .F         4977.0000:   Kelly bushing
 EGL .F         4967.0000:   Ground level
 EDF .F            0.0000:   Drilling floor
 TD  .F         2922.0000:   Total depth
 CLNT.            A2DTECH:   Client Code
 SL  . 330' FNL & 990' FWL:   Surface Location
 DATE.        30-APR-1977:   Date Logged [DD-MMM-YYYY]
 DD  .F              2915:   Depth driller
 DL  .F              2922:   Depth logger
 BLI .F              2916:   Bottom log interval
 TLI .F               394:   Top log interval
 CS1 .              8.625:   Casing size
 CBD1.      8.625" @ 390':   Casing driller 1
 CBL1.IN              394:   Casing logger 1
 BS1 .IN            7.875:   Bit size
 BSD1.F              2915:   Depth drilled with bit1
 DFT .            KCL MUD:   Type fluid in hole
 DFD .                8.9:   Density
 DFV .                 87:   Viscosity
 DFPH.                8.5:   pH
 DFL .                9.6:   Fluid loss
 MSS .                PIT:   Source of sample
 RMS .OHMM           0.25:   Rm
 MST .F                70:   Rm Meas. temp.
 RMF .OHMM           0.22:   Rmf
 MFST.F                70:   Rmf Meas. temp.
 MFSS.               MEAS:   Source Rmf.
 RMC .OHMM           0.38:   Rmc
 MCST.F                70:   Rmc Meas. temp.
 MCSS.               CALC:   Source Rmc.
 RMB .OHMM           0.09:   Rm. at BHT
 BHT .F               109:   BHT.
 TCS .HRS            1800:   Time Circ. stopped
 TLAB.HRS            2200:   Time logger at bottom
 MRT .F               109:   Maximum recorded temp.
 LUN .                711:   Logging unit number
 LUL .             CASPER:   Logging unit location
 ENGI.              SYLER:   Recorded By
 WITN.         PETTINGILL:   Witnessed by
 ORIG.           5" PRINT:   Origin of data
 UWI .     49025103550000:   Unique Well ID
 DICO. A2D TECHNOLOGIES, INC.:   Digitizing Company
 PD  .                 GL:   Permanent Datum
 EPD .F              4967:   Elevation Permanent Datum
 LMF .                 KB:   Log Measured From
 DMF .                 KB:   Drilling Measured From
 DAPD.F                10:   Feet Above Permanent Datum
~OTHER INFORMATION
~A   DEPT      SPR        ILD        ILM        LL8         GRD      CALD       CORR       RHOB   
# ...
 2898.0000   -21.8005     2.8436     2.8580     3.6448   131.1628     7.8777     0.0274     2.4812
 2898.5000   -21.7884     2.7865     2.8004     3.3317   128.6907     7.8784     0.0251     2.4487
 2899.0000   -21.7764     2.7492     2.7632     3.2865   126.2155     7.8791     0.0181     2.4247
 2899.5000   -21.9154     2.7126     2.7260     3.2424   128.0943     7.8799     0.0159     2.4177
 2900.0000   -22.3565     2.6578     2.6896     3.0261   136.3364     7.8806     0.0182     2.4349
 2900.5000   -22.9487     2.6042     2.6721     2.9237   138.6780     7.8814     0.0206     2.4271
 2901.0000   -23.0877     2.5694     2.7108     3.0914   138.8425     7.8672     0.0211     2.4187
 2901.5000   -23.2267     2.5527     2.7498     3.1792   137.8882     7.8679     0.0198     2.4336
 2902.0000   -23.2145     2.5894     2.8087     3.2694   137.8882     7.8537     0.0182     2.4405
 2902.5000   -23.2025     2.6449     2.8491     3.2703   136.9565     7.8694     0.0291     2.4457
 2903.0000   -23.3416     2.7017     2.8306     3.2484   133.5404     7.8701     0.0539     2.4599
 2903.5000   -23.4806     2.7596     2.7928     3.3641   125.3106     7.8709     0.0523     2.4729
 2904.0000   -23.4683     2.7227     2.7362     3.5816    75.3106     7.8865     0.0446     2.4783
 2904.5000   -23.4562     2.6494     2.6627     3.9204  -999.2500     7.8724  -999.2500     2.4674
 2905.0000   -23.4290     2.5601     2.5910     3.5836  -999.2500     7.8764  -999.2500     2.4729
 2905.5000   -23.2810     2.5084     2.5387     3.1862  -999.2500     7.8812  -999.2500     2.4643
 2906.0000   -23.2692     2.4408     2.4875     2.7939  -999.2500     7.8860  -999.2500     2.4176
 2906.5000   -23.5593     2.3750     2.4541     2.6257  -999.2500     7.8904  -999.2500     2.4085
 2907.0000   -23.5258     2.3596     2.4724     2.5370  -999.2500     7.8911  -999.2500     2.4155
 2907.5000   -23.3609     2.3281     2.5606     2.6271  -999.2500     7.8620  -999.2500     2.4264
 2908.0000   -23.0453     2.3780     2.6520     2.9564  -999.2500     7.8329  -999.2500     2.4388
 2908.5000   -22.9064     2.4459     2.8239     3.1258  -999.2500     7.7740  -999.2500     2.4497
 2909.0000   -22.8671     2.5333     2.9861     3.2369  -999.2500     7.7449  -999.2500     2.4612
 2909.5000   -22.7311     2.6420     3.0927     3.3059  -999.2500     7.7008  -999.2500     2.4566
 2910.0000   -22.1124     2.7554     3.2252     3.3529  -999.2500     7.7165  -999.2500     2.4574
 2910.5000   -21.6472     2.8937     3.3643     3.3772  -999.2500     7.8068  -999.2500     2.4643
 2911.0000   -21.6351     3.0389     3.5592     3.4491  -999.2500     7.8374  -999.2500     2.4783
 2911.5000   -22.0792     3.3503     3.8161     3.5965  -999.2500     7.8382  -999.2500     2.4918
 2912.0000   -22.5173     3.5429     4.0626     3.7764  -999.2500     7.8091  -999.2500     2.5101
 2912.5000   -22.6594     3.6189     4.1765     4.1050  -999.2500     7.7800  -999.2500     2.5178
 2913.0000   -22.9494     3.6456     4.2073     4.4622  -999.2500     7.7507  -999.2500     2.5271
 2913.5000   -22.7833     3.7238     4.0561     4.8505  -999.2500     7.7066  -999.2500     2.5388
 2914.0000   -22.0160     3.8568     3.7882     5.1284  -999.2500     7.6925  -999.2500     2.5497
 2914.5000   -21.5537     3.9396     3.1272     5.5747  -999.2500     7.6783  -999.2500     2.5628
 2915.0000   -22.5961     4.1660     2.8392     5.8941  -999.2500     7.6344  -999.2500     2.5543
 2915.5000   -23.7925     4.3449     2.6137     5.8146  -999.2500     7.6053  -999.2500     2.5465
 2916.0000   -23.0251     4.0274     2.4738     4.0845  -999.2500     7.5760  -999.2500     2.5295
 2916.5000  -999.2500  -999.2500  -999.2500  -999.2500  -999.2500     7.5173  -999.2500     2.5202
 2917.0000  -999.2500  -999.2500  -999.2500  -999.2500  -999.2500     7.5029  -999.2500     2.5036
 2917.5000  -999.2500  -999.2500  -999.2500  -999.2500  -999.2500     7.4591  -999.2500     2.4783
 2918.0000  -999.2500  -999.2500  -999.2500  -999.2500  -999.2500     7.4449  -999.2500     2.4767
 2918.5000  -999.2500  -999.2500  -999.2500  -999.2500  -999.2500     7.4158  -999.2500     2.4860
 2919.0000  -999.2500  -999.2500  -999.2500  -999.2500  -999.2500     7.3718  -999.2500     2.4798
 2919.5000  -999.2500  -999.2500  -999.2500  -999.2500  -999.2500     7.1785  -999.2500     2.4604
 2920.0000  -999.2500  -999.2500  -999.2500  -999.2500  -999.2500     6.9106  -999.2500     2.4380
 2920.5000  -999.2500  -999.2500  -999.2500  -999.2500  -999.2500     6.4039  -999.2500     2.3984
 2921.0000  -999.2500  -999.2500  -999.2500  -999.2500  -999.2500     6.1957  -999.2500     2.3744
