~VERSION INFORMATION
 VERS.                2.0:   CWLS LOG ASCII STANDARD - VERSION 2.0
 WRAP.                 NO:   ONE LINE PER DEPTH STEP
~WELL INFORMATION
#MNEM.UNIT      DATA TYPE    INFORMATION
#----------   ------------   ------------------------------
 STRT.F         2676.0000:   START DEPTH
 STOP.F         3016.0000:   STOP DEPTH
 STEP.F            0.5000:   STEP LENGTH
 NULL.          -999.2500:   NO VALUE
 COMP.    FENIX & SCISSON:   COMPANY
 WELL.  FENIX "TX" #56-20:   WELL
 FLD .             NPR #3:   FIELD
 LOC .      S20 T39N R78W:   LOCATION
 CNTY.            NATRONA:   COUNTY
 STAT.            WYOMING:   STATE
 CTRY. UNITED STATES OF AMERICA:   COUNTRY
 SRVC.              WELEX:   SERVICE COMPANY
 DATE.        13-OCT-1980:   LOGDATE
 API .     49025108540000:   API NUMBER
~CURVE INFORMATION
#MNEM.UNIT       API CODE    CURVE DESCRIPTION
#----------   ------------   ------------------------------
 DEPT.F                  :   
 GRD .GAPI   45 310 01 00:   GAMMA RAY FROM DENSITY LOG
 CALD.IN     45 280 60 00:   CALIPER FROM DENSITY LOG
 RHOB.G/C3   45 350 01 00:   BULK DENSITY
 DRHO.G/C3   45 356 01 00:   DENSITY CORRECTION
 SPR .MV     07 010 01 00:   SPONTANEOUS POTENTIAL
 SGRD.OHMM   07 220 05 00:   SHALLOW GUARD
 ILM .OHMM   07 120 44 00:   INDUCTION LOG MEDIUM RESISTIVITY
 ILD .OHMM   07 120 46 00:   DEEP INDUCTION RESISTIVITY
~PARAMETER INFORMATION
#MNEM.UNIT          VALUE    DESCRIPTION
#----------   ------------   ------------------------------
 EKB .F         5035.0000:   Kelly bushing
 EGL .F         5030.0000:   Ground level
 EDF .F            0.0000:   Drilling floor
 TD  .F         3012.0000:   Total depth
 DATE.        13-OCT-1980:   Date logged
 CLNT.            A2DTECH:   Client Code
 PD  .                 GL:   Permanent Datum
 EPD .F              5030:   Elevation Permanent Datum
 LMF .                 KB:   Log Measured From
 DMF .                 KB:   Drilling Measured From
 DD  .F              3012:   Depth driller
 DL  .F              3010:   Depth logger
 BLI .F              3012:   Bottom log interval
 TLI .F              2688:   Top log interval
 CS1 .IN                7:   Casing size
 CBD1.         7" @ 2689':   Casing driller 1
 CBL1.F              2687:   Casing logger 1
 BS1 .IN             6.25:   Bit size
 BSD1.F              3012:   Depth drilled with bit1
 DFT .        FRESH WATER:   Type fluid in hole
 MSS .           FLOWLINE:   Source of sample
 RMS .OHMM           2.86:   Rm
 MST .F                50:   Rm Meas. temp.
 RMF .OHMM           2.29:   Rmf
 MFST.F                50:   Rmf Meas. temp.
 RMC .OHMM           3.43:   Rmc
 MCST.F                50:   Rmc Meas. temp.
 MFSS.               MEAS:   Source Rmf.
 MCSS.               MEAS:   Source Rmc.
 RMB .OHMM           1.21:   Rm. at BHT
 BHT .F               118:   BHT.
 TCS .HRS               5:   Time Circ. stopped
 MRT .F               118:   Maximum recorded temp.
 LUN .               1892:   Logging unit number
 LUL .             CASPER:   Logging unit location
 ENGI.           PERIMMER:   Recorded By
 WITN.              SCOTT:   Witnessed by
 ORIG.           5" PRINT:   Origin of data
 UWI .     49025108540000:   Unique Well ID
 DICO. A2D TECHNOLOGIES, INC.:   Digitizing Company
~OTHER INFORMATION
~A  DEPT        GRD        CALD       RHOB       DRHO      SPR       SGRD        ILM        ILD   
# ...
 2716.5000    54.1930     8.4330     2.3760     0.0940   -27.6920    18.0780    10.1870    18.0780
 2717.0000    56.2270     8.4410     2.3990     0.1060   -27.8440    17.4260     9.9580    16.0820
 2717.5000    58.4020     8.4650     2.4200     0.1150   -27.8580    17.9130     9.7290    14.5290
 2718.0000    60.5720     8.4650     2.4400     0.1380   -27.9140    16.3420     9.5060    12.8340
 2718.5000    62.4090     8.4410     2.4470     0.1500   -27.6520    15.4520     9.2550    11.1480
 2719.0000    62.9320     8.4640     2.4510     0.1360   -27.3920    15.0450     9.1010    10.0490
 2719.5000    66.2030     8.4980     2.4550     0.1230   -27.2810    13.1120     8.8620     9.3000
 2720.0000    67.8820     8.5240     2.4620     0.1100   -27.0690    11.7420     8.5450     8.5520
 2720.5000    68.9380     8.5230     2.4690     0.0970   -26.7220    12.2930     8.2280     7.8040
 2721.0000    69.9760     8.5220     2.4760     0.0930   -26.6600    11.7020     7.9110     7.0560
 2721.5000    71.0010     8.5030     2.4730     0.0850   -26.8870    10.5540     7.5940     6.5300
 2722.0000    71.6450     8.4470     2.4690     0.0750   -26.7150     9.4190     7.1510     6.1440
 2722.5000    71.2710     8.4640     2.4620     0.0740   -26.5120     9.4190     7.1700     5.7580
 2723.0000    71.4550     8.4450     2.4600     0.0720   -26.1960     9.6820     7.2170     5.5650
 2723.5000    71.6800     8.4260     2.4600     0.0740   -26.3440     9.1680     7.2840     5.3680
 2724.0000    73.2810     8.4070     2.4560     0.0650   -26.2960     8.7520     7.1180     5.1990
 2724.5000    74.8860     8.3890     2.4490     0.0570   -25.9360     8.5140     7.0050     5.0910
 2725.0000    76.4430     8.3270     2.4640     0.0510   -25.6330     8.5930     6.9570     4.9600
 2725.5000    77.1020     8.2570     2.4830     0.0550   -25.4890     9.2480     6.8100     4.8290
 2726.0000    77.8120     8.2450     2.5010     0.0620   -25.4610     8.7800     6.2880     4.6980
 2726.5000    78.9530     8.2450     2.5120     0.0680   -25.6860     8.1950     6.3310     4.5670
 2727.0000    79.7650     8.2450     2.5170     0.0690   -25.5050     7.7600     6.3460     4.4360
 2727.5000    80.5170     8.2450     2.5130     0.0640   -26.0960     7.5560     6.2320     4.3050
 2728.0000    80.3530     8.2450     2.5020     0.0550   -26.0800     7.2840     6.1610     4.1840
 2728.5000    79.7800     8.2450     2.4900     0.0470   -25.8990     7.3510     6.0620     4.1090
 2729.0000    80.1200     8.2450     2.4900     0.0400   -25.8670     7.3510     6.0850     4.0340
 2729.5000    80.5910     8.2450     2.4960     0.0400   -26.0580     7.2840     6.1050     3.9730
 2730.0000    80.3140     8.2450     2.5010     0.0490   -25.3790     7.3510     6.1740     3.9390
 2730.5000    79.6710     8.2450     2.5070     0.0570   -25.5120     7.3510     6.0420     3.8950
 2731.0000    78.9170     8.2450     2.5120     0.0650   -25.8470     7.2170     5.9460     3.8510
 2731.5000    78.5020     8.2450     2.5160     0.0730   -25.7380     7.0860     5.8500     3.8060
 2732.0000    79.7730     8.2450     2.5160     0.0800   -26.2180     6.9750     5.7760     3.7620
 2732.5000    78.9760     8.2450     2.5130     0.0780   -25.3320     6.8620     5.7380     3.7230
 2733.0000    78.1610     8.2450     2.5090     0.0770   -25.7350     6.7680     5.6840     3.7060
 2733.5000    77.3350     8.2450     2.5050     0.0750   -25.7890     7.0060     5.7370     3.6890
 2734.0000    77.5170     8.2450     2.5020     0.0740   -24.8680     7.2840     6.0060     3.6720
 2734.5000    77.8660     8.2450     2.5020     0.0720   -25.2240     7.1870     5.8970     3.6550
 2735.0000    78.2790     8.2450     2.5050     0.0700   -25.2130     7.1060     5.7900     3.6380
 2735.5000    78.5160     8.2450     2.5080     0.0710   -24.6970     7.0860     5.6840     3.6210
 2736.0000    78.2270     8.2450     2.5120     0.0750   -25.0090     6.7680     5.5810     3.6040
 2736.5000    77.9480     8.2450     2.5120     0.0760   -25.5420     6.7060     5.4790     3.5870
 2737.0000    77.6700     8.2450     2.5120     0.0790   -24.2080     6.5840     5.4790     3.5700
 2737.5000    77.3860     8.2450     2.5120     0.0810   -25.2560     6.3410     5.4290     3.5590
 2738.0000    77.9010     8.2450     2.5110     0.0730   -24.7550     6.1740     5.2330     3.4910
 2738.5000    78.5010     8.2250     2.5100     0.0620   -24.8310     6.3520     5.3100     3.4290
 2739.0000    77.7830     8.2000     2.5070     0.0750   -25.2320     6.6770     5.4120     3.4230
 2739.5000    77.1330     8.1750     2.4990     0.0790   -25.0740     7.0030     5.5140     3.4170
 2740.0000    76.4840     8.1500     2.4870     0.0780   -25.3250     7.2170     5.6840     3.4100
 2740.5000    75.8240     8.1270     2.4750     0.0940   -24.6720     6.5240     5.7370     3.4040
 2741.0000    75.6190     8.0850     2.4640     0.0920   -24.7360     6.3460     5.6320     3.3980
 2741.5000    76.3790     8.0390     2.4520     0.0900   -25.1750     8.2830     5.4790     3.3910
 2742.0000    76.5340     7.9920     2.4390     0.0960   -25.4600     7.5440     5.3300     3.3850
 2742.5000    75.4480     7.9370     2.4120     0.1050   -25.3880     6.4050     5.1850     3.3780
 2743.0000    74.3870     7.8810     2.3820     0.1120   -25.4670     6.5240     5.3300     3.3720
 2743.5000    73.3350     7.8250     2.3520     0.1120   -24.5240     6.2880     5.2820     3.3450
 2744.0000    72.7220     7.7690     2.3220     0.1060   -24.8150     6.0620     5.1850     3.2760
 2744.5000    73.6560     7.7130     2.2890     0.1160   -25.2840     8.2830     5.1460     3.2070
 2745.0000    74.5930     7.6620     2.3010     0.1160   -24.7480     7.5420     5.0910     3.1660
 2745.5000    74.4530     7.6320     2.3370     0.1140   -24.1320     6.1200     5.0360     3.1010
 2746.0000    72.9120     7.6010     2.4220     0.1260   -23.7690     4.8630     4.9980     3.0720
 2746.5000    72.6260     7.5890     2.4770     0.1400   -24.1840     8.4360     5.1850     3.0910
 2747.0000    72.6180     7.5890     2.4690     0.1290   -24.4210     5.7370     5.2330     3.1090
 2747.5000    72.6170     7.5880     2.4630     0.1160   -24.0040     5.6320     5.2330     3.1260
 2748.0000    72.5710     7.5880     2.4790     0.1070   -24.2450     6.7610     5.1380     3.1430
 2748.5000    72.0660     7.5880     2.5140     0.1260   -24.9010     8.4230     5.4290     3.1580
 2749.0000    72.7860     7.5890     2.5150     0.1210   -25.4880     8.9140     5.3790     3.2090
 2749.5000    72.9090     7.6200     2.5120     0.1150   -25.5130     7.2480     5.2820     3.2560
 2750.0000    71.2810     7.6560     2.5050     0.1080   -24.9570     5.8430     5.2330     3.3070
 2750.5000    70.3240     7.6880     2.4990     0.0980   -25.2400     6.4050     5.4080     3.4030
 2751.0000    70.6360     7.6990     2.4970     0.0890   -24.3450     6.3460     5.5060     3.5110
 2751.5000    69.0460     7.7080     2.5070     0.0790   -24.7210     7.0210     5.6470     3.6770
 2752.0000    66.9660     7.7170     2.5090     0.0690   -25.2130     6.4050     5.9160     3.8530
 2752.5000    65.8150     7.7270     2.5000     0.0620   -25.1170     8.4360     6.1850     4.0280
 2753.0000    64.5630     7.7370     2.4910     0.0550   -25.7220     8.8070     6.4560     4.2040
 2753.5000    63.2740     7.7460     2.4820     0.0480   -26.2720    10.8240     6.7340     4.3490
 2754.0000    64.4840     7.7560     2.4750     0.0440   -26.7830    11.7420     7.0860     4.5570
 2754.5000    66.2190     7.7650     2.4730     0.0430   -26.5180    10.4910     6.9490     4.7640
 2755.0000    67.9640     7.7750     2.4780     0.0440   -25.9100     9.1590     6.7630     4.9530
 2755.5000    69.4660     7.7840     2.4770     0.0440   -26.8040     8.2070     6.7060     4.9980
 2756.0000    69.8490     7.7940     2.4720     0.0440   -25.6750     8.5930     6.5840     4.9980
 2756.5000    70.2000     7.8030     2.4720     0.0450   -25.5120     8.3590     6.2310     4.9130
