~VERSION INFORMATION
 VERS.                2.0:   CWLS LOG ASCII STANDARD - VERSION 2.0
 WRAP.                 NO:   ONE LINE PER DEPTH STEP
~WELL INFORMATION
#MNEM.UNIT      DATA TYPE    INFORMATION
#----------   ------------   ------------------------------
 STRT.F          218.0000:   START DEPTH
 STOP.F         3062.0000:   STOP DEPTH
 STEP.F            0.5000:   STEP LENGTH
 NULL.          -999.2500:   NO VALUE
 COMP.    FEXIN & SCISSON:   COMPANY
 WELL. FEXIN 32 "A" #3-34:   WELL
 FLD .              N P R:   FIELD
 LOC .      S34 T39N R78W:   LOCATION
 CNTY.            NATRONA:   COUNTY
 STAT.            WYOMING:   STATE
 CTRY. UNITED STATES OF AMERICA:   COUNTRY
 SRVC.              WELEX:   SERVICE COMPANY
 DATE.        18-JUL-1977:   LOGDATE
 API .     49025103960000:   API NUMBER
~CURVE INFORMATION
#MNEM.UNIT       API CODE    CURVE DESCRIPTION
#----------   ------------   ------------------------------
 DEPT.F                  :   
 CALD.IN     45 280 60 00:   CALIPER FROM DENSITY LOG
 RHOB.G/C3   45 350 01 00:   BULK DENSITY
 GRD .GAPI   45 310 01 00:   GAMMA RAY FROM DENSITY LOG
 CORR.G/C3   45 356 01 00:   DENSITY CORRECTION
 SPR .MV     07 010 01 00:   SPONTANEOUS POTENTIAL
 SGRD.OHMM   07 220 05 00:   SHALLOW SHORT GUARD RESISTIVITY
 ILM .OHMM   07 120 44 00:   INDUCTION LOG MEDIUM RESISTIVITY
 ILD .OHMM   07 120 46 00:   DEEP INDUCTION RESISTIVITY
~PARAMETER INFORMATION
#MNEM.UNIT          VALUE    DESCRIPTION
#----------   ------------   ------------------------------
 EKB .F         5080.0000:   Kelly bushing
 EGL .F         5070.0000:   Ground level
 TD  .F         3070.0000:   Total depth
 DATE.        18-JUL-1977:   Date logged
 CLNT.            A2DTECH:   Client Code
 SL  . 900' FNL & 1650'FWL:   Surface Location
 PD  .                 GL:   Permanent Datum
 DD  .F              3070:   Depth driller
 DL  .F              3063:   Depth logger
 BLI .F              3061:   Bottom log interval
 CS1 .IN            8.625:   Casing size
 CBD1.      8.625" @ 212':   Casing driller 1
 CBL1.F               222:   Casing logger 1
 BS1 .IN            7.875:   Bit size
 DFT .           CEHM-GEL:   Type fluid in hole
 DFD .                8.8:   Density
 DFV .                 42:   Viscosity
 DFPH.                7.5:   pH
 DFL .                  8:   Fluid loss
 MSS .           FLOWLINE:   Source of sample
 RMS .OHMM            .89:   Rm
 MST .F                94:   Rm Meas. temp.
 RMF .OHMM            .54:   Rmf
 MFST.F                94:   Rmf Meas. temp.
 RMC .OHMM           1.24:   Rmc
 MCST.F                94:   Rmc Meas. temp.
 MFSS.               FANN:   Source Rmf.
 RMB .OHMM            .67:   Rm. at BHT
 BHT .F               122:   BHT.
 TCS .HRS               4:   Time Circ. stopped
 MRT .F               122:   Maximum recorded temp.
 LUN .               8611:   Logging unit number
 LUL .             CASPER:   Logging unit location
 ENGI.          C.A. DOAK:   Recorded By
 WITN.         PETTINGILL:   Witnessed by
 ORIG.           5" PRINT:   Origin of data
 UWI .     49025103960000:   Unique Well ID
 DICO. A2D TECHNOLOGIES, INC.:   Digitizing Company
 DAPD.                 12:   Feet Above Permanent Datum
 BSD1.F              3950:   Depth drilled with bit1
 MCSS.                KIT:   Source Rmc.
 EPD .F              5070:   Elevation Permanent Datum
 LMF .                 KB:   Log Measured From
 DMF .                 KB:   Drilling Measured From
 TLI .F               200:   Top log interval
~OTHER INFORMATION
~A   DEPT     CALD       RHOB        GRD       CORR        SPR       SGRD        ILM        ILD   
# ...
 2081.0000     8.1400     2.4420    92.2660     0.0100   -68.3370    55.1250    38.8320    32.5720
 2081.5000     8.1400     2.4490    93.8240     0.0100   -68.4010    53.7990    37.9480    32.3130
 2082.0000     8.1400     2.4560    95.3630     0.0130   -68.4650    52.4730    37.0630    32.0550
 2082.5000     8.1400     2.4630    96.2110     0.0150   -68.5300    51.1470    36.1790    31.7960
 2083.0000     8.1400     2.4660    95.2200     0.0160   -68.5940    48.9490    35.5870    31.5370
 2083.5000     8.1400     2.4630    94.2840     0.0180   -68.6580    45.3010    35.5030    31.2780
 2084.0000     8.1400     2.4600    93.3510     0.0170   -68.7230    47.4470    35.4190    31.0290
 2084.5000     8.1400     2.4570    92.4150     0.0160   -68.7870    46.9590    35.3360    30.9150
 2085.0000     8.1400     2.4580    91.4790     0.0150   -68.8510    47.6940    35.2520    30.8050
 2085.5000     8.1400     2.4610    90.5420     0.0140   -68.9150    48.9570    35.1680    30.6950
 2086.0000     8.1400     2.4630    89.6100     0.0160   -68.9800    50.2210    35.0840    30.5850
 2086.5000     8.1400     2.4610    88.6940     0.0180   -69.0440    50.9220    35.0010    30.4750
 2087.0000     8.1400     2.4600    88.4880     0.0200   -69.1080    49.2470    34.9170    30.3650
 2087.5000     8.1400     2.4580    89.8830     0.0180   -69.1720    47.2100    34.8330    30.2550
 2088.0000     8.1400     2.4570    91.4020     0.0150   -69.2230    48.8630    34.7490    30.1450
 2088.5000     8.1400     2.4520    92.9320     0.0130   -69.2940    47.5400    34.6650    30.0350
 2089.0000     8.1400     2.4370    94.4670     0.0100   -69.3630    44.9580    34.5820    29.9250
 2089.5000     8.1400     2.4230    95.9990     0.0070   -69.4310    43.4690    34.4980    29.8150
 2090.0000     8.1400     2.4090    97.5060     0.0040   -69.5000    47.4730    34.4140    29.7060
 2090.5000     8.1400     2.4130    98.8430     0.0010   -69.5690    48.5280    33.9780    29.5960
 2091.0000     8.1400     2.4180    98.2840    -0.0020   -69.6370    48.3820    33.4860    29.4860
 2091.5000     8.1400     2.4220    96.9680    -0.0020   -69.7060    47.8650    32.9930    29.3760
 2092.0000     8.1390     2.4270    95.6640    -0.0020   -69.7750    44.9910    32.5000    29.2660
 2092.5000     8.1390     2.4270    94.3650    -0.0020   -69.8430    45.9290    32.2800    29.1560
 2093.0000     8.1380     2.4240    93.2200    -0.0020   -69.9120    42.8750    32.1960    29.0460
 2093.5000     8.1370     2.4250    94.5480    -0.0010   -69.9800    46.2460    32.1110    28.8860
 2094.0000     8.1360     2.4230    96.1280    -0.0010   -70.0490    44.6730    32.0260    28.5950
 2094.5000     8.1350     2.4200    97.7250    -0.0010   -70.1180    41.2570    31.9420    28.3030
 2095.0000     8.1340     2.4220    98.4290    -0.0010   -70.1860    39.4770    31.8570    28.0120
 2095.5000     8.1330     2.4250    95.7680    -0.0010   -70.2550    46.5650    31.7730    27.7200
 2096.0000     8.1320     2.4210    90.4710    -0.0010   -70.3240    42.8750    31.6880    27.4290
 2096.5000     8.1310     2.4170    85.0800    -0.0010   -70.3920    44.0460    31.6040    27.1370
 2097.0000     8.1300     2.4140    82.4060     0.0000   -70.4610    47.2100    31.5190    26.8450
 2097.5000     8.1290     2.4180    82.7480     0.0000   -70.5300    45.2810    31.2450    26.5540
 2098.0000     8.1280     2.4220    84.6070     0.0000   -70.5980    39.4770    30.5080    26.2620
 2098.5000     8.1280     2.4260    86.3900     0.0000   -70.6670    42.1700    29.7710    25.9710
 2099.0000     8.1270     2.4300    88.1600     0.0020   -70.7360    39.8040    29.0330    25.6790
 2099.5000     8.1260     2.4270    89.4140     0.0020   -70.8050    37.6210    28.2960    25.4160
 2100.0000     8.1250     2.4110    88.5650     0.0020   -70.8730    38.4060    27.5580    25.4160
 2100.5000     8.1240     2.3960    86.9040     0.0010   -70.9410    36.6050    26.8550    25.4870
 2101.0000     8.1230     2.3810    85.2330     0.0010   -70.9910    34.5630    26.9230    25.5520
 2101.5000     8.1220     2.3840    83.4890     0.0010   -70.9900    33.0110    27.0000    25.6160
 2102.0000     8.1210     2.3920    83.8440     0.0010   -70.9900    33.6570    27.4940    25.6800
 2102.5000     8.1210     2.4000    84.9660     0.0010   -70.9900    34.8790    28.4280    25.7450
 2103.0000     8.1260     2.4080    86.1140     0.0010   -70.9900    42.8970    29.3630    25.8090
 2103.5000     8.1310     2.4100    87.2710     0.0000   -70.9900    50.3200    30.2970    25.8740
 2104.0000     8.1370     2.4090    88.4030     0.0000   -70.9900    53.0680    31.0290    25.9380
 2104.5000     8.1420     2.4140    86.7260     0.0000   -70.9900    49.1910    30.0380    26.1260
 2105.0000     8.1470     2.4180    84.5900    -0.0010   -70.9900    44.9910    29.7740    25.8100
 2105.5000     8.1530     2.4210    82.8190    -0.0040   -70.9900    42.5490    29.4160    25.1260
 2106.0000     8.1580     2.4200    87.8580    -0.0060   -70.9900    38.9690    27.5830    24.4420
 2106.5000     8.1630     2.4190    86.1590    -0.0080   -70.9900    35.3900    26.1310    23.7580
 2107.0000     8.1690     2.4270    83.2320    -0.0070   -70.9900    31.8100    25.0180    23.0820
 2107.5000     8.1740     2.4350    80.2490    -0.0050   -70.9900    28.3740    23.7260    23.1000
 2108.0000     8.1790     2.4390    77.2710    -0.0020   -70.9900    29.3610    24.9240    23.1380
 2108.5000     8.1840     2.4390    75.5320     0.0000   -70.9900    32.8400    26.3060    23.1770
 2109.0000     8.1900     2.4450    76.2470     0.0020   -70.9900    36.5100    26.3730    23.2160
 2109.5000     8.1950     2.4520    77.0500     0.0060   -70.9900    41.7390    26.4370    23.2550
 2110.0000     8.2000     2.4540    77.8610     0.0100   -70.9900    46.2460    26.4880    23.2940
 2110.5000     8.2060     2.4540    78.8060     0.0100   -70.9900    41.8810    26.3060    23.3320
 2111.0000     8.2110     2.4570    82.9150     0.0160   -70.9900    32.5600    26.1570    23.3710
 2111.5000     8.2160     2.4620    87.1150     0.0220   -70.9900    33.5910    26.0090    23.5000
 2112.0000     8.2220     2.4620    91.3270     0.0280   -70.9910    37.3630    25.8600    23.9680
 2112.5000     8.2270     2.4600    91.5760     0.0270   -70.9200    36.5850    25.7110    24.4350
 2113.0000     8.2320     2.4590    90.2660     0.0250   -70.8140    34.6400    25.5920    24.9030
 2113.5000     8.2380     2.4600    89.0340     0.0240   -70.7070    35.9330    26.4480    25.3710
 2114.0000     8.2320     2.4570    90.0350     0.0230   -70.6000    37.9680    27.3070    25.8380
 2114.5000     8.2240     2.4520    91.8980     0.0210   -70.4930    41.3080    28.1660    26.3060
 2115.0000     8.2150     2.4470    93.7170     0.0200   -70.3860    46.7580    29.0260    26.3570
 2115.5000     8.2070     2.4420    94.5140     0.0160   -70.2800    52.2090    29.8850    26.6380
 2116.0000     8.1990     2.4370    92.2770     0.0110   -70.1980    53.8040    30.7440    26.9190
 2116.5000     8.1900     2.4350    90.0540     0.0070   -70.2110    41.9890    31.4590    27.2000
 2117.0000     8.1820     2.4320    88.1170     0.0040   -70.2220    40.3010    31.6760    27.6040
 2117.5000     8.1740     2.4290    88.4130     0.0040   -70.2320    40.0240    31.5470    27.5080
 2118.0000     8.1650     2.4270    91.0330     0.0040   -70.2430    40.7550    31.3770    27.2430
 2118.5000     8.1600     2.4220    94.2110     0.0040   -70.2540    41.1410    31.2070    26.9790
 2119.0000     8.1620     2.4150    95.7880     0.0030   -70.2640    40.1680    31.0290    26.7140
 2119.5000     8.1630     2.4070    93.8020     0.0020   -70.2750    39.3240    31.1370    26.4880
 2120.0000     8.1640     2.4070    91.8330     0.0010   -70.2860    38.9380    31.2510    26.7630
 2120.5000     8.1660     2.4120    89.8700     0.0000   -70.2960    43.8490    31.3660    27.1330
 2121.0000     8.1670     2.4160    87.9050    -0.0010   -70.3070    46.2460    31.4800    27.5040
