~VERSION INFORMATION
 VERS.                2.0:   CWLS LOG ASCII STANDARD - VERSION 2.0
 WRAP.                 NO:   ONE LINE PER DEPTH STEP
~WELL INFORMATION
#MNEM.UNIT      DATA TYPE    INFORMATION
#----------   ------------   ------------------------------
 STRT.F          200.0000:   START DEPTH
 STOP.F         3050.0000:   STOP DEPTH
 STEP.F            0.5000:   STEP LENGTH
 NULL.          -999.2500:   NO VALUE
 COMP.     FENIX & SISSON:   COMPANY
 WELL. FENIX & SISSON "AX" #16-28:   WELL
 FLD .              NPR 3:   FIELD
 LOC .      S28 T39N R78W:   LOCATION
 CNTY.            NATRONA:   COUNTY
 STAT.            WYOMING:   STATE
 CTRY. UNITED STATES OF AMERICA:   COUNTRY
 SRVC.      DRESSER ATLAS:   SERVICE COMPANY
 DATE.        01-JUL-1977:   LOGDATE
 API .     49025103930000:   API NUMBER
~CURVE INFORMATION
#MNEM.UNIT       API CODE    CURVE DESCRIPTION
#----------   ------------   ------------------------------
 DEPT.F                  :   
 CALD.IN     45 280 60 00:   CALIPER FROM DENSITY LOG
 GRD .GAPI   45 310 01 00:   GAMMA RAY FROM DENSITY LOG
 CORR.G/C3   45 356 01 00:   DENSITY CORRECTION
 TEND.LBS    45 635 01 00:   TENSION FROM DENSITY LOG
 SPR .MV     07 010 01 00:   SPONTANEOUS POTENTIAL
 ILD .OHMM   07 120 46 00:   DEEP INDUCTION RESISTIVITY
 ILM .OHMM   07 120 44 00:   INDUCTION LOG MEDIUM RESISTIVITY
 SFL .OHMM   07 220 01 00:   SHALLOW FOCUSED LOG RESISTIVITY
 RHOB.G/C3   45 350 01 00:   BULK DENSITY
~PARAMETER INFORMATION
#MNEM.UNIT          VALUE    DESCRIPTION
#----------   ------------   ------------------------------
 EKB .F         5067.0000:   Kelly bushing
 EGL .F         5057.0000:   Ground level
 EDF .F         5066.0000:   Drilling floor
 EPD .F            0.0000:   Permanent datum
 TD  .F         3036.0000:   Total depth
 DATE.        01-JUL-1977:   Date logged
 CLNT.            A2DTECH:   Client Code
 SL  . 1220' FSL & 330' FWL:   Surface Location
 PD  .                 GL:   Permanent Datum
 DAPD.F                10:   Feet Above Permanent Datum
 DD  .F              3034:   Depth driller
 DL  .F              3036:   Depth logger
 BLI .F              3034:   Bottom log interval
 TLI .F               214:   Top log interval
 CS1 .IN            8.625:   Casing size
 CBD1.      8.625" @ 204':   Casing driller 1
 CBL1.F               214:   Casing logger 1
 BS1 .IN            7.875:   Bit size
 BSD1.F              3034:   Depth drilled with bit1
 DFT .                KCL:   Type fluid in hole
 DFD .                  9:   Density
 DFV .                 34:   Viscosity
 DFPH.                7.2:   pH
 DFL .                8.8:   Fluid loss
 MSS .         CIRCULATED:   Source of sample
 RMS .OHMM           .112:   Rm
 MST .F                75:   Rm Meas. temp.
 RMF .OHMM           .085:   Rmf
 MFST.F                75:   Rmf Meas. temp.
 RMC .OHMM           .141:   Rmc
 MCST.F                75:   Rmc Meas. temp.
 MFSS.               MEAS:   Source Rmf.
 MCSS.               MEAS:   Source Rmc.
 RMB .OHMM           .067:   Rm. at BHT
 BHT .F               124:   BHT.
 TCS .HRS               1:   Time Circ. stopped
 MRT .F               124:   Maximum recorded temp.
 LUN .               6134:   Logging unit number
 LUL .              GLTTE:   Logging unit location
 ENGI.              GOULD:   Recorded By
 WITN.         PETTINGILL:   Witnessed by
 ORIG.       2.5"5" PRINT:   Origin of data
 UWI .     49025103930000:   Unique Well ID
 DICO. A2D TECHNOLOGIES, INC.:   Digitizing Company
~OTHER INFORMATION
~A   DEPT     CALD         GRD      CORR       TEND        SPR        ILD        ILM        SFL       RHOB   
# ...
 2645.5000     7.9310    96.6880     0.0520   -60.3230   -60.1820     7.6290     8.7620    15.0810     2.5560
 2646.0000     7.9340    94.9870     0.0540   -60.7650   -59.9890     7.5350     8.8020    15.0810     2.5500
 2646.5000     7.9370    95.3250     0.0480   -61.2070   -59.9040     7.4410     8.8560    15.0810     2.5390
 2647.0000     7.9400    95.2310     0.0470   -61.6490   -58.0350     7.3190     8.6260    15.0810     2.5400
 2647.5000     7.9430    94.9710     0.0510   -62.0910   -56.3190     7.1110     8.2730    16.2290     2.5440
 2648.0000     7.9460    95.0330     0.0520   -62.5340   -55.7450     6.9030     7.9210    15.7990     2.5370
 2648.5000     7.9490    95.1180     0.0530   -62.9760   -55.9680     6.6950     7.5680    13.9590     2.5300
 2649.0000     7.9530    95.4120     0.0540   -63.4180   -56.3400     6.4870     7.2160    12.8970     2.5260
 2649.5000     7.9560    95.8990     0.0520   -63.8600   -57.2890     6.3640     6.7240    12.2120     2.5270
 2650.0000     7.9590    96.9340     0.0420   -64.3020   -58.3880     6.1260     6.7720    11.3860     2.5080
 2650.5000     7.9620    97.2360     0.0340   -64.7440   -60.5700     5.9240     6.8490    10.5600     2.4830
 2651.0000     7.9650    98.1030     0.0280   -65.1860   -61.6780     5.7220     6.9760     9.8870     2.4690
 2651.5000     7.9670    97.2950     0.0270   -65.6280   -62.0440     5.5780     6.9100     9.8870     2.4770
 2652.0000     7.9690    97.0630     0.0400   -66.0700   -63.2410     5.4950     6.7350    10.6440     2.5180
 2652.5000     7.9720    98.4620     0.0420   -66.4680   -62.5330     5.5060     6.5600    12.5520     2.5320
 2653.0000     7.9750    99.9340     0.0370   -59.6480   -61.1490     5.5380     6.3640    11.9390     2.5090
 2653.5000     7.9770   100.3470     0.0370   -53.4470   -59.7370     5.5700     6.4390    10.8370     2.5090
 2654.0000     7.9800    99.0630     0.0300   -46.6270   -58.5150     5.6020     6.6560     9.8870     2.5020
 2654.5000     7.9830    97.8580     0.0180   -51.5870   -57.5720     5.6340     6.8730    10.6260     2.4590
 2655.0000     7.9850    96.3310    -0.0030   -57.0990   -56.6980     5.6660     6.9760    11.6330     2.3990
 2655.5000     7.9860    98.1100    -0.0400   -62.6100   -56.8810     5.7000     6.9760    12.3950     2.3350
 2656.0000     7.9880    97.2230    -0.0680   -68.1220   -57.3640     5.6340     6.9760    12.7840     2.2570
 2656.5000     7.9910    96.4370    -0.0580   -73.6330   -56.6280     5.5610     6.9760    12.7270     2.2840
 2657.0000     7.9930    96.6410    -0.0370   -74.0640   -55.2360     5.4950     6.8490    12.5520     2.3280
 2657.5000     7.9950    95.8810    -0.0040   -69.4130   -56.6230     5.7720     7.1740    11.3520     2.3840
 2658.0000     7.9970    94.5320     0.0340   -64.7630   -59.3020     6.0260     7.4730     9.8870     2.4620
 2658.5000     7.9990    93.6210     0.0580   -60.1130   -60.6060     6.2800     7.7720    10.2390     2.5270
 2659.0000     8.0010    92.8300     0.0630   -55.4630   -59.6630     6.5340     8.0710    11.5600     2.5310
 2659.5000     8.0030    92.0460     0.0550   -50.8120   -58.0740     6.8470     8.3700    14.1220     2.5000
 2660.0000     8.0050    92.9180     0.0440   -46.6270   -57.6970     7.3350     8.5950    20.4020     2.4830
 2660.5000     8.0050    92.7340     0.0410   -47.6010   -57.3490     7.8240     8.7270    24.3320     2.4710
 2661.0000     8.0040    90.5130     0.0420   -48.4870   -55.7050     8.3130     8.8560    22.1730     2.4750
 2661.5000     8.0020    90.0430     0.0450   -49.3730   -53.6040     8.8350     9.4490    25.1090     2.4850
 2662.0000     8.0000    90.5570     0.0490   -50.2590   -53.0070     9.4810    10.0280    24.6310     2.5020
 2662.5000     7.9980    89.6340     0.0610   -51.1440   -55.2520    10.2570    10.3630    24.1520     2.5240
 2663.0000     7.9960    90.7560     0.0700   -52.0300   -54.7890    10.2570    10.5390    23.4280     2.5330
 2663.5000     7.9940    90.6140     0.0650   -52.9160   -53.0920     9.9800    10.7160    23.4280     2.5220
 2664.0000     7.9920    90.3630     0.0590   -53.8020   -52.9650     9.7010    10.8920    20.2290     2.5230
 2664.5000     7.9900    90.6240     0.0550   -54.6870   -54.7500     9.4220    11.0380    21.5140     2.5120
 2665.0000     7.9890    91.0650     0.0510   -55.5730   -56.4040     9.3570    10.9060    24.7550     2.5110
 2665.5000     7.9870    92.4250     0.0490   -56.5480   -58.0030     9.3570    10.7930    22.3520     2.5110
 2666.0000     7.9850    92.9840     0.0480   -55.3080   -58.3930     9.3570    10.6810    17.7900     2.5120
 2666.5000     7.9820    91.8930     0.0470   -53.9300   -58.7450     9.3570    10.5680    17.7900     2.5070
 2667.0000     7.9800    92.4220     0.0500   -52.5520   -58.8980     9.3570    10.4470    18.3080     2.5090
 2667.5000     7.9780    93.6760     0.0540   -51.1740   -58.9630     9.1410    10.2730    19.0150     2.5230
 2668.0000     7.9750    96.1290     0.0610   -49.7960   -59.0290     8.9080    10.0700    19.5000     2.5320
 2668.5000     7.9730    96.7890     0.0620   -48.4180   -59.0920     8.6750     9.6260    19.5000     2.5390
 2669.0000     7.9710    96.9590     0.0570   -47.0400   -59.1540     8.4410     9.1390    17.2600     2.5300
 2669.5000     7.9690    96.0130     0.0540   -48.5560   -59.2290     8.2290     8.6950    15.8790     2.5250
 2670.0000     7.9660    94.4280     0.0610   -51.3120   -59.2050     8.3280     8.6950    15.0810     2.5340
 2670.5000     7.9640    94.3240     0.0670   -54.0670   -59.1040     8.4720     8.8180    15.0810     2.5420
 2671.0000     7.9620    94.1150     0.0670   -56.8230   -59.0110     8.6950     9.0770    15.0810     2.5240
 2671.5000     7.9600    93.2130     0.0640   -59.5790   -58.8850     8.5590     9.3360    15.0810     2.5150
 2672.0000     7.9570    92.6900     0.0570   -62.3350   -59.1030     8.2650     9.5310    15.9580     2.5060
 2672.5000     7.9550    93.6840     0.0500   -65.0900   -59.6760     7.9700     9.5310    17.3020     2.5000
 2673.0000     7.9530    95.0180     0.0430   -65.5320   -60.2590     7.6760     8.9510    18.1190     2.5000
 2673.5000     7.9500    95.8690     0.0370   -63.6610   -60.2710     7.5070     8.3930    18.1190     2.4940
 2674.0000     7.9480    97.7630     0.0310   -61.7890   -59.6640     7.5070     7.5070    16.9510     2.4860
 2674.5000     7.9510    99.0880     0.0330   -59.9170   -58.7720     7.5070     7.8810    15.8110     2.5050
 2675.0000     7.9690    97.9470     0.0380   -58.0450   -57.8850     7.4090     8.7910    13.2400     2.5330
 2675.5000     7.9860    96.3170     0.0440   -56.1730   -57.0240     7.2450     9.7070     9.7070     2.5390
 2676.0000     8.0030    95.1620     0.0480   -54.3010   -56.1280     7.0820     9.2350    23.4280     2.5450
 2676.5000     8.0200    95.9200     0.0500   -52.4300   -55.7090     6.8490     8.7590    20.7270     2.5460
 2677.0000     8.0370    97.3080     0.0470   -50.5580   -55.4300     6.8910     8.2830    14.8060     2.5380
 2677.5000     8.0520    97.6060     0.0450   -48.6860   -55.8950     6.9650     7.7880    13.5140     2.5420
 2678.0000     8.0650    97.9190     0.0450   -46.6270   -58.2150     7.0390     7.5070    12.4100     2.5490
 2678.5000     8.0390    98.6920     0.0500   -48.2500   -58.2300     7.1130     7.7420    11.2430     2.5610
 2679.0000     8.0010    98.6050     0.0570   -50.0540   -56.6770     7.1870     8.0540    11.2430     2.5750
 2679.5000     7.9670    96.6440     0.0630   -51.8580   -55.5560     7.2790     8.3670    13.3730     2.5900
 2680.0000     7.9660    94.7960     0.0600   -53.6620   -56.2070     7.4060     8.6800    16.5300     2.5810
 2680.5000     7.9660    95.2930     0.0600   -55.4650   -57.7700     7.5330     9.0200    16.1410     2.5820
 2681.0000     7.9660    94.1850     0.0660   -57.2690   -59.7450     7.6460     9.5270    14.9060     2.5950
 2681.5000     7.9660    93.1070     0.0630   -59.0730   -61.6840     8.1740    10.0830    14.0130     2.5880
