~VERSION INFORMATION
 VERS.                2.0:   CWLS LOG ASCII STANDARD - VERSION 2.0
 WRAP.                 NO:   ONE LINE PER DEPTH STEP
~WELL INFORMATION
#MNEM.UNIT      DATA TYPE    INFORMATION
#----------   ------------   ------------------------------
 STRT.F           10.0000:   START DEPTH
 STOP.F         3234.0000:   STOP DEPTH
 STEP.F            0.5000:   STEP LENGTH
 NULL.          -999.2500:   NO VALUE
 COMP. LAWRENCE ALLISON & ASSOSCIATES:   COMPANY
 WELL. 		  38-X-10:   WELL
 FLD .             NPR #3:   FIELD
 LOC .      S10 T38N R78W:   LOCATION
 CNTY.            NATRONA:   COUNTY
 STAT.            WYOMING:   STATE
 CTRY. UNITED STATES OF AMERICA:   COUNTRY
 SRVC.      DRESSER ATLAS:   SERVICE COMPANY
 DATE.        02-AUG-1986:   LOGDATE
 API .       490251120600:   API NUMBER
~CURVE INFORMATION
#MNEM.UNIT       API CODE    CURVE DESCRIPTION
#----------   ------------   ------------------------------
 DEPT.F                  :   
 GRR .GAPI   07 310 01 00:   GAMMA RAY FROM RESISTIVITY
 SPR .MV     07 010 01 00:   SPONTANEOUS POTENTIAL
 TENR.LBS    07 635 01 00:   TENSION FROM RESISTIVITY
 RILM.OHMM   07 120 44 00:   RESISTIVITY INDUCTION LOG MEDIUM
 CNC .DEC    42 890 03 00:   NEUTRON POROSITY SANDSTONE
 CALD.IN     45 280 60 00:   CALIPER FROM DENSITY LOG
 GRD .GAPI   45 310 01 00:   GAMMA RAY FROM DENSITY LOG
 RHOB.G/C3   45 350 01 00:   BULK DENSITY
 TEND.LBS    45 635 01 00:   TENSION FORM DENSITY LOG
 CORR.G/C3   45 356 01 00:   DENSITY CORRECTION
 RILD.OHMM   07 120 46 00:   RESISTIVITY INDUCTION LOG DEEP
 RFOC.OHMM   07 220 04 00:   RESISTIVITY FOCUSED
~PARAMETER INFORMATION
#MNEM.UNIT          VALUE    DESCRIPTION
#----------   ------------   ------------------------------
 EKB .F         5224.0000:   Kelly bushing
 EGL .F         5212.0000:   Ground level
 EDF .F            0.0000:   Drilling floor
 TD  .F         3231.0000:   Total depth
 CLNT.            A2DTECH:   Client Code
 SL  . 296' FSL & 1435' FWL:   Surface Location
 PD  .                 GL:   Permanent Datum
 EPD .F              5212:   Elevation Permanent Datum
 LMF .                 KB:   Log Measured From
 DMF .                 KB:   Drilling Measured From
 DAPD.F                12:   Feet Above Permanent Datum
 DATE.        02-AUG-1986:   Date Logged [DD-MMM-YYYY]
 DD  .F              3230:   Depth driller
 DL  .F              3231:   Depth logger
 BLI .F              3229:   Bottom log interval
 TLI .F                11:   Top log interval
 CS1 .IN            8.625:   Casing size
 CBD1.      8.625" @ 626':   Casing driller 1
 CBL1.F               626:   Casing logger 1
 BS1 .IN            7.875:   Bit size
 BSD1.F              3230:   Depth drilled with bit1
 DFT .            KCL-GEL:   Type fluid in hole
 DFD .                  9:   Density
 DFV .                 36:   Viscosity
 DFPH.               10.5:   pH
 DFL .                 12:   Fluid loss
 MSS .           FLOWLINE:   Source of sample
 RMS .OHMM          0.263:   Rm
 MST .F               100:   Rm Meas. temp.
 RMF .OHMM          0.197:   Rmf
 MFST.F               100:   Rmf Meas. temp.
 MFSS.               MEAS:   Source Rmf.
 RMC .OHMM          0.329:   Rmc
 MCST.F               100:   Rmc Meas. temp.
 MCSS.               CALC:   Source Rmc.
 RMB .OHMM          0.193:   Rm. at BHT
 BHT .F               136:   BHT.
 TCS .HRS               5:   Time Circ. stopped
 MRT .F               136:   Maximum recorded temp.
 LUN .            HL-6274:   Logging unit number
 LUL .           GILLETTE:   Logging unit location
 ENGI.            PANASUK:   Recorded By
 WITN.             STRONG:   Witnessed by
 ORIG.        2" 5" PRINT:   Origin of data
 UWI .       490251120600:   Unique Well ID
 DICO. A2D TECHNOLOGIES, INC.:   Digitizing Company
~OTHER INFORMATION
~A   DEPT       GRR       SPR       TENR       RILM        CNC       CALD        GRD       RHOB       TEND       CORR       RILD       RFOC   
# ...
 2530.0000   116.5441   -41.2728   -41.5275     6.4973     0.2618    10.0701   115.1196     2.5744   -42.1687    -0.0005     6.5316     7.5721
 2530.5000   118.3506   -41.2788   -33.9020     6.3609     0.2630    10.0701   117.1630     2.5813   -26.2794     0.0103     6.4390     7.1101
 2531.0000   119.8541   -41.2859   -18.7236     6.2708     0.2657    10.0854   118.6817     2.5783    -5.0986     0.0178     6.3477     7.0593
 2531.5000   121.0546   -41.1388    -3.5452     6.1391     0.2703    10.0854   120.2004     2.5683   -12.9917     0.0102     6.2577     7.1073
 2532.0000   122.2989   -40.9931    11.6331     6.0097     0.2748    10.0854   121.7191     2.5570   -20.8121     0.0118     6.1198     7.2056
 2532.5000   123.4554   -40.6959    -3.9054     5.8836     0.2760    10.0854   122.0275     2.5586   -28.6326    -0.0230     5.9967     7.1538
 2533.0000   119.5014   -40.5517   -33.5388     5.8003     0.2675    10.0854   119.0077     2.5601   -28.9229    -0.0078     5.9117     6.9556
 2533.5000   116.7625   -40.4060   -48.5538     5.7581     0.2538    10.0854   116.5802     2.5601   -29.2168     0.0058     5.9097     6.6693
 2534.0000   114.9326   -40.2603   -48.4812     5.7562     0.2441    10.0854   115.0338     2.5579   -14.5159     0.0149     5.9078     6.4846
 2534.5000   113.1028   -40.4191   -40.8557     5.7542     0.2405    10.0854   113.2779     2.5488     0.3266     0.0150     5.8647     6.7133
 2535.0000   112.1615   -40.7280   -10.5716     5.7119     0.2405    10.0854   111.1657     2.5419    15.0965     0.0210     5.8220     6.9599
 2535.5000   111.8644   -40.7338    19.9125     5.7100     0.2501    10.1006   110.8676     2.5459     7.2035     0.0377     5.8196     7.2958
 2536.0000   112.4588   -40.8911    27.3380     5.6685     0.2586    10.1006   111.1775     2.5481    -0.6169     0.0771     5.7772     7.3971
 2536.5000   113.0532   -41.0485    -2.7827     5.6273     0.2665    10.1006   112.0910     2.5572    -8.4373     0.0665     5.7352     7.0430
 2537.0000   114.2536   -41.0557   -10.2811     5.5864     0.2737    10.0854   113.3072     2.5694   -23.7951     0.0484     5.6538     6.5674
 2537.5000   116.6662   -41.0616   -25.3142     5.5073     0.2709    10.0854   114.5485     2.5809   -31.6809     0.0361     5.5737     6.1238
 2538.0000   118.4727   -41.0674   -32.7945     5.4232     0.2682    10.0854   114.8332     2.5862   -31.9713     0.0242     5.4946     5.8717
 2538.5000   114.2182   -41.0732   -32.7037     5.2780     0.2700    10.0854   113.0237     2.5733   -39.7916     0.0182     5.3417     5.9117
 2539.0000   115.1131   -41.0791   -32.6284     5.1672     0.2785    10.0701   112.7255     2.5679   -40.0820     0.0167     5.1926     5.9518
 2539.5000   116.3135   -41.0849   -32.5403     5.0236     0.2806    10.0549   113.9431     2.5642   -40.3723     0.0183     5.0834     5.9503
 2540.0000   117.5140   -41.0909   -24.9148     4.8840     0.2740    10.0549   115.1592     2.5604   -33.1326     0.0107     4.9420     5.9911
 2540.5000   118.4143   -40.9465   -17.2893     4.7483     0.2697    10.0549   115.7702     2.5452   -18.3626    -0.0074     4.8044     5.9479
 2541.0000   119.0058   -40.8008   -17.2167     4.5487     0.2700    10.0549   116.0787     2.5293   -18.7255    -0.0214     4.6707     5.9029
 2541.5000   119.6184   -40.8066   -17.1440     4.3645     0.2754    10.0549   116.7643     2.5209   -19.0158    -0.0315     4.5054     5.6620
 2542.0000   124.7371   -40.6595   -17.0695     4.2137     0.2954    10.0549   120.9330     2.5111   -26.8363    -0.0179     4.3226     5.3913
 2542.5000   127.4527   -40.6668   -16.9806     4.0682     0.3105    10.0549   124.5697     2.4875   -27.1266    -0.0088     4.2023     5.0623
 2543.0000   128.9562   -40.5211   -16.9080     3.9277     0.3120    10.0549   127.2987     2.4784   -27.4168    -0.0027     4.0570     4.7535
 2543.5000   129.8565   -40.5284   -16.8354     3.8186     0.2966    10.0549   128.5149     2.4891   -27.7109     0.0034     3.9167     4.5897
 2544.0000   128.0237   -40.2312   -16.7628     3.7363     0.2923    10.0396   128.5208     2.5104   -28.0700    -0.0041     3.8343     4.6221
 2544.5000   124.9818   -40.2370   -24.2447     3.7109     0.2950    10.0396   126.1060     2.5180   -28.3604    -0.0026     3.8064     4.8847
 2545.0000   124.3636   -40.0898   -24.1692     3.7617     0.2989    10.0244   123.6816     2.5135   -28.6507    -0.0026     3.8051     5.0924
 2545.5000   123.4403   -39.9455   -24.0796     3.8398     0.2961    10.0244   123.3946     2.5089   -36.4712     0.0111     3.8569     5.2720
 2546.0000   122.5196   -39.9515   -31.5780     3.9469     0.2831    10.0244   123.4019     2.5089   -36.7615     0.0323     3.9101     5.0550
 2546.5000   121.9018   -39.9587   -31.4872     4.0570     0.2750    10.0244   121.5924     2.5176   -37.0519     0.0474     4.0190     4.9149
 2547.0000   121.2841   -39.6601   -23.8618     4.2017     0.2707    10.0244   119.7813     2.5364   -37.3493     0.0354     4.1313     4.9140
 2547.5000   120.6664   -39.5144   -23.7891     4.4690     0.2683    10.0244   119.7887     2.5417   -30.1024     0.0293     4.2172     5.0166
 2548.0000   118.5014   -39.5217   -38.8223     4.5940     0.2625    10.0396   117.6765     2.5395   -30.4652    -0.0030     4.3065     5.4532
 2548.5000   119.4280   -39.6790   -46.3025     4.5602     0.2582    10.0396   117.6652     2.5403   -38.2857    -0.0160     4.4248     5.7649
 2549.0000   123.0527   -39.6848   -46.2117     4.4645     0.2564    10.0387   119.8283     2.5464   -48.7191     0.0098     4.4858     5.8044
 2549.5000   124.2560   -39.8436   -46.1391     4.5256     0.2612    10.0244   121.9316     2.5578   -53.9265     0.0264     4.5469     5.6828
 2550.0000   123.3353   -40.0005   -46.0604     4.6195     0.2676    10.0396   122.2400     2.5594   -54.2169     0.0184     4.6416     5.6030
 2550.5000   122.1067   -40.3093   -45.9157     4.7496     0.2630    10.0396   120.8459     2.5418   -57.9936    -0.0008     4.6734     5.5254
 2551.0000   120.5799   -40.6182   -60.8766     4.8159     0.2609    10.0244   121.7458     2.5266   -62.0597    -0.0189     4.7722     5.5254
 2551.5000   119.3591   -40.7758   -75.8014     4.9515     0.2618    10.0244   122.3478     2.5244   -54.6686    -0.0108     4.9399     5.6422
 2552.0000   123.5869   -40.7828   -68.1037     5.0910     0.2718    10.0244   124.7611     2.5312   -54.8193     0.0144     5.0790     5.8039
 2552.5000   126.3026   -40.6356   -60.4061     5.2344     0.2803    10.0244   126.5709     2.5358   -39.9385     0.0068     5.2219     6.0919
 2553.0000   128.1153   -40.3399   -52.7084     5.3841     0.2791    10.0244   127.1723     2.5335   -40.0829    -0.0098     5.3689     6.3522
 2553.5000   128.7036   -40.1942   -37.4579     5.6110     0.2730    10.0523   125.9602     2.5297   -40.2272    -0.0234     5.5586     6.6235
 2554.0000   127.1739   -39.8970   -36.9112     5.7690     0.2602    10.0520   125.6552     2.5266   -47.8656    -0.0340     5.7214     6.9065
 2554.5000   125.9502   -39.7513   -29.5792     5.9315     0.2518    10.0517   125.6523     2.5274   -32.9858    -0.0219     5.9168     7.3027
 2555.0000   126.2416   -40.2131   -29.4345     6.0143     0.2542    10.0363   125.9522     2.5358   -33.1325    -0.0098     6.0411     7.6715
 2555.5000   126.8360   -40.3704   -36.8425     6.0982     0.2602    10.0360   126.5529     2.5419   -33.3105    -0.0144     6.0825     7.8848
 2556.0000   128.3641   -40.5278   -51.8035     6.0978     0.2642    10.0508   127.5048     2.5434   -33.4549    -0.0159     6.1242     7.3538
 2556.5000   130.1431   -40.5336   -59.2145     6.1400     0.2639    10.0505   128.9633     2.5426   -41.1294    -0.0008     6.1234     7.1018
 2557.0000   130.7405   -40.5394   -66.6197     6.1395     0.2660    10.0350   129.2632     2.5449   -56.3339     0.0129     6.1226     7.0035
 2557.5000   129.5139   -40.3937   -58.8858     6.1391     0.2723    10.0499   128.0511     2.5487   -64.0084     0.0093     6.1216     7.0525
