~VERSION INFORMATION
 VERS.                2.0:   CWLS LOG ASCII STANDARD - VERSION 2.0
 WRAP.                 NO:   ONE LINE PER DEPTH STEP
~WELL INFORMATION
#MNEM.UNIT      DATA TYPE    INFORMATION
#----------   ------------   ------------------------------
 STRT.F            5.5000:   START DEPTH
 STOP.F         3261.0000:   STOP DEPTH
 STEP.F            0.5000:   STEP LENGTH
 NULL.          -999.2500:   NO VALUE
 COMP. LAWRENCE ALLISON & ASSOCIATES:   COMPANY
 WELL. LAWRENCE "X" #12-14:   WELL
 FLD .              NPR 3:   FIELD
 LOC .      S14 T38N R78W:   LOCATION
 CNTY.            NATRONA:   COUNTY
 STAT.            WYOMING:   STATE
 CTRY. UNITED STATES OF AMERICA:   COUNTRY
 SRVC.      DRESSER ATLAS:   SERVICE COMPANY
 DATE.        18-AUG-1986:   LOGDATE
 API .     49025111080000:   API NUMBER
~CURVE INFORMATION
#MNEM.UNIT       API CODE    CURVE DESCRIPTION
#----------   ------------   ------------------------------
 DEPT.F                  :   
 RILM.OHMM   07 120 44 00:   INDUCTION LOG MEDIUM RESISTIVITY
 GRR .GAPI   07 310 01 00:   GAMMA RAY FROM RESISTIVITY
 SPR .MV     07 010 01 00:   SPONTANEOUS POTENTIAL
 NPHI.DEC    42 890 03 00:   NEUTRON POROSITY SANDSTONE
 CALD.IN     45 280 60 00:   CALIPER FROM DENSITY LOG
 TEND.LBS    45 635 01 00:   TENSION FORM DENSITY LOG
 DRHO.G/C3   45 356 01 00:   DENSITY CORRECTION
 DEN .G/C3   45 350 01 00:   BULK DENSITY
 RILD.OHMM   07 120 46 00:   DEEP INDUCTION RESISTIVITY
 RFOC.OHMM   07 220 04 00:   RESISTIVITY FOCUSED LOG RES.
~PARAMETER INFORMATION
#MNEM.UNIT          VALUE    DESCRIPTION
#----------   ------------   ------------------------------
 EKB .F         5245.0000:   Kelly bushing
 EGL .F         5234.0000:   Ground level
 TD  .F         3250.0000:   Total depth
 CLNT.            A2DTECH:   Client Code
 SL  . 901' FNL & 485' FWL:   Surface Location
 PD  .                 GL:   Permanent Datum
 EPD .F              5234:   Elevation Permanent Datum
 LMF .                 KB:   Log Measured From
 DMF .                 KB:   Drilling Measured From
 DAPD.F                11:   Feet Above Permanent Datum
 DATE.        18-AUG-1986:   Date Logged [DD-MMM-YYYY]
 DD  .F              3250:   Depth driller
 DL  .F              3246:   Depth logger
 BLI .F              3244:   Bottom log interval
 TLI .F                 0:   Top log interval
 CS1 .IN            8.625:   Casing size
 CBD1.      8.625" @ 733':   Casing driller 1
 CBL1.F               735:   Casing logger 1
 BS1 .IN            7.875:   Bit size
 BSD1.F              3250:   Depth drilled with bit1
 DFT .            KCL-GEL:   Type fluid in hole
 DFD .                8.8:   Density
 DFV .                 36:   Viscosity
 DFPH.                8.5:   pH
 DFL .               12.8:   Fluid loss
 MSS .           FLOWLINE:   Source of sample
 RMS .OHMM          0.292:   Rm
 MST .F                73:   Rm Meas. temp.
 RMF .OHMM          0.224:   Rmf
 MFST.F                73:   Rmf Meas. temp.
 MFSS.               MEAS:   Source Rmf.
 RMC .OHMM          0.365:   Rmc
 MCST.F                73:   Rmc Meas. temp.
 MCSS.               CALC:   Source Rmc.
 RMB .OHMM          0.154:   Rm. at BHT
 BHT .F               138:   BHT.
 TCS .HRS               5:   Time Circ. stopped
 MRT .F               138:   Maximum recorded temp.
 LUN .            HL-6214:   Logging unit number
 LUL .           GILLETTE:   Logging unit location
 ENGI.             RAUTIO:   Recorded By
 WITN.             STRONG:   Witnessed by
 ORIG.        2" 5" PRINT:   Origin of data
 UWI .     49025111080000:   Unique Well ID
 DICO. A2D TECHNOLOGIES, INC.:   Digitizing Company
~OTHER INFORMATION
~A    DEPT    RILM         GRR       SPR       NPHI       CALD       TEND       DRHO        DEN       RILD       RFOC   
# ...
 2920.0000     7.9955    93.0097   -41.6566     0.2018     8.8364   -62.0301    -0.0208     2.5317     8.2102    10.7133
 2920.5000     7.8577    95.4632   -41.6551     0.2160     8.8209   -69.5489    -0.0072     2.5347     8.0989     9.6511
 2921.0000     7.6721   103.6308   -41.6536     0.2236     8.8206   -69.5489    -0.0072     2.5301     7.9891     8.8160
 2921.5000     7.3600   105.1719   -41.6519     0.2320     8.8203   -62.0301    -0.0117     2.5257     7.6643     8.7552
 2922.0000     6.8192   103.7009   -41.6504     0.2393     8.8048   -62.0301    -0.0115     2.5272     7.0030     8.9409
 2922.5000     6.1447   104.6396   -41.4983     0.2451     8.8045   -62.0301    -0.0011     2.5272     6.3103     8.8794
 2923.0000     5.6537   107.6964   -41.1957     0.2538     8.7891   -62.0301     0.0125     2.5257     5.6063     8.5760
 2923.5000     4.9548   122.7878   -40.8930     0.2589     8.7888   -54.5113     0.0230     2.5060     5.0088     7.5841
 2924.0000     4.4338   140.2928   -40.5904     0.2601     8.7733   -62.0301     0.0230     2.4864     4.3067     5.1940
 2924.5000     3.9071   157.1953   -40.5886     0.2598     8.7730   -69.5489     0.0079     2.4743     3.8538     5.0164
 2925.0000     3.3858   156.3268   -40.8887     0.2601     8.7727   -77.0677    -0.0026     2.4713     3.3772     5.2310
 2925.5000     2.7454   153.0486   -41.0378     0.2673     8.7724   -54.5113    -0.0164     2.4532     2.8782     5.1589
 2926.0000     2.2443   154.8570   -41.0360     0.2839     8.7721   -54.5113    -0.0268     2.4320     2.3793     4.5830
 2926.5000     1.9396   176.3202   -41.0346     0.3030     8.7567   -54.5113    -0.0328     2.4124     1.9502     3.7189
 2927.0000     1.6532   189.0059   -40.8825     0.3302     8.7564   -54.5113    -0.0374     2.3769     1.6854     3.0805
 2927.5000     1.5001   198.7424   -40.7304     0.3550     8.7560   -54.5113    -0.0313     2.3491     1.4770     2.9730
 2928.0000     1.4694   221.0067   -40.7286     0.4074     8.7557   -54.5113    -0.0192     2.3293     1.3590     2.7954
 2928.5000     1.4697   228.8731   -40.7003     0.4012     8.7554   -54.5113    -0.0071     2.3233     1.2679     2.3984
 2929.0000     1.4803   233.1250   -40.2739     0.3755     8.7578   -54.5113     0.0049     2.3202     1.2163     2.3164
 2929.5000     1.5224   225.6299   -40.1219     0.3556     8.7700   -54.5113     0.0109     2.3316     1.2167     2.5186
 2930.0000     1.5657   205.4843   -39.8192     0.3625     8.7697   -54.5113     0.0125     2.3565     1.2261     3.3051
 2930.5000     1.6327   204.4423   -39.5165     0.3547     8.7694   -54.5113     0.0125     2.3793     1.3052     3.3751
 2931.0000     1.7507   207.9640   -39.3645     0.3286     8.7690   -54.5113     0.0170     2.3716     1.5217     3.0709
 2931.5000     1.9302   206.9725   -39.2121     0.2984     8.7991   -54.5113     0.0472     2.3701     1.7740     2.5546
 2932.0000     2.6037   173.7056   -39.2106     0.2645     8.8140   -54.5113     0.0623     2.3761     2.0254     2.8166
 2932.5000     3.1876   149.3430   -39.5104     0.2570     8.7985   -54.5113     0.0351     2.4320     2.3613     4.0466
 2933.0000     3.4234   120.1612   -39.8105     0.2555     8.7830   -54.5113     0.0109     2.4834     2.6037     6.4541
 2933.5000     3.8198   112.6574   -40.2605     0.2555     8.7827   -54.5113     0.0049     2.5092     2.9316     6.5908
 2934.0000     4.5781   113.6049   -40.4096     0.2548     8.7824   -54.5113    -0.0026     2.5030     3.8827     5.8961
 2934.5000     5.4868   112.7363   -40.5588     0.2512     8.7821   -54.5113    -0.0162     2.4962     4.9446     5.8149
 2935.0000     6.3955   105.8437   -40.7079     0.2421     8.7970   -54.5113    -0.0268     2.4924     6.0947     6.2567
 2935.5000     7.5591   100.1021   -40.7061     0.2185     8.7966   -54.5113    -0.0346     2.5015     8.1101     8.0129
 2936.0000     9.1864    96.5852   -40.7047     0.1823     8.7963   -54.5113    -0.0374     2.5196     9.0053    10.0148
 2936.5000    11.1647    94.2106   -40.8538     0.1520     8.7961   -54.5113    -0.0192     2.5408    10.1394    12.6043
 2937.0000    12.1821    92.7397   -41.6054     0.1417     8.7851   -54.5113     0.0019     2.5566    10.9493    17.0081
 2937.5000    13.5712    91.5699   -41.7545     0.1408     8.7651   -54.5113     0.0019     2.5650    11.6605    18.7518
 2938.0000    15.1720    89.1954   -41.7530     0.1424     8.7648   -54.5113    -0.0072     2.5521    12.8649    20.5309
 2938.5000    15.1751    84.4111   -41.7513     0.1462     8.7645   -54.5113    -0.0162     2.5438    14.6454    20.5323
 2939.0000    14.7617    83.5422   -41.9008     0.1520     8.7642   -54.5113    -0.0239     2.5408    14.9938    19.2111
 2939.5000    13.3945    84.8292   -42.9532     0.1601     8.7639   -54.5113    -0.0283     2.5332    13.7011    15.7589
 2940.0000    12.3243    87.5371   -43.7051     0.1750     8.7636   -54.5113    -0.0177     2.5278    13.0529    13.8059
 2940.5000    11.6595    91.1867   -43.7033     0.1882     8.7633   -54.5113    -0.0132     2.5264    12.3492    12.8777
 2941.0000    10.9202    94.8362   -43.5512     0.1994     8.7630   -54.5113    -0.0253     2.5204    11.2054    12.5246
 2941.5000    10.0095    97.2809   -43.3988     0.2130     8.7627   -54.5113    -0.0343     2.5128     9.4180    11.3615
 2942.0000     9.0825    99.7256   -43.2467     0.2200     8.7624   -69.5489    -0.0434     2.4985     8.6004     9.9535
 2942.5000     8.1274   103.6763   -43.3963     0.2251     8.7678   -84.5865    -0.0434     2.4940     8.0682     8.7200
 2943.0000     7.6890   105.2174   -43.5454     0.2393     8.7770   -68.8459    -0.0404     2.4995     7.7568     8.8431
 2943.5000     7.7443   104.9512   -43.6946     0.2505     8.7767   -54.5113    -0.0374     2.5045     7.6511     8.8437
 2944.0000     7.7999   108.3083   -43.8434     0.2532     8.7915   -46.9925    -0.0343     2.5015     7.4950     8.1349
 2944.5000     7.8015   111.0455   -43.8419     0.2544     8.7912   -46.9925    -0.0615     2.4955     7.3939     7.5352
 2945.0000     7.8031   108.6797   -43.8401     0.2556     8.7909   -54.5113    -0.0675     2.4970     7.2934     7.8029
 2945.5000     7.6972   102.6906   -43.9892     0.2453     8.7906   -54.5113    -0.0675     2.5015     7.1950     8.8461
 2946.0000     7.5398    98.5088   -43.9878     0.2314     8.7903   -62.2287    -0.0465     2.5061     7.0482     8.8514
 2946.5000     7.2330    99.7487   -43.8357     0.2248     8.7900   -69.5489    -0.0026     2.5136     6.7617     8.6643
 2947.0000     6.7954   102.1934   -43.3825     0.2257     8.7897   -62.0301     0.0109     2.5219     6.3971     8.4858
 2947.5000     6.2091   105.8725   -42.9292     0.2332     8.7893   -54.5113     0.0109     2.5347     6.2231     8.4274
 2948.0000     5.5950   111.3648   -42.4640     0.2546     8.7890   -46.9925     0.0155     2.5408     5.8468     7.9158
 2948.5000     5.1123   123.0905   -42.0223     0.2755     8.7888   -46.9925     0.0200     2.5400     5.3052     6.8388
 2949.0000     5.0427   128.8485   -41.7197     0.2795     8.7885   -54.5113     0.0354     2.5278     5.1221     5.6665
 2949.5000     5.0439   130.0883   -41.5676     0.2785     8.7882   -54.5113     0.0411     2.4977     4.9515     4.9298
 2950.0000     5.4084   129.2198   -41.4155     0.2722     8.7879   -54.5113     0.0185     2.5030     4.9181     5.3601
 2950.5000     5.6401   124.1344   -41.4141     0.2565     8.7876   -54.5113     0.0019     2.5196     4.8181     5.9674
 2951.0000     5.6806   119.9526   -41.4126     0.2462     8.7721   -54.5113    -0.0072     2.5295     4.8870     6.6997
 2951.5000     5.7214   115.3980   -41.3868     0.2482     8.7718   -54.5113    -0.0102     2.5332     5.0968     7.5427
 2952.0000     6.0081   112.3933   -41.5309     0.2613     8.7866   -54.5113    -0.0057     2.5317     5.5039     7.9200
 2952.5000     6.3976   112.7132   -41.3695     0.2601     8.7864   -54.5113    -0.0150     2.5256     5.9023     7.0360
 2953.0000     6.5828   116.0380   -41.2102     0.2483     8.7861   -54.5113    -0.0283     2.5091     6.2778     6.8430
