~VERSION INFORMATION
 VERS.                2.0:   CWLS LOG ASCII STANDARD - VERSION 2.0
 WRAP.                 NO:   ONE LINE PER DEPTH STEP
~WELL INFORMATION
#MNEM.UNIT      DATA TYPE    INFORMATION
#----------   ------------   ------------------------------
 STRT.F            0.0000:   START DEPTH
 STOP.F         4700.0000:   STOP DEPTH
 STEP.F            0.5000:   STEP LENGTH
 NULL.          -999.2500:   NO VALUE
 COMP. LAWRENCE ALLISON & ASSOCIATES:   COMPANY
 WELL. LAWRENCE NPR 3 "X" #33-23:   WELL
 FLD .                NPR:   FIELD
 LOC .      S23 T38N R78W:   LOCATION
 CNTY.            NATRONA:   COUNTY
 STAT.            WYOMING:   STATE
 CTRY. UNITED STATES OF AMERICA:   COUNTRY
 SRVC.      DRESSER ATLAS:   SERVICE COMPANY
 DATE.        12-NOV-1984:   LOGDATE
 API .     49025109930000:   API NUMBER
~CURVE INFORMATION
#MNEM.UNIT       API CODE    CURVE DESCRIPTION
#----------   ------------   ------------------------------
 DEPT.F                  :   
 TEND.LBS    45 635 01 00:   TENSION FROM DENSITY LOG
 CALD.IN     45 280 60 00:   CALIPER FROM DENSITY LOG
 CORR.G/C3   45 356 01 00:   DENSITY CORRECTION
 DEN .G/C3   45 350 01 00:   BULK DENSITY
 CNC .DEC    42 890 03 00:   NEUTRON PORISITY SANDSTONE
 SPR .MV     07 010 01 00:   SPONTANEOUS POTENTIAL
 GRR .GAPI   07 310 01 00:   GAMMA RAY FROM RESISTIVITY
 RFOC.OHMM   07 220 01 00:   RESISTIVITY FOCUSED LOG RES.
 ILM .OHMM   07 120 44 00:   INDUCTION LOG MEDIUM RESISTIVITY
 ILD .OHMM   07 120 46 00:   INDUCTION LOG DEEP RESISTIVITY
 TENS.LBS    60 635 01 00:   TENSION FROM SONIC LOG
 DT  .US/F   60 520 00 00:   DELTA TIME
 TENR.LBS    07 635 01 00:   TENSION
~PARAMETER INFORMATION
#MNEM.UNIT          VALUE    DESCRIPTION
#----------   ------------   ------------------------------
 EKB .F         5308.0000:   Kelly bushing
 EGL .F         5296.0000:   Ground level
 EDF .F            0.0000:   Drilling floor
 EPD .F            0.0000:   Permanent datum
 TD  .F         4695.0000:   Total depth
 DATE.        12-NOV-1984:   Date logged
 CLNT.            A2DTECH:   Client Code
 SL  . 1415' FNL & 1874' FWL:   Surface Location
 PD  .                 GL:   Permanent Datum
 LMF .                 KB:   Log Measured From
 DMF .                 KB:   Drilling Measured From
 DAPD.F                12:   Feet Above Permanent Datum
 DD  .F              4695:   Depth driller
 DL  .F              4694:   Depth logger
 BLI .F              4691:   Bottom log interval
 TLI .F              1205:   Top log interval
 CS1 .IN            8.625:   Casing size
 CBD1.     8.625" @ 1206':   Casing driller 1
 CBL1.F              1205:   Casing logger 1
 BS1 .IN            7.875:   Bit size
 BSD1.F              4695:   Depth drilled with bit1
 DFT .     GFL/KCL/STAFLO:   Type fluid in hole
 DFD .                9.2:   Density
 DFV .                 45:   Viscosity
 DFPH.                  8:   pH
 DFL .                 10:   Fluid loss
 MSS .           FLOWLINE:   Source of sample
 RMS .OHMM            .51:   Rm
 MST .F                72:   Rm Meas. temp.
 RMF .OHMM            .43:   Rmf
 MFST.F                70:   Rmf Meas. temp.
 RMC .OHMM            .64:   Rmc
 MCST.F                72:   Rmc Meas. temp.
 MFSS.               MEAS:   Source Rmf.
 MCSS.               CALC:   Source Rmc.
 RMB .OHMM           .272:   Rm. at BHT
 BHT .F               135:   BHT.
 TCS .HRS               4:   Time Circ. stopped
 MRT .F               135:   Maximum recorded temp.
 LUN .               6274:   Logging unit number
 LUL .               GLTE:   Logging unit location
 ENGI.             RAUTIO:   Recorded By
 ORIG.           5" PRINT:   Origin of data
 UWI .     49025109930000:   Unique Well ID
 DICO. A2D TECHNOLOGIES, INC.:   Digitizing Company
~OTHER INFORMATION
~A    DEPT    TEND       CALD       CORR        DEN        CNC        SPR         GRR      RFOC        ILM        ILD       TENS         DT       TENR   
# ...
 4368.0000   -28.7150     8.8970     0.0430     2.5360     0.2400   -27.5610   137.3570     3.3370     2.4470     2.2190   -78.9740    89.1840   -49.5120
 4368.5000    -8.2330     8.8960     0.0930     2.5470     0.2430   -27.4330   133.9080     4.0100     2.5250     2.3540   -78.9740    85.8560   -50.1910
 4369.0000     1.0040     8.8940     0.1320     2.5560     0.2450   -27.3060   133.2780     3.8430     2.7020     2.4980   -78.9740    86.4250   -50.8700
 4369.5000     1.0040     8.8930     0.1310     2.5770     0.2390   -27.1510   128.9380     3.4260     2.9430     2.6430   -78.9740    87.3840   -51.5490
 4370.0000     1.0040     8.8910     0.1130     2.5930     0.2280   -26.3700   124.1720     2.9340     3.1850     2.8500   -78.9740    88.6680   -52.2280
 4370.5000     1.0040     8.8900     0.1030     2.6090     0.2140   -25.6020   119.4130     3.1380     3.4570     3.1450   -78.9740    89.5980   -52.9070
 4371.0000    11.4460     8.8900     0.0770     2.5870     0.2000   -25.2740   114.7980     3.5090     3.7480     3.4300   -78.9740    87.1560   -53.5870
 4371.5000    21.6870     8.9030     0.0440     2.5650     0.1900   -24.9660   111.2730     3.8790     4.4900     4.1410   -78.9740    83.7890   -54.2660
 4372.0000    31.9280     8.9160     0.0100     2.5410     0.1860   -24.6570   107.9670     5.0980     5.3200     4.8270   -78.9740    80.4230   -54.9450
 4372.5000    41.1650     8.9300     0.0040     2.5190     0.1830   -24.3480   103.1570     6.7790     6.1500     5.5130   -78.9740    77.0560   -55.5830
 4373.0000    33.1330     8.9430     0.0050     2.5030     0.1830   -24.0420   101.1280     8.4610     6.9800     6.1990   -78.9740    75.4310   -49.4400
 4373.5000    21.7540     8.9570     0.0070     2.4900     0.1880   -23.8320   100.0190     9.6820     7.6320     6.9610   -78.9740    74.5070   -43.6420
 4374.0000    10.3750     8.9680     0.0080     2.4820     0.1920   -23.9330    98.8250     9.1860     8.0830     7.7360   -78.9740    75.1820   -37.8440
 4374.5000     1.0040     8.9700     0.0100     2.4870     0.1890   -24.0260    94.3740     8.8330     8.6720     8.1600   -78.9740    75.7500   -32.0460
 4375.0000   -18.1420     8.9720     0.0110     2.4940     0.1820   -24.1180    90.0020     8.9850     8.6540     8.2550   -79.5030    76.3180   -25.6730
 4375.5000   -16.9520     8.9740     0.0130     2.5000     0.1820   -24.2100    86.7880     9.1240     8.6270     8.3590   -80.1680    76.0520   -27.7300
 4376.0000   -15.7610     8.9760     0.0200     2.5070     0.1850   -24.3030    89.5990     9.2480     8.6010     8.3300   -80.8320    75.6100   -30.0150
 4376.5000   -14.5700     8.9780     0.0260     2.5140     0.1840   -24.3950    92.5650     9.0940     8.5740     8.2980   -81.4970    75.1680   -32.2990
 4377.0000   -13.3790     8.9800     0.0320     2.5190     0.1830   -24.4880    92.8550     8.9260     8.5480     8.2660   -82.1610    74.8570   -34.5830
 4377.5000   -12.1880     8.9820     0.0390     2.5220     0.1770   -24.5860    89.3550     8.7580     8.5140     8.2340   -82.8260    74.7310   -36.8670
 4378.0000   -10.9970     8.9840     0.0430     2.5250     0.1680   -24.4910    85.3790     8.5900     8.7400     8.2070   -83.4900    74.6050   -39.1510
 4378.5000    -9.8070     8.9860     0.0380     2.5300     0.1600   -24.3420    81.4960     8.5140     9.1540     8.4510   -84.1550    74.5070   -41.4350
 4379.0000    -8.6160     8.9880     0.0370     2.5340     0.1520   -24.1910    74.1740     8.7410     9.6830     8.6720   -84.8190    73.8770   -43.7190
 4379.5000    -7.4250     8.9900     0.0360     2.5420     0.1470   -24.0400    65.9730     8.9790    10.4150     9.1480   -85.4840    72.4120   -46.0030
 4380.0000    -6.2340     8.9920     0.0340     2.5510     0.1510   -23.8890    57.6250    10.9310    11.1460     9.6430   -86.1480    70.9480   -48.2870
 4380.5000    -5.0430     8.9940     0.0320     2.5460     0.1590   -23.7410    57.2980    14.1500    11.7420    10.1370   -86.8130    69.4830   -50.5710
 4381.0000    -3.8530     8.9960     0.0200     2.5370     0.1710   -23.6610    62.7650    15.4660    10.6120    10.2310   -87.4770    68.8970   -52.8550
 4381.5000    -2.6620     8.9980     0.0090     2.5280     0.1830   -23.9270    82.0820    14.5930     9.7130     9.6010   -88.1420    69.7650   -55.1390
 4382.0000    -1.4710     9.0000     0.0000     2.5190     0.1940   -24.1880    97.3240    12.0250     8.8490     9.0790   -88.8070    71.7130   -54.9610
 4382.5000    -0.2800     9.0010    -0.0010     2.5110     0.2020   -24.4430   111.5470     9.2770     7.9840     8.1400   -89.4710    73.6610   -53.9350
 4383.0000     1.0040     9.0030    -0.0020     2.5110     0.2060   -24.6890   119.2080     7.3610     7.0850     7.2120   -90.1360    75.0710   -52.9100
 4383.5000   -14.7260     9.0070    -0.0040     2.5110     0.2100   -25.0000   123.0430     6.2930     6.1380     6.2840   -90.8000    75.8570   -51.8840
 4384.0000   -31.7940     9.0040     0.0090     2.5030     0.2130   -24.9950   129.3710     6.3090     5.1910     5.4220   -91.4650    76.6430   -50.8590
 4384.5000   -29.4510     9.0360     0.0490     2.4730     0.2490   -24.9980   134.0250     6.3460     4.4680     4.7670   -92.1290    77.5250   -49.8330
 4385.0000   -12.3830     9.0810     0.0950     2.4420     0.2800   -25.0090   135.0670     6.1580     3.7860     4.1110   -92.7940    78.3300   -48.8080
 4385.5000    -1.7570     9.1190     0.1480     2.3810     0.3020   -24.4170   128.6080     5.2000     3.3430     3.6370   -93.4580    82.2680   -47.7820
 4386.0000   -14.5580     9.0330     0.1900     2.3860     0.3110   -23.5550   108.8490     4.1350     3.0720     3.3720   -94.1230    85.9150   -46.7570
 4386.5000   -27.3590     8.9360     0.1750     2.5330     0.3200   -22.6870    94.0970     3.1580     3.1200     3.1290   -94.7870    89.5630   -45.7310
 4387.0000   -39.1570     8.9340     0.1490     2.6160     0.2860   -22.3800    89.3220     3.2190     3.1630     3.0760   -95.4520    92.4140   -44.7060
 4387.5000   -20.7500     8.9450     0.1310     2.6880     0.2600   -22.6680    91.7740     3.3920     3.2070     3.0400   -96.1160    91.2450   -43.6800
 4388.0000    -3.6810     8.9570     0.1250     2.6800     0.2550   -22.9530    96.5290     3.6020     3.2460     3.0040   -96.7810    89.3510   -42.6550
 4388.5000     1.0040     8.9660     0.1160     2.6540     0.2570   -23.2420    97.2390     3.8300     3.2340     2.9680   -97.4450    87.4570   -41.6290
 4389.0000     1.0040     8.9790     0.1110     2.6350     0.2590   -23.5310    98.0040     4.0840     3.2200     2.9320   -98.1100    85.7750   -40.6040
 4389.5000     1.0040     8.9830     0.1370     2.5330     0.2800   -23.8160    99.1070     5.1700     3.0990     2.8720   -98.7740    84.1650   -39.5780
 4390.0000     1.0040     9.0050     0.1860     2.4660     0.2990   -23.9630   100.3260     5.3790     2.9370     2.7660   -98.1930    85.8130   -38.5530
 4390.5000     1.0040     9.0200     0.2610     2.3070     0.3220   -23.7810   101.5300     4.5490     2.7740     2.6590   -96.4510    88.9950   -37.5270
 4391.0000     1.0040     9.3350     0.2470     2.2810     0.3470   -23.6100   102.5990     3.6650     2.6270     2.5520   -94.7100    92.1760   -36.5020
 4391.5000   -31.3760     9.6620     0.2270     2.3030     0.3580   -23.4390   102.6040     3.0580     2.4900     2.4450   -92.9680    95.3580   -35.4760
 4392.0000   -59.2370     9.5020     0.2030     2.3180     0.3740   -23.2680   103.9380     2.9340     2.3540     2.3390   -91.2270    96.8410   -34.4510
 4392.5000   -46.3280     8.9590     0.2430     2.3120     0.3290   -23.0960   105.3430     3.0720     2.2770     2.1870   -89.4850    97.2710   -33.4250
 4393.0000   -31.6980     9.0230     0.2570     2.3040     0.3190   -23.1000   106.2240     3.0520     2.3490     2.1950   -87.7440    97.5660   -32.4000
 4393.5000   -19.0760     8.9750     0.2580     2.3230     0.3090   -23.3010   104.3160     2.9980     2.4080     2.2160   -86.0020    97.7910   -31.3740
