~VERSION INFORMATION
 VERS.                2.0:   CWLS LOG ASCII STANDARD - VERSION 2.0
 WRAP.                 NO:   ONE LINE PER DEPTH STEP
~WELL INFORMATION
#MNEM.UNIT      DATA TYPE    INFORMATION
#----------   ------------   ------------------------------
 STRT.F           89.5000:   START DEPTH
 STOP.F         1300.5000:   STOP DEPTH
 STEP.F            0.5000:   STEP LENGTH
 NULL.          -999.2500:   NO VALUE
 COMP.            US NAVY:   COMPANY
 WELL. US NPR 3 "S" #62-11:   WELL
 FLD .             TEAPOT:   FIELD
 LOC .      S11 T38N R78W:   LOCATION
 CNTY.            NATRONA:   COUNTY
 STAT.            WYOMING:   STATE
 CTRY. UNITED STATES OF AMERICA:   COUNTRY
 SRVC.       SCHLUMBERGER:   SERVICE COMPANY
 DATE.        20-JUL-1964:   LOGDATE
 API .     49025063660000:   API NUMBER
~CURVE INFORMATION
#MNEM.UNIT       API CODE    CURVE DESCRIPTION
#----------   ------------   ------------------------------
 DEPT.F                  :   
 CALS.IN     60 280 50 00:   CALIPER FROM SONIC LOG
 DT  .US/F   60 520 33 00:   DELTA TIME
 SPR .MV     05 010 01 00:   SPONTANEOUS POTENTIAL FROM RES.
 ASN .OHMM   05 041 16 00:   AMPLIFIED SHORT NORMAL 16"
 ILD .OHMM   05 120 46 00:   INDUCTION LOG DEEP
~PARAMETER INFORMATION
#MNEM.UNIT          VALUE    DESCRIPTION
#----------   ------------   ------------------------------
 EKB .F         5223.0000:   Kelly bushing
 EGL .F         5215.0000:   Ground level
 EDF .F            0.0000:   Drilling floor
 TD  .F         1303.0000:   Total depth
 DATE.        20-JUL-1964:   Date logged
 CLNT.            A2DTECH:   Client Code
 PD  .                 GL:   Permanent Datum
 EPD .F              5215:   Elevation Permanent Datum
 LMF .                 KB:   Log Measured From
 DMF .                 KB:   Drilling Measured From
 DAPD.F                 8:   Feet Above Permanent Datum
 DD  .F              1303:   Depth driller
 DL  .F              1300:   Depth logger
 BLI .F              1299:   Bottom log interval
 TLI .F                94:   Top log interval
 CS1 .IN            12.25:   Casing size
 CBD1.       12.25" @ 10':   Casing driller 1
 BS1 .IN               11:   Bit size
 BSD1.F              1303:   Depth drilled with bit1
 DFT .            GEL/OIL:   Type fluid in hole
 DFD .                9.8:   Density
 DFV .                 60:   Viscosity
 DFL .                 10:   Fluid loss
 MSS .           FLOWLINE:   Source of sample
 RMS .OHMM           3.13:   Rm
 MST .F                86:   Rm Meas. temp.
 RMF .OHMM           1.81:   Rmf
 MFST.F                86:   Rmf Meas. temp.
 RMC .OHMM           3.39:   Rmc
 MCST.F                86:   Rmc Meas. temp.
 MFSS.                 FP:   Source Rmf.
 MCSS.                 FP:   Source Rmc.
 TCS .HRS             2.5:   Time Circ. stopped
 LUN .               4507:   Logging unit number
 LUL .               CSPR:   Logging unit location
 ENGI.             DANNER:   Recorded By
 WITN.         JORGENESEN:   Witnessed by
 ORIG.       2", 5" PRINT:   Origin of data
 UWI .     49025063660000:   Unique Well ID
 DICO. A2D TECHNOLOGIES, INC.:   Digitizing Company
~OTHER INFORMATION
~A   DEPT     CALS         DT        SPR        ASN          ILD 
# ...
  943.5000    11.2430    87.3120   -40.7690    12.2860    12.0570
  944.0000    11.2410    88.5090   -42.0500    12.9100    12.5260
  944.5000    11.2360    89.7060   -43.9380    13.5980    13.1560
  945.0000    11.2060    90.9040   -45.8550    14.2020    14.2340
  945.5000    11.1770    92.1010   -47.7420    14.8820    14.8980
  946.0000    11.1520    93.2980   -50.1110    15.4950    15.2480
  946.5000    11.1970    94.1080   -52.3340    16.1670    15.8190
  947.0000    11.1550    94.7270   -53.3970    16.7850    16.2890
  947.5000    11.1310    95.1950   -53.7910    17.0250    16.5110
  948.0000    11.1400    94.8050   -54.2250    16.9990    16.5460
  948.5000    11.1270    94.2890   -54.3600    17.0260    16.4650
  949.0000    11.0870    94.0070   -54.1630    17.0000    16.3700
  949.5000    11.0880    93.8660   -53.8670    17.0240    16.2270
  950.0000    11.0910    93.3360   -53.2260    17.3020    16.0020
  950.5000    11.0930    92.5930   -52.5220    17.3150    15.6870
  951.0000    11.0950    92.4920   -52.2600    17.0120    15.3440
  951.5000    11.0970    93.8910   -51.9500    16.6960    15.0300
  952.0000    11.0990    99.0710   -50.9590    16.3710    14.7000
  952.5000    11.1020   104.0500   -49.6350    16.0460    14.3620
  953.0000    11.1040   106.4890   -48.3590    15.7260    14.0620
  953.5000    11.1060   108.5120   -46.9800    15.6250    13.6950
  954.0000    11.1010   109.5860   -45.8280    15.3960    13.3660
  954.5000    11.0970   110.6600   -45.3190    15.1260    13.3190
  955.0000    11.0920   111.7340   -45.0910    15.1740    13.3570
  955.5000    11.0870   112.7130   -44.6240    15.2610    13.3320
  956.0000    11.0800   110.8380   -44.4100    15.3310    13.3460
  956.5000    11.0720   105.6950   -45.0480    15.3090    13.3400
  957.0000    11.0880   102.9400   -45.9110    15.2700    13.3460
  957.5000    11.1590   100.8980   -47.0550    15.2260    13.5140
  958.0000    11.2000    99.6340   -48.3390    15.2300    13.7550
  958.5000    11.1420    98.2980   -48.3180    15.5620    13.9460
  959.0000    11.0880    97.1750   -47.5010    15.7240    14.2000
  959.5000    11.1110    95.9850   -46.9420    15.7620    14.4230
  960.0000    11.1460    94.7940   -46.2840    15.7740    14.3050
  960.5000    11.1260    93.6040   -45.6060    15.8440    13.9780
  961.0000    11.1010    92.3940   -45.0080    15.7930    13.6670
  961.5000    11.0880    91.2910   -44.3220    15.3280    13.3540
  962.0000    11.1350    88.9160   -43.6610    14.8720    13.0410
  962.5000    11.1820    87.2690   -43.4470    14.5120    12.7160
  963.0000    11.2290    86.6270   -43.9410    14.0750    12.4230
  963.5000    11.2400    86.2190   -44.4050    13.6970    12.1360
  964.0000    11.2400    87.4360   -44.3730    13.2730    11.7310
  964.5000    11.2400    89.6410   -44.2440    12.9570    11.3290
  965.0000    11.2370    91.8460   -43.9610    12.8640    11.0700
  965.5000    11.2340    93.1960   -43.4930    12.7160    10.9540
  966.0000    11.2310    92.2610   -43.2640    12.5290    10.9420
  966.5000    11.2280    91.0130   -43.2640    12.3780    10.9260
  967.0000    11.2250    89.9530   -43.2620    12.1930    10.9030
  967.5000    11.2230    89.8610   -43.2660    12.0560    10.9020
  968.0000    11.2070    90.2120   -43.2650    12.0000    10.8650
  968.5000    11.1740    90.5620   -43.2640    11.9630    10.8760
  969.0000    11.1490    90.9120   -43.2720    11.9160    10.9460
  969.5000    11.1740    91.2910   -43.2590    11.8770    10.9200
  970.0000    11.2140    91.2360   -43.2810    11.8320    10.8460
  970.5000    11.2190    91.1760   -43.2530    11.7920    10.8030
  971.0000    11.2080    91.1150   -43.0660    11.7480    10.7470
  971.5000    11.2050    90.8090   -42.8660    11.7070    10.6890
  972.0000    11.2750    90.3400   -42.7080    11.6640    10.6410
  972.5000    11.2580    89.8710   -42.5290    11.6220    10.5830
  973.0000    11.2180    89.4020   -42.3490    11.5780    10.5290
  973.5000    11.2140    88.9220   -42.1840    11.5370    10.4800
  974.0000    11.2340    88.3540   -42.0060    11.4930    10.4160
  974.5000    11.2180    87.7860   -41.8210    11.4530    10.3730
  975.0000    11.1810    87.2190   -41.5380    11.4060    10.3610
  975.5000    11.2110    86.8870   -40.9590    11.3620    10.3170
  976.0000    11.2510    86.8870   -40.4060    11.3480    10.2550
  976.5000    11.2480    86.8870   -40.2710    11.3360    10.2050
  977.0000    11.2180    86.9150   -40.2350    11.3140    10.1460
  977.5000    11.2050    87.0080   -40.1140    11.2980    10.0960
  978.0000    11.2750    87.1010   -40.0400    11.2800    10.0350
  978.5000    11.2670    87.1950   -39.9540    11.2620     9.9740
  979.0000    11.2210    87.2880   -39.8580    11.2450     9.9690
  979.5000    11.1880    87.3810   -39.7790    11.2260     9.9830
  980.0000    11.2330    87.4750   -39.6870    11.2090     9.9840
  980.5000    11.2750    87.4610   -39.5980    11.1910     9.9920
  981.0000    11.2970    87.4310   -39.5170    11.1730     9.9980
  981.5000    11.2710    87.4010   -39.4060    11.1560    10.0020
  982.0000    11.2460    87.1800   -39.1980    11.1380    10.0090
  982.5000    11.2220    86.8040   -38.9340    11.1200    10.0140
  983.0000    11.2210    86.4270   -38.6800    11.1030    10.0200
  983.5000    11.2460    86.2860   -38.4200    11.0840    10.0270
  984.0000    11.2790    87.1870   -38.1610    11.0620    10.0320
  984.5000    11.2790    87.1200   -37.9050    11.0390    10.0380
  985.0000    11.2790    86.9800   -37.6420    11.0100    10.0430
  985.5000    11.2790    86.7810   -37.4670    10.9790    10.0490
  986.0000    11.2790    86.4670   -37.4090    10.9500    10.0560
  986.5000    11.2790    86.1530   -37.3650    10.9190    10.0590
  987.0000    11.2790    85.8400   -37.3090    10.8890    10.0690
  987.5000    11.2790    85.5260   -37.2610    10.8590    10.0670
  988.0000    11.2790    85.2120   -37.2100    10.8290    10.0160
  988.5000    11.2780    84.8980   -37.1580    10.7990     9.9460
  989.0000    11.2700    84.5850   -37.1090    10.7690     9.8820
  989.5000    11.2620    84.8030   -37.0570    10.7390     9.8150
  990.0000    11.2540    85.4350   -37.0070    10.7090     9.7510
  990.5000    11.2460    86.0670   -36.9560    10.6790     9.6820
  991.0000    11.2420    86.2380   -36.9050    10.6480     9.6200
  991.5000    11.2490    86.3900   -36.8550    10.6190     9.5500
  992.0000    11.2560    86.8000   -36.8040    10.5880     9.4750
  992.5000    11.2620    87.2110   -36.7530    10.5660     9.4740
  993.0000    11.2690    87.6220   -36.7030    10.5660     9.5400
  993.5000    11.2760    87.9060   -36.6520    10.5640     9.6070
  994.0000    11.2790    87.9570   -36.6010    10.5670     9.6730
  994.5000    11.2690    87.9310   -36.5500    10.5670     9.7330
  995.0000    11.2580    87.7910   -36.4990    10.5610     9.8080
  995.5000    11.2470    87.5600   -36.4490    10.5770     9.8650
  996.0000    11.2410    87.0670   -36.3980    10.5490     9.8290
  996.5000    11.2460    86.5740   -36.3470    10.4880     9.7660
  997.0000    11.2580    86.0810   -36.2970    10.4660     9.7210
  997.5000    11.2710    85.5880   -36.2450    10.5090     9.6650
  998.0000    11.2830    85.4830   -36.1950    10.5310     9.6130
  998.5000    11.2910    85.9970   -36.1450    10.5040     9.5630
  999.0000    11.2750    86.3180   -36.0920    10.6070     9.5080
  999.5000    11.2580    86.5980   -36.0450    10.5050     9.4590
 1000.0000    11.2410    86.7260   -35.9910    10.0560     9.4040
 1000.5000    11.2460    86.7870   -35.9400     9.8900     9.3550
 1001.0000    11.2530    86.8900   -35.8950     9.9190     9.3020
 1001.5000    11.2600    87.0000   -35.8310     9.7900     9.1800
 1002.0000    11.2670    87.1870   -35.8010     9.6760     9.0150
 1002.5000    11.2740    86.9060   -35.7370     9.5540     8.8720
 1003.0000    11.2810    86.6200   -35.5440     9.4110     8.7350
 1003.5000    11.2880    86.2530   -35.3470     9.2950     8.5930
 1004.0000    11.2940    85.7800   -35.1860     9.1590     8.4550
