~VERSION INFORMATION
 VERS.                2.0:   CWLS LOG ASCII STANDARD - VERSION 2.0
 WRAP.                 NO:   ONE LINE PER DEPTH STEP
~WELL INFORMATION
#MNEM.UNIT      DATA TYPE    INFORMATION
#----------   ------------   ------------------------------
 STRT.F          176.0000:   START DEPTH
 STOP.F         3442.0000:   STOP DEPTH
 STEP.F            0.5000:   STEP LENGTH
 NULL.          -999.2500:   NO VALUE
 COMP.  FENIX AND SCISSON:   COMPANY
 WELL.  FENIX "AX" #65-15:   WELL
 FLD . NAVAL PETROLEUM RESERVE #3:   FIELD
 LOC .      S15 T38N R78W:   LOCATION
 CNTY.            NATRONA:   COUNTY
 STAT.            WYOMING:   STATE
 CTRY. UNITED STATES OF AMERICA:   COUNTRY
 SRVC.       SCHLUMBERGER:   SERVICE COMPANY
 DATE.        09-APR-1981:   LOGDATE
 API .     49025108710000:   API NUMBER
~CURVE INFORMATION
#MNEM.UNIT       API CODE    CURVE DESCRIPTION
#----------   ------------   ------------------------------
 DEPT.F                  :   
 TENR.LBS    07 635 01 00:   TENSION
 SPR .MV     07 010 01 00:   SPONTANEOUS POTENTIAL
 ILD .OHMM   07 120 46 00:   INDUCTION LOG DEEP RESISTIVITY
 ILM .OHMM   07 120 44 00:   INDUCTION LOG MEDIUM RESISTIVITY
 SFL .OHMM   07 220 01 00:   SHALLOW FOCUSED LOG RESISTIVITY
 TEND.LBS    45 635 01 00:   TENSION FROM DENSITY LOG
 CALD.IN     45 280 60 00:   CALIPER FROM DENSITY LOG
 GRD .GAPI   45 310 01 00:   GAMMA RAY FROM DENSITY LOG
 RHOB.G/C3   45 350 01 00:   BULK DENSITY
 CORR.G/C3   45 356 01 00:   DENSITY CORRECTION
~PARAMETER INFORMATION
#MNEM.UNIT          VALUE    DESCRIPTION
#----------   ------------   ------------------------------
 EKB .F         5287.0000:   Kelly bushing
 EGL .F         5277.0000:   Ground level
 EDF .F            0.0000:   Drilling floor
 TD  .F         5476.0000:   Total depth
 DATE.        09-APR-1981:   Date logged
 CLNT.            A2DTECH:   Client Code
 SL  . 1945' FSL & 1161' FEL:   Surface Location
 PD  .                 GL:   Permanent Datum
 EPD .F              5277:   Elevation Permanent Datum
 LMF .                 KB:   Log Measured From
 DMF .                 KB:   Drilling Measured From
 DAPD.F                10:   Feet Above Permanent Datum
 DD  .F              5476:   Depth driller
 DL  .F              5436:   Depth logger
 BLI .F              5430:   Bottom log interval
 TLI .F               190:   Top log interval
 CS1 .IN            8.625:   Casing size
 CBD1.      8.625" @ 190':   Casing driller 1
 CBL1.F               190:   Casing logger 1
 BS1 .IN            7.875:   Bit size
 BSD1.F              5476:   Depth drilled with bit1
 DFT .           CHEM GEL:   Type fluid in hole
 DFD .                9.1:   Density
 DFV .                 42:   Viscosity
 DFPH.                9.5:   pH
 DFL .                  8:   Fluid loss
 MSS .            MUDTANK:   Source of sample
 RMS .OHMM           1.62:   Rm
 MST .F                71:   Rm Meas. temp.
 RMF .OHMM           1.45:   Rmf
 MFST.F                71:   Rmf Meas. temp.
 MFSS.               MEAS:   Source Rmf.
 RMB .OHMM           1.02:   Rm. at BHT
 BHT .F               116:   BHT.
 TCS .HRS            1600:   Time Circ. stopped
 TLAB.HRS            1830:   Time logger at bottom
 MRT .F               116:   Maximum recorded temp.
 LUN .               8035:   Logging unit number
 LUL .               CSPR:   Logging unit location
 ENGI.            BEATTIE:   Recorded By
 WITN.              EIVAS:   Witnessed by
 ORIG.           5" PRINT:   Origin of data
 UWI .     49025108710000:   Unique Well ID
 DICO. A2D TECHNOLOGIES, INC.:   Digitizing Company
~OTHER INFORMATION
~A   DEPT     TENR        SPR        ILD        ILM        SFL       TEND       CALD         GRD      RHOB       CORR   
# ...
 2521.0000   586.6480   -20.9770     5.1490     4.9690     7.8500   606.7290     8.4990   138.0230     2.4840     0.0180
 2521.5000   586.7820   -20.9360     5.1340     4.9560     8.5790   607.3290     8.4950   138.0190     2.4880     0.0290
 2522.0000   586.9160   -20.8600     5.1200     4.9420     8.1560   607.9290     8.5200   138.0350     2.4920     0.0420
 2522.5000   587.0500   -20.7910     5.1050     4.9280     6.8520   608.5290     8.5730   136.6070     2.4970     0.0630
 2523.0000   587.1840   -20.7160     5.0900     4.9140     5.5470   609.1280     8.6350   132.6590     2.4990     0.0700
 2523.5000   587.3180   -20.6490     5.0760     4.9000     4.9690   609.7280     8.6480   128.0840     2.4750     0.0530
 2524.0000   587.4520   -20.6030     5.0600     4.8860     4.7920   610.3280     8.5480   124.4840     2.4520     0.0140
 2524.5000   587.5860   -20.7880     5.0600     4.8800     6.2870   610.9280     8.4740   126.1300     2.4460     0.0000
 2525.0000   587.7200   -20.9440     5.2050     4.8800     8.4240   611.5280     8.4750   129.6620     2.4620     0.0050
 2525.5000   587.8540   -21.1130     5.3870     5.2220     8.2000   612.1280     8.4750   132.3770     2.4750     0.0150
 2526.0000   587.9880   -21.2900     5.5700     5.5640     7.6910   612.7280     8.4780   131.6810     2.4800     0.0200
 2526.5000   588.1220   -21.3790     5.7530     5.9610     7.8000   613.3280     8.4820   130.4990     2.4750     0.0150
 2527.0000   588.2560   -21.3670     5.9350     5.9610     8.2630   613.9280     8.4860   130.9570     2.4660     0.0030
 2527.5000   588.3900   -21.2370     6.0540     5.9250     8.4240   614.5280     8.4900   132.0710     2.4590     0.0040
 2528.0000   588.5240   -21.0800     5.9910     5.8690     7.8130   615.1280     8.4940   132.2210     2.4680     0.0100
 2528.5000   588.6590   -20.9220     5.9280     5.8130     7.0220   615.7280     8.4980   130.7050     2.4910     0.0200
 2529.0000   588.7930   -20.7620     5.8640     5.7580     7.3770   616.3280     8.5020   128.6050     2.5040     0.0290
 2529.5000   588.9270   -20.6080     5.8010     5.7020     8.1000   616.9280     8.5060   129.2820     2.5010     0.0380
 2530.0000   589.0610   -20.4530     5.7370     5.6460     8.7370   617.5280     8.5090   131.2610     2.4980     0.0370
 2530.5000   589.1950   -20.2710     5.6740     5.5900     7.6150   618.1280     8.5130   133.2650     2.4770     0.0230
 2531.0000   589.3290   -20.3270     5.6440     5.5430     6.6120   618.7280     8.5110   133.5420     2.4660     0.0110
 2531.5000   589.4630   -20.7340     5.6990     5.7460     5.9610   619.3280     8.5040   132.4210     2.4750     0.0070
 2532.0000   589.5970   -21.1080     5.7480     5.8820     6.8890   619.9280     8.4950   131.2410     2.4810     0.0150
 2532.5000   589.7310   -21.4910     5.7960     6.0180     8.5410   620.5280     8.5160   131.3650     2.4740     0.0180
 2533.0000   589.8650   -21.8860     5.8440     6.1820     9.2270   621.1280     8.5170   133.0830     2.4650     0.0130
 2533.5000   589.9990   -22.1550     6.0710     6.0710     8.7650   621.7280     8.5200   136.4150     2.4560     0.0060
 2534.0000   590.1330   -22.1460     6.0070     5.8020     8.3760   622.3280     8.5220   137.9340     2.4560    -0.0010
 2534.5000   590.2670   -22.0460     5.7090     5.5330     7.9880   622.9280     8.5240   138.5270     2.4480    -0.0040
 2535.0000   590.4010   -21.9440     5.4100     5.2650     7.4980   623.5280     8.5260   139.5710     2.4340     0.0000
 2535.5000   590.5350   -21.8390     5.1120     4.9970     6.6820   623.7520     8.5280   141.7940     2.4200     0.0020
 2536.0000   590.6700   -21.7370     4.8130     4.7290     5.8650   623.7520     8.5300   142.6160     2.4080     0.0070
 2536.5000   590.8040   -21.6330     4.5370     4.3750     5.0490   623.7520     8.5330   140.8110     2.4000     0.0100
 2537.0000   590.9380   -21.5300     4.5780     4.3910     4.1420   623.7520     8.5340   133.0580     2.4030     0.0040
 2537.5000   591.0720   -21.4270     4.6390     4.4470     4.2380   623.7520     8.5120   124.0650     2.4260     0.0030
 2538.0000   591.2060   -21.3230     4.7050     4.5040     6.0700   623.7520     8.4890   115.4210     2.4540     0.0020
 2538.5000   591.3400   -21.2200     5.5430     4.5600     8.5910   623.7520     8.4770   114.7830     2.4820     0.0100
 2539.0000   591.4740   -21.1190     5.4430     4.6200    11.2720   623.7520     8.4830   122.7400     2.4940     0.0300
 2539.5000   591.6080   -21.0130     5.1430     4.4160    11.2720   623.7520     8.4890   131.1290     2.4940     0.0550
 2540.0000   591.7420   -20.9780     4.8440     4.1990    10.2920   623.7520     8.4970   134.1110     2.4520     0.0660
 2540.5000   591.8760   -20.9830     4.5440     3.9810     5.4360   623.7520     8.5530   130.8450     2.4000     0.0440
 2541.0000   592.0100   -21.0150     4.2440     3.7630     3.4910   623.7520     8.5360   126.0060     2.3520     0.0240
 2541.5000   592.1440   -21.0450     3.9440     3.5450     3.2690   623.7520     8.5080   123.8060     2.3550     0.0160
 2542.0000   592.2780   -21.0770     3.6470     3.3290     3.6560   623.7520     8.4810   125.5860     2.3990     0.0270
 2542.5000   592.4120   -21.1080     3.5160     3.3220     4.6140   623.7520     8.4520   128.1920     2.4460     0.0390
 2543.0000   592.5460   -21.1390     3.4660     3.2880     5.5430   623.7520     8.4370   129.1540     2.4490     0.0430
 2543.5000   592.6810   -21.1700     3.3290     3.2530     5.5430   623.7520     8.4340   129.5890     2.4400     0.0460
 2544.0000   592.8150   -21.2010     3.2690     3.2190     5.0010   623.7520     8.4860   131.2570     2.4320     0.0500
 2544.5000   592.9490   -21.2330     3.2690     3.1840     4.3600   623.7520     8.5520   135.6420     2.4320     0.0360
 2545.0000   593.0830   -21.2640     3.2690     3.1530     3.7190   623.7520     8.5940   139.8550     2.4210     0.0190
 2545.5000   593.2170   -21.2920     3.2690     3.1530     3.2690   623.7520     8.5680   140.3970     2.4220     0.0180
 2546.0000   593.3510   -21.3310     3.2690     3.1530     3.2690   623.7520     8.5410   138.5770     2.4390     0.0240
 2546.5000   593.4850   -21.3530     3.3290     3.2100     3.6450   623.7520     8.5170   137.7380     2.4670     0.0320
 2547.0000   593.6190   -21.3550     3.3910     3.4080     3.9850   623.7520     8.4950   138.4000     2.4840     0.0310
 2547.5000   593.7530   -21.0540     3.6870     3.6750     4.3260   623.7520     8.4940   141.3480     2.4950     0.0210
 2548.0000   593.8870   -20.7600     4.0060     3.9420     4.6660   623.7520     8.4920   143.3260     2.4970     0.0100
 2548.5000   594.0210   -20.5740     4.3260     4.2080     5.0070   623.7520     8.4910   142.2830     2.4930     0.0000
 2549.0000   594.1550   -20.6720     4.6460     4.4750     5.6440   623.7520     8.4900   136.9260     2.4970    -0.0020
 2549.5000   594.2890   -20.7490     4.9690     4.7410     6.4610   623.7520     8.4890   132.0600     2.5010     0.0000
 2550.0000   594.4230   -20.8310     5.0610     5.0600     7.1570   623.7520     8.4870   130.4000     2.4940     0.0030
 2550.5000   594.5570   -20.9170     5.1530     5.0980     8.1230   623.7520     8.4860   133.2320     2.4850     0.0030
 2551.0000   594.6920   -20.9780     5.2230     5.1530     7.5960   623.7520     8.4850   137.0920     2.4790     0.0010
 2551.5000   594.8260   -20.9780     5.2920     5.1530     6.7340   623.7520     8.4830   138.9400     2.4830    -0.0020
 2552.0000   594.9600   -20.9420     5.4030     5.3790     5.8540   623.7520     8.4820   138.8640     2.4870    -0.0040
 2552.5000   595.0940   -20.9050     5.6580     5.6000     5.8540   623.7520     8.4810   134.9740     2.4910    -0.0060
 2553.0000   595.2280   -20.8660     5.9130     5.8200     6.1740   623.7520     8.4800   130.7480     2.4980    -0.0040
 2553.5000   595.3620   -20.8290     6.1690     6.0410     7.0400   623.7520     8.4780   126.5060     2.4980    -0.0020
 2554.0000   595.4960   -20.7910     6.4240     6.2610     7.9060   623.7520     8.4770   125.0710     2.4940     0.0000
