~VERSION INFORMATION
 VERS.                2.0:   CWLS LOG ASCII STANDARD - VERSION 2.0
 WRAP.                 NO:   ONE LINE PER DEPTH STEP
~WELL INFORMATION
#MNEM.UNIT      DATA TYPE    INFORMATION
#----------   ------------   ------------------------------
 STRT.F          204.0000:   START DEPTH
 STOP.F         3104.0000:   STOP DEPTH
 STEP.F            0.5000:   STEP LENGTH
 NULL.          -999.2500:   NO VALUE
 COMP.    FENIX & SCISSON:   COMPANY
 WELL. FENIX NPR 83 "AX" #3-10:   WELL
 FLD .                NPR:   FIELD
 LOC .      S10 T38N R78W:   LOCATION
 CNTY.            NATRONA:   COUNTY
 STAT.            WYOMING:   STATE
 CTRY. UNITED STATES OF AMERICA:   COUNTRY
 SRVC.              WELEX:   SERVICE COMPANY
 DATE.        14-JUL-1977:   LOGDATE
 API .     49025103980000:   API NUMBER
~CURVE INFORMATION
#MNEM.UNIT       API CODE    CURVE DESCRIPTION
#----------   ------------   ------------------------------
 DEPT.F                  :   
 ILD .OHMM   07 120 46 00:   DEEP INDUCTION RESISTIVITY
 GURD.OHMM   07 220 05 00:   GUARD LOG RESISTIVITY
 ILM .OHMM   07 120 44 00:   INDUCTION LOG MEDIUM RESISTIVITY
 SPR .MV     07 010 01 00:   SPONTANEOUS POTENTIAL
 CALD.IN     45 280 60 00:   CALIPER FROM DENSITY LOG
 GRD .GAPI   45 310 01 00:   GAMMA RAY FROM DENSITY LOG
 RHOB.G/C3   45 350 01 00:   BULK DENSITY
 CORR.G/C3   45 356 01 00:   DENSITY CORRECTION
 NPHI.DEC    42 890 03 00:   NEUTRON POROSITY SANDSTONE
~PARAMETER INFORMATION
#MNEM.UNIT          VALUE    DESCRIPTION
#----------   ------------   ------------------------------
 EKB .F         5176.0000:   Kelly bushing
 EGL .F         5166.0000:   Ground level
 TD  .F         3105.0000:   Total depth
 DATE.        14-JUL-1977:   Date logged
 CLNT.            A2DTECH:   Client Code
 SL  . 1650' FNL & 100' FEL:   Surface Location
 PD  .                 GL:   Permanent Datum
 DD  .F              3094:   Depth driller
 DL  .F              3105:   Depth logger
 BLI .F              3103:   Bottom log interval
 CS1 .IN            8.625:   Casing size
 CBD1.      8.625" @ 218':   Casing driller 1
 CBL1.F               220:   Casing logger 1
 BS1 .IN            7.875:   Bit size
 DFT .            KCL/GEL:   Type fluid in hole
 DFD .                9.4:   Density
 DFV .                 36:   Viscosity
 DFPH.                  8:   pH
 DFL .                 12:   Fluid loss
 MSS .           FLOWLINE:   Source of sample
 RMS .OHMM           1.54:   Rm
 MST .F               100:   Rm Meas. temp.
 RMF .OHMM            1.5:   Rmf
 MFST.F               100:   Rmf Meas. temp.
 RMC .OHMM           3.47:   Rmc
 MCST.F               100:   Rmc Meas. temp.
 MFSS.               FANN:   Source Rmf.
 RMB .OHMM           1.36:   Rm. at BHT
 BHT .F               113:   BHT.
 TCS .HRS             2.5:   Time Circ. stopped
 MRT .F               113:   Maximum recorded temp.
 LUN .               8766:   Logging unit number
 LUL .             CASPER:   Logging unit location
 ENGI. G. BENTSEN/T. JOYNER:   Recorded By
 WITN.      B. HARRINGTON:   Witnessed by
 ORIG.           5" PRINT:   Origin of data
 UWI .     49025103980000:   Unique Well ID
 DICO. A2D TECHNOLOGIES, INC.:   Digitizing Company
 DAPD.F                10:   Feet Above Permanent Datum
 BSD1.F              3094:   Depth drilled with bit1
 MCSS.                KIT:   Source Rmc.
 TLI .F               210:   Top log interval
 EPD .F              5166:   Elevation Permanent Datum
 LMF .                 KB:   Log Measured From
 DMF .                 KB:   Drilling Measured From
~OTHER INFORMATION
~A   DEPT      ILD       GURD        ILM        SPR       CALD        GRD       RHOB       CORR       NPHI   
# ...
 2102.0000     8.2070    14.0740    11.2940   -59.0520     8.8410   115.2650     2.5070     0.0150     0.3800
 2102.5000     8.3890    15.0200    11.3840   -59.0840     8.8350   114.9360     2.5020     0.0140     0.3800
 2103.0000     8.3590    14.4760    11.3060   -59.1170     8.8280   114.9990     2.4900     0.0120     0.3810
 2103.5000     8.3300    13.8980    11.0270   -59.1500     8.8220   115.2090     2.4810     0.0120     0.3840
 2104.0000     8.3000    13.3200    10.5690   -59.1820     8.8160   115.7530     2.4870     0.0150     0.3880
 2104.5000     8.2710    12.9780    10.1890   -59.2150     8.8100   116.2940     2.4910     0.0180     0.3920
 2105.0000     8.2410    13.2150    10.1890   -59.2480     8.8040   116.8360     2.4870     0.0220     0.3930
 2105.5000     8.2110    13.4040    10.1890   -59.2810     8.7980   116.8740     2.4840     0.0250     0.3950
 2106.0000     8.1820    14.6090    10.1890   -59.3130     8.7960   115.8330     2.4900     0.0250     0.3950
 2106.5000     8.1520    14.4190    10.0130   -59.3460     8.8000   114.8060     2.4970     0.0250     0.3940
 2107.0000     8.1230    13.9450     9.5710   -59.3790     8.8040   113.7410     2.5020     0.0240     0.3930
 2107.5000     8.0930    13.4700     9.1300   -59.4110     8.8070   114.4030     2.5040     0.0240     0.3920
 2108.0000     7.9570    12.7820     8.6890   -59.4440     8.8110   115.9430     2.5070     0.0230     0.3940
 2108.5000     7.7980    11.8050     8.1250   -59.4770     8.8150   117.3720     2.5100     0.0220     0.3900
 2109.0000     7.6380    10.8700     8.2560   -59.5100     8.8190   117.1580     2.5130     0.0240     0.3850
 2109.5000     7.4790    11.2320     8.5190   -59.5420     8.8230   116.4680     2.5150     0.0250     0.3810
 2110.0000     7.3190    11.6600     8.8710   -59.5750     8.8270   115.8400     2.5140     0.0270     0.3800
 2110.5000     7.1590    12.1450     8.7750   -59.6080     8.8310   115.2090     2.5100     0.0290     0.3800
 2111.0000     7.1070    12.0910     8.6300   -59.6410     8.8410   114.5720     2.5070     0.0300     0.3820
 2111.5000     7.1070    12.0330     8.4850   -59.6750     8.8670   113.9390     2.5070     0.0320     0.3830
 2112.0000     7.1070    11.3430     8.3410   -59.6940     8.8920   113.9450     2.5070     0.0330     0.3840
 2112.5000     7.1070    10.7700     8.2390   -59.5070     8.9120   114.8680     2.5070     0.0310     0.3820
 2113.0000     7.1070    11.0330     8.4720   -59.3240     8.9060   115.7960     2.5070     0.0300     0.3810
 2113.5000     7.1070    11.1760     8.6840   -59.1420     8.9000   116.6770     2.5100     0.0320     0.3770
 2114.0000     7.1070    10.6710     8.9530   -58.9610     8.8930   116.2520     2.5150     0.0350     0.3700
 2114.5000     7.1070    11.2330     8.7830   -58.7790     8.8920   115.1100     2.5200     0.0380     0.3680
 2115.0000     7.1070    11.8420     8.5490   -58.5980     8.9020   113.9740     2.5110     0.0410     0.3660
 2115.5000     7.1070    12.6020     8.3150   -58.5090     8.9120   112.8380     2.5030     0.0440     0.3650
 2116.0000     7.1070    11.9280     8.1630   -58.4960     8.9210   111.7020     2.4930     0.0450     0.3660
 2116.5000     7.1070    11.1760     8.2080   -58.4830     8.9310   110.5660     2.4860     0.0420     0.3670
 2117.0000     7.1070    10.8240     8.2660   -58.4710     8.9400   109.4300     2.4790     0.0360     0.3680
 2117.5000     7.1070    10.4590     8.3250   -58.4590     8.9500   108.2940     2.4720     0.0330     0.3690
 2118.0000     7.1070    10.3450     8.3830   -58.4470     8.9590   107.1580     2.4650     0.0320     0.3710
 2118.5000     7.1070    10.3020     8.4410   -58.4340     8.9690   106.0220     2.4590     0.0310     0.3720
 2119.0000     7.1070    10.2580     8.5000   -58.4220     8.9710   104.8850     2.4590     0.0290     0.3730
 2119.5000     7.1070    10.1890     8.5580   -58.4100     8.9710   103.7400     2.4600     0.0280     0.3730
 2120.0000     7.0410    10.8170     8.6170   -58.3970     8.9710   102.5960     2.4670     0.0290     0.3730
 2120.5000     6.9330    11.4410     8.7090   -58.3850     8.9710   102.5430     2.4760     0.0300     0.3750
 2121.0000     6.8250    11.5960     8.5520   -58.3730     8.9710   102.7350     2.4850     0.0350     0.3770
 2121.5000     6.7170    11.0840     8.1900   -58.3600     8.9710   103.2010     2.4940     0.0400     0.3780
 2122.0000     6.6090    10.4720     7.8280   -58.3480     8.9710   103.6620     2.5030     0.0440     0.3790
 2122.5000     6.5020     9.8610     7.4660   -58.3360     8.9710   104.1240     2.5070     0.0470     0.3780
 2123.0000     6.3940     9.2900     7.1040   -58.3230     8.9710   104.5850     2.4960     0.0430     0.3740
 2123.5000     6.2860     9.3770     6.9130   -58.3110     8.9710   105.0460     2.4850     0.0390     0.3710
 2124.0000     6.1870     8.9880     7.0390   -58.2990     8.9710   105.5070     2.4860     0.0360     0.3650
 2124.5000     6.1630     8.4160     7.1700   -58.2860     8.9710   105.9880     2.4930     0.0380     0.3630
 2125.0000     6.1350     8.0140     7.3000   -58.2740     8.9710   106.4460     2.5000     0.0400     0.3650
 2125.5000     6.1080     8.4710     7.4430   -58.2620     8.9710   107.4360     2.5060     0.0420     0.3680
 2126.0000     6.0800    10.2260     7.1920   -58.2490     8.9710   108.4150     2.5130     0.0440     0.3720
 2126.5000     6.0530    10.9020     6.9160   -58.2370     8.9710   109.3960     2.5060     0.0460     0.3780
 2127.0000     6.0250    10.9710     6.6400   -58.2250     8.9710   110.3770     2.4990     0.0460     0.3800
 2127.5000     5.8940    10.0170     6.3640   -58.2120     8.9710   111.3580     2.4910     0.0450     0.3830
 2128.0000     5.6610     9.3000     6.0880   -58.2000     8.9710   112.3400     2.4800     0.0440     0.3840
 2128.5000     5.4280     8.4690     5.8130   -58.1880     8.9710   113.3190     2.4800     0.0450     0.3870
 2129.0000     5.1960     7.6000     5.5370   -58.1750     8.9710   114.3070     2.4870     0.0480     0.3880
 2129.5000     4.9570     6.7320     5.1440   -58.1630     8.9710   114.7020     2.4960     0.0520     0.3890
 2130.0000     4.9070     6.0180     5.2870   -58.1510     8.9710   114.6960     2.5050     0.0550     0.3880
 2130.5000     4.8560     7.1200     5.5350   -58.1390     8.9710   114.4190     2.5000     0.0550     0.3900
 2131.0000     4.8050     8.0560     5.7840   -58.1270     8.9710   114.1420     2.4790     0.0440     0.3910
 2131.5000     4.7530     8.9910     6.1170   -58.1400     8.9710   113.9030     2.4590     0.0320     0.3950
 2132.0000     4.7330     9.7300     6.0560   -58.1930     8.9710   114.3950     2.4450     0.0200     0.3960
 2132.5000     4.8360     8.6800     5.9340   -58.2450     8.9710   114.9810     2.4490     0.0190     0.3990
 2133.0000     4.9390     7.6430     5.8120   -58.2970     8.9710   115.5110     2.4510     0.0190     0.3980
 2133.5000     5.0410     6.8490     5.6940   -58.3500     8.9710   114.7460     2.4470     0.0190     0.3970
 2134.0000     5.1430     7.4570     5.7340   -58.4030     8.9710   113.4170     2.4530     0.0230     0.3960
 2134.5000     5.2450     8.0140     5.8250   -58.4550     8.9710   112.0840     2.4630     0.0280     0.3960
 2135.0000     5.3470     7.5450     5.9160   -58.5080     8.9710   110.7100     2.4740     0.0340     0.3960
 2135.5000     5.4490     7.3070     6.0080   -58.5600     8.9710   110.1290     2.4840     0.0360     0.3960
 2136.0000     5.5510     8.0000     6.1710   -58.6130     8.9710   108.0280     2.4850     0.0270     0.3930
 2136.5000     5.6530     8.7190     6.5260   -58.6670     8.9710   105.5090     2.4770     0.0390     0.3890
 2137.0000     5.7550     9.8790     6.8490   -58.7050     8.9710   102.9630     2.4690     0.0480     0.3810
 2137.5000     5.8570    11.0390     6.8630   -58.5250     8.9710   102.3340     2.4610     0.0550     0.3790
 2138.0000     5.9590    11.3840     6.8760   -58.3500     8.9710   103.3280     2.4660     0.0610     0.3760
