~VERSION INFORMATION
 VERS.                2.0:   CWLS LOG ASCII STANDARD - VERSION 2.0
 WRAP.                 NO:   ONE LINE PER DEPTH STEP
~WELL INFORMATION
#MNEM.UNIT      DATA TYPE    INFORMATION
#----------   ------------   ------------------------------
 STRT.F            0.0000:   START DEPTH
 STOP.F         4000.0000:   STOP DEPTH
 STEP.F            0.5000:   STEP LENGTH
 NULL.          -999.2500:   NO VALUE
 COMP. LAWRENCE &  ALLISON ASSOC.:   COMPANY
 WELL. LAWRENCE NPR 3 "TX" #14-28:   WELL
 FLD .              N P R:   FIELD
 LOC .      S28 T39N R78W:   LOCATION
 CNTY.            NATRONA:   COUNTY
 STAT.            WYOMING:   STATE
 CTRY. UNITED STATES OF AMERICA:   COUNTRY
 SRVC.      DRESSER ATLAS:   SERVICE COMPANY
 DATE.        11-APR-1984:   LOGDATE
 API .     49025109710000:   API NUMBER
~CURVE INFORMATION
#MNEM.UNIT       API CODE    CURVE DESCRIPTION
#----------   ------------   ------------------------------
 DEPT.F                  :   
 RHOB.G/C3   45 350 01 00:   BULK DENSITY
 CORR.G/C3   45 356 01 00:   DENSITY CORRECTION
 TEND.LBS    45 635 01 00:   TENSION FROM DENSITY LOG
 CNC .DEC    42 890 03 00:   NEUTRON PORISITY SANDSTONE
 DT  .US/F   60 520 00 00:   DELTA TIME
 TENS.LBS    60 635 01 00:   TENSION FROM SONIC LOG
 GRR .GAPI   07 310 01 00:   GAMMA RAY FROM RESISTIVITY
 SPR .MV     07 010 01 00:   SPONTANEOUS POTENTIAL
 CALR.IN     07 280 01 00:   CALIPER FROM RESISTIVITY
 TENR.LBS    07 635 01 00:   TENSION
 RILD.OHMM   07 120 46 00:   INDUCTION LOG DEEP RESISTIVITY
 RILM.OHMM   07 120 44 00:   INDUCTION LOG MEDIUM RESISTIVITY
 RFOC.OHMM   07 220 01 00:   RESISTIVITY FOCUSED LOG RES.
~PARAMETER INFORMATION
#MNEM.UNIT          VALUE    DESCRIPTION
#----------   ------------   ------------------------------
 EKB .F         5024.0000:   Kelly bushing
 EGL .F         5014.0000:   Ground level
 TD  .F         3996.0000:   Total depth
 DATE.        11-APR-1984:   Date logged
 CLNT.            A2DTECH:   Client Code
 SL  . 250' FWL & 2100' FNL:   Surface Location
 PD  .                 GL:   Permanent Datum
 EPD .F              5014:   Elevation Permanent Datum
 LMF .                 KB:   Log Measured From
 DMF .                 KB:   Drilling Measured From
 DD  .F              3996:   Depth driller
 DL  .F              3994:   Depth logger
 BLI .F              3992:   Bottom log interval
 CS1 .IN            8.625:   Casing size
 CBD1.      8.625" @ 404':   Casing driller 1
 CBL1.F               404:   Casing logger 1
 BS1 .IN            7.875:   Bit size
 DFT .            GEL/KCL:   Type fluid in hole
 DFD .                9.1:   Density
 DFV .                 38:   Viscosity
 DFPH.                  8:   pH
 DFL .                 14:   Fluid loss
 MSS .           FLOWLINE:   Source of sample
 RMS .OHMM           .417:   Rm
 MST .F                90:   Rm Meas. temp.
 RMF .OHMM           .313:   Rmf
 MFST.F                90:   Rmf Meas. temp.
 RMC .OHMM           .521:   Rmc
 MCST.F                90:   Rmc Meas. temp.
 MFSS.               CALC:   Source Rmf.
 RMB .OHMM            .25:   Rm. at BHT
 BHT .F               150:   BHT.
 TCS .HRS               3:   Time Circ. stopped
 MRT .F               150:   Maximum recorded temp.
 LUN .               6307:   Logging unit number
 LUL .               GLTE:   Logging unit location
 ENGI.           FAHLSING:   Recorded By
 WITN.             STRONG:   Witnessed by
 ORIG.           5" PRINT:   Origin of data
 UWI .     49025109710000:   Unique Well ID
 DICO. A2D TECHNOLOGIES, INC.:   Digitizing Company
 DAPD.F                10:   Feet Above Permanent Datum
 BSD1.F              3996:   Depth drilled with bit1
 MCSS.               CALC:   Source Rmc.
~OTHER INFORMATION
~A    DEPT    RHOB       CORR       TEND        CNC         DT       TENS         GRR       SPR       CALR       TENR       RILD       RILM       RFOC   
# ...
 3276.0000     2.4710     0.0120    32.1780     0.2680    93.0200    24.6570   154.9200   -29.6680     8.9480   -71.2350     3.7900     4.1420     4.6180
 3276.5000     2.4730     0.0200    32.1780     0.2680    92.9840    24.5600   156.2260   -29.4500     8.9500   -71.4940     3.7490     4.1290     4.6300
 3277.0000     2.4710     0.0130    32.1780     0.2570    92.9490    24.4630   156.5330   -29.2340     8.9520   -71.7530     3.7070     4.1160     4.5580
 3277.5000     2.4590     0.0050    32.1780     0.2520    92.9210    24.3660   156.7600   -29.0180     8.9540   -72.0120     3.6650     4.1030     4.4610
 3278.0000     2.4510     0.0070    32.1780     0.2600    93.1710    24.2690   156.9770   -28.8320     8.9560   -72.2710     3.6140     4.0900     4.3640
 3278.5000     2.4550     0.0170    32.1780     0.2700    93.4160    24.1720   153.3550   -28.8270     8.9580   -72.5300     3.6560     4.0770     4.2630
 3279.0000     2.4670     0.0260    32.1780     0.2700    93.4160    24.0750   148.8260   -28.8170     8.9600   -72.7890     3.7110     4.0630     4.3750
 3279.5000     2.4750     0.0360    32.1780     0.2680    93.3170    23.9780   144.2640   -28.8080     8.9620   -73.0480     3.7660     4.0500     4.4610
 3280.0000     2.4830     0.0400    32.1780     0.2620    93.0060    23.8810   143.7430   -28.7980     8.9640   -73.3070     3.8200     4.0370     4.5470
 3280.5000     2.5090     0.0220    32.1780     0.2600    92.7010    23.7840   141.6140   -28.7880     8.9660   -73.5660     3.8750     4.0350     4.6300
 3281.0000     2.5640    -0.0310    32.1780     0.2630    92.1350    23.6870   138.2160   -28.7780     8.9680   -73.8250     3.9290     4.0760     4.9400
 3281.5000     2.6300    -0.0980    32.1780     0.2650    91.2140    23.5900   136.1930   -28.7690     8.9700   -74.0840     3.9840     4.0860     5.2400
 3282.0000     2.6480    -0.1010    32.1780     0.2610    90.2930    23.4930   141.0870   -28.7590     8.9720   -74.3430     4.0350     4.0940     5.4610
 3282.5000     2.5470    -0.0320    32.1780     0.2550    89.9500    23.3960   147.4390   -28.7490     8.9740   -74.6020     4.0050     4.1020     5.4610
 3283.0000     2.4900     0.0120    32.1780     0.2610    90.3860    23.3000   151.1660   -28.7390     8.9770   -74.8610     3.9720     4.1090     4.9260
 3283.5000     2.4580     0.0200    32.1780     0.2670    91.1650    23.2030   153.7530   -28.7300     8.9790   -75.1200     3.9380     4.1090     4.5460
 3284.0000     2.4580     0.0290    32.1780     0.2630    91.9450    23.1060   156.3810   -28.7200     8.9810   -75.2880     3.9050     4.1090     4.5760
 3284.5000     2.4640     0.0260    32.1780     0.2530    92.3270    23.0090   156.4660   -28.7100     8.9820   -74.7520     3.8710     4.1090     4.6360
 3285.0000     2.4620    -0.0010    32.1780     0.2490    92.4060    22.9120   153.5500   -28.7000     8.9780   -74.2170     3.8380     4.1090     4.6960
 3285.5000     2.4590    -0.0020    32.1780     0.2600    92.3610    22.8150   152.4960   -28.6900     8.9740   -73.6810     3.8040     4.1090     4.7590
 3286.0000     2.4600     0.0030    32.1780     0.2700    92.3270    22.7180   155.5760   -28.6810     8.9710   -73.1450     3.7700     4.1090     4.7590
 3286.5000     2.4610     0.0080    32.1780     0.2670    92.3270    22.6210   159.5540   -28.6710     8.9670   -72.6100     3.7440     4.1100     4.6520
 3287.0000     2.4550     0.0090    32.1780     0.2610    93.0100    22.5240   163.5640   -28.6610     8.9630   -72.0740     3.7130     4.0950     4.5410
 3287.5000     2.4460    -0.0080    32.1780     0.2600    93.5580    22.4270   165.6070   -28.6510     8.9590   -71.5390     3.6820     4.0580     4.4300
 3288.0000     2.4420     0.0010    32.1780     0.2590    94.1060    22.3300   162.6850   -28.6430     8.9560   -71.0030     3.6510     4.0210     4.3420
 3288.5000     2.4400     0.0220    32.1780     0.2550    94.4060    22.2770   157.3990   -28.6870     8.9520   -70.4670     3.6210     3.9840     4.3420
 3289.0000     2.4400     0.0380    32.1780     0.2530    94.2890    22.2770   154.8810   -28.7320     8.9480   -69.9320     3.5900     3.9470     4.4330
 3289.5000     2.4370     0.0280    32.1780     0.2550    93.8310    22.2770   154.9540   -28.7770     8.9440   -69.3960     3.5590     3.9100     4.4980
 3290.0000     2.4340    -0.0270    32.1780     0.2550    93.3730    22.2770   155.9720   -28.8210     8.9410   -68.8600     3.5160     3.8890     4.5460
 3290.5000     2.4360    -0.0340    32.1780     0.2460    93.1190    22.2770   157.1570   -28.8660     8.9370   -68.3250     3.5890     3.9580     4.4780
 3291.0000     2.4410    -0.0260    32.1780     0.2450    93.1190    22.2770   158.3120   -28.9110     8.9330   -67.7890     3.6570     4.0050     4.4230
 3291.5000     2.4460    -0.0050    32.1780     0.2470    93.3830    22.2770   159.4920   -28.9560     8.9300   -67.2540     3.7260     4.0520     4.3420
 3292.0000     2.4550     0.0170    32.1780     0.2520    93.5150    22.2770   160.2470   -29.0000     8.9260   -66.7180     3.7940     4.0990     4.4110
 3292.5000     2.4630     0.0210    32.1780     0.2530    93.5150    22.2770   156.1070   -29.0450     8.9230   -66.1820     3.8630     4.1460     4.5480
 3293.0000     2.4710     0.0250    32.3150     0.2530    92.9620    22.2770   153.6900   -29.0900     8.9190   -65.6470     3.9320     4.1930     4.6850
 3293.5000     2.4720     0.0190    32.5750     0.2520    92.4330    22.2770   154.8630   -29.1350     8.9140   -65.1110     4.0000     4.2290     4.8030
 3294.0000     2.4730     0.0130    32.8360     0.2470    91.9040    22.2770   157.0400   -29.1790     8.9100   -64.5750     4.0720     4.2440     4.7780
 3294.5000     2.4740     0.0460    33.0960     0.2450    91.8040    22.2770   158.9270   -29.2240     8.9060   -64.0400     4.0720     4.2580     4.7590
 3295.0000     2.4730     0.0450    33.3560     0.2490    91.7050    22.2770   156.3620   -29.2690     8.9020   -63.5040     4.0720     4.2730     4.7780
 3295.5000     2.4630     0.0110    33.6170     0.2560    91.6340    22.2770   152.0680   -29.3140     8.8980   -62.9680     4.0720     4.2880     4.7950
 3296.0000     2.4530    -0.0170    33.8770     0.2660    91.2570    22.2770   148.5890   -29.3590     8.8940   -62.4330     4.0720     4.3020     4.8110
 3296.5000     2.4470    -0.0270    34.1370     0.2600    90.6440    22.2770   149.0510   -29.4020     8.8900   -61.8970     4.0720     4.2880     4.8280
 3297.0000     2.4440    -0.0260    34.3970     0.2540    90.5450    22.2770   150.6930   -29.3580     8.8850   -61.3620     4.0720     4.2730     4.8470
 3297.5000     2.4410    -0.0170    34.6580     0.2580    90.5450    22.2770   152.3610   -29.1860     8.8810   -60.8260     4.0720     4.2590     4.8080
 3298.0000     2.4410    -0.0110    34.9180     0.2670    90.6220    22.2770   154.0130   -29.0160     8.8770   -60.2900     4.0410     4.2440     4.7470
 3298.5000     2.4430    -0.0310    35.1780     0.2620    90.6930    22.2770   154.6040   -28.8450     8.8730   -59.7550     3.9920     4.2300     4.6860
 3299.0000     2.4500    -0.0020    35.4390     0.2510    90.7960    22.2770   153.8860   -28.6740     8.8690   -59.2190     3.9430     4.2150     4.6250
 3299.5000     2.4570     0.0270    35.6990     0.2500    90.9760    22.2770   153.1810   -28.5040     8.8650   -58.6830     3.8950     4.2010     4.5630
 3300.0000     2.4580     0.0290    35.9590     0.2550    91.1880    22.2770   152.4720   -28.3330     8.8610   -58.1480     3.8460     4.1860     4.5020
 3300.5000     2.4520    -0.0020    36.2190     0.2600    91.5730    22.2770   151.7660   -28.3060     8.8560   -57.6120     3.7980     4.1720     4.4220
 3301.0000     2.4460    -0.0180    36.4800     0.2650    91.9460    22.2770   151.0130   -28.4220     8.8520   -57.0770     3.7490     4.1570     4.4310
 3301.5000     2.4450    -0.0290    36.7400     0.2690    92.3190    22.2770   150.5940   -28.5370     8.8480   -56.5410     3.7000     4.1430     4.4430
