~VERSION INFORMATION
 VERS.                2.0:   CWLS LOG ASCII STANDARD - VERSION 2.0
 WRAP.                 NO:   ONE LINE PER DEPTH STEP
~WELL INFORMATION
#MNEM.UNIT      DATA TYPE    INFORMATION
#----------   ------------   ------------------------------
 STRT.F          200.0000:   START DEPTH
 STOP.F         3196.5000:   STOP DEPTH
 STEP.F            0.5000:   STEP LENGTH
 NULL.          -999.2500:   NO VALUE
 COMP.    FENIX & SCISSON:   COMPANY
 WELL. FENIX & SCISSON #82-15:   WELL
 FLD .                NPR:   FIELD
 LOC .      S15 T38N R78W:   LOCATION
 CNTY.            NATRONA:   COUNTY
 STAT.            WYOMING:   STATE
 CTRY. UNITED STATES OF AMERICA:   COUNTRY
 SRVC.              WELEX:   SERVICE COMPANY
 DATE.        14-AUG-1977:   LOGDATE
 API .     49025104100000:   API NUMBER
~CURVE INFORMATION
#MNEM.UNIT       API CODE    CURVE DESCRIPTION
#----------   ------------   ------------------------------
 DEPT.F                  :   
 CALD.IN     45 280 60 00:   CALIPER FROM DENSITY LOG
 GRD .GAPI   45 310 01 00:   GAMMA RAY FROM DENSITY LOG
 RHOB.G/C3   45 350 01 00:   BULK DENSITY
 CORR.G/C3   45 356 01 00:   DENSITY CORRECTION
 SPR .MV     07 010 01 00:   SPONTANEOUS POTENTIAL
 ILD .OHMM   07 120 46 00:   DEEP INDUCTION RESISTIVITY
 ILM .OHMM   07 120 44 00:   INDUCTION LOG MEDIUM RESISTIVITY
 GURD.OHMM   07 220 05 00:   GUARD LOG RESISTIVITY
~PARAMETER INFORMATION
#MNEM.UNIT          VALUE    DESCRIPTION
#----------   ------------   ------------------------------
 EKB .F         5259.0000:   Kelly bushing
 EGL .F         5249.0000:   Ground level
 EDF .F            0.0000:   Drilling floor
 EPD .F            0.0000:   Permanent datum
 TD  .F         3197.0000:   Total depth
 CLNT.            A2DTECH:   Client Code
 SL  . 990' FNL & 330' FEL:   Surface Location
 PD  .                 GL:   Permanent Datum
 DAPD.F                10:   Feet Above Permanent Datum
 DATE.        14-AUG-1977:   Date Logged [DD-MMM-YYYY]
 DD  .F              3197:   Depth driller
 DL  .F              3200:   Depth logger
 BLI .F              3198:   Bottom log interval
 TLI .F               200:   Top log interval
 CS1 .IN            8.625:   Casing size
 CBD1.      8.625" @ 236':   Casing driller 1
 CBL1.F               220:   Casing logger 1
 BS1 .IN            7.875:   Bit size
 BSD1.F              3197:   Depth drilled with bit1
 DFT .            KCL MUD:   Type fluid in hole
 DFD .                9.1:   Density
 DFV .                 42:   Viscosity
 DFPH.               10.5:   pH
 DFL .                7.2:   Fluid loss
 MSS .           FLOWLINE:   Source of sample
 RMS .OHMM          0.240:   Rm
 MST .F                92:   Rm Meas. temp.
 RMF .OHMM          0.160:   Rmf
 MFST.F                92:   Rmf Meas. temp.
 MFSS.               MEAS:   Source Rmf.
 RMC .OHMM          0.238:   Rmc
 MCST.F                92:   Rmc Meas. temp.
 MCSS.               MEAS:   Source Rmc.
 RMB .OHMM          0.194:   Rm. at BHT
 BHT .F               114:   BHT.
 TCS .HRS               3:   Time Circ. stopped
 MRT .F               114:   Maximum recorded temp.
 LUN .               9685:   Logging unit number
 LUL .             CASPER:   Logging unit location
 ENGI.            C. DOAK:   Recorded By
 WITN.      W. PETTINGILL:   Witnessed by
 ORIG.           5" PRINT:   Origin of data
 UWI .     49025104100000:   Unique Well ID
 DICO. A2D TECHNOLOGIES, INC.:   Digitizing Company
~OTHER INFORMATION
~A   DEPT       CALD       GRD        RHOB      CORR       SPR        ILD        ILM       GURD   
  200.0000     8.1622    90.0901     1.9146    -0.6153  -999.2500  -999.2500  -999.2500  -999.2500
  200.5000     8.1626    90.5556     1.9169    -0.6198  -999.2500  -999.2500  -999.2500  -999.2500
  201.0000     8.1630    90.4193     1.9185    -0.6255  -999.2500  -999.2500  -999.2500  -999.2500
  201.5000     8.1633    89.8368     1.9233    -0.6269  -999.2500  -999.2500  -999.2500  -999.2500
  202.0000     8.1637    88.9504     1.9337    -0.6117  -999.2500  -999.2500  -999.2500  -999.2500
  202.5000     8.1640    88.6609     1.9540    -0.5966  -999.2500  -999.2500  -999.2500  -999.2500
  203.0000     8.1644    89.2796     1.9683    -0.5905  -999.2500  -999.2500  -999.2500  -999.2500
  203.5000     8.1648    89.2943     1.9752    -0.5904  -999.2500  -999.2500  -999.2500  -999.2500
  204.0000     8.1652    88.5615     1.9738    -0.5902  -999.2500  -999.2500  -999.2500  -999.2500
  204.5000     8.1656    87.8252     1.9686    -0.5946  -999.2500  -999.2500  -999.2500  -999.2500
  205.0000     8.1660    87.5357     1.9657    -0.5960  -999.2500  -999.2500  -999.2500  -999.2500
  205.5000     8.1663    87.5538     1.9680    -0.5943  -999.2500  -999.2500  -999.2500  -999.2500
  206.0000     8.1517    87.8686     1.9786    -0.5837  -999.2500  -999.2500  -999.2500  -999.2500
  206.5000     8.1520    88.7840     1.9914    -0.5881  -999.2500  -999.2500  -999.2500  -999.2500
  207.0000     8.1524    89.5646     2.0103    -0.5895  -999.2500  -999.2500  -999.2500  -999.2500
  207.5000     8.1529    89.7174     2.0081    -0.5818  -999.2500  -999.2500  -999.2500  -999.2500
  208.0000     8.1532    89.1313     2.0104    -0.5771  -999.2500  -999.2500  -999.2500  -999.2500
  208.5000     8.1536    88.6917     2.0143    -0.5741  -999.2500  -999.2500  -999.2500  -999.2500
  209.0000     8.1539    88.8599     2.0189    -0.5709  -999.2500  -999.2500  -999.2500  -999.2500
  209.5000     8.1543    89.4750     2.0227    -0.5708  -999.2500  -999.2500  -999.2500  -999.2500
  210.0000     8.1547    90.2402     2.0153    -0.5737  -999.2500  -999.2500  -999.2500  -999.2500
  210.5000     8.1550    90.4054     2.0124    -0.5735  -999.2500  -999.2500  -999.2500  -999.2500
  211.0000     8.1554    90.1190     2.0200    -0.5629  -999.2500  -999.2500  -999.2500  -999.2500
  211.5000     8.1559    90.2873     2.0275    -0.5448  -999.2500  -999.2500  -999.2500  -999.2500
  212.0000     8.1412    92.3075     2.0382    -0.5131  -999.2500  -999.2500  -999.2500  -999.2500
  212.5000     8.1416    92.9148     2.0443    -0.4789  -999.2500  -999.2500  -999.2500  -999.2500
  213.0000     8.1419    93.0774     2.0398    -0.4486  -999.2500  -999.2500  -999.2500  -999.2500
  213.5000     8.1423    94.1370     2.0474    -0.4185  -999.2500  -999.2500  -999.2500  -999.2500
  214.0000     8.1427    95.6464     2.0580    -0.3765  -999.2500  -999.2500  -999.2500  -999.2500
  214.5000     8.1430    96.5832     2.0730    -0.2910  -999.2500  -999.2500  -999.2500  -999.2500
  215.0000     8.1446    98.6652     2.1106    -0.2385  -999.2500  -999.2500  -999.2500  -999.2500
  215.5000     8.1738    97.6284     2.1459    -0.1545  -999.2500  -999.2500  -999.2500  -999.2500
  216.0000     8.0691    99.2851     2.1834    -0.0500  -999.2500  -999.2500  -999.2500  -999.2500
  216.5000     7.7842    99.1454     2.2614     0.0434  -999.2500  -999.2500  -999.2500  -999.2500
  217.0000     7.9648    99.3080     2.3094     0.1318  -999.2500  -999.2500  -999.2500  -999.2500
  217.5000     8.3705   100.0677     2.2578     0.1215  -999.2500  -999.2500  -999.2500  -999.2500
  218.0000     8.7012  -999.2500     2.2549     0.1156  -999.2500  -999.2500  -999.2500  -999.2500
  218.5000     9.1821  -999.2500     2.2528     0.1248  -999.2500  -999.2500  -999.2500  -999.2500
  219.0000     9.9031  -999.2500     2.2573     0.1324  -999.2500  -999.2500  -999.2500  -999.2500
  219.5000    10.7895  -999.2500     2.2620     0.1370  -999.2500  -999.2500  -999.2500  -999.2500
  220.0000    11.6861  -999.2500     2.2665     0.1293   -12.2870     3.8289     4.0358     4.0026
  220.5000    12.5565  -999.2500     2.2719     0.0954   -16.3380     3.9408     4.4808     4.1167
  221.0000    13.1721  -999.2500     2.2899     0.0730   -19.1650     4.1394     5.0793     4.2932
  221.5000    13.9377  -999.2500     2.3432     0.0612   -21.9920     4.3481     5.1173     4.4156
  222.0000    14.9281    99.8608     2.4047     0.0553   -25.8653     4.6311     5.4513     4.5103
  222.5000    14.9290    98.9739     2.4146     0.0524   -29.1704     4.6664     5.9279     4.5761
  223.0000    15.0578    98.8342     2.4100     0.0511   -31.8150     4.6696     5.8506     4.6411
  223.5000    15.4258    98.9942     2.4083     0.0512   -34.3430     4.6728     6.0265     4.6758
  224.0000    15.5316    99.1544     2.4073     0.0545   -36.8711     4.7419     6.8245     4.6779
  224.5000    15.5475    99.3169     2.4079     0.0575   -39.5486     4.8784     7.8439     4.5522
  225.0000    15.5634    99.4770     2.4090     0.0621   -41.3293     5.0890     8.6487     4.5224
  225.5000    15.3544    99.4871     2.4091     0.0668   -42.6615     5.4578     7.6406     4.7824
  226.0000    15.4453    99.4972     2.4084     0.0714   -43.6948     5.7729     7.2232     4.8849
  226.5000    15.7830    99.5074     2.4078     0.0760   -45.4833     5.8574     7.0433     4.8488
  227.0000  -999.2500    99.6674     2.4071     0.0806   -46.2312     5.9845     7.2472     4.7235
  227.5000  -999.2500    99.9775     2.4050     0.0853   -47.5387     5.9471     7.2520     4.6925
  228.0000  -999.2500    99.9901     2.3983     0.0900   -48.1236     5.9521     7.0586     4.6623
  228.5000  -999.2500   100.0002     2.3894     0.0945   -49.0074     6.0392     7.1124     4.7299
  229.0000  -999.2500   100.0104     2.3768     0.0976   -50.1901     6.0970     7.2164     4.7648
  229.5000  -999.2500    99.7146     2.3559     0.0963   -51.2234     6.2173     7.1726     4.7341
  230.0000  -999.2500   102.4303     2.3381     0.0964   -54.4988     6.2215     7.0787     4.7035
  230.5000  -999.2500   103.4899     2.2782     0.0950   -56.7319     6.1400     6.7482     4.7062
  231.0000  -999.2500   104.3996     2.2520     0.0922   -55.8017     6.0595     6.5229     4.7083
  231.5000  -999.2500   105.3093     2.2222     0.0833   -55.3532     5.7375     6.2616     4.8426
  232.0000    14.6468   105.9191     2.1713     0.0709   -55.1907     5.7008     6.0945     4.9122
  232.5000    13.1937   106.3943     2.1481     0.0387   -54.8787     5.7452     6.0987     5.0175
  233.0000    12.9097   106.5417     2.1715     0.0104   -54.8656     5.9107     6.1038     5.2689
  233.5000    12.4758   106.1020     2.2735     0.0075   -55.1515     6.0389     6.1078     5.4632
  234.0000    12.1139   105.6599     2.3986     0.0107   -55.4380     6.2560     6.1971     5.7308
  234.5000    11.9531   105.0728     2.4122     0.0078   -55.8728     6.3918     6.2878     5.9764
  235.0000    11.9091   104.3333     2.4138     0.0064   -56.6268     6.3960     6.2920     6.1469
  235.5000    11.9100   104.3435     2.4139     0.0021   -57.7866     6.2686     6.2527     6.4104
  236.0000    11.9109   105.5892     2.4132     0.0007   -58.6704     6.1014     6.1282     6.6851
  236.5000    11.9268   107.0649     2.4148    -0.0007   -59.7037     5.9395     5.9648     6.7813
  237.0000    11.9427   107.8247     2.4171     0.0010   -60.8864     5.9435     5.8470     6.7844
  237.5000    11.9586   108.5845     2.4187     0.0041   -62.2186     5.9475     5.8509     6.7881
  238.0000    11.9595   109.0444     2.4233     0.0088   -63.7004     5.9929     5.8548     6.7435
  238.5000    11.9454   109.6542     2.4302     0.0134   -64.2855     5.9555     5.8634     6.7941
  239.0000    11.9465   109.8143     2.4377     0.0180   -64.1186     5.9120     5.8627     6.7972
  239.5000    11.9322   109.0570     2.4393     0.0166   -63.8102     5.7614     5.7469     6.7526
  240.0000    11.9181   107.8881     2.4357     0.0136   -63.0469     5.8053     5.6707     6.6174
