~VERSION INFORMATION
 VERS.                2.0:   CWLS LOG ASCII STANDARD - VERSION 2.0
 WRAP.                 NO:   ONE LINE PER DEPTH STEP
~WELL INFORMATION
#MNEM.UNIT      DATA TYPE    INFORMATION
#----------   ------------   ------------------------------
 STRT.F           46.0000:   START DEPTH
 STOP.F         2952.5000:   STOP DEPTH
 STEP.F            0.5000:   STEP LENGTH
 NULL.          -999.2500:   NO VALUE
 COMP.    FENIX & SCISSON:   COMPANY
 WELL. FENIX NPR 3 "SHX" #11-15:   WELL
 FLD .        TEAPOT DOME:   FIELD
 LOC .      S15 T38N R78W:   LOCATION
 CNTY.            NATRONA:   COUNTY
 STAT.            WYOMING:   STATE
 CTRY. UNITED STATES OF AMERICA:   COUNTRY
 SRVC.           BIRDWELL:   SERVICE COMPANY
 DATE.        19-JAN-1979:   LOGDATE
 API .     49025107640000:   API NUMBER
~CURVE INFORMATION
#MNEM.UNIT       API CODE    CURVE DESCRIPTION
#----------   ------------   ------------------------------
 DEPT.F                  :   
 GRD .GAPI   45 310 01 00:   GAMMA RAY FROM DENSITY LOG
 CALD.IN     45 280 60 00:   CALIPER FROM DENSITY LOG
 RHOB.G/C3   45 350 01 00:   BULK DENSITY
 CORR.G/C3   45 356 01 00:   DENSITY CORRECTION
 SPR .MV     07 010 01 00:   SPONTANEOUS POTENTIAL
 SN  .OHMM   01 040 00 00:   SHORT NORMAL
 ILD .OHMM   07 120 46 00:   INDUCTION LOG DEEP RESISTIVITY
~PARAMETER INFORMATION
#MNEM.UNIT          VALUE    DESCRIPTION
#----------   ------------   ------------------------------
 EKB .F         5258.0000:   Kelly bushing
 EGL .F         5248.0000:   Ground level
 EDF .F            0.0000:   Drilling floor
 TD  .F         1300.0000:   Total depth
 DATE.        19-JAN-1979:   Date logged
 CLNT.            A2DTECH:   Client Code
 SL  . 177' FNL & 155' FWL:   Surface Location
 PD  .                 GL:   Permanent Datum
 EPD .F              5248:   Elevation Permanent Datum
 LMF .                 KB:   Log Measured From
 DMF .                 KB:   Drilling Measured From
 DAPD.F                10:   Feet Above Permanent Datum
 DD  .F              1300:   Depth driller
 DL  .F              1283:   Depth logger
 BLI .F              1277:   Bottom log interval
 TLI .F               100:   Top log interval
 CBD1.F                40:   Casing driller 1
 CBL1.F                40:   Casing logger 1
 BS1 .IN            7.875:   Bit size
 BSD1.F              1300:   Depth drilled with bit1
 DFT .           CHEM/GEL:   Type fluid in hole
 DFD .                8.8:   Density
 DFV .                 37:   Viscosity
 DFL .               15.4:   Fluid loss
 MSS .           FLOWLINE:   Source of sample
 RMS .OHMM            .75:   Rm
 MST .F                68:   Rm Meas. temp.
 RMF .OHMM            .75:   Rmf
 MFST.F                64:   Rmf Meas. temp.
 RMC .OHMM            1.3:   Rmc
 MCST.F                68:   Rmc Meas. temp.
 MFSS.               MEAS:   Source Rmf.
 MCSS.               MEAS:   Source Rmc.
 RMB .OHMM            .73:   Rm. at BHT
 BHT .F                70:   BHT.
 TCS .HRS               2:   Time Circ. stopped
 MRT .F                70:   Maximum recorded temp.
 LUN .               3029:   Logging unit number
 LUL .               CSPR:   Logging unit location
 ENGI.            ROLLINS:   Recorded By
 WITN.           DINSMORE:   Witnessed by
 ORIG.           5" PRINT:   Origin of data
 UWI .     49025107640000:   Unique Well ID
 DICO. A2D TECHNOLOGIES, INC.:   Digitizing Company
~OTHER INFORMATION
~A   DEPT      GRD       CALD       RHOB       CORR        SPR           SN        ILD 
# ...
 1593.0000   138.1110     9.9550     2.5030     0.0570  -999.2500  -999.2500  -999.2500
 1593.5000   142.9410     9.9640     2.5030     0.0660  -999.2500  -999.2500  -999.2500
 1594.0000   141.9250     9.9730     2.5040     0.0810  -999.2500  -999.2500  -999.2500
 1594.5000   141.6040     9.9830     2.5060     0.0830  -999.2500  -999.2500  -999.2500
 1595.0000   137.0100     9.9920     2.5070     0.0800  -999.2500  -999.2500  -999.2500
 1595.5000   136.7960    10.0020     2.5090     0.0770  -999.2500  -999.2500  -999.2500
 1596.0000   137.9510    10.0110     2.5090     0.0760  -999.2500  -999.2500  -999.2500
 1596.5000   140.5940    10.0210     2.5080     0.0720  -999.2500  -999.2500  -999.2500
 1597.0000   142.2300    10.0300     2.5070     0.0680  -999.2500  -999.2500  -999.2500
 1597.5000   143.5370    10.0400     2.4980     0.0630  -999.2500  -999.2500  -999.2500
 1598.0000   145.1830    10.0440     2.4850     0.0610  -999.2500  -999.2500  -999.2500
 1598.5000   147.2860    10.0430     2.4730     0.0560  -999.2500  -999.2500  -999.2500
 1599.0000   149.9280    10.0430     2.4620     0.0670  -999.2500  -999.2500  -999.2500
 1599.5000   152.4080    10.0430     2.4560     0.0880  -999.2500  -999.2500  -999.2500
 1600.0000   146.9490    10.0430     2.4570     0.1070  -999.2500  -999.2500  -999.2500
 1600.5000   141.6940    10.0430     2.4700     0.1080  -999.2500  -999.2500  -999.2500
 1601.0000   137.3250    10.0430     2.4820     0.1020  -999.2500  -999.2500  -999.2500
 1601.5000   138.1540    10.0430     2.4830     0.0600  -999.2500  -999.2500  -999.2500
 1602.0000   138.0150    10.0430     2.4840     0.0570  -999.2500  -999.2500  -999.2500
 1602.5000   139.4710    10.0430     2.4970     0.0570  -999.2500  -999.2500  -999.2500
 1603.0000   142.4440    10.0430     2.5030     0.0620  -999.2500  -999.2500  -999.2500
 1603.5000   145.0520    10.0430     2.5030     0.0650  -999.2500  -999.2500  -999.2500
 1604.0000   142.0310    10.0430     2.5020     0.0680  -999.2500  -999.2500  -999.2500
 1604.5000   138.7060    10.0440     2.4920     0.0680  -999.2500  -999.2500  -999.2500
 1605.0000   138.3550    10.0440     2.4820     0.0700  -999.2500  -999.2500  -999.2500
 1605.5000   139.6820    10.0620     2.4760     0.0910  -999.2500  -999.2500  -999.2500
 1606.0000   139.9740    10.0860     2.4760     0.1090  -999.2500  -999.2500  -999.2500
 1606.5000   139.0820    10.1120     2.4760     0.1290  -999.2500  -999.2500  -999.2500
 1607.0000   138.1730    10.1340     2.4910     0.1440  -999.2500  -999.2500  -999.2500
 1607.5000   137.9070    10.1580     2.5040     0.1430  -999.2500  -999.2500  -999.2500
 1608.0000   139.0410    10.1210     2.5000     0.1190  -999.2500  -999.2500  -999.2500
 1608.5000   142.2490    10.0800     2.4730     0.0880  -999.2500  -999.2500  -999.2500
 1609.0000   141.6570    10.0450     2.4480     0.0770  -999.2500  -999.2500  -999.2500
 1609.5000   139.6750    10.0520     2.4210     0.0820  -999.2500  -999.2500  -999.2500
 1610.0000   140.0060    10.0600     2.3990     0.1130  -999.2500  -999.2500  -999.2500
 1610.5000   140.7140    10.0670     2.3950     0.1560  -999.2500  -999.2500  -999.2500
 1611.0000   141.2220    10.0740     2.3970     0.2280  -999.2500  -999.2500  -999.2500
 1611.5000   141.3510    10.0900     2.4350     0.2100  -999.2500  -999.2500  -999.2500
 1612.0000   145.7750    10.1230     2.4630     0.1720  -999.2500  -999.2500  -999.2500
 1612.5000   151.6020    10.1100     2.4650     0.1270  -999.2500  -999.2500  -999.2500
 1613.0000   150.2820    10.1050     2.4580     0.1070  -999.2500  -999.2500  -999.2500
 1613.5000   144.3390    10.0970     2.4610     0.1080  -999.2500  -999.2500  -999.2500
 1614.0000   143.8780    10.0910     2.4640     0.1140  -999.2500  -999.2500  -999.2500
 1614.5000   144.6210    10.0840     2.4680     0.1280  -999.2500  -999.2500  -999.2500
 1615.0000   146.2850    10.0970     2.4690     0.1400  -999.2500  -999.2500  -999.2500
 1615.5000   147.3010    10.1130     2.4690     0.1400  -999.2500  -999.2500  -999.2500
 1616.0000   148.7300    10.1300     2.4690     0.1420  -999.2500  -999.2500  -999.2500
 1616.5000   147.0170    10.1460     2.4680     0.1290  -999.2500  -999.2500  -999.2500
 1617.0000   146.0680    10.1610     2.4570     0.1060  -999.2500  -999.2500  -999.2500
 1617.5000   147.5630    10.1610     2.4490     0.0930  -999.2500  -999.2500  -999.2500
 1618.0000   150.0070    10.1600     2.3980     0.0910  -999.2500  -999.2500  -999.2500
 1618.5000   152.3830    10.1540     2.3700     0.1080  -999.2500  -999.2500  -999.2500
 1619.0000   153.3900    10.1500     2.3760     0.1370  -999.2500  -999.2500  -999.2500
 1619.5000   153.8930    10.1450     2.4190     0.1660  -999.2500  -999.2500  -999.2500
 1620.0000   153.4770    10.1410     2.4380     0.1680  -999.2500  -999.2500  -999.2500
 1620.5000   150.1000    10.1360     2.4590     0.1580  -999.2500  -999.2500  -999.2500
 1621.0000   147.1370    10.1310     2.4510     0.1320  -999.2500  -999.2500  -999.2500
 1621.5000   147.8470    10.1270     2.4220     0.1130  -999.2500  -999.2500  -999.2500
 1622.0000   149.0150    10.1250     2.3850     0.1110  -999.2500  -999.2500  -999.2500
 1622.5000   150.4020    10.1610     2.3440     0.1290  -999.2500  -999.2500  -999.2500
 1623.0000   151.8240    10.1970     2.3230     0.1590  -999.2500  -999.2500  -999.2500
 1623.5000   153.0800    10.2350     2.3250     0.1620  -999.2500  -999.2500  -999.2500
 1624.0000   151.3890    10.2720     2.3310     0.1770  -999.2500  -999.2500  -999.2500
 1624.5000   147.3790    10.3090     2.3400     0.2070  -999.2500  -999.2500  -999.2500
 1625.0000   143.8480    10.3460     2.3460     0.2360  -999.2500  -999.2500  -999.2500
 1625.5000   143.3800    10.3830     2.3680     0.2350  -999.2500  -999.2500  -999.2500
 1626.0000   145.8010    10.4210     2.3420     0.2340  -999.2500  -999.2500  -999.2500
 1626.5000   146.2900    10.4570     2.2700     0.2410  -999.2500  -999.2500  -999.2500
 1627.0000   146.5120    10.4940     2.2510     0.2770  -999.2500  -999.2500  -999.2500
 1627.5000   146.6380    10.5340     2.2760     0.2680  -999.2500  -999.2500  -999.2500
 1628.0000   147.3520    10.5570     2.3190     0.2340  -999.2500  -999.2500  -999.2500
 1628.5000   148.1830    10.5540     2.3530     0.2030  -999.2500  -999.2500  -999.2500
 1629.0000   149.7920    10.5560     2.3380     0.1700  -999.2500  -999.2500  -999.2500
 1629.5000   150.9510    10.5540     2.3190     0.1650  -999.2500  -999.2500  -999.2500
 1630.0000   150.9640    10.5550     2.3230     0.1620  -999.2500  -999.2500  -999.2500
 1630.5000   150.9370    10.5610     2.3450     0.1600  -999.2500  -999.2500  -999.2500
 1631.0000   150.1390    10.4640     2.3620     0.1580  -999.2500  -999.2500  -999.2500
 1631.5000   148.6570    10.2450     2.3670     0.1510  -999.2500  -999.2500  -999.2500
 1632.0000   147.5670    10.2410     2.3690     0.1400  -999.2500  -999.2500  -999.2500
 1632.5000   150.3540    10.2250     2.3800     0.1290  -999.2500  -999.2500  -999.2500
 1633.0000   157.0370    10.2180     2.3990     0.1180  -999.2500  -999.2500  -999.2500
 1633.5000   152.8940    10.2070     2.4190     0.1090  -999.2500  -999.2500  -999.2500
 1634.0000   149.7340    10.1980     2.4340     0.1090  -999.2500  -999.2500  -999.2500
 1634.5000   146.1930    10.1880     2.4370     0.1230  -999.2500  -999.2500  -999.2500
 1635.0000   142.5190    10.1780     2.4410     0.1300  -999.2500  -999.2500  -999.2500
 1635.5000   142.7230    10.1680     2.4450     0.1190  -999.2500  -999.2500  -999.2500
 1636.0000   143.1640    10.1580     2.4720     0.0980  -999.2500  -999.2500  -999.2500
 1636.5000   142.1410    10.1490     2.5000     0.0790  -999.2500  -999.2500  -999.2500
 1637.0000   139.7010    10.1390     2.5190     0.0570  -999.2500  -999.2500  -999.2500
 1637.5000   139.5800    10.1280     2.5190     0.0500  -999.2500  -999.2500  -999.2500
 1638.0000   139.4110    10.1170     2.5210     0.0530  -999.2500  -999.2500  -999.2500
