~VERSION INFORMATION
 VERS.                2.0:   CWLS LOG ASCII STANDARD - VERSION 2.0
 WRAP.                 NO:   ONE LINE PER DEPTH STEP
~WELL INFORMATION
#MNEM.UNIT      DATA TYPE    INFORMATION
#----------   ------------   ------------------------------
 STRT.F          212.5000:   START DEPTH
 STOP.F         3098.0000:   STOP DEPTH
 STEP.F            0.5000:   STEP LENGTH
 NULL.          -999.2500:   NO VALUE
 COMP.    FENIX & SCISSON:   COMPANY
 WELL. FENIX NPR 77 "A" #3-33:   WELL
 FLD .                NPR:   FIELD
 LOC .      S33 T39N R78W:   LOCATION
 CNTY.            NATRONA:   COUNTY
 STAT.            WYOMING:   STATE
 CTRY. UNITED STATES OF AMERICA:   COUNTRY
 SRVC.       SCHLUMBERGER:   SERVICE COMPANY
 DATE.        07-MAY-1977:   LOGDATE
 API .     49025103700000:   API NUMBER
~CURVE INFORMATION
#MNEM.UNIT       API CODE    CURVE DESCRIPTION
#----------   ------------   ------------------------------
 DEPT.F                  :   
 SPR .MV     07 010 01 00:   SPONTANEOUS POTENTIAL
 LL8 .OHMM   11 220 08 00:   LATERALOG-8 RESISTIVITY
 ILD .OHMM   07 120 46 00:   DEEP INDUCTION RESISTIVITY
 CALD.IN     45 280 60 00:   CALIPER FROM DENSITY LOG
 GRD .GAPI   45 310 01 00:   GAMMA RAY FROM DENSITY LOG
 RHOB.G/C3   45 350 01 00:   BULK DENSITY
 CORR.G/C3   45 356 01 00:   DENSITY CORRECTION
 ILM .OHMM   07 120 44 00:   INDUCTION LOG MEDIUM RESISTIVITY
~PARAMETER INFORMATION
#MNEM.UNIT          VALUE    DESCRIPTION
#----------   ------------   ------------------------------
 EKB .F         5152.0000:   Kelly bushing
 EGL .F         5141.0000:   Ground level
 TD  .F         3097.0000:   Total depth
 DATE.        07-MAY-1977:   Date logged
 CLNT.            A2DTECH:   Client Code
 SL  . 990' FEL & 990' FSL:   Surface Location
 PD  .                 GL:   Permanent Datum
 EPD .F              5141:   Elevation Permanent Datum
 LMF .                 KB:   Log Measured From
 DMF .                 KB:   Drilling Measured From
 DAPD.F                11:   Feet Above Permanent Datum
 DD  .F              3096:   Depth driller
 DL  .F              3097:   Depth logger
 BLI .F              3091:   Bottom log interval
 TLI .F               222:   Top log interval
 CS1 .IN            8.625:   Casing size
 CBD1.      8.625" @ 200':   Casing driller 1
 CBL1.F               222:   Casing logger 1
 BS1 .IN            7.875:   Bit size
 BSD1.F              3096:   Depth drilled with bit1
 DFT .                KCL:   Type fluid in hole
 DFD .                9.2:   Density
 DFV .                 38:   Viscosity
 DFPH.                  8:   pH
 DFL .                7.6:   Fluid loss
 MSS .           FLOWLINE:   Source of sample
 RMS .OHMM           .191:   Rm
 MST .F                76:   Rm Meas. temp.
 RMF .OHMM           .185:   Rmf
 MFST.F                76:   Rmf Meas. temp.
 MFSS.               MEAS:   Source Rmf.
 RMB .OHMM           .126:   Rm. at BHT
 BHT .F               115:   BHT.
 TCS .HRS            1200:   Time Circ. stopped
 TLAB.HRS            1530:   Time logger at bottom
 MRT .F                15:   Maximum recorded temp.
 LUN .               6442:   Logging unit number
 LUL .               CSPR:   Logging unit location
 ENGI.             MARTIN:   Recorded By
 WITN.          PETTMGILL:   Witnessed by
 ORIG.      2.5" 5" PRINT:   Origin of data
 UWI .     49025103700000:   Unique Well ID
 DICO. A2D TECHNOLOGIES, INC.:   Digitizing Company
~OTHER INFORMATION
~A   DEPT      SPR        LL8        ILD       CALD         GRD      RHOB       CORR        ILM   
# ...
 2683.0000   -60.3620     8.8800     7.7630     9.7100   114.2750     2.5770     0.1180     8.3190
 2683.5000   -60.8330     9.1990     7.7350     9.7070   110.7410     2.5810     0.1140     8.0550
 2684.0000   -61.2900     9.4230     7.7040     9.6950   110.9850     2.5700     0.0980     7.9850
 2684.5000   -61.7570     9.5100     7.6720     9.6820   112.2890     2.5490     0.0840     7.9220
 2685.0000   -61.9240     9.2540     7.6410     9.6700   113.7060     2.5400     0.0810     7.8580
 2685.5000   -61.8660     9.0570     7.6100     9.6570   114.9740     2.5550     0.0860     7.7950
 2686.0000   -61.8190     8.9150     7.5780     9.6460   116.4480     2.5440     0.0930     7.7270
 2686.5000   -61.7670     9.0400     7.5470     9.6320   116.0890     2.5620     0.1000     7.6920
 2687.0000   -61.7150     9.0810     7.5160     9.6430   113.7020     2.5560     0.1080     7.6210
 2687.5000   -61.6640     8.7520     7.4820     9.6590   112.8730     2.5470     0.1060     7.7630
 2688.0000   -61.6150     9.1660     7.3700     9.6730   114.1460     2.5440     0.0990     7.6930
 2688.5000   -61.5240     8.8370     7.2290     9.6890   115.7150     2.5540     0.0930     7.5540
 2689.0000   -61.3740     8.4350     7.0870     9.7040   116.7190     2.5610     0.0930     7.4150
 2689.5000   -61.4200     9.0140     6.9460     9.7040   114.6560     2.5690     0.1010     7.2760
 2690.0000   -61.4770     9.4230     6.8040     9.6620   110.9670     2.5770     0.1090     7.1370
 2690.5000   -61.5340     8.3960     6.6620     9.6540   108.6960     2.5850     0.1180     6.9970
 2691.0000   -61.8420     7.6060     6.5210     9.6390   109.7470     2.5950     0.1250     6.8580
 2691.5000   -62.4480     7.2100     6.3790     9.6260   110.6360     2.5900     0.1350     6.7190
 2692.0000   -63.0520     7.3670     6.2380     9.6140   114.2650     2.5780     0.1130     6.5800
 2692.5000   -63.6570     7.4870     6.0960     9.6000   118.7370     2.5710     0.1030     6.4550
 2693.0000   -64.2620     7.6070     5.9400     9.5870   117.5590     2.5810     0.1080     6.3830
 2693.5000   -64.8680     7.6920     5.9370     9.5740   113.6040     2.5660     0.1070     6.2780
 2694.0000   -65.4680     7.5890     5.9260     9.5610   112.9050     2.5520     0.0970     6.2110
 2694.5000   -65.9220     7.4960     5.9160     9.5480   114.4160     2.5570     0.0890     6.1760
 2695.0000   -65.9700     7.4130     5.9050     9.5350   115.9120     2.5650     0.0780     6.1420
 2695.5000   -66.0330     7.4130     5.8940     9.5220   116.3300     2.5750     0.0850     6.1080
 2696.0000   -66.1150     7.4130     5.8840     9.5080   115.6600     2.5790     0.0930     6.0740
 2696.5000   -65.8860     7.4130     5.8730     9.4950   115.2120     2.5640     0.0880     6.0400
 2697.0000   -65.1380     7.4650     5.8630     9.4820   115.7040     2.5530     0.0790     5.9950
 2697.5000   -64.3390     7.5690     5.8520     9.4690   117.2680     2.5530     0.0790     6.0720
 2698.0000   -63.5460     7.6560     5.8410     9.4560   118.3310     2.5620     0.0910     6.1810
 2698.5000   -62.7560     7.7060     5.8320     9.4430   115.5790     2.5710     0.1010     6.2910
 2699.0000   -61.9650     7.7270     6.1050     9.4330   112.9350     2.5800     0.1130     6.4000
 2699.5000   -61.1740     7.7480     6.4190     9.4300   113.3320     2.5870     0.1270     6.4550
 2700.0000   -60.3840     7.7630     6.7330     9.4270   114.7830     2.5920     0.1190     6.7950
 2700.5000   -59.5990     8.4430     7.0470     9.4240   112.6030     2.5530     0.0970     7.1730
 2701.0000   -59.2130     9.3360     7.3600     9.4210   106.6050     2.5620     0.1020     7.5500
 2701.5000   -58.9970     9.5410     7.6740     9.4180    98.6040     2.5730     0.1090     7.9280
 2702.0000   -59.0630     9.5980     7.9880     9.4160    99.4610     2.5870     0.1140     8.3060
 2702.5000   -59.1240    11.5440     8.3020     9.4130   102.5140     2.5610     0.1060     8.6840
 2703.0000   -59.1870    11.4350     8.6150     9.4100   105.1220     2.5080     0.0950     9.0620
 2703.5000   -59.2510    11.1950     8.9150     9.4070   107.5880     2.5120     0.0850     9.4230
 2704.0000   -59.3150    10.9550     9.0120     9.4040   109.2740     2.5110     0.0780     9.4230
 2704.5000   -59.3750    10.7150     9.1040     9.4010   109.8510     2.4950     0.0810     9.3810
 2705.0000   -59.2850    10.4760     9.1970     9.3980   109.9910     2.5020     0.0900     9.3300
 2705.5000   -58.8160    10.2390     9.2510     9.3950   109.5140     2.5120     0.0940     9.2800
 2706.0000   -58.3550    10.2940     9.2370     9.3920   109.4030     2.5210     0.0820     9.2300
 2706.5000   -57.8950    10.4310     9.1720     9.3840   108.8810     2.5180     0.0760     9.1790
 2707.0000   -57.4350    10.5670     9.1070     9.3780   108.1020     2.5090     0.0790     9.1290
 2707.5000   -56.9730    10.6240     9.0420     9.3710   102.3640     2.5250     0.0880     9.0780
 2708.0000   -56.5080    10.4310     8.9770     9.3640   100.5800     2.5290     0.0920     9.0280
 2708.5000   -56.4620    10.2680     8.9130     9.3570   103.0720     2.5030     0.0680     8.9780
 2709.0000   -56.5060    10.1050     8.8480     9.3500   106.1870     2.5110     0.0630     8.9270
 2709.5000   -56.5540     9.9420     8.7830     9.3440   109.2230     2.5240     0.0750     8.8770
 2710.0000   -56.6040     9.7770     8.7180     9.3370   109.7100     2.5370     0.0870     8.8330
 2710.5000   -56.8270     9.9350     8.6530     9.3300   108.8290     2.5500     0.0910     8.8330
 2711.0000   -57.3940    10.2290     8.5880     9.3230   107.7090     2.5440     0.0860     8.8330
 2711.5000   -57.9540    10.4300     8.5230     9.3160   106.5300     2.5340     0.0820     8.8330
 2712.0000   -58.5150     9.8340     8.4580     9.3130   107.1360     2.5470     0.0860     8.8330
 2712.5000   -59.0770     9.3360     8.3930     9.3140   108.1360     2.5690     0.0940     8.8330
 2713.0000   -59.6380     9.6790     8.3280     9.3130   108.5910     2.5690     0.1020     8.8330
 2713.5000   -60.1990    10.1700     8.2630     9.3130   104.9470     2.5550     0.1070     8.8330
 2714.0000   -60.7610    10.8220     8.1980     9.3140   103.6380     2.5430     0.0980     8.8330
 2714.5000   -61.3210    10.5570     8.1330     9.3130   106.1190     2.5310     0.0840     8.6720
 2715.0000   -61.8830    10.1640     8.0690     9.3130   108.4630     2.5180     0.0680     8.5210
 2715.5000   -62.4540     9.7700     8.0040     9.3130   109.8770     2.5110     0.0660     8.3710
 2716.0000   -63.1000     9.3770     7.9810     9.3130   110.1800     2.5320     0.0830     8.2210
 2716.5000   -63.1490     8.9980     8.0000     9.3130   111.6550     2.5520     0.1020     8.0700
 2717.0000   -63.1240     9.2100     8.0290     9.3130   115.4190     2.5700     0.0960     7.9200
 2717.5000   -63.0940     9.5100     8.0590     9.3130   115.4760     2.5640     0.0850     7.7690
 2718.0000   -63.0670     9.0430     8.0880     9.3130   115.4470     2.5460     0.0730     7.6210
 2718.5000   -63.0380     8.4720     8.1180     9.3140   115.3020     2.5300     0.0630     7.4130
 2719.0000   -63.0100     8.0550     8.2050     9.3130   116.5310     2.5130     0.0510     7.3450
 2719.5000   -62.9830     8.1290     8.2050     9.3140   117.2900     2.5230     0.0430     7.8120
 2720.0000   -62.9520     9.5830     8.3630     9.3130   112.8170     2.5410     0.0540     8.2030
 2720.5000   -62.9390    11.3350     8.3900     9.3130   105.7360     2.5600     0.0710     8.5930
 2721.0000   -62.9790    13.0880     8.4310     9.3140   100.6320     2.5780     0.0810     8.9980
 2721.5000   -63.9110    13.6300     8.3020     9.3080    99.7360     2.5910     0.0550     8.9980
 2722.0000   -64.8470    11.9240     7.9300     9.2920   103.2520     2.5750     0.0620     8.6410
 2722.5000   -65.7770    10.1390     7.5580     9.2780   109.4120     2.5950     0.0700     8.2780
 2723.0000   -66.7060     8.5090     7.1860     9.2630   115.0690     2.6030     0.0810     7.9150
