~VERSION INFORMATION
 VERS.                2.0:   CWLS LOG ASCII STANDARD - VERSION 2.0
 WRAP.                 NO:   ONE LINE PER DEPTH STEP
~WELL INFORMATION
#MNEM.UNIT      DATA TYPE    INFORMATION
#----------   ------------   ------------------------------
 STRT.F          417.0000:   START DEPTH
 STOP.F         4133.0000:   STOP DEPTH
 STEP.F            0.5000:   STEP LENGTH
 NULL.          -999.2500:   NO VALUE
 COMP.    FENIX & SCISSON:   COMPANY
 WELL. FENIX  "LX" #18-11:   WELL
 FLD .              NPR 3:   FIELD
 LOC .      S11 T38N R78W:   LOCATION
 CNTY.            NATRONA:   COUNTY
 STAT.            WYOMING:   STATE
 CTRY. UNITED STATES OF AMERICA:   COUNTRY
 SRVC.       SCHLUMBERGER:   SERVICE COMPANY
 DATE.        14-JAN-1978:   LOGDATE
 API .     49025105590000:   API NUMBER
~CURVE INFORMATION
#MNEM.UNIT       API CODE    CURVE DESCRIPTION
#----------   ------------   ------------------------------
 DEPT.F                  :   
 SPR .MV     07 010 01 00:   SPONTANEOUS POTENTIAL
 SFL .OHMM   07 220 01 00:   SHALLOW FOCUSED LOG RESISTIVITY
 ILD .OHMM   07 120 46 00:   DEEP INDUCTION RESISTIVITY
 ILM .OHMM   07 120 44 00:   INDUCTION LOG MEDIUM RESISTIVITY
 CALD.IN     45 280 60 00:   CALIPER FROM DENSITY LOG
 GRD .GAPI   45 310 01 00:   GAMMA RAY FROM DENSITY LOG
 RHOB.G/C3   45 350 01 00:   BULK DENSITY
 CORR.G/C3   45 356 01 00:   DENSITY CORRECTION
 NPHI.DEC    42 890 03 00:   NEUTRON POROSITY SANDSTONE
~PARAMETER INFORMATION
#MNEM.UNIT          VALUE    DESCRIPTION
#----------   ------------   ------------------------------
 EKB .F         5220.0000:   Kelly bushing
 EGL .F         5210.0000:   Ground level
 EDF .F            0.0000:   Drilling floor
 TD  .F         4125.0000:   Total depth
 DATE.        14-JAN-1978:   Date logged
 CLNT.            A2DTECH:   Client Code
 SL  . 330' FSL & 530' FWL:   Surface Location
 PD  .                 GL:   Permanent Datum
 EPD .F              5210:   Elevation Permanent Datum
 LMF .                 KB:   Log Measured From
 DMF .                 KB:   Drilling Measured From
 DAPD.F                10:   Feet Above Permanent Datum
 DD  .F              4125:   Depth driller
 DL  .F              4121:   Depth logger
 BLI .F              4116:   Bottom log interval
 TLI .F               427:   Top log interval
 CS1 .IN            8.625:   Casing size
 CBD1.      8.625" @ 513':   Casing driller 1
 CBL1.F               427:   Casing logger 1
 BS1 .IN            7.875:   Bit size
 BSD1.F              4125:   Depth drilled with bit1
 DFT .                KCL:   Type fluid in hole
 DFD .                8.8:   Density
 DFV .                 40:   Viscosity
 DFPH.                 12:   pH
 DFL .                7.4:   Fluid loss
 MSS .           MUD TANK:   Source of sample
 RMS .OHMM           .418:   Rm
 MST .F                60:   Rm Meas. temp.
 RMF .OHMM           .343:   Rmf
 MFST.F                60:   Rmf Meas. temp.
 MFSS.               MEAS:   Source Rmf.
 RMB .OHMM            .20:   Rm. at BHT
 BHT .F               123:   BHT.
 TCS .HRS            0600:   Time Circ. stopped
 TLAB.HRS            0845:   Time logger at bottom
 MRT .F               123:   Maximum recorded temp.
 LUN .               8035:   Logging unit number
 LUL .               CSPR:   Logging unit location
 ENGI.             MARTIN:   Recorded By
 WITN.         HARRINGTON:   Witnessed by
 ORIG.      2.5" 5" PRINT:   Origin of data
 UWI .     49025105590000:   Unique Well ID
 DICO. A2D TECHNOLOGIES, INC.:   Digitizing Company
~OTHER INFORMATION
~A   DEPT      SPR        SFL        ILD        ILM       CALD         GRD      RHOB       CORR       NPHI   
# ...
 2862.5000   -29.3750     8.8230     8.8230     8.5810     9.4300   127.0450     2.5350     0.0040     0.2200
 2863.0000   -29.2630     8.8230     8.7420     8.5810     9.4080   128.2520     2.5370     0.0080     0.2310
 2863.5000   -29.1500     9.7270     8.7470     8.5810     9.3880   122.9320     2.5470     0.0120     0.2400
 2864.0000   -29.0370    10.3880     8.7840     8.5810     9.3670   117.2280     2.5570     0.0140     0.2260
 2864.5000   -28.9240    10.8130     8.8200     8.5810     9.3460   111.5340     2.5560     0.0120     0.2150
 2865.0000   -28.8110    10.4540     8.8560     8.6070     9.3250   109.5050     2.5470     0.0090     0.2200
 2865.5000   -28.6980    10.1360     8.8920     8.6450     9.3040   111.4740     2.5430     0.0080     0.2300
 2866.0000   -28.8530    10.0830     8.9290     8.6840     9.2830   113.3300     2.5560     0.0110     0.2390
 2866.5000   -29.2650    10.0350     8.9650     8.7230     9.2630   115.5090     2.5670     0.0210     0.2400
 2867.0000   -29.4860     9.9880     9.0010     8.7620     9.2410   115.0470     2.5800     0.0200     0.2410
 2867.5000   -29.5720     9.9500     9.0370     8.8010     9.2430   114.3960     2.5820     0.0190     0.2420
 2868.0000   -29.6550    10.3470     9.0740     8.8230     9.2590   113.6390     2.5710     0.0140     0.2420
 2868.5000   -29.7380    10.6750     9.1100     8.9050     9.2740   112.9840     2.5610     0.0090     0.2330
 2869.0000   -29.8210    11.0020     9.1460     8.9890     9.2880   112.2230     2.5540     0.0050     0.2260
 2869.5000   -29.9040    11.3300     9.1820     9.1090     9.3020   111.5400     2.5510     0.0020     0.2180
 2870.0000   -29.9870    11.5370     9.2190     9.2300     9.3160   111.1530     2.5550     0.0030     0.2160
 2870.5000   -30.0700    11.4530     9.3260     9.3260     9.3310   112.3140     2.5650     0.0040     0.2170
 2871.0000   -30.1530    11.0630     9.3260     9.4130     9.3460   114.5890     2.5750     0.0060     0.2180
 2871.5000   -30.2360    10.5180     9.3260     9.2840     9.3520   115.4070     2.5740     0.0070     0.2180
 2872.0000   -30.3190    10.0920     9.1150     9.0060     9.3460   116.0730     2.5660     0.0080     0.2190
 2872.5000   -30.4040     9.6960     8.8760     8.7280     9.3410   116.6520     2.5580     0.0080     0.2220
 2873.0000   -30.2470     9.3000     8.6360     8.4490     9.3370   117.2720     2.5560     0.0070     0.2260
 2873.5000   -29.9060     8.9050     8.3960     8.1180     9.3320   117.8250     2.5560     0.0070     0.2290
 2874.0000   -29.5620     8.8230     8.1180     8.1460     9.3270   118.2830     2.5560     0.0110     0.2320
 2874.5000   -29.2150     9.3750     8.2690     8.1800     9.3230   116.0380     2.5510     0.0140     0.2350
 2875.0000   -28.8600     9.8250     8.4490     8.2140     9.3180   114.8410     2.5540     0.0100     0.2320
 2875.5000   -28.9630    10.0420     8.6280     8.2480     9.3130   114.6630     2.5570     0.0070     0.2280
 2876.0000   -29.1060    10.0420     8.8080     8.3470     9.3080   113.7820     2.5560     0.0040     0.2240
 2876.5000   -29.2290    10.3190     8.9880     8.5680     9.3040   112.8080     2.5490     0.0010     0.2250
 2877.0000   -28.9340    10.6770     9.1670     8.7880     9.2990   111.8650     2.5360    -0.0020     0.2260
 2877.5000   -28.6530    11.0150     9.3470     9.0080     9.2940   110.9370     2.5340    -0.0060     0.2260
 2878.0000   -28.7930    11.0850     9.5260     9.2280     9.2900   110.0170     2.5380     0.0000     0.2230
 2878.5000   -28.9400    11.1520     9.7060     9.4480     9.2850   108.9370     2.5530     0.0060     0.2200
 2879.0000   -29.0860    11.2210     9.8580     9.6780     9.2800   109.2920     2.5660     0.0120     0.2200
 2879.5000   -29.2300    11.4320     9.8580     9.6080     9.2760   110.7140     2.5810     0.0180     0.2230
 2880.0000   -29.3750    11.6520     9.8580     9.5360     9.2710   111.6150     2.5920     0.0250     0.2260
 2880.5000   -29.5200    11.8610     9.8580     9.4630     9.2660   110.6680     2.5880     0.0240     0.2300
 2881.0000   -29.6650    11.6930     9.8580     9.3910     9.2610   108.8210     2.5800     0.0200     0.2240
 2881.5000   -29.8100    11.3960     9.8580     9.3260     9.2570   108.0930     2.5580     0.0170     0.2180
 2882.0000   -29.9550    11.0390     9.8580     9.3260     9.2520   107.5840     2.5420     0.0130     0.2200
 2882.5000   -30.1000    10.8130     9.8580     9.4000     9.2470   107.2250     2.5380     0.0090     0.2270
 2883.0000   -30.2440    10.8130     9.9050     9.5320     9.2430   105.9040     2.5440     0.0080     0.2340
 2883.5000   -30.3910    11.5360     9.9850     9.6640     9.2380   104.1370     2.5550     0.0080     0.2410
 2884.0000   -30.3800    12.6940    10.0650     9.7960     9.2330   102.1770     2.5660     0.0080     0.2380
 2884.5000   -30.2930    14.4030    10.1450     9.9280     9.2280    99.7720     2.5730     0.0060     0.2270
 2885.0000   -30.2040    14.3140    10.2300    10.0420     9.2240    97.1330     2.5780     0.0090     0.2160
 2885.5000   -30.1150    13.7330    10.2300    10.0420     9.2190    95.3670     2.5830     0.0110     0.2060
 2886.0000   -30.0260    13.0140    10.2300     9.8430     9.2140    95.7760     2.5890     0.0140     0.2000
 2886.5000   -29.9370    12.2950     9.9430     9.6610     9.2100   102.7580     2.5950     0.0170     0.2010
 2887.0000   -29.8480    11.5760     9.5880     9.4790     9.2050   109.6180     2.5930     0.0180     0.2020
 2887.5000   -29.7590    10.8570     9.2340     9.2970     9.2000   117.3750     2.5830     0.0140     0.2060
 2888.0000   -29.6710    10.2300     8.8800     9.1150     9.1960   119.0650     2.5730     0.0110     0.2130
 2888.5000   -29.5820    10.4330     8.5490     8.9320     9.1990   115.1190     2.5700     0.0080     0.2190
 2889.0000   -29.4940    11.1130     8.3430     8.7500     9.2010   111.6890     2.5720     0.0080     0.2200
 2889.5000   -29.4780    11.6440     8.1370     8.5680     9.2040   108.2760     2.5700     0.0080     0.2150
 2890.0000   -29.5700    11.1320     7.9320     8.3640     9.2060   105.6100     2.5650     0.0080     0.2100
 2890.5000   -29.6600    10.2240     7.7260     8.0520     9.2090   106.4790     2.5510     0.0070     0.2050
 2891.0000   -29.7510     9.3160     7.5200     7.7410     9.2110   106.5870     2.5390     0.0040     0.2160
 2891.5000   -29.8420     8.4080     7.3150     7.4290     9.2130   104.9450     2.5340     0.0040     0.2260
 2892.0000   -29.9320     8.0350     7.1090     7.1180     9.2160   102.7250     2.5390     0.0080     0.2360
 2892.5000   -30.0120     7.8280     6.6020     6.8060     9.2180   106.3290     2.5420     0.0160     0.2470
 2893.0000   -30.5170     7.4830     6.0170     6.4950     9.2210   115.8820     2.5360     0.0160     0.2550
 2893.5000   -31.0960     6.8710     5.2400     6.2090     9.2230   124.8780     2.5270     0.0100     0.2580
 2894.0000   -31.6990     6.2090     4.4000     5.6010     9.2260   134.1640     2.5220     0.0050     0.2550
 2894.5000   -31.8680     5.2570     3.5320     4.8820     9.2280   142.6890     2.5230     0.0040     0.2500
 2895.0000   -31.9120     4.5280     3.1470     4.2910     9.2310   158.7680     2.5080     0.0120     0.2450
 2895.5000   -31.9540     3.7600     2.7240     3.6700     9.2330   186.9950     2.4840     0.0170     0.2570
 2896.0000   -31.9960     2.9920     2.3000     3.0480     9.2340   201.6200     2.4420     0.0130     0.2810
 2896.5000   -32.0360     2.2240     1.8770     2.4260     9.2170   206.8700     2.3990     0.0060     0.3400
 2897.0000   -32.0360     1.6550     1.5580     1.7490     9.2010   212.4400     2.3720     0.0050     0.3670
 2897.5000   -32.0390     1.5530     1.4860     1.6650     9.1840   219.7710     2.3620     0.0040     0.3850
 2898.0000   -31.8250     1.4670     1.4270     1.5740     9.1660   225.9140     2.3510     0.0040     0.4020
 2898.5000   -31.4340     1.4670     1.4010     1.4820     9.1560   232.5690     2.3390     0.0060     0.4080
