~VERSION INFORMATION
 VERS.                2.0:   CWLS LOG ASCII STANDARD - VERSION 2.0
 WRAP.                 NO:   ONE LINE PER DEPTH STEP
~WELL INFORMATION
#MNEM.UNIT      DATA TYPE    INFORMATION
#----------   ------------   ------------------------------
 STRT.F          450.0000:   START DEPTH
 STOP.F         3070.0000:   STOP DEPTH
 STEP.F            0.5000:   STEP LENGTH
 NULL.          -999.2500:   NO VALUE
 COMP. LAWRENCE ALLISON & ASSOCIATES:   COMPANY
 WELL. LAWRENCE "X" #86-28:   WELL
 FLD .             NPR #3:   FIELD
 LOC .      S28 T39N R78W:   LOCATION
 CNTY.            NATRONA:   COUNTY
 STAT.            WYOMING:   STATE
 CTRY. UNITED STATES OF AMERICA:   COUNTRY
 SRVC.      WESTERN ATLAS:   SERVICE COMPANY
 DATE.        03-JAN-1988:   LOGDATE
 API .     49025111920000:   API NUMBER
~CURVE INFORMATION
#MNEM.UNIT       API CODE    CURVE DESCRIPTION
#----------   ------------   ------------------------------
 DEPT.F                  :   
 TEND.LBS    45 635 01 00:   TENSION FROM DENSITY LOG
 CALD.IN     45 280 60 00:   CALIPER FROM DENSITY LOG
 NPHI.DEC    42 890 03 00:   NEUTRON POROSITY SANDSTONE
 DEN .G/C3   45 350 01 00:   BULK DENSITY
 CORR.G/C3   45 356 01 00:   DENSITY CORRECTION
 TENR.LBS    07 635 01 00:   TENSION FROM RESISTIVITY
 RFOC.OHMM   07 220 04 00:   RESISTIVITY FOCUSED LOG RES.
 RILD.OHMM   07 120 46 00:   DEEP INDUCTION RESISTIVITY
 RILM.OHMM   07 120 44 00:   INDUCTION LOG MEDIUM RESISTIVITY
 SPR .MV     07 010 01 00:   SPONTANEOUS POTENTIAL
 GRR .GAPI   07 310 01 00:   GAMMA RAY FROM RESISTIVITY
~PARAMETER INFORMATION
#MNEM.UNIT          VALUE    DESCRIPTION
#----------   ------------   ------------------------------
 EKB .F         5072.0000:   Kelly bushing
 EGL .F         5061.0000:   Ground level
 EDF .F         5071.0000:   Drilling floor
 TD  .F         3062.0000:   Total depth
 DATE.        03-JAN-1988:   Date logged
 CLNT.            A2DTECH:   Client Code
 SL  . 1721' FSL & 556' FEL:   Surface Location
 PD  .                 GL:   Permanent Datum
 DD  .F              3060:   Depth driller
 DL  .F              3062:   Depth logger
 BLI .F              3060:   Bottom log interval
 CS1 .IN            8.625:   Casing size
 CBD1.      8.625" @ 480':   Casing driller 1
 CBL1.F               480:   Casing logger 1
 BS1 .IN            7.875:   Bit size
 DFT .        KCL-POLYMER:   Type fluid in hole
 DFD .                8.9:   Density
 DFV .                 36:   Viscosity
 DFPH.                9.5:   pH
 DFL .                8.4:   Fluid loss
 MSS .               TANK:   Source of sample
 RMS .OHMM           0.45:   Rm
 MST .F                80:   Rm Meas. temp.
 RMF .OHMM           0.41:   Rmf
 MFST.F                60:   Rmf Meas. temp.
 RMC .OHMM           0.65:   Rmc
 MCST.F                60:   Rmc Meas. temp.
 MFSS.               MEAS:   Source Rmf.
 RMB .OHMM           0.31:   Rm. at BHT
 BHT .F               110:   BHT.
 TCS .HRS               4:   Time Circ. stopped
 MRT .F               110:   Maximum recorded temp.
 LUN .            HL 6343:   Logging unit number
 LUL .               CODY:   Logging unit location
 ENGI.               RALL:   Recorded By
 WITN.              FIVRS:   Witnessed by
 ORIG.     2.5", 5" PRINT:   Origin of data
 UWI .     49025111920000:   Unique Well ID
 DICO. A2D TECHNOLOGIES, INC.:   Digitizing Company
 DAPD.                 11:   Feet Above Permanent Datum
 BSD1.               3060:   Depth drilled with bit1
 MCSS.               CALC:   Source Rmc.
 EPD .               5061:   Elevation Permanent Datum
 LMF .                 KB:   Log Measured From
 DMF .                 KB:   Drilling Measured From
 TLI .                480:   Top log interval
~OTHER INFORMATION
~A   DEPT     TEND       CALD       NPHI        DEN       CORR       TENR       RFOC       RILD       RILM        SPR         GRR  
# ...
 2524.0000   -33.4810     8.0050     0.2260     2.3850    -0.0090   -62.3730    12.2350    11.5830    11.9190    -5.4750    99.6870
 2524.5000   -31.8290     7.9980     0.2280     2.3680    -0.0100   -62.3730    12.2480    11.6980    11.9450    -4.9400    98.0020
 2525.0000   -30.1770     7.9910     0.2290     2.3520    -0.0010   -62.3730    12.2930    11.8140    11.9700    -5.2920    97.7980
 2525.5000   -28.5250     7.9960     0.2300     2.3500     0.0060   -62.3730    12.3380    11.9300    11.9960    -5.6240    98.4260
 2526.0000   -26.8730     8.0340     0.2310     2.3510     0.0110   -62.3730    12.6080    12.0460    12.2030    -5.9510   100.8670
 2526.5000   -25.2210     8.0330     0.2320     2.3510     0.0090   -62.3730    12.9690    12.1620    12.8110    -6.2810   103.2940
 2527.0000   -23.5690     8.0400     0.2300     2.3580     0.0070   -62.3730    13.3300    12.2770    13.4180    -6.6110   103.3730
 2527.5000   -21.9170     8.0430     0.2280     2.3700     0.0050   -62.3730    13.5470    12.3930    13.6900    -7.1840   100.6570
 2528.0000   -20.2650     8.0470     0.2250     2.3810     0.0050   -62.3730    13.3640    12.4670    13.3980    -7.9440    98.1140
 2528.5000   -18.6130     8.0520     0.2230     2.3900     0.0060   -62.3730    13.1870    12.4670    13.1450    -8.7050    98.2050
 2529.0000    -5.9140     8.0560     0.2220     2.3890     0.0080   -62.3730    13.5200    12.4670    12.9420    -9.2760    99.9160
 2529.5000    11.1560     8.0610     0.2220     2.3890     0.0090   -62.3730    13.7960    12.3260    12.6130    -9.5270   102.4730
 2530.0000    28.2260     8.0650     0.2220     2.3920     0.0120   -62.3730    13.4360    12.1500    12.2820    -9.7840    99.6140
 2530.5000    42.3390     8.0670     0.2220     2.3960     0.0140   -62.3730    12.8110    11.9740    11.9510   -10.1340    93.8090
 2531.0000    22.3120     8.0670     0.2220     2.4050     0.0160   -62.3730    12.5840    11.7970    11.7530   -10.8380    93.5370
 2531.5000     5.2420     8.0670     0.2220     2.4150     0.0150   -62.3730    12.9960    11.6210    11.6800   -11.5350    97.6720
 2532.0000   -11.8280     8.0670     0.2220     2.4290     0.0060   -62.3730    13.9110    11.3530    11.6060   -12.2310   101.4050
 2532.5000   -28.8980     8.0670     0.2170     2.4420    -0.0020   -62.3730    14.7540    11.3750    11.5670   -12.5950   100.7200
 2533.0000   -38.3060     8.0670     0.2060     2.4550    -0.0110   -62.3730    14.1750    11.4230    11.6340   -12.4620   100.3150
 2533.5000   -22.8690     8.0670     0.1970     2.4650    -0.0140   -62.3730    12.6460    11.4700    11.7700   -11.9210   102.7280
 2534.0000    -8.2370     8.0670     0.1990     2.4520    -0.0060   -62.3730    11.8970    11.5180    11.9070   -11.3930   105.0580
 2534.5000     6.3940     8.0670     0.2060     2.4310     0.0020   -62.3730    12.3130    11.5660    12.0440   -10.8660   106.1920
 2535.0000    21.0250     8.0670     0.2130     2.4180     0.0110   -62.3730    13.1110    11.6130    12.1800   -10.3380   104.2200
 2535.5000    35.6570     8.0670     0.2160     2.4130     0.0190   -62.3730    13.9090    11.6610    12.3170    -9.8080   100.3460
 2536.0000    37.2800     8.0670     0.2150     2.4060     0.0280   -62.3730    14.8930    11.7090    12.4670    -9.5050    93.8740
 2536.5000    27.9690     8.0670     0.2130     2.3990     0.0310   -62.3730    14.7540    11.7800    12.4200    -9.3820    90.2240
 2537.0000    18.6580     8.0670     0.2110     2.3960     0.0250   -62.5800    13.7100    11.7430    12.1510    -9.4970    90.3360
 2537.5000     9.3480     8.0670     0.2110     2.4030     0.0200   -63.1210    12.8930    11.6330    11.8830    -9.6270    93.8680
 2538.0000     2.0160     8.0670     0.2110     2.4170     0.0240   -63.6610    12.4670    11.4590    11.6150    -9.7540    97.3960
 2538.5000    -8.4680     8.0670     0.2170     2.4290     0.0290   -64.2010    11.8940    11.1820    11.3530    -9.8780   100.9470
 2539.0000   -18.1450     8.0670     0.2210     2.4440     0.0360   -64.7410    11.3530    10.9080    11.2230    -9.9960   102.3800
 2539.5000   -15.5470     8.0670     0.2240     2.4440     0.0340   -65.2810    11.5510    10.6340    11.1850   -10.4270   102.2080
 2540.0000    -9.8570     8.0670     0.2250     2.4410     0.0220   -65.8220    11.7880    10.3600    11.1480   -10.8710   100.2810
 2540.5000    -4.1670     8.0670     0.2240     2.4110     0.0030   -66.3620    12.0080     9.9580    11.1100   -11.4460    98.4300
 2541.0000     1.5230     8.0670     0.2240     2.4000    -0.0150   -66.9020    11.7120     9.9720    11.0720   -12.5140   100.5060
 2541.5000     7.2130     8.0670     0.2230     2.4110    -0.0100   -67.4420    11.3530     9.9930    11.0380   -12.9720   103.1310
 2542.0000    12.9030     8.0670     0.2220     2.4250    -0.0030   -67.9820    11.6130    10.0130    10.8620   -13.2370   103.5970
 2542.5000    18.5930     8.0670     0.2200     2.4300     0.0120   -68.5220    11.9850    10.0340    10.7010   -13.5170   103.7580
 2543.0000    20.8700     8.0670     0.2180     2.4220    -0.0490   -69.0630    12.2350    10.0510    10.5400   -13.8960   105.0020
 2543.5000    17.3390     8.0670     0.2180     2.4170    -0.0380   -69.6030    11.8320    10.0360    10.3380   -14.2670   106.6060
 2544.0000    13.8070     8.0670     0.2190     2.4260    -0.0280   -70.1430    11.2840    10.0060    10.3580   -14.6380   108.2330
 2544.5000    10.2750     8.0670     0.2210     2.4330     0.0000   -70.6830    10.8340     9.9770    10.4150   -15.0080   109.8290
 2545.0000     6.7440     8.0670     0.2220     2.4410     0.0350   -71.2230    11.0890     9.9580    10.4720   -15.3810   109.6690
 2545.5000     3.2120     8.0670     0.2240     2.4480     0.0360   -71.7640    11.3080     9.9150    10.5290   -15.7690   108.9280
 2546.0000    -0.3200     8.0670     0.2230     2.4550     0.0410   -72.3040    11.3530     9.8700    10.5860   -15.4190   105.8030
 2546.5000    -3.8520     8.0670     0.2220     2.4630     0.0370   -72.5150    11.3530     9.8260    10.6430   -14.9130   106.0440
 2547.0000    -7.3830     8.0670     0.2200     2.4680     0.0260   -72.5150    11.3530     9.7740    10.7000   -14.4030   108.3140
 2547.5000   -10.9150     8.0670     0.2190     2.4850     0.0140   -72.5150    12.0640     9.7980    10.7330   -13.8970   108.2380
 2548.0000   -14.4470     8.0670     0.2170     2.4910     0.0040   -72.5150    12.5840     9.8270    10.5930   -13.6840   107.7410
 2548.5000   -18.1450     8.0670     0.2170     2.4820     0.0020   -72.5150    11.8320     9.8660    10.4260   -13.8470   107.2270
 2549.0000   -18.1450     8.0670     0.2180     2.4740    -0.0040   -72.5150    11.0380     9.7290    10.2420   -14.0080   106.7150
 2549.5000   -18.1450     8.0670     0.2200     2.4730    -0.0020   -72.5150    11.1280     9.5240    10.0230   -14.1710   106.2190
 2550.0000   -18.1450     8.0670     0.2200     2.4760     0.0020   -72.5150    11.2470     9.3190     9.8420   -14.3340   108.0310
 2550.5000   -18.1450     8.0670     0.2190     2.5010     0.0250   -72.5150    10.8680     9.1140     9.6610   -14.4350   110.3160
 2551.0000   -18.1450     8.0670     0.2180     2.4990     0.0400   -72.5150    10.3380     8.9090     9.4800   -14.6050   110.7420
 2551.5000   -18.1450     8.0670     0.2180     2.4950     0.0540   -72.5150    10.4350     8.6540     9.2400   -14.7780   111.1530
 2552.0000   -18.1450     8.0670     0.2190     2.4910     0.0500   -72.5150    10.4260     8.7200     9.3230   -14.9480   111.9580
 2552.5000   -18.1450     8.0670     0.2200     2.4980     0.0490   -72.5150    10.4020     8.8080     9.5500   -15.1170   114.8010
 2553.0000   -18.1450     8.0670     0.2230     2.5060     0.0510   -72.5150    10.3770     8.8960     9.7780   -15.2200   115.9900
 2553.5000   -18.1450     8.0670     0.2240     2.5070     0.0540   -72.5150    10.3380     8.9840     9.8660   -15.2850   113.6420
 2554.0000   -18.1450     8.0670     0.2230     2.5060     0.0640   -72.5150    10.6680     9.0710     9.8750   -15.3880   110.7740
