~VERSION INFORMATION
 VERS.                2.0:   CWLS LOG ASCII STANDARD - VERSION 2.0
 WRAP.                 NO:   ONE LINE PER DEPTH STEP
~WELL INFORMATION
#MNEM.UNIT      DATA TYPE    INFORMATION
#----------   ------------   ------------------------------
 STRT.F           89.5000:   START DEPTH
 STOP.F         1300.5000:   STOP DEPTH
 STEP.F            0.5000:   STEP LENGTH
 NULL.          -999.2500:   NO VALUE
 COMP.            US NAVY:   COMPANY
 WELL. US NPR 3 "S" #62-11:   WELL
 FLD .             TEAPOT:   FIELD
 LOC .      S11 T38N R78W:   LOCATION
 CNTY.            NATRONA:   COUNTY
 STAT.            WYOMING:   STATE
 CTRY. UNITED STATES OF AMERICA:   COUNTRY
 SRVC.       SCHLUMBERGER:   SERVICE COMPANY
 DATE.        20-JUL-1964:   LOGDATE
 API .     49025063660000:   API NUMBER
~CURVE INFORMATION
#MNEM.UNIT       API CODE    CURVE DESCRIPTION
#----------   ------------   ------------------------------
 DEPT.F                  :   
 CALS.IN     60 280 50 00:   CALIPER FROM SONIC LOG
 DT  .US/F   60 520 33 00:   DELTA TIME
 SPR .MV     05 010 01 00:   SPONTANEOUS POTENTIAL FROM RES.
 ASN .OHMM   05 041 16 00:   AMPLIFIED SHORT NORMAL 16"
 ILD .OHMM   05 120 46 00:   INDUCTION LOG DEEP
~PARAMETER INFORMATION
#MNEM.UNIT          VALUE    DESCRIPTION
#----------   ------------   ------------------------------
 EKB .F         5223.0000:   Kelly bushing
 EGL .F         5215.0000:   Ground level
 EDF .F            0.0000:   Drilling floor
 TD  .F         1303.0000:   Total depth
 DATE.        20-JUL-1964:   Date logged
 CLNT.            A2DTECH:   Client Code
 PD  .                 GL:   Permanent Datum
 EPD .F              5215:   Elevation Permanent Datum
 LMF .                 KB:   Log Measured From
 DMF .                 KB:   Drilling Measured From
 DAPD.F                 8:   Feet Above Permanent Datum
 DD  .F              1303:   Depth driller
 DL  .F              1300:   Depth logger
 BLI .F              1299:   Bottom log interval
 TLI .F                94:   Top log interval
 CS1 .IN            12.25:   Casing size
 CBD1.       12.25" @ 10':   Casing driller 1
 BS1 .IN               11:   Bit size
 BSD1.F              1303:   Depth drilled with bit1
 DFT .            GEL/OIL:   Type fluid in hole
 DFD .                9.8:   Density
 DFV .                 60:   Viscosity
 DFL .                 10:   Fluid loss
 MSS .           FLOWLINE:   Source of sample
 RMS .OHMM           3.13:   Rm
 MST .F                86:   Rm Meas. temp.
 RMF .OHMM           1.81:   Rmf
 MFST.F                86:   Rmf Meas. temp.
 RMC .OHMM           3.39:   Rmc
 MCST.F                86:   Rmc Meas. temp.
 MFSS.                 FP:   Source Rmf.
 MCSS.                 FP:   Source Rmc.
 TCS .HRS             2.5:   Time Circ. stopped
 LUN .               4507:   Logging unit number
 LUL .               CSPR:   Logging unit location
 ENGI.             DANNER:   Recorded By
 WITN.         JORGENESEN:   Witnessed by
 ORIG.       2", 5" PRINT:   Origin of data
 UWI .     49025063660000:   Unique Well ID
 DICO. A2D TECHNOLOGIES, INC.:   Digitizing Company
~OTHER INFORMATION
~A   DEPT     CALS         DT        SPR        ASN          ILD 
# ...
  638.5000    11.3370    97.7940   -37.5440     8.0570     7.0550
  639.0000    11.3370    97.3520   -37.5340     8.1180     7.1610
  639.5000    11.3370    97.0260   -37.5220     8.1770     7.2630
  640.0000    11.3370    96.6580   -37.5130     8.2340     7.3690
  640.5000    11.3370    96.2640   -37.5010     8.2950     7.4770
  641.0000    11.3370    95.8700   -37.4900     8.3530     7.5730
  641.5000    11.3370    95.4750   -37.4820     8.4020     7.6910
  642.0000    11.3370    95.0810   -37.3990     8.4340     7.7810
  642.5000    11.3370    95.2850   -37.3200     8.4570     7.7530
  643.0000    11.3370    96.0260   -37.4430     8.4950     7.6860
  643.5000    11.3370    96.6560   -37.7360     8.5180     7.6390
  644.0000    11.3370    97.2540   -38.1210     8.4760     7.5820
  644.5000    11.3370    97.7290   -38.4200     8.4100     7.5270
  645.0000    11.3370    98.0360   -38.4430     8.3650     7.4740
  645.5000    11.3370    98.3960   -38.3760     8.3320     7.4190
  646.0000    11.3370    98.8130   -38.3600     8.3010     7.3620
  646.5000    11.3360    99.2310   -38.3320     8.2770     7.2950
  647.0000    11.3410    99.6480   -38.2850     8.2420     7.2130
  647.5000    11.3460   100.0660   -38.2640     8.1740     7.1120
  648.0000    11.3520   100.4000   -38.3270     8.0930     6.9980
  648.5000    11.3570   100.3000   -38.4230     8.0160     6.8890
  649.0000    11.3630   100.3000   -38.5430     7.9370     6.7860
  649.5000    11.3680   100.5420   -38.6230     7.8600     6.6660
  650.0000    11.3740   100.8010   -38.4770     7.7790     6.6030
  650.5000    11.3790   100.7010   -38.2260     7.7080     6.6620
  651.0000    11.3850   100.8690   -38.0750     7.6660     6.7420
  651.5000    11.3900   101.1010   -37.9710     7.6260     6.8000
  652.0000    11.3870   100.6640   -37.8920     7.6190     6.8720
  652.5000    11.3510   100.2190   -37.8370     7.7050     6.9400
  653.0000    11.3150    99.7750   -37.7220     7.8210     7.0020
  653.5000    11.2780    99.3310   -37.7020     7.9080     7.0750
  654.0000    11.3320    99.0990   -37.8440     7.9840     7.1390
  654.5000    11.3750    99.4330   -37.8890     8.0400     7.2050
  655.0000    11.3700    99.8000   -37.8570     8.0730     7.2800
  655.5000    11.3660    99.7540   -37.8740     8.1080     7.3310
  656.0000    11.3610    99.6400   -37.8700     8.1460     7.4040
  656.5000    11.3560    99.5260   -37.8650     8.1780     7.4780
  657.0000    11.3570    99.4110   -37.8720     8.2250     7.4510
  657.5000    11.3590    99.2970   -37.8670     8.2860     7.3920
  658.0000    11.3610    99.1330   -37.8690     8.3340     7.3630
  658.5000    11.3620    98.6690   -37.8700     8.3970     7.3190
  659.0000    11.3640    98.2060   -37.8680     8.4360     7.2780
  659.5000    11.3660    97.7430   -37.8700     8.3760     7.2410
  660.0000    11.3670    97.2970   -37.8690     8.2940     7.1970
  660.5000    11.3690    97.4330   -37.8690     8.2480     7.1600
  661.0000    11.3710    97.5620   -37.8700     8.2070     7.1170
  661.5000    11.3720    97.4670   -37.8690     8.1730     7.0790
  662.0000    11.3740    97.2870   -37.8690     8.1440     7.0380
  662.5000    11.3750    97.1070   -37.8690     8.1290     6.9910
  663.0000    11.3750    96.9270   -37.8690     8.1360     6.9960
  663.5000    11.3750    96.9830   -37.8690     8.1410     7.0690
  664.0000    11.3750    97.4650   -37.8690     8.1490     7.1600
  664.5000    11.3750    98.0100   -37.8690     8.1520     7.2180
  665.0000    11.3740    98.5550   -37.8690     8.1620     7.2980
  665.5000    11.3710    98.8990   -37.8680     8.2440     7.4560
  666.0000    11.3670    98.5870   -37.8690     8.3810     7.6090
  666.5000    11.3630    98.2660   -37.8680     8.5150     7.7480
  667.0000    11.3590    97.9440   -37.8680     8.6500     7.8970
  667.5000    11.3560    97.6230   -37.8700     8.7860     8.0330
  668.0000    11.3520    97.3010   -37.8660     8.9210     8.1940
  668.5000    11.3480    96.9790   -37.8710     9.0580     8.3130
  669.0000    11.3440    96.5460   -37.8680     9.1910     8.3980
  669.5000    11.3410    96.0750   -37.8640     9.3300     8.5250
  670.0000    11.3370    95.6030   -37.8780     9.4620     8.6280
  670.5000    11.3330    95.1310   -37.8530     9.5990     8.7120
  671.0000    11.3300    94.6950   -37.8870     9.7390     8.7820
  671.5000    11.3260    94.5470   -38.0420     9.8630     8.8960
  672.0000    11.3220    94.4100   -38.1680    10.1030     9.1820
  672.5000    11.3180    94.2730   -38.2740    10.4590     9.5260
  673.0000    11.3320    94.1360   -38.4140    10.7630     9.8360
  673.5000    11.3520    93.9990   -38.5440    11.0920    10.1480
  674.0000    11.3640    93.6830   -38.6350    11.4410    10.3840
  674.5000    11.3740    92.7920   -38.6460    11.7760    10.4080
  675.0000    11.3840    91.9020   -38.6360    12.0540    10.2850
  675.5000    11.3950    91.0110   -38.6430    12.0610    10.2600
  676.0000    11.3570    90.1210   -38.6380    11.9120    10.2770
  676.5000    11.3160    89.2890   -38.7030    11.7640    10.1690
  677.0000    11.3240    89.7900   -38.8570    11.6150    10.0350
  677.5000    11.3330    90.6300   -39.0230    11.4680     9.9300
  678.0000    11.3360    91.4700   -39.1790    11.3170     9.8220
  678.5000    11.3060    92.3110   -39.3400    11.1720     9.7180
  679.0000    11.2730    93.1510   -39.5030    11.0180     9.6100
  679.5000    11.2670    93.9910   -39.5950    10.8770     9.5060
  680.0000    11.2970    93.9940   -39.5850    10.7190     9.4000
  680.5000    11.3130    92.6290   -39.5580    10.5740     9.2910
  681.0000    11.2910    91.4670   -39.5430    10.5130     9.1920
  681.5000    11.2780    90.3050   -39.5230    10.4440     9.0730
  682.0000    11.2870    89.1430   -39.5030    10.3530     8.9860
  682.5000    11.2970    87.9820   -39.4850    10.2730     9.0000
  683.0000    11.2980    87.2020   -39.4670    10.1960     9.0440
  683.5000    11.2980    88.6990   -39.4420    10.1020     9.0760
  684.0000    11.2980    90.1900   -39.4330    10.0790     9.1760
  684.5000    11.2980    91.1070   -39.4050    10.2250     9.3850
  685.0000    11.2980    91.4910   -39.3020    10.3910     9.5640
  685.5000    11.2980    91.4910   -39.1940    10.5180     9.5850
  686.0000    11.2960    91.0190   -39.1080    10.6700     9.5190
  686.5000    11.3190    90.5840   -39.0070    10.6610     9.4250
  687.0000    11.3220    90.6770   -38.9130    10.4110     9.3110
  687.5000    11.3250    91.1910   -38.8190    10.1720     9.2060
  688.0000    11.3280    91.7060   -38.7200    10.0420     9.1000
  688.5000    11.3310    92.1310   -38.6320     9.9740     8.9900
  689.0000    11.3340    92.2850   -38.5270     9.9000     8.8860
  689.5000    11.3360    92.2730   -38.4530     9.7240     8.7770
  690.0000    11.3320    91.8800   -38.4760     9.5760     8.6700
  690.5000    11.3200    91.4860   -38.5230     9.5080     8.5650
  691.0000    11.3070    91.0910   -38.5530     9.4420     8.4550
  691.5000    11.2990    90.8910   -38.5940     9.3850     8.3490
  692.0000    11.3040    90.8910   -38.6320     9.3260     8.2430
  692.5000    11.3080    90.8910   -38.6660     9.2670     8.1300
  693.0000    11.3120    90.6690   -38.7090     9.2060     8.0340
  693.5000    11.3160    90.4900   -38.7410     9.1520     7.9120
  694.0000    11.3200    90.8030   -38.7830     9.0920     7.7950
  694.5000    11.3250    91.1360   -38.8170     8.9730     7.7800
  695.0000    11.3290    91.4690   -38.7120     8.8390     7.8050
  695.5000    11.3330    91.7740   -38.4960     8.7410     7.8150
  696.0000    11.3370    92.0630   -38.3050     8.6020     7.8300
  696.5000    11.3410    92.3530   -38.0770     8.4720     7.8460
  697.0000    11.3460    92.5290   -37.8820     8.4600     7.8620
  697.5000    11.3500    92.5990   -37.8780     8.4820     7.8690
  698.0000    11.3550    92.6690   -37.9260     8.5020     7.8980
  698.5000    11.3480    92.7390   -37.9410     8.5610     8.0070
  699.0000    11.3260    92.7620   -37.9740     8.6200     8.1750
