~VERSION INFORMATION
 VERS.                2.0:   CWLS LOG ASCII STANDARD - VERSION 2.0
 WRAP.                 NO:   ONE LINE PER DEPTH STEP
~WELL INFORMATION
#MNEM.UNIT      DATA TYPE    INFORMATION
#----------   ------------   ------------------------------
 STRT.F            0.0000:   START DEPTH
 STOP.F          640.0000:   STOP DEPTH
 STEP.F            0.5000:   STEP LENGTH
 NULL.          -999.2500:   NO VALUE
 COMP.       FLUOR DANIEL:   COMPANY
 WELL.  FLUOR " X" #45-27:   WELL
 FLD .                NPR:   FIELD
 LOC .      S27 T39N R78W:   LOCATION
 CNTY.            NATRONA:   COUNTY
 STAT.            WYOMING:   STATE
 CTRY. UNITED STATES OF AMERICA:   COUNTRY
 SRVC.      WESTERN ATLAS:   SERVICE COMPANY
 DATE.        11-MAY-1996:   LOGDATE
 API .     49025227900000:   API NUMBER
~CURVE INFORMATION
#MNEM.UNIT       API CODE    CURVE DESCRIPTION
#----------   ------------   ------------------------------
 DEPT.F                  :   
 GRR .GAPI   07 310 01 00:   GAMMA RAY FROM RESISTIVITY
 RILD.OHMM   07 120 46 00:   INDUCTION LOG DEEP RESISTIVITY
 RILM.OHMM   07 120 44 00:   INDUCTION LOG MEDIUM RESISTIVITY
 TENR.LBS    07 635 01 00:   TENSION
~PARAMETER INFORMATION
#MNEM.UNIT          VALUE    DESCRIPTION
#----------   ------------   ------------------------------
 EKB .F         5058.0000:   Kelly bushing
 EGL .F         5048.0000:   Ground level
 EDF .F         5057.0000:   Drilling floor
 EPD .F         5048.0000:   Permanent datum
 TD  .F          632.0000:   Total depth
 DATE.        11-MAY-1996:   Date logged
 CLNT.            A2DTECH:   Client Code
 SL  . 2250' FSL & 2122' FWL:   Surface Location
 PD  .                 GL:   Permanent Datum
 LMF .                 KB:   Log Measured From
 DMF .                 KB:   Drilling Measured From
 DAPD.F                10:   Feet Above Permanent Datum
 DD  .F               632:   Depth driller
 DL  .F               631:   Depth logger
 BLI .F               620:   Bottom log interval
 CS1 .IN            9.625:   Casing size
 CBD1.       9.625" @ 53':   Casing driller 1
 CBL1.F                53:   Casing logger 1
 BS1 .IN             8.75:   Bit size
 BSD1.F               632:   Depth drilled with bit1
 DFT .                AIR:   Type fluid in hole
 LUN .            HL 6532:   Logging unit number
 LUL .             CASPER:   Logging unit location
 ORIG.         2.5" PRINT:   Origin of data
 UWI .     49025227900000:   Unique Well ID
 DICO. A2D TECHNOLOGIES, INC.:   Digitizing Company
 TLI .                620:   Top log interval
~OTHER INFORMATION
~A    DEPT      GRR      RILD       RILM       TENR   
# ...
  146.0000   101.2200     6.9560     7.2710   -20.1070
  146.5000   101.2200     6.9620     7.2890   -20.4590
  147.0000   101.6740     6.9670     7.3060   -20.4590
  147.5000   102.7360     6.9720     7.3230   -20.4590
  148.0000   104.3620     6.9770     7.3390   -20.4590
  148.5000   104.0730     6.9830     7.3560   -20.4590
  149.0000   103.8370     6.9880     7.3730   -20.4590
  149.5000   103.4870     6.9930     7.3910   -20.4590
  150.0000   103.2660     6.9980     7.4100   -20.4590
  150.5000   102.8480     7.0050     7.3760   -20.4590
  151.0000   103.7830     7.0170     7.2890   -20.4590
  151.5000   105.8110     7.0080     7.2010   -20.4590
  152.0000   107.5690     6.8950     7.1150   -20.4590
  152.5000   108.9050     6.7840     7.0270   -20.4590
  153.0000   105.7540     6.6710     6.9400   -20.4590
  153.5000   103.1630     6.5580     6.8530   -20.4590
  154.0000   104.6040     6.4460     6.7660   -20.4590
  154.5000   105.8790     6.3330     6.6790   -20.4590
  155.0000   105.1380     6.2200     6.5920   -20.4590
  155.5000   104.4730     6.1670     6.5160   -20.4590
  156.0000   104.4340     6.1490     6.5160   -20.4590
  156.5000   104.4400     6.1260     6.5010   -20.4590
  157.0000   104.4350     6.1020     6.4740   -20.4590
  157.5000   104.4390     6.0780     6.4470   -20.4590
  158.0000   104.4330     6.0540     6.4200   -20.7000
  158.5000   104.4210     6.0720     6.3930   -20.9050
  159.0000   103.6020     6.0900     6.3660   -21.1100
  159.5000   102.8640     6.1080     6.3390   -21.3150
  160.0000   102.7690     6.1250     6.3120   -21.5190
  160.5000   103.5700     6.1430     6.2810   -21.7240
  161.0000   105.1100     6.1610     6.3710   -21.9290
  161.5000   106.3990     6.2410     6.4760   -22.1340
  162.0000   107.4490     6.3510     6.5800   -22.3380
  162.5000   105.7520     6.4620     6.6850   -22.5430
  163.0000   103.9060     6.5590     6.7900   -22.7480
  163.5000   102.6980     6.6440     6.8950   -22.9530
  164.0000   102.7420     6.7290     7.0000   -23.1570
  164.5000   101.2420     6.8140     7.1050   -23.3620
  165.0000   100.0140     6.8860     7.2760   -23.5670
  165.5000   100.4360     6.8690     7.2570   -23.7720
  166.0000   101.8770     6.8230     7.2050   -23.9770
  166.5000   101.2560     6.7780     7.1530   -24.1810
  167.0000   100.1420     6.7320     7.1000   -24.3860
  167.5000    99.5490     6.6860     7.0480   -24.5910
  168.0000    99.6270     6.6400     6.9960   -24.7960
  168.5000    99.5410     6.5950     6.9440   -25.0000
  169.0000    98.4360     6.5490     6.8920   -25.2050
  169.5000    98.7060     6.5030     6.8390   -25.4100
  170.0000   100.5380     6.4570     6.7870   -25.6150
  170.5000   102.4410     6.4120     6.7600   -25.8190
  171.0000   104.6390     6.3980     6.7600   -26.0240
  171.5000   104.3780     6.3980     6.7600   -26.2290
  172.0000   104.0790     6.4490     6.9740   -26.4340
  172.5000   104.2580     6.6090     7.1660   -26.6390
  173.0000   105.9590     6.7690     7.3570   -26.8430
  173.5000   105.2610     6.9290     7.5490   -27.0480
  174.0000   104.5730     7.0890     7.7410   -27.2530
  174.5000   103.9850     7.2480     7.9320   -27.4580
  175.0000   105.6990     7.4080     8.1240   -27.6620
  175.5000   105.8840     7.5680     8.2760   -27.8670
  176.0000   104.8510     7.7280     8.1030   -28.0720
  176.5000   101.0240     7.9770     7.9600   -28.2770
  177.0000   100.5380     7.8930     7.8170   -28.4810
  177.5000   103.0560     7.7020     7.6740   -28.6860
  178.0000   104.3960     7.5120     7.5310   -28.8910
  178.5000   103.0710     7.3220     7.3880   -29.0960
  179.0000   100.1620     7.1320     7.2450   -29.3010
  179.5000   100.5690     6.9410     7.1020   -29.5050
  180.0000   102.4260     6.7510     6.9590   -29.7100
  180.5000   103.9750     6.5610     6.8160   -29.9150
  181.0000   105.5700     6.3980     6.6730   -30.1200
  181.5000   105.6640     6.5130     6.6370   -30.3240
  182.0000   103.9980     6.6140     6.7600   -30.5290
  182.5000   101.3060     6.6370     7.0400   -30.7340
  183.0000   100.4250     6.8110     7.2790   -30.9390
  183.5000   100.7310     6.9890     7.5190   -31.1430
  184.0000   100.8520     7.1670     7.7580   -31.3480
  184.5000   101.1530     7.3450     7.9980   -31.5530
  185.0000   100.5110     7.5220     8.2760   -31.7580
  185.5000    97.8250     7.7000     8.2540   -31.9630
  186.0000    95.1420     7.8310     8.2070   -32.1670
  186.5000    94.5540     7.7940     8.1590   -32.3720
  187.0000    96.9090     7.7510     8.1120   -32.5770
  187.5000   101.4670     7.7080     8.0640   -32.7820
  188.0000   103.6200     7.6650     8.0170   -32.9860
  188.5000   102.6360     7.6220     7.9690   -33.1910
  189.0000   102.0900     7.5790     7.9220   -33.3960
  189.5000   101.4150     7.5360     7.8740   -33.6010
  190.0000   101.0850     7.4920     7.8260   -33.8050
  190.5000   102.2420     7.4490     7.7790   -34.0100
  191.0000   104.4920     7.4060     7.7310   -34.2150
  191.5000   105.0330     7.3630     7.6840   -34.4200
  192.0000   102.9110     7.3200     7.6360   -34.6250
  192.5000   101.8040     7.2770     7.5890   -34.8290
  193.0000   100.6110     7.2340     7.5410   -35.0340
  193.5000   102.7560     7.1910     7.4940   -35.2390
  194.0000   104.9200     7.1480     7.4460   -35.4440
  194.5000   107.2480     7.1050     7.4020   -35.6480
  195.0000   109.1620     7.0610     7.3680   -35.8530
  195.5000   109.0050     7.0140     7.3340   -36.0580
  196.0000   106.7850     7.0140     7.3000   -36.2630
  196.5000   106.0470     7.0140     7.2760   -36.4670
  197.0000   106.2290     7.0140     7.2760   -36.6720
  197.5000   106.3590     7.0140     7.2760   -36.8770
  198.0000   106.4890     7.0140     7.2760   -37.0820
  198.5000   106.6470     7.0140     7.2760   -37.2870
  199.0000   106.7700     7.0140     7.2760   -37.4910
  199.5000   106.8040     7.0140     7.2760   -37.6960
  200.0000   105.7060     7.0140     7.2760   -37.9010
  200.5000   104.5650     7.0140     7.2760   -38.1060
  201.0000   103.7300     7.0140     7.2760   -38.3100
  201.5000   104.5230     7.0140     7.2760   -38.5150
  202.0000   105.2040     7.0140     7.2770   -38.7200
  202.5000   105.9540     7.0310     7.2760   -38.9250
  203.0000   106.6550     7.0550     7.2760   -39.1290
  203.5000   106.8780     7.0780     7.2750   -39.3340
  204.0000   106.8410     7.1010     7.3060   -39.5390
  204.5000   106.9230     7.1240     7.3640   -39.7440
  205.0000   107.1860     7.1480     7.4230   -39.9490
  205.5000   107.2750     7.1710     7.4810   -40.1530
  206.0000   107.8360     7.1940     7.5380   -40.3580
  206.5000   105.8340     7.2170     7.5960   -40.4190
  207.0000   105.1510     7.2400     7.6530   -40.4190
  207.5000   107.5750     7.2630     7.7110   -40.4190
  208.0000   108.8490     7.3100     7.7680   -40.4190
  208.5000   109.4970     7.3830     7.8260   -40.4190
  209.0000   110.2410     7.4560     7.8840   -40.4190
  209.5000   110.9570     7.5290     7.9410   -40.4190
  210.0000   111.6420     7.6020     7.9990   -40.4190
  210.5000   112.4030     7.6750     8.0570   -40.4190
  211.0000   111.8680     7.7480     8.1140   -40.4190
  211.5000   111.1540     7.8210     8.1720   -40.4190
  212.0000   110.3180     7.8940     8.2300   -40.4190
  212.5000   110.3760     7.9670     8.2760   -40.4190
  213.0000   111.0040     8.0400     8.3540   -40.4190
  213.5000   111.5420     8.1130     8.4520   -40.4190
  214.0000   111.3600     8.1860     8.5490   -40.4190
  214.5000   110.8900     8.2580     8.6470   -40.4190
  215.0000   110.4460     8.4290     8.7450   -40.4190
  215.5000   110.1210     8.5470     8.8430   -40.4190
  216.0000   110.4760     8.6700     8.9930   -40.4190
  216.5000   110.7500     8.7920     9.2410   -40.4190
  217.0000   110.0650     8.9150     9.4880   -40.4190
  217.5000   107.2850     9.0380     9.7360   -40.4190
  218.0000   104.2390     9.3190     9.9840   -40.4190
  218.5000   102.4630     9.6620    10.2310   -40.4190
