~VERSION INFORMATION
 VERS.                2.0:   CWLS LOG ASCII STANDARD - VERSION 2.0
 WRAP.                 NO:   ONE LINE PER DEPTH STEP
~WELL INFORMATION
#MNEM.UNIT      DATA TYPE    INFORMATION
#----------   ------------   ------------------------------
 STRT.F          200.0000:   START DEPTH
 STOP.F         3135.5000:   STOP DEPTH
 STEP.F            0.5000:   STEP LENGTH
 NULL.          -999.2500:   NO VALUE
 COMP.    FENOX & SCISSON:   COMPANY
 WELL. FENIX NPR 23 "AX" #3-11:   WELL
 FLD .                NPR:   FIELD
 LOC .      S11 T38N R78W:   LOCATION
 CNTY.            NATRONA:   COUNTY
 STAT.            WYOMING:   STATE
 CTRY. UNITED STATES OF AMERICA:   COUNTRY
 SRVC.       SCHLUMBERGER:   SERVICE COMPANY
 DATE.        06-NOV-1977:   LOGDATE
 API .     49025104320000:   API NUMBER
~CURVE INFORMATION
#MNEM.UNIT       API CODE    CURVE DESCRIPTION
#----------   ------------   ------------------------------
 DEPT.F                  :   
 CALD.IN     45 280 60 00:   CALIPER FROM DENSITY LOG
 GRD .GAPI   45 310 01 00:   GAMMA RAY FROM DENSITY LOG
 RHOB.G/C3   45 350 01 00:   BULK DENSITY
 CORR.G/C3   45 356 01 00:   DENSITY CORRECTION
 SPR .MV     07 010 01 00:   SPONTANEOUS POTENTIAL
 LL8 .OHMM   07 220 08 00:   LATEROLOG-8 RES.
 ILD .OHMM   07 120 46 00:   DEEP INDUCTION RESISTIVITY
 ILM .OHMM   07 120 44 00:   INDUCTION LOG MEDIUM RESISTIVITY
~PARAMETER INFORMATION
#MNEM.UNIT          VALUE    DESCRIPTION
#----------   ------------   ------------------------------
 EKB .F         5176.0000:   Kelly bushing
 EGL .F         5171.0000:   Ground level
 TD  .F         3138.0000:   Total depth
 DATE.        06-NOV-1977:   Date logged
 CLNT.            A2DTECH:   Client Code
 SL  . 1650' FNL & 750' FWL:   Surface Location
 PD  .                 GL:   Permanent Datum
 EPD .F              5171:   Elevation Permanent Datum
 LMF .                 KB:   Log Measured From
 DMF .                 KB:   Drilling Measured From
 DAPD.F                 5:   Feet Above Permanent Datum
 DD  .F              3138:   Depth driller
 DL  .F              3135:   Depth logger
 BLI .F              3134:   Bottom log interval
 TLI .F               196:   Top log interval
 CS1 .IN            8.625:   Casing size
 CBD1.      8.625" @ 205':   Casing driller 1
 CBL1.F               205:   Casing logger 1
 BS1 .IN            7.875:   Bit size
 BSD1.F              3138:   Depth drilled with bit1
 DFT .            KCL/MUD:   Type fluid in hole
 DFD .                8.8:   Density
 DFV .                 34:   Viscosity
 DFPH.                 11:   pH
 DFL .                  6:   Fluid loss
 MSS .            MUD/PIT:   Source of sample
 RMS .OHMM           0.27:   Rm
 MST .F                48:   Rm Meas. temp.
 RMF .OHMM           0.29:   Rmf
 MFST.F                48:   Rmf Meas. temp.
 RMC .OHMM           0.39:   Rmc
 MCST.F                48:   Rmc Meas. temp.
 MFSS.               MEAS:   Source Rmf.
 MCSS.               CALC:   Source Rmc.
 RMB .OHMM           0.12:   Rm. at BHT
 BHT .F               104:   BHT.
 TCS .HRS            1500:   Time Circ. stopped
 TLAB.HRS            1930:   Time logger at bottom
 MRT .F               104:   Maximum recorded temp.
 LUN .               7711:   Logging unit number
 LUL .               CSPR:   Logging unit location
 ENGI.       CRAIG/SAYLER:   Recorded By
 WITN.         PETTINGILL:   Witnessed by
 ORIG.           5" PRINT:   Origin of data
 UWI .     49025104320000:   Unique Well ID
 DICO. A2D TECHNOLOGIES, INC.:   Digitizing Company
~OTHER INFORMATION
~A   DEPT     CALD        GRD       RHOB       CORR        SPR        LL8        ILD        ILM   
# ...
 2508.5000     8.3347   122.6865     2.5874     0.0228   -88.5042     8.3297     8.8818     8.8800
 2509.0000     8.3150   121.1859     2.5654     0.0128   -88.4904     8.2579     8.3357     8.8864
 2509.5000     8.3153   120.2878     2.5694     0.0098   -88.2698     8.1121     8.3383     8.8873
 2510.0000     8.3759   119.9922     2.5714     0.0098   -88.0493     8.1163     8.4970     8.8940
 2510.5000     8.3159   120.9016     2.5594     0.0058   -88.0320     7.9729     8.6587     8.9001
 2511.0000     8.3163   121.5098     2.5454     0.0118   -88.0148     8.1247     8.9047     8.9038
 2511.5000     8.3166   122.1180     2.5585     0.0149   -88.2008     8.5101     8.5101     8.5101
 2512.0000     8.3169   122.7261     2.5575     0.0079   -88.3868     8.5929     8.5929     8.5929
 2512.5000     8.3172   123.6356     2.5415     0.0049   -88.1664     8.6765     8.6765     8.6765
 2513.0000     8.3175   123.3411     2.5546     0.0109   -88.1492     8.7609     8.7609     8.7609
 2513.5000     8.3179   124.2506     2.5716     0.0169   -88.1319     8.9276     8.7636     9.0956
 2514.0000     8.3584   126.3653     2.5726     0.0129   -87.9116     8.0755     9.0975     9.5241
 2514.5000     8.3186   130.8902     2.5532     0.0130   -87.8943     8.7763     8.9368    10.0304
 2515.0000     8.3189   131.8010     2.5338     0.0050   -87.8771     9.9821     9.1059    10.4093
 2515.5000     8.3192   129.0952     2.5225     0.0040   -87.8599    11.0467     9.4528    10.7059
 2516.0000     8.3195   124.8829     2.5315     0.0060   -87.8427    12.6852     9.2858    11.2152
 2516.5000     8.3198   115.2460     2.5265     0.0050   -87.6190    14.5594     9.2906    11.4291
 2517.0000     8.3001   112.5399     2.5266     0.0080   -87.6019    14.5653     9.5818    11.4350
 2517.5000     8.2000   111.3403     2.5466     0.0160   -87.5847    12.9371     9.7363    10.9269
 2518.0000     8.1802   113.7562     2.5767     0.0391   -87.5676     9.9246     9.9215    10.2513
 2518.5000     8.2207   121.2944     2.5717     0.0301   -87.7534     9.8360     9.6544     9.3568
 2519.0000     8.3013   124.9158     2.5557     0.0171   -87.5367     9.4003     9.8411     9.0218
 2519.5000     8.3218   126.7304     2.5477     0.0131   -87.5195     8.3487     9.2324     9.6653
 2520.0000     8.3422   126.4348     2.5457     0.0161   -87.5023     8.2768     8.2768    10.2211
 2520.5000     8.3224   126.7419     2.5407     0.0051   -87.4852     8.4325     8.2055    10.2243
 2521.0000     8.3227   126.4462     2.5507     0.0132   -87.8670     8.5929     8.0590    10.2306
 2521.5000     8.3432   127.0546     2.5568     0.0102   -87.8532     9.0023     7.8453    10.2358
 2522.0000     8.3636   127.9643     2.5738     0.0082   -87.7963     9.3433     7.2599    10.0551
 2522.5000     8.3438   127.6687     2.5668     0.0182   -87.7393     9.7874     7.1306     9.6981
 2523.0000     8.3441   127.6744     2.5658     0.0202   -87.6824     9.7543     7.7139     9.2685
 2523.5000     8.3445   130.3921     2.5658     0.0052   -87.6254     9.4919     8.1559     8.3067
 2524.0000     8.3649   133.4112     2.5528    -0.0018   -87.5685     8.9873     8.7808     7.6523
 2524.5000     8.3451   140.9516     2.5378    -0.0028   -87.5115     8.2386     7.7275     7.5848
 2525.0000     8.3454   144.8749     2.5298    -0.0098   -87.4545     7.5911     7.5218     7.6610
 2525.5000     8.3658   149.0997     2.5318    -0.0027   -87.3976     6.4401     8.2505     7.7379
 2526.0000     8.3662   153.2491     2.5278     0.0003   -87.3406     6.2109     7.8115     7.8115
 2526.5000     8.3665   150.0156     2.5208     0.0013   -87.4693     8.0334     8.0334     8.0334
 2527.0000     8.3667   137.9314     2.5188     0.0043   -87.4590    10.1068     8.4118     8.9327
 2527.5000     8.3671   123.8104     2.5359     0.0043   -87.4419    10.9812     8.4962    10.1644
 2528.0000     8.3674   113.8723     2.5479     0.0053   -87.0119    10.2103     8.8179    10.1696
 2528.5000     8.3678   111.4636     2.5560     0.0084   -87.0050     9.9385     8.9018     9.9895
 2529.0000     8.3681   112.9760     2.5660     0.0114   -86.9913     9.7630     8.9082     9.9033
 2529.5000     8.3886   115.3936     2.5770     0.0164   -86.7716     9.7681     8.7510     9.7279
 2530.0000     8.3889   115.3992     2.5620     0.0164   -86.3425     9.7741     8.7555     9.5567
 2530.5000     8.3892   114.5007     2.5580     0.0094   -86.3255    10.0516     8.9220     9.3865
 2531.0000     8.3895   114.2049     2.5560     0.0054   -86.7136    10.1493     8.6460     9.2203
 2531.5000     8.3898   113.9091     2.5540     0.0044   -86.6965     9.9702     8.3374     8.9752
 2532.0000     8.4103   113.6133     2.5551     0.0015   -86.4769     9.7048     8.3434     8.6944
 2532.5000     8.4106   115.4272     2.5571    -0.0035   -86.6624     8.8598     8.6602     8.8598
 2533.0000     8.4310   118.4467     2.5581    -0.0015   -86.6454     8.7034     8.7447     8.7034
 2533.5000     8.4112   119.9593     2.5561     0.0055   -86.6283     8.9956     8.6692     8.8689
 2534.0000     8.4115   118.7594     2.5531     0.0105   -86.4088     9.4204     8.5934     8.5541
 2534.5000     8.4521   115.7510     2.5561     0.0086   -86.1893     9.4253     8.4422     9.0422
 2535.0000     8.4323   116.0580     2.5702     0.0076   -86.3747     9.4311     8.5245     9.2141
 2535.5000     8.4324   115.7633     2.5662     0.0046   -86.1553     9.4350     8.6068     9.4757
 2536.0000     8.4330   113.9593     2.5622     0.0006   -86.3407    10.3493     8.6898     9.3085
 2536.5000     8.4333   108.8409     2.5622    -0.0014   -85.7165    10.7422     9.1048     9.8395
 2537.0000     8.4336   105.8323     2.5682    -0.0024   -86.3067    10.4566     9.2340    10.2130
 2537.5000     8.4339   104.3307     2.5693     0.0026   -86.2897    10.2736     9.3209     9.9413
 2538.0000     8.4544   104.0348     2.5633     0.0046   -86.2727    10.7598     9.3238     9.5885
 2538.5000     8.4346   104.0403     2.5633     0.0087   -86.0533    10.7081     9.2957     9.9494
 2539.0000     8.4550   105.2525     2.5643     0.0047   -86.0363    10.7136     9.2986     9.8658
 2539.5000     8.4553   106.4638     2.5683     0.0037   -86.2160    10.4285     9.3024     9.6916
 2540.0000     8.4557   108.8807     2.5713     0.0087   -86.2024    10.2466     9.0551     9.6956
 2540.5000     8.4560   111.2978     2.5653     0.0147   -86.1854    10.1542     9.0589     9.6615
 2541.0000     8.4563   111.9062     2.5624     0.0087   -86.1718    10.0688     8.8994     9.5781
 2541.5000     8.4566   114.0219     2.5624     0.0037   -86.1537     9.8911     8.8226     9.4954
 2542.0000     8.4569   115.5347     2.5624     0.0128   -86.1367     9.8962     8.7465     9.5870
 2542.5000     8.4573   116.7472     2.5544     0.0118   -86.1197     9.9924     8.7510     9.5919
 2543.0000     8.4576   115.5470     2.5514     0.0078   -86.3049    10.4660     8.7555     9.5968
 2543.5000     8.4781   113.4424     2.5534     0.0088   -86.2880    10.9620     8.7600     9.5140
 2544.0000     8.4784   113.4480     2.5694     0.0158   -86.2710    10.9284     8.7645     9.3007
 2544.5000     8.4988   111.9463     2.5885     0.0249   -86.2540    10.5385     8.7690     9.2197
 2545.0000     8.4991   111.6504     2.5875     0.0239   -86.2336     9.5306     8.7736     9.0598
 2545.5000     8.4995   113.4647     2.5685     0.0169   -86.2166     9.2754     8.6969     9.0626
 2546.0000     8.4998   114.9777     2.5695     0.0159   -86.4017     9.5804     8.6219     8.8215
 2546.5000     8.5001   114.6818     2.5835     0.0199   -86.1826     9.6735     8.4702     8.5868
 2547.0000     8.5004   114.3859     2.5986     0.0310   -86.3677     9.7675     8.3971     8.5129
 2547.5000     8.5007   114.9944     2.6096     0.0350   -86.3507     9.7725     8.3246     8.6756
 2548.0000     8.4810   113.7941     2.6086     0.0190   -86.3337     9.5126     8.3289     8.6792
 2548.5000     8.5014   112.2923     2.5889     0.0120   -86.3167     8.7645     8.3341     8.7645
