~VERSION INFORMATION
 VERS.                2.0:   CWLS LOG ASCII STANDARD - VERSION 2.0
 WRAP.                 NO:   ONE LINE PER DEPTH STEP
~WELL INFORMATION
#MNEM.UNIT      DATA TYPE    INFORMATION
#----------   ------------   ------------------------------
 STRT.F          200.0000:   START DEPTH
 STOP.F         3124.0000:   STOP DEPTH
 STEP.F            0.5000:   STEP LENGTH
 NULL.          -999.2500:   NO VALUE
 COMP.    FENIX & SCISSON:   COMPANY
 WELL. FENIX SCISSON #18-27:   WELL
 FLD .                NPR:   FIELD
 LOC .      S27 T39N R78W:   LOCATION
 CNTY.            NATRONA:   COUNTY
 STAT.            WYOMING:   STATE
 CTRY. UNITED STATES OF AMERICA:   COUNTRY
 SRVC.              WELEX:   SERVICE COMPANY
 DATE.        26-SEP-1977:   LOGDATE
 API .     49025104210000:   API NUMBER
~CURVE INFORMATION
#MNEM.UNIT       API CODE    CURVE DESCRIPTION
#----------   ------------   ------------------------------
 DEPT.F                  :   
 CALD.IN     45 280 60 00:   CALIPER FROM DENSITY LOG
 GRD .GAPI   45 310 01 00:   GAMMA RAY FROM DENSITY LOG
 RHOB.G/C3   45 350 01 00:   BULK DENSITY
 CORR.G/C3   45 356 01 00:   DENSITY CORRECTION
 NPHI.DEC    42 890 03 00:   NEUTRON POROSITY SANDSTONE
 SPR .MV     07 010 01 00:   SPONTANEOUS POTENTIAL
 GURD.OHMM   07 220 05 00:   GUARD LOG RESISTIVITY
 ILD .OHMM   07 120 46 00:   DEEP INDUCTION RESISTIVITY
 ILM .OHMM   07 120 44 00:   INDUCTION LOG MEDIUM RESISTIVITY
 TENR.LBS    07 635 01 00:   TENSION FROM RESISTIVITY
~PARAMETER INFORMATION
#MNEM.UNIT          VALUE    DESCRIPTION
#----------   ------------   ------------------------------
 EKB .F         5080.0000:   Kelly bushing
 EGL .F         5070.0000:   Ground level
 EDF .F            0.0000:   Drilling floor
 EPD .F            0.0000:   Permanent datum
 TD  .F         3117.0000:   Total depth
 DATE.        26-SEP-1977:   Date logged
 CLNT.            A2DTECH:   Client Code
 SL  . 330' FSL & 1650' FWL:   Surface Location
 PD  .                 GL:   Permanent Datum
 DAPD.F                10:   Feet Above Permanent Datum
 DD  .F              3115:   Depth driller
 DL  .F              3117:   Depth logger
 BLI .F              3115:   Bottom log interval
 TLI .F               200:   Top log interval
 CS1 .IN            8.625:   Casing size
 CBD1.      8.625" @ 219':   Casing driller 1
 CBL1.F               220:   Casing logger 1
 BS1 .IN            7.875:   Bit size
 BSD1.F              3115:   Depth drilled with bit1
 DFT .            KCL MUD:   Type fluid in hole
 DFD .                9.1:   Density
 DFV .                 35:   Viscosity
 DFPH.                 11:   pH
 DFL .               17.2:   Fluid loss
 MSS .           FLOWLINE:   Source of sample
 RMS .OHMM            .59:   Rm
 MST .F                98:   Rm Meas. temp.
 RMF .OHMM            .56:   Rmf
 MFST.F                98:   Rmf Meas. temp.
 RMC .OHMM            .24:   Rmc
 MCST.F                98:   Rmc Meas. temp.
 MFSS.               MEAS:   Source Rmf.
 MCSS.               MEAS:   Source Rmc.
 RMB .OHMM            .48:   Rm. at BHT
 BHT .F               116:   BHT.
 TCS .HRS               4:   Time Circ. stopped
 MRT .F               116:   Maximum recorded temp.
 LUN .               8611:   Logging unit number
 LUL .             CASPER:   Logging unit location
 ENGI.            C. DOAK:   Recorded By
 WITN.         PETTINGILL:   Witnessed by
 ORIG.           5" PRINT:   Origin of data
 UWI .     49025104210000:   Unique Well ID
 DICO. A2D TECHNOLOGIES, INC.:   Digitizing Company
~OTHER INFORMATION
~A   DEPT     CALD        GRD       RHOB       CORR         NPHI      SPR       GURD        ILD        ILM        TENR  
# ...
 2511.5000     8.9170   128.6967     2.5129     0.0177     0.3557   -69.6442     7.4528     5.1139     6.9887   846.3941
 2512.0000     8.9191   133.6493     2.5149     0.0117     0.3521   -69.6442     7.4527     5.0207     6.4934   846.3114
 2512.5000     8.9212   132.8532     2.5199     0.0117     0.3498   -69.6442     7.8029     5.0668     6.2589   846.2287
 2513.0000     8.9234   129.0835     2.5279     0.0217     0.3494   -69.6442     7.8747     5.1607     6.2016   846.1456
 2513.5000     8.9255   127.0966     2.5329     0.0217     0.3498   -69.6442     7.5905     5.3537     6.3747   846.0629
 2514.0000     8.9276   127.4907     2.5368     0.0157     0.3494   -69.4464     7.5209     5.5031     6.8608   835.9942
 2514.5000     8.9298   126.2973     2.5269     0.0196     0.3478   -69.4464     7.9470     5.7090     7.3838   835.9113
 2515.0000     8.9319   121.5330     2.5279     0.0137     0.3474   -69.4464     8.7115     5.8147     7.1830   845.8146
 2515.5000     8.9340   117.5629     2.5279     0.0117     0.3478   -69.4464     9.3758     5.9771     7.4517   845.7319
 2516.0000     8.9362   112.0061     2.5269     0.0116     0.3434   -69.4464     9.6377     6.1440     7.4515   845.6491
 2516.5000     8.9383   110.8129     2.5209     0.0116     0.3414   -69.4464     9.7849     6.2578     8.0197   855.5533
 2517.0000     8.9404   112.3965     2.5189     0.0116     0.3378   -69.4464    10.1836     6.4326     8.0196   845.4836
 2517.5000     8.9426   115.9634     2.5199     0.0116     0.3299   -69.4464    20.8118     6.7348     7.9461   855.3882
 2518.0000     8.9447   117.5476     2.5239     0.0136     0.3263   -69.4464    28.8951     6.7346     7.9459   815.3552
 2518.5000     8.9469   117.1477     2.5289     0.0235     0.3263   -69.4464     9.3749     6.7967     8.0932   835.2473
 2519.0000     8.9490   113.9712     2.5438     0.0295     0.3303   -69.4464     9.3316     6.7965     8.0930   875.1160
 2519.5000     8.9511   113.1747     2.5448     0.0335     0.3327   -69.4464     9.2889     6.7964     8.0929   845.0694
 2520.0000     8.9514   115.9481     2.5378     0.0315     0.3347   -69.4464     9.2888     6.8590     8.0927   854.9750
 2520.5000     8.9513   121.1014     2.5428     0.0334     0.3359   -69.6442     9.2886     6.7961     8.0926   844.9038
 2521.0000     8.9511   135.3780     2.5388     0.0354     0.3351   -69.6442     9.4608     6.7959     8.0184   844.8211
 2521.5000     8.9510   137.7545     2.5378     0.0374     0.3347   -69.6442    11.0604     6.7336     8.0183   844.7383
 2522.0000     8.9509   141.1222     2.5378     0.0374     0.3351   -69.6442    12.2368     6.8584     8.1668   834.6663
 2522.5000     8.9508   131.7982     2.5269     0.0354     0.3343   -69.6442     9.9052     6.7955     7.9446   844.5727
 2523.0000     8.9506   129.8117     2.5259     0.0334     0.3335   -69.6442     9.6357     6.7332     7.9445   834.5000
 2523.5000     8.9505   127.0320     2.5269     0.0354     0.3355   -69.6442     9.3735     6.7330     7.8716   844.4067
 2524.0000     8.9504   122.6659     2.5299     0.0334     0.3355   -69.6442     9.3734     6.7329     7.8715   844.3239
 2524.5000     8.9502   121.0761     2.5299     0.0314     0.3335   -69.6442     9.6353     6.7949     7.7993   844.2411
 2525.0000     8.9501   119.8831     2.5259     0.0274     0.3343   -69.8420     9.6352     6.7947     7.7992   844.1583
 2525.5000     8.9500   120.2764     2.5179     0.0254     0.3359   -69.8420     9.3730     7.1798     7.8711   844.0755
 2526.0000     8.9498   123.0495     2.5169     0.0214     0.3383   -70.2376     8.7887     7.5867     8.0910   863.9741
 2526.5000     8.9497   125.0299     2.5209     0.0234     0.3407   -69.8420     8.6285     8.2409     8.3170   843.9098
 2527.0000     8.9496   127.4062     2.5209     0.0254     0.3434   -69.8420     8.8696     8.3169     8.5494   843.8270
 2527.5000     8.9495   130.3750     2.5209     0.0273     0.3458   -69.8420     9.2867     8.0165     8.5493   843.7441
 2528.0000     8.9493   127.3996     2.5209     0.0174     0.3490   -69.8420    23.0715     7.6562     8.4709   863.6440
 2528.5000     8.9492   126.9997     2.5169     0.0273     0.3518   -69.8420     8.7881     7.4478     8.1649   853.5699
 2529.0000     8.9491   130.7622     2.5119     0.0273     0.3522   -69.8420     8.4207     7.4477     7.8700   853.4872
 2529.5000     8.9490   126.5965     2.5090     0.0253     0.3474   -69.8420     8.8689     7.5857     7.8699   853.4046
 2530.0000     8.9488   123.8172     2.5119     0.0273     0.3443   -69.8420     9.4582     7.6556     7.8697   813.3527
 2530.5000     8.9487   120.6414     2.5149     0.0273     0.3411   -69.8420     9.4581     7.6555     7.9423   843.2468
 2531.0000     8.9486   121.4313     2.5129     0.0253     0.3371   -69.8420     9.0330     7.3789     7.9421   833.1712
 2531.5000     8.9484   122.2212     2.5109     0.0253     0.3303   -69.6442     8.4978     6.9828     7.9420   843.0810
 2532.0000     8.9483   124.9938     2.5099     0.0252     0.3232   -69.4464     8.5762     6.6079     7.9418   833.0051
 2532.5000     8.9482   131.3361     2.5109     0.0252     0.3164   -69.8420     8.7354     6.3109     7.9417   852.9086
 2533.0000     8.9481   134.3058     2.5099     0.0212     0.3121   -69.8420     9.4896     6.0272     7.9415   852.8256
 2533.5000     8.9479   130.9329     2.5040     0.0212     0.3057   -69.8420    10.0859     5.8094     7.7253   842.7493
 2534.0000     8.9478   127.7565     2.5040     0.0133     0.3053   -69.4464     9.3705     5.7034     7.7530   842.6664
 2534.5000     8.9477   125.3746     2.5040     0.0113     0.3085   -70.0398     9.1155     5.4623     7.7809   842.5835
 2535.0000     8.9475   121.0095     2.5040     0.0113     0.3145   -70.0398     8.8673     5.9714     7.7962   842.5006
 2535.5000     8.9474   121.0062     2.5000     0.0093     0.3192   -69.8420    11.4709     6.4865     7.7961   842.4177
 2536.0000     8.9473   123.9739     2.4950     0.0112     0.3216   -69.8420    10.2724     7.1991     7.7246   842.3348
 2536.5000     8.9076   118.2241     2.4980     0.0092     0.3232   -70.0398     9.4564     7.1989     7.4455   852.2469
 2537.0000     8.9075   116.6348     2.5020     0.0112     0.3212   -70.0398     9.1147     6.7496     6.9173   832.1407
 2537.5000     8.9041   117.0282     2.5129     0.0192     0.3165   -70.0398     9.1146     6.0435     6.5458   842.0861
 2538.0000     8.9008   117.8180     2.5229     0.0172     0.3133   -70.2376     9.1144     5.7715     7.4685   842.0029
 2538.5000     8.8975   118.6078     2.5428     0.0291     0.3097   -69.8420    11.5761     6.0256     8.0392   841.9200
 2539.0000     8.8941   119.3976     2.5438     0.0331     0.3061   -70.0398     9.9920     6.0811     8.0390   841.8371
 2539.5000     8.8908   117.4119     2.5388     0.0330     0.3061   -70.0398     9.6316     5.9701     7.5372   841.7542
 2540.0000     8.8874   118.5982     2.5358     0.0330     0.3065   -70.0398     9.0304     5.9153     7.0666   851.6676
 2540.5000     8.8841   120.9745     2.5229     0.0271     0.3081   -70.0398     7.7946     5.8610     6.8110   851.5849
 2541.0000     8.8808   125.3327     2.5169     0.0211     0.3113   -70.2376     7.3760     5.8072     6.8108   851.5021
 2541.5000     8.8774   131.6738     2.5099     0.0131     0.3157   -70.0398     7.6522     5.7539     7.1315   841.4225
 2542.0000     8.8741   137.4156     2.5040     0.0111     0.3216   -69.8420     8.9472     5.7538     7.4674   851.3367
 2542.5000     8.8708   132.4601     2.5169     0.0131     0.3260   -70.0398     9.3681     5.7536     7.0011   851.2539
 2543.0000     8.8674   127.3019     2.5159     0.0131     0.3264   -70.0398     8.4665     5.8067     6.8102   841.1734
 2543.5000     8.8641   127.2993     2.5040     0.0131     0.3220   -70.0398     8.3121     5.9690     6.8101   841.0905
 2544.0000     8.8607   129.6748     2.5030     0.0131     0.3165   -69.8420     8.3119     6.0796     7.0007   841.0075
 2544.5000     8.8574   132.4467     2.5050     0.0111     0.3113   -69.8420     8.6233     5.9687     7.0653   850.9227
