~VERSION INFORMATION
 VERS.                2.0:   CWLS LOG ASCII STANDARD - VERSION 2.0
 WRAP.                 NO:   ONE LINE PER DEPTH STEP
~WELL INFORMATION
#MNEM.UNIT      DATA TYPE    INFORMATION
#----------   ------------   ------------------------------
 STRT.F            7.0000:   START DEPTH
 STOP.F         3304.0000:   STOP DEPTH
 STEP.F            0.5000:   STEP LENGTH
 NULL.          -999.2500:   NO VALUE
 COMP. LAWRENCE ALLISON ASSOC. WEST:   COMPANY
 WELL. LAWRENCE NPR  "X" #18-2:   WELL
 FLD .              N P R:   FIELD
 LOC .       S2 T38N R78W:   LOCATION
 CNTY.            NATRONA:   COUNTY
 STAT.            WYOMING:   STATE
 CTRY. UNITED STATES OF AMERICA:   COUNTRY
 SRVC.      DRESSER ATLAS:   SERVICE COMPANY
 DATE.        28-APR-1986:   LOGDATE
 API .     49025110710000:   API NUMBER
~CURVE INFORMATION
#MNEM.UNIT       API CODE    CURVE DESCRIPTION
#----------   ------------   ------------------------------
 DEPT.F                  :   
 TEND.LBS    45 635 01 00:   TENSION FROM DENSITY LOG
 DEN .G/C3   45 635 01 00:   DENSITY
 CORR.G/C3   45 356 01 00:   DENSITY CORRECTION
 CNC .DEC    42 890 03 00:   NEUTRON PORISITY SANDSTONE
 TENR.LBS    07 635 01 00:   TENSION FROM RESISTIVITY
 CALR.IN     07 280 01 00:   CALIPER FROM RESISTIVITY
 SPR .MV     07 010 01 00:   SPONTANEOUS POTENTIAL
 GRR .GAPI   07 310 01 00:   GAMMA RAY FROM RESISTIVITY
 RFOC.OHMM   07 220 04 00:   RESISTIVITY FOCUSED LOG RES.
 RILD.OHMM   07 120 46 00:   DEEP INDUCTION RESISTIVITY
 RILM.OHMM   07 120 44 00:   INDUCTION LOG MEDIUM RESISTIVITY
 TENS.LBS    60 635 01 00:   TENSION
 AC  .US/F   60 250 00 00:   ACCOUSTIC
~PARAMETER INFORMATION
#MNEM.UNIT          VALUE    DESCRIPTION
#----------   ------------   ------------------------------
 EKB .F         5142.0000:   Kelly bushing
 EGL .F         5130.0000:   Ground level
 EDF .F            0.0000:   Drilling floor
 EPD .F         5130.0000:   Permanent datum
 TD  .F         3296.0000:   Total depth
 DATE.        28-APR-1986:   Date logged
 CLNT.            A2DTECH:   Client Code
 SL  . 210' FSL & 204' FWL:   Surface Location
 PD  .                 GL:   Permanent Datum
 DD  .F              3295:   Depth driller
 DL  .F              3290:   Depth logger
 BLI .F              3296:   Bottom log interval
 CS1 .IN            8.625:   Casing size
 CBD1.      8.625" @ 563':   Casing driller 1
 CBL1.F               560:   Casing logger 1
 BS1 .IN            7.875:   Bit size
 BSD1.F              3295:   Depth drilled with bit1
 DFT .        POLYMER KCL:   Type fluid in hole
 DFD .                8.9:   Density
 DFV .                 38:   Viscosity
 DFPH.                8.5:   pH
 DFL .                9.2:   Fluid loss
 MSS .           FLOWLINE:   Source of sample
 RMS .OHMM           .435:   Rm
 MST .F                74:   Rm Meas. temp.
 RMF .OHMM            .33:   Rmf
 MFST.F                74:   Rmf Meas. temp.
 RMC .OHMM            .54:   Rmc
 MCST.F                74:   Rmc Meas. temp.
 MFSS.               CALC:   Source Rmf.
 MCSS.               CALC:   Source Rmc.
 RMB .OHMM            .77:   Rm. at BHT
 BHT .F               119:   BHT.
 TCS .HRS               4:   Time Circ. stopped
 MRT .F               119:   Maximum recorded temp.
 LUN .            HL 6264:   Logging unit number
 LUL .           GILLETTE:   Logging unit location
 ENGI.      P.M. FAHLSING:   Recorded By
 WITN.             STRONG:   Witnessed by
 ORIG.         2.5" PRINT:   Origin of data
 UWI .     49025110710000:   Unique Well ID
 DICO. A2D TECHNOLOGIES, INC.:   Digitizing Company
 DAPD.                 12:   Feet Above Permanent Datum
~OTHER INFORMATION
~A    DEPT    TEND        DEN       CORR        CNC       TENR       CALR        SPR         GRR      RFOC       RILD       RILM       TENS         AC   
# ...
 1125.0000  -999.2500  -999.2500  -999.2500  -999.2500   -63.7250    11.4240   -30.5250    97.2710     8.1150     7.7240     7.7490  -999.2500  -999.2500
 1125.5000  -999.2500  -999.2500  -999.2500  -999.2500   -63.7250    11.4320   -30.7880    98.0260     8.0730     7.6730     7.7490  -999.2500  -999.2500
 1126.0000  -999.2500  -999.2500  -999.2500  -999.2500   -63.7250    11.4390   -31.0630    96.4280     8.0310     7.6210     7.7490  -999.2500  -999.2500
 1126.5000  -999.2500  -999.2500  -999.2500  -999.2500   -63.7250    11.4460   -31.3430    94.8350     7.9880     7.5700     7.7230  -999.2500  -999.2500
 1127.0000  -999.2500  -999.2500  -999.2500  -999.2500   -63.7250    11.4530   -31.6160    95.6340     7.9460     7.5190     7.6820  -999.2500  -999.2500
 1127.5000  -999.2500  -999.2500  -999.2500  -999.2500   -63.7250    11.4460   -31.9010    97.4680     7.9040     7.4670     7.6410  -999.2500  -999.2500
 1128.0000  -999.2500  -999.2500  -999.2500  -999.2500   -63.7250    11.4340   -32.1680    99.1610     7.8630     7.4160     7.5990  -999.2500  -999.2500
 1128.5000  -999.2500  -999.2500  -999.2500  -999.2500   -63.7250    11.4230   -32.4490   101.2000     7.8210     7.3650     7.5580  -999.2500  -999.2500
 1129.0000  -999.2500  -999.2500  -999.2500  -999.2500   -63.7250    11.4120   -32.3610   102.0980     7.7790     7.3140     7.5160  -999.2500  -999.2500
 1129.5000  -999.2500  -999.2500  -999.2500  -999.2500   -63.7250    11.4010   -32.2170   101.0060     7.7490     7.2620     7.4750  -999.2500  -999.2500
 1130.0000  -999.2500  -999.2500  -999.2500  -999.2500   -63.7250    11.3900   -32.0160    97.9050     7.7490     7.2110     7.4330  -999.2500  -999.2500
 1130.5000  -999.2500  -999.2500  -999.2500  -999.2500   -63.7250    11.3790   -31.6520    94.6580     7.7490     7.1600     7.3920  -999.2500  -999.2500
 1131.0000  -999.2500  -999.2500  -999.2500  -999.2500   -63.7250    11.3740   -31.7080    93.0110     7.7490     7.1080     7.3510  -999.2500  -999.2500
 1131.5000  -999.2500  -999.2500  -999.2500  -999.2500   -63.7250    11.3840   -31.4600    90.9920     7.7490     7.0570     7.3090  -999.2500  -999.2500
 1132.0000  -999.2500  -999.2500  -999.2500  -999.2500   -70.6860    11.3920   -31.1420    89.4790     7.6400     7.0060     7.2680  -999.2500  -999.2500
 1132.5000  -999.2500  -999.2500  -999.2500  -999.2500   -83.0880    11.4000   -30.8300    89.6470     7.4460     6.9540     7.2260  -999.2500  -999.2500
 1133.0000  -999.2500  -999.2500  -999.2500  -999.2500   -95.4900    11.4090   -30.5130    89.9030     7.2520     7.2090     7.2090  -999.2500  -999.2500
 1133.5000  -999.2500  -999.2500  -999.2500  -999.2500   -97.9900    11.4130   -30.1980    90.2070     7.0580     7.2360     7.2090  -999.2500  -999.2500
 1134.0000  -999.2500  -999.2500  -999.2500  -999.2500   -85.5880    11.3940   -29.8840    92.7620     6.8290     7.2580     7.2090  -999.2500  -999.2500
 1134.5000  -999.2500  -999.2500  -999.2500  -999.2500   -73.1860    11.3750   -29.5680    96.8570     6.8290     7.2810     7.2090  -999.2500  -999.2500
 1135.0000  -999.2500  -999.2500  -999.2500  -999.2500   -63.7250    11.3560   -29.3170    95.0460     6.8290     7.3030     7.2090  -999.2500  -999.2500
 1135.5000  -999.2500  -999.2500  -999.2500  -999.2500   -71.1110    11.3370   -29.5030    94.0750     6.8290     7.3250     7.2090  -999.2500  -999.2500
 1136.0000  -999.2500  -999.2500  -999.2500  -999.2500   -87.6470    11.3180   -29.9260    94.0610     6.9540     7.3480     7.2090  -999.2500  -999.2500
 1136.5000  -999.2500  -999.2500  -999.2500  -999.2500  -102.9410    11.2980   -30.3330    94.1810     6.9540     7.3700     7.2090  -999.2500  -999.2500
 1137.0000  -999.2500  -999.2500  -999.2500  -999.2500   -81.6080    11.2790   -30.7430    93.3710     7.0800     7.3920     7.2090  -999.2500  -999.2500
 1137.5000  -999.2500  -999.2500  -999.2500  -999.2500   -63.7250    11.2600   -31.1570    92.0630     7.2090     7.4140     7.2090  -999.2500  -999.2500
 1138.0000  -999.2500  -999.2500  -999.2500  -999.2500   -64.2930    11.2410   -31.5600    92.0260     7.4740     7.4370     7.2090  -999.2500  -999.2500
 1138.5000  -999.2500  -999.2500  -999.2500  -999.2500   -64.8090    11.2220   -31.9770    92.4610     7.6110     7.4720     7.2090  -999.2500  -999.2500
 1139.0000  -999.2500  -999.2500  -999.2500  -999.2500   -65.3250    11.2300   -32.0720    90.5680     7.6110     7.4700     7.2100  -999.2500  -999.2500
 1139.5000  -999.2500  -999.2500  -999.2500  -999.2500   -65.8410    11.2510   -31.9930    89.1050     7.5950     7.4500     7.2150  -999.2500  -999.2500
 1140.0000  -999.2500  -999.2500  -999.2500  -999.2500   -66.3570    11.2710   -31.9220    88.7080     7.5770     7.4320     7.2200  -999.2500  -999.2500
 1140.5000  -999.2500  -999.2500  -999.2500  -999.2500   -66.8730    11.2910   -31.8480    93.0450     7.5600     7.4140     7.2260  -999.2500  -999.2500
 1141.0000  -999.2500  -999.2500  -999.2500  -999.2500   -67.3890    11.3110   -31.7900    94.0670     7.5430     7.3960     7.2320  -999.2500  -999.2500
 1141.5000  -999.2500  -999.2500  -999.2500  -999.2500   -67.9050    11.3310   -31.6900    94.0530     7.5260     7.3780     7.2380  -999.2500  -999.2500
 1142.0000  -999.2500  -999.2500  -999.2500  -999.2500   -68.4210    11.3500   -31.6630    90.5090     7.5080     7.3600     7.2430  -999.2500  -999.2500
 1142.5000  -999.2500  -999.2500  -999.2500  -999.2500   -68.9370    11.3730   -30.9120    86.9430     7.4910     7.3420     7.2490  -999.2500  -999.2500
 1143.0000  -999.2500  -999.2500  -999.2500  -999.2500   -69.4530    11.3640   -30.2160    88.9270     7.4750     7.3230     7.2550  -999.2500  -999.2500
 1143.5000  -999.2500  -999.2500  -999.2500  -999.2500   -69.9690    11.3390   -29.4250    93.7420     7.4750     7.3050     7.2610  -999.2500  -999.2500
 1144.0000  -999.2500  -999.2500  -999.2500  -999.2500   -70.4850    11.3130   -28.9440    98.6860     7.4860     7.2870     7.2660  -999.2500  -999.2500
 1144.5000  -999.2500  -999.2500  -999.2500  -999.2500   -71.0010    11.2890   -28.4990   100.6930     7.5000     7.2690     7.2720  -999.2500  -999.2500
 1145.0000  -999.2500  -999.2500  -999.2500  -999.2500   -71.5170    11.2640   -28.5280    97.5740     7.5140     7.2510     7.2780  -999.2500  -999.2500
 1145.5000  -999.2500  -999.2500  -999.2500  -999.2500   -72.0330    11.2390   -28.8220    93.0320     7.5280     7.2330     7.2830  -999.2500  -999.2500
 1146.0000  -999.2500  -999.2500  -999.2500  -999.2500   -72.5490    11.2140   -29.3170    90.0830     7.5410     7.2150     7.2890  -999.2500  -999.2500
 1146.5000  -999.2500  -999.2500  -999.2500  -999.2500   -73.0650    11.1880   -29.7820    90.9370     7.5550     7.2090     7.2950  -999.2500  -999.2500
 1147.0000  -999.2500  -999.2500  -999.2500  -999.2500   -73.5820    11.1760   -30.2270    93.5590     7.5690     7.2080     7.3010  -999.2500  -999.2500
 1147.5000  -999.2500  -999.2500  -999.2500  -999.2500   -74.0980    11.1770   -30.7160    94.4340     7.5830     7.1950     7.3060  -999.2500  -999.2500
 1148.0000  -999.2500  -999.2500  -999.2500  -999.2500   -74.6140    11.1770   -30.8920    93.5140     7.5960     7.1840     7.3120  -999.2500  -999.2500
 1148.5000  -999.2500  -999.2500  -999.2500  -999.2500   -75.1300    11.1770   -30.8060    93.1560     7.6100     7.1710     7.3180  -999.2500  -999.2500
 1149.0000  -999.2500  -999.2500  -999.2500  -999.2500   -75.6460    11.1770   -30.7490    94.6880     7.6100     7.1590     7.3240  -999.2500  -999.2500
 1149.5000  -999.2500  -999.2500  -999.2500  -999.2500   -76.1620    11.1770   -30.6860    97.5200     7.6090     7.1470     7.3290  -999.2500  -999.2500
 1150.0000  -999.2500  -999.2500  -999.2500  -999.2500   -76.6780    11.1770   -30.6240    99.6830     7.5770     7.1350     7.3350  -999.2500  -999.2500
 1150.5000  -999.2500  -999.2500  -999.2500  -999.2500   -77.1940    11.1770   -30.5670   100.6090     7.5420     7.1230     7.3400  -999.2500  -999.2500
