~VERSION INFORMATION
 VERS.                2.0:   CWLS LOG ASCII STANDARD - VERSION 2.0
 WRAP.                 NO:   ONE LINE PER DEPTH STEP
~WELL INFORMATION
#MNEM.UNIT      DATA TYPE    INFORMATION
#----------   ------------   ------------------------------
 STRT.F            7.5000:   START DEPTH
 STOP.F         3140.0000:   STOP DEPTH
 STEP.F            0.5000:   STEP LENGTH
 NULL.          -999.2500:   NO VALUE
 COMP. LAWRENCE ALLISON WEST:   COMPANY
 WELL. LAWRENCE NPR 3 "AX" #51-3:   WELL
 FLD .                NPR:   FIELD
 LOC .       S3 T38N R78W:   LOCATION
 CNTY.            NATRONA:   COUNTY
 STAT.            WYOMING:   STATE
 CTRY. UNITED STATES OF AMERICA:   COUNTRY
 SRVC.      DRESSER ATLAS:   SERVICE COMPANY
 DATE.        09-NOV-1986:   LOGDATE
 API .     49025111180000:   API NUMBER
~CURVE INFORMATION
#MNEM.UNIT       API CODE    CURVE DESCRIPTION
#----------   ------------   ------------------------------
 DEPT.F                  :   
 CALD.IN     45 280 60 00:   CALIPER FROM DENSITY LOG
 DEN .LBS    45 350 01 00:   BULK DENSITY
 CORR.G/C3   45 356 01 00:   DENSITY CORRECTION
 NPOR.DEC    42 890 03 00:   ALPHA PROCESSED NEUTRON POROSITY
 SPR .MV     07 010 01 00:   SPONTANEOUS POTENTIAL
 GRR .GAPI   07 310 01 00:   GAMMA RAY FROM RESISTIVITY
 SFL .OHMM   07 220 01 00:   SHALLOW FOCUSED LOG RESISTIVITY
 ILD .OHMM   07 120 46 00:   DEEP INDUCTION RESISTIVITY
 ILM .OHMM   07 120 44 00:   INDUCTION LOG MEDIUM RESISTIVITY
 TENR.LBS    07 635 01 00:   TENSION FROM RESISTIVITY
~PARAMETER INFORMATION
#MNEM.UNIT          VALUE    DESCRIPTION
#----------   ------------   ------------------------------
 EKB .F         5132.0000:   Kelly bushing
 EGL .F         5120.0000:   Ground level
 TD  .F         3141.0000:   Total depth
 DATE.        09-NOV-1986:   Date logged
 CLNT.            A2DTECH:   Client Code
 SL  . 249' FNL & 2195' FEL:   Surface Location
 PD  .                 GL:   Permanent Datum
 EPD .F              5120:   Elevation Permanent Datum
 LMF .                 KB:   Log Measured From
 DMF .                 KB:   Drilling Measured From
 DAPD.F                12:   Feet Above Permanent Datum
 DD  .F              3141:   Depth driller
 DL  .F              3132:   Depth logger
 BLI .F              3126:   Bottom log interval
 CS1 .IN            8.625:   Casing size
 CBD1.      8.625" @ 690':   Casing driller 1
 CBL1.F               690:   Casing logger 1
 BS1 .IN            7.875:   Bit size
 BSD1.F              3141:   Depth drilled with bit1
 DFT .        KCL/POLYMER:   Type fluid in hole
 DFD .                8.9:   Density
 DFV .                 34:   Viscosity
 DFPH.                9.5:   pH
 DFL .                9.5:   Fluid loss
 MSS .           FLOWLINE:   Source of sample
 RMS .OHMM           .368:   Rm
 MST .F                66:   Rm Meas. temp.
 RMF .OHMM           .296:   Rmf
 MFST.F                66:   Rmf Meas. temp.
 RMC .OHMM           .468:   Rmc
 MCST.F                66:   Rmc Meas. temp.
 MFSS.               MEAS:   Source Rmf.
 MCSS.               CALC:   Source Rmc.
 RMB .OHMM           .282:   Rm. at BHT
 BHT .F               120:   BHT.
 TCS .HRS             3.5:   Time Circ. stopped
 MRT .F               120:   Maximum recorded temp.
 LUN .            HL-6274:   Logging unit number
 LUL .           GILLETTE:   Logging unit location
 ENGI.             RAUTIO:   Recorded By
 WITN.             STRONG:   Witnessed by
 ORIG.        2" 5" PRINT:   Origin of data
 UWI .     49025111180000:   Unique Well ID
 DICO. A2D TECHNOLOGIES, INC.:   Digitizing Company
~OTHER INFORMATION
~A    DEPT    CALD        DEN       CORR       NPOR        SPR         GRR       SFL        ILD        ILM       TENR   
# ...
 1515.0000  -999.2500  -999.2500  -999.2500  -999.2500   -74.9980    98.9857     6.5737     5.8990     5.6839   -62.5456
 1515.5000  -999.2500  -999.2500  -999.2500  -999.2500   -75.6731    99.7790     6.7581     5.9531     5.7361   -62.3482
 1516.0000  -999.2500  -999.2500  -999.2500  -999.2500   -76.4096   101.7822     6.7564     6.0637     5.7887   -62.1507
 1516.5000  -999.2500  -999.2500  -999.2500  -999.2500   -76.4128   103.3811     6.7560     6.1193     5.7878   -61.9532
 1517.0000  -999.2500  -999.2500  -999.2500  -999.2500   -76.4160    94.9421     6.7550     6.1184     5.7869   -61.7557
 1517.5000  -999.2500  -999.2500  -999.2500  -999.2500   -76.4192    92.9279     6.8166     6.1172     5.7858   -61.5583
 1518.0000  -999.2500  -999.2500  -999.2500  -999.2500   -76.4224    97.7385     7.0078     6.1163     5.7849   -61.3608
 1518.5000  -999.2500  -999.2500  -999.2500  -999.2500   -76.6263   100.1403     7.0068     6.1153     5.8380   -40.9665
 1519.0000  -999.2500  -999.2500  -999.2500  -999.2500   -76.8308   103.7464     6.9410     6.1714     5.8915   -50.8477
 1519.5000  -999.2500  -999.2500  -999.2500  -999.2500   -76.8321   104.5423     6.9399     6.2280     6.0010   -60.7289
 1520.0000  -999.2500  -999.2500  -999.2500  -999.2500   -77.4394    98.1124     6.9389     6.2851     6.0006   -60.5315
 1520.5000  -999.2500  -999.2500  -999.2500  -999.2500   -76.6397    98.5069     7.0022     6.4019     6.1126   -50.2555
 1521.0000  -999.2500  -999.2500  -999.2500  -999.2500   -76.4422    98.0986     7.0666     6.4606     6.2268   -50.0581
 1521.5000  -999.2500  -999.2500  -999.2500  -999.2500   -76.2434    99.6974     7.1317     6.5199     6.3430   -49.8607
 1522.0000  -999.2500  -999.2500  -999.2500  -999.2500   -77.0507    99.2890     7.3996     6.5797     6.4015   -49.6633
 1522.5000  -999.2500  -999.2500  -999.2500  -999.2500   -76.4518    97.6764     7.6780     6.7019     6.5210   -49.4659
 1523.0000  -999.2500  -999.2500  -999.2500  -999.2500   -76.2543    95.2611     7.8205     6.8264     6.6428   -49.2685
 1523.5000  -999.2500  -999.2500  -999.2500  -999.2500   -76.0561    97.2612     7.9657     6.9533     6.7668   -49.0711
 1524.0000  -999.2500  -999.2500  -999.2500  -999.2500   -76.0600    98.0558     7.9642     7.0168     6.6367   -48.8737
 1524.5000  -999.2500  -999.2500  -999.2500  -999.2500   -76.0632    99.2531     7.9630     7.0157     6.5138   -58.7544
 1525.0000  -999.2500  -999.2500  -999.2500  -999.2500   -76.2671    98.4434     7.8883     7.0147     6.3928   -58.5175
 1525.5000  -999.2500  -999.2500  -999.2500  -999.2500   -76.2703    98.8378     7.6707     6.9488     6.3328   -48.2421
 1526.0000  -999.2500  -999.2500  -999.2500  -999.2500   -76.2735   101.6407     7.1875     6.8199     6.2733   -48.0447
 1526.5000  -999.2500  -999.2500  -999.2500  -999.2500   -76.2773   102.0351     7.2533     6.8195     6.2724   -47.8473
 1527.0000  -999.2500  -999.2500  -999.2500  -999.2500   -76.0798   105.2392     7.1190     6.6924     6.2714   -47.6500
 1527.5000  -999.2500  -999.2500  -999.2500  -999.2500   -75.6817   104.0281     7.0522     6.6295     6.2704   -37.3748
 1528.0000  -999.2500  -999.2500  -999.2500  -999.2500   -75.6849   102.8170     7.0511     6.5064     6.2695   -47.2552
 1528.5000  -999.2500  -999.2500  -999.2500  -999.2500   -75.8888   101.6046     7.0500     6.5056     6.2106   -47.0578
 1529.0000  -999.2500  -999.2500  -999.2500  -999.2500   -75.8920   101.5991     7.0489     6.5046     6.2096   -46.8605
 1529.5000  -999.2500  -999.2500  -999.2500  -999.2500   -76.0959   100.3880     7.2466     6.5042     6.2087   -46.6631
 1530.0000  -999.2500  -999.2500  -999.2500  -999.2500   -76.9018    98.3743     7.6597     6.5030     6.2075   -46.4657
 1530.5000  -999.2500  -999.2500  -999.2500  -999.2500   -76.5036    96.7620     7.6586     6.5014     6.2066   -46.2684
 1531.0000  -999.2500  -999.2500  -999.2500  -999.2500   -76.9082    99.5645     7.6574     6.5610     6.2635   -46.0315
 1531.5000  -999.2500  -999.2500  -999.2500  -999.2500   -76.9114   102.3670     7.6562     6.5600     6.3209   -45.8342
 1532.0000  -999.2500  -999.2500  -999.2500  -999.2500   -76.9146   102.7614     7.5144     6.6201     6.3199   -45.6368
 1532.5000  -999.2500  -999.2500  -999.2500  -999.2500   -76.5227   102.7545     7.3071     6.6808     6.3190   -65.5940
 1533.0000  -999.2500  -999.2500  -999.2500  -999.2500   -76.1183   101.1422     7.2385     6.7421     6.3180   -65.3570
 1533.5000  -999.2500  -999.2500  -999.2500  -999.2500   -75.7208    98.7273     7.5109     6.7411     6.3170   -65.1991
 1534.0000  -999.2500  -999.2500  -999.2500  -999.2500   -75.1220    95.9098     7.7215     6.7400     6.3749   -65.0016
 1534.5000  -999.2500  -999.2500  -999.2500  -999.2500   -74.5245    95.5016     7.5785     6.7390     6.4934   -64.8436
 1535.0000  -999.2500  -999.2500  -999.2500  -999.2500   -75.3284    97.9026     7.3015     6.8008     6.5529   -64.6462
 1535.5000  -999.2500  -999.2500  -999.2500  -999.2500   -75.5323    98.2970     7.2330     6.8631     6.6786   -64.4487
 1536.0000  -999.2500  -999.2500  -999.2500  -999.2500   -75.5355    98.6914     7.4358     6.9260     6.7401   -64.2908
 1536.5000  -999.2500  -999.2500  -999.2500  -999.2500   -75.9400    98.2832     7.7872     6.9247     6.8020   -64.0144
 1537.0000  -999.2500  -999.2500  -999.2500  -999.2500   -75.9432    93.4607     8.1554     6.9237     6.7336   -63.8169
 1537.5000  -999.2500  -999.2500  -999.2500  -999.2500   -76.1471    89.8408     8.2301     6.9226     6.6703   -63.5800
 1538.0000  -999.2500  -999.2500  -999.2500  -999.2500   -76.1503    94.6495     7.9292     6.8576     6.4862   -63.5010
 1538.5000  -999.2500  -999.2500  -999.2500  -999.2500   -76.3541    97.0504     7.3613     6.7304     6.3071   -63.1851
 1539.0000  -999.2500  -999.2500  -999.2500  -999.2500   -76.3573    99.4512     6.9619     6.5446     6.1901   -62.9877
 1539.5000  -999.2500  -999.2500  -999.2500  -999.2500   -76.5612   100.2468     6.9608     6.4233     6.1892   -62.7903
 1540.0000  -999.2500  -999.2500  -999.2500  -999.2500   -76.5644   101.0425     7.0246     6.3630     6.1322   -52.5163
 1540.5000  -999.2500  -999.2500  -999.2500  -999.2500   -76.5663   101.0355     7.0237     6.3032     6.0743   -52.3190
 1541.0000  -999.2500  -999.2500  -999.2500  -999.2500   -76.5714    99.4235     6.9956     6.3022     6.0170   -52.1216
 1541.5000  -999.2500  -999.2500  -999.2500  -999.2500   -76.5746    98.2128     6.9559     6.2430     6.0165   -41.8479
 1542.0000  -999.2500  -999.2500  -999.2500  -999.2500   -76.5778    98.2059     6.9552     6.2421     6.0152   -41.6505
 1542.5000  -999.2500  -999.2500  -999.2500  -999.2500   -76.3804   101.0078     6.9542     6.2409     6.0140   -41.4532
 1543.0000  -999.2500  -999.2500  -999.2500  -999.2500   -76.3836   105.0134     6.9531     6.2981     6.0131   -51.3321
 1543.5000  -999.2500  -999.2500  -999.2500  -999.2500   -76.1862   106.2102     7.0821     6.3559     6.0691   -51.1347
 1544.0000  -999.2500  -999.2500  -999.2500  -999.2500   -75.5888   104.5982     7.2807     6.4142     6.0676   -50.8979
 1544.5000  -999.2500  -999.2500  -999.2500  -999.2500   -75.5907   101.3812     7.4849     6.5333     6.1240   -50.7006
 1545.0000  -999.2500  -999.2500  -999.2500  -999.2500   -75.5920   100.1706     7.6238     6.5932     6.2962   -50.5032
 1545.5000  -999.2500  -999.2500  -999.2500  -999.2500   -75.5958    99.7624     7.6936     6.7157     6.3542   -50.3058
 1546.0000  -999.2500  -999.2500  -999.2500  -999.2500   -75.5997   100.1567     7.6924     6.7773     6.4127   -50.1085
 1546.5000  -999.2500  -999.2500  -999.2500  -999.2500   -75.6035   100.9522     7.6202     6.7762     6.4718   -39.8353
 1547.0000  -999.2500  -999.2500  -999.2500  -999.2500   -75.4061   102.1490     7.6190     6.8383     6.4708   -39.6380
 1547.5000  -999.2500  -999.2500  -999.2500  -999.2500   -75.2094   106.9526     7.4779     6.7741     6.4098   -39.4407
 1548.0000  -999.2500  -999.2500  -999.2500  -999.2500   -75.2126   107.3496     7.2046     6.7105     6.3493   -49.3191
