~VERSION INFORMATION
 VERS.                2.0:   CWLS LOG ASCII STANDARD - VERSION 2.0
 WRAP.                 NO:   ONE LINE PER DEPTH STEP
~WELL INFORMATION
#MNEM.UNIT      DATA TYPE    INFORMATION
#----------   ------------   ------------------------------
 STRT.F           42.0000:   START DEPTH
 STOP.F         4542.0000:   STOP DEPTH
 STEP.F            0.5000:   STEP LENGTH
 NULL.          -999.2500:   NO VALUE
 COMP. LAWRENCE ALLISON & ASSOC.:   COMPANY
 WELL. ALLISON NPR 3 #86-27:   WELL
 FLD .                NPR:   FIELD
 LOC .      S27 T39N R78W:   LOCATION
 CNTY.            NATRONA:   COUNTY
 STAT.            WYOMING:   STATE
 CTRY. UNITED STATES OF AMERICA:   COUNTRY
 SRVC.      DRESSER ATLAS:   SERVICE COMPANY
 DATE.        20-MAR-1985:   LOGDATE
 API .     49025110190000:   API NUMBER
~CURVE INFORMATION
#MNEM.UNIT       API CODE    CURVE DESCRIPTION
#----------   ------------   ------------------------------
 DEPT.F                  :   
 CALD.IN     45 280 60 00:   CALIPER FROM DENSITY LOG
 TEND.LBS    45 635 01 00:   TENSION FROM DENSITY LOG
 CORR.G/C3   45 356 01 00:   DENSITY CORRECTION
 RHOB.G/C3   45 350 01 00:   BULK DENSITY
 CNC .DEC    42 890 03 00:   NEUTRON PORISITY SANDSTONE
 TENR.LBS    07 635 01 00:   TENSION FROM RESISTIVITY
 GRR .GAPI   07 310 01 00:   GAMMA RAY FROM RESISTIVITY
 SFL .OHMM   07 220 01 00:   SHALLOW FOCUSED LOG RESISTIVITY
 ILD .OHMM   07 120 46 00:   DEEP INDUCTION RESISTIVITY
 ILM .OHMM   07 120 44 00:   INDUCTION LOG MEDIUM RESISTIVITY
 TENS.LBS    60 635 01 00:   TENSION FROM SONIC LOG
 DT  .US/F   60 520 00 00:   DELTA TIME
 CALS.IN     60 280 50 00:   CALIPER FROM SONIC LOG
 GRS .GAPI   60 310 01 00:   GAMMA RAY FROM SONIC LOG
~PARAMETER INFORMATION
#MNEM.UNIT          VALUE    DESCRIPTION
#----------   ------------   ------------------------------
 EKB .F         5095.0000:   Kelly bushing
 EGL .F         5083.0000:   Ground level
 EDF .F            0.0000:   Drilling floor
 TD  .F         4545.0000:   Total depth
 DATE.        20-MAR-1985:   Date logged
 CLNT.            A2DTECH:   Client Code
 SL  . 292' FEL & 1975' FWL:   Surface Location
 PD  .                 GL:   Permanent Datum
 EPD .F              5083:   Elevation Permanent Datum
 LMF .                 KB:   Log Measured From
 DMF .                 KB:   Drilling Measured From
 DAPD.F                12:   Feet Above Permanent Datum
 DD  .F              4545:   Depth driller
 DL  .F              4533:   Depth logger
 BLI .F              4534:   Bottom log interval
 TLI .F              1045:   Top log interval
 CS1 .IN            8.625:   Casing size
 CBD1.     8.625" @ 1033':   Casing driller 1
 CBL1.F              1045:   Casing logger 1
 BS1 .IN            7.875:   Bit size
 BSD1.F              4545:   Depth drilled with bit1
 DFT .    GEL/KCL/STA/FLO:   Type fluid in hole
 DFD .                9.1:   Density
 DFV .                 30:   Viscosity
 DFPH.                  8:   pH
 DFL .                 12:   Fluid loss
 MSS .           MUD/TANK:   Source of sample
 RMS .OHMM            .46:   Rm
 MST .F                74:   Rm Meas. temp.
 RMF .OHMM            .37:   Rmf
 MFST.F                72:   Rmf Meas. temp.
 RMC .OHMM            .58:   Rmc
 MCST.F                74:   Rmc Meas. temp.
 MFSS.               MEAS:   Source Rmf.
 MCSS.               CALC:   Source Rmc.
 RMB .OHMM            .25:   Rm. at BHT
 BHT .F               138:   BHT.
 TCS .HRS             4.5:   Time Circ. stopped
 MRT .F               138:   Maximum recorded temp.
 LUN .            HL-6274:   Logging unit number
 LUL .           GILLETTE:   Logging unit location
 ENGI.             RAUTIO:   Recorded By
 WITN.             STRONG:   Witnessed by
 ORIG.           5" PRINT:   Origin of data
 UWI .     49025110190000:   Unique Well ID
 DICO. A2D TECHNOLOGIES, INC.:   Digitizing Company
~OTHER INFORMATION
~A   DEPT     CALD       TEND       CORR       RHOB        CNC       TENR        GRR        SFL        ILD        ILM       TENS         DT        CALS        GRS  
# ...
 4158.0000     8.3090   -51.7200    -0.0660     2.2440     0.2340    23.6050    77.1060     7.9100     6.6900     6.4260  -999.2500  -999.2500  -999.2500  -999.2500
 4158.5000     8.3090   -43.9810    -0.0700     2.3240     0.2110    25.5310    67.2900    10.1460     7.5030     7.0870  -999.2500  -999.2500  -999.2500  -999.2500
 4159.0000     8.3090   -36.2430    -0.0490     2.4120     0.2120    27.4580    64.2280    10.0680     7.9910     7.7470  -999.2500  -999.2500  -999.2500  -999.2500
 4159.5000     8.3090   -28.5050    -0.0150     2.4650     0.2150    29.3850    67.1170     9.9130     8.3080     8.3080  -999.2500  -999.2500  -999.2500  -999.2500
 4160.0000     8.3090   -20.4590     0.0080     2.4890     0.2170    31.3120    71.3040     9.3610     7.9830     7.7150  -999.2500  -999.2500  -999.2500  -999.2500
 4160.5000     8.3090   -20.4590    -0.0030     2.4970     0.2200    33.2390    77.6140     8.3080     7.3350     6.8980  -999.2500  -999.2500  -999.2500  -999.2500
 4161.0000     8.3090   -20.4590    -0.0250     2.4960     0.2250    35.1660    84.8040     5.7390     6.4050     6.0810  -999.2500  -999.2500  -999.2500  -999.2500
 4161.5000     8.3090   -20.4590    -0.0170     2.4940     0.2410    37.0930    90.9790     5.8470     5.4750     5.2650  -999.2500  -999.2500  -999.2500  -999.2500
 4162.0000     8.3090   -20.4590    -0.0050     2.5010     0.2560    39.0200    91.2160     6.0320     4.5440     4.4480  -999.2500  -999.2500  -999.2500  -999.2500
 4162.5000     8.3090   -20.4590     0.0160     2.5140     0.2700    40.9470    91.4680     6.1800     3.6140     3.6310  -999.2500  -999.2500  -999.2500  -999.2500
 4163.0000     8.3090   -20.4590     0.0410     2.5170     0.3000    42.8740    93.3810     4.7430     3.0180     2.8150  -999.2500  -999.2500  -999.2500  -999.2500
 4163.5000     8.3090   -20.4590     0.0670     2.4970     0.3290    44.8000    95.5320     2.7390     2.8950     2.4190  -999.2500  -999.2500  -999.2500  -999.2500
 4164.0000     8.3210   -20.4590     0.0700     2.4930     0.3360    46.7270    98.2780     2.7390     2.7130     2.2920  -999.2500  -999.2500  -999.2500  -999.2500
 4164.5000     8.3360   -20.4590     0.0530     2.5000     0.3240    48.6540    98.0310     2.8290     2.4900     2.2090  -999.2500  -999.2500  -999.2500  -999.2500
 4165.0000     8.3480   -20.4590     0.0270     2.5040     0.3010    50.5810    94.4390     2.9490     2.2760     2.2740  -999.2500  -999.2500  -999.2500  -999.2500
 4165.5000     8.3520   -20.4590     0.0460     2.4850     0.2980    52.5080    89.9270     2.9320     2.2640     2.3380  -999.2500  -999.2500  -999.2500  -999.2500
 4166.0000     8.3580   -20.4590     0.0930     2.4430     0.2890    54.4350    86.1650     2.8950     2.2530     2.4360  -999.2500  -999.2500  -999.2500  -999.2500
 4166.5000     8.3640   -20.4590     0.1440     2.4530     0.3070    56.3620    82.7700     3.2020     2.2410     2.4210  -999.2500  -999.2500  -999.2500  -999.2500
 4167.0000     8.3680   -20.4590     0.1000     2.4940     0.3190    58.1510    79.3510     3.6690     2.2200     2.3050  -999.2500  -999.2500  -999.2500  -999.2500
 4167.5000     8.3750   -20.4590     0.0440     2.5170     0.3270    57.4880    75.9330     4.1910     2.1890     2.1890  -999.2500  -999.2500  -999.2500  -999.2500
 4168.0000     8.3790   -20.4590    -0.0120     2.5340     0.3550    56.8700    76.7320     3.5810     2.1580     2.0730  -999.2500  -999.2500  -999.2500  -999.2500
 4168.5000     8.3850   -20.4590    -0.0200     2.5280     0.3600    56.2510    80.5740     2.8900     2.1270     2.0290  -999.2500  -999.2500  -999.2500  -999.2500
 4169.0000     8.3970   -20.4590     0.0140     2.5000     0.3510    55.6330    84.7810     2.5200     2.0960     2.0170  -999.2500  -999.2500  -999.2500  -999.2500
 4169.5000     8.4320   -20.4590     0.0460     2.4680     0.3390    55.0140    86.1470     2.4510     2.0650     2.0000  -999.2500  -999.2500  -999.2500  -999.2500
 4170.0000     8.4240   -20.4590     0.0760     2.4630     0.3310    54.3960    82.9490     2.5950     2.0370     2.0220  -999.2500  -999.2500  -999.2500  -999.2500
 4170.5000     8.4240   -20.4590     0.0510     2.4940     0.3290    53.7770    78.8920     2.8740     2.0370     2.0650  -999.2500  -999.2500  -999.2500  -999.2500
 4171.0000     8.4210   -11.5440    -0.0070     2.5440     0.3290    53.1590    78.7850     3.0500     2.0670     2.1080  -999.2500  -999.2500  -999.2500  -999.2500
 4171.5000     8.4180    -5.4030    -0.0290     2.5760     0.3200    52.5400    81.5310     3.1760     2.1560     2.1540  -999.2500  -999.2500  -999.2500  -999.2500
 4172.0000     8.4160   -19.7750    -0.0110     2.5680     0.3100    51.9220    82.6740     3.1530     2.2650     2.2530  -999.2500  -999.2500  -999.2500  -999.2500
 4172.5000     8.4130   -34.1460     0.0110     2.5480     0.3000    51.3030    81.7160     3.1110     2.3750     2.3580  -999.2500  -999.2500  -999.2500  -999.2500
 4173.0000     8.4110   -40.4190     0.0420     2.5610     0.2990    50.6850    79.7060     3.0700     2.4840     2.4640  -999.2500  -999.2500  -999.2500  -999.2500
 4173.5000     8.4080   -33.0840     0.0940     2.6000     0.2940    50.0660    77.0220     3.1050     2.6390     2.5690  -999.2500  -999.2500  -999.2500  -999.2500
 4174.0000     8.4060   -26.7960     0.1380     2.6040     0.2870    49.4480    75.1350     3.1630     2.6180     2.7390  -999.2500  -999.2500  -999.2500  -999.2500
 4174.5000     8.4030   -20.4590     0.1450     2.6010     0.2840    48.8290    75.2190     3.6730     2.5820     2.6920  -999.2500  -999.2500  -999.2500  -999.2500
 4175.0000     8.4010   -20.4590     0.0950     2.5950     0.2930    48.2110    75.6160     4.6830     2.5450     2.5730  -999.2500  -999.2500  -999.2500  -999.2500
 4175.5000     8.3980   -20.4590     0.0450     2.5880     0.3050    47.5920    77.6830     4.5130     2.5090     2.4530  -999.2500  -999.2500  -999.2500  -999.2500
 4176.0000     8.3960   -20.4590     0.0090     2.5830     0.3150    46.9740    81.2580     3.9520     2.4720     2.4060  -999.2500  -999.2500  -999.2500  -999.2500
 4176.5000     8.3930   -20.4590     0.0190     2.5730     0.3200    46.3550    85.4910     3.3030     2.4260     2.3840  -999.2500  -999.2500  -999.2500  -999.2500
 4177.0000     8.3910   -20.4590     0.0190     2.5550     0.3200    45.7370    85.8080     2.9950     2.3650     2.3300  -999.2500  -999.2500  -999.2500  -999.2500
 4177.5000     8.3830   -20.4590     0.0120     2.5370     0.3200    45.1180    85.9660     2.8950     2.3040     2.2750  -999.2500  -999.2500  -999.2500  -999.2500
 4178.0000     8.3690   -20.4590     0.0060     2.5170     0.3240    44.5000    86.7600     2.9190     2.2350     2.2420  -999.2500  -999.2500  -999.2500  -999.2500
 4178.5000     8.3540   -20.4590     0.0010     2.5030     0.3300    43.8810    88.1400     2.9420     2.2650     2.2740  -999.2500  -999.2500  -999.2500  -999.2500
 4179.0000     8.3490   -20.4590    -0.0060     2.4950     0.3200    43.2630    87.9890     2.9650     2.3010     2.3050  -999.2500  -999.2500  -999.2500  -999.2500
 4179.5000     8.3490   -20.4590    -0.0110     2.4830     0.3120    42.6440    87.2630     2.9880     2.3370     2.3370  -999.2500  -999.2500  -999.2500  -999.2500
 4180.0000     8.3500   -23.0250    -0.0160     2.4600     0.3120    42.0260    85.6600     3.0760     2.3730     2.3680  -999.2500  -999.2500  -999.2500  -999.2500
 4180.5000     8.3500   -25.4210     0.0240     2.4040     0.3030    41.4070    81.4300     3.3330     2.4060     2.4000  -999.2500  -999.2500  -999.2500  -999.2500
 4181.0000     8.3570   -27.8160     0.0600     2.4280     0.3010    40.7890    77.4610     3.5900     2.4420     2.4310  -999.2500  -999.2500  -999.2500  -999.2500
 4181.5000     8.3630   -30.2110     0.0380     2.5040     0.2920    40.1700    72.9560     3.9650     2.4970     2.4630  -999.2500  -999.2500  -999.2500  -999.2500
 4182.0000     8.3700   -32.6060    -0.0180     2.5740     0.2980    39.5520    73.5400     3.7880     2.4900     2.4970  -999.2500  -999.2500  -999.2500  -999.2500
