~VERSION INFORMATION
 VERS.                2.0:   CWLS LOG ASCII STANDARD - VERSION 2.0
 WRAP.                 NO:   ONE LINE PER DEPTH STEP
~WELL INFORMATION
#MNEM.UNIT      DATA TYPE    INFORMATION
#----------   ------------   ------------------------------
 STRT.F            1.5000:   START DEPTH
 STOP.F          985.0000:   STOP DEPTH
 STEP.F            0.5000:   STEP LENGTH
 NULL.          -999.2500:   NO VALUE
 COMP.       FLUOR DANIEL:   COMPANY
 WELL.  FLUOR 41 "X" #1-2:   WELL
 FLD .          N.P.R. #3:   FIELD
 LOC .       S2 T38N R78W:   LOCATION
 CNTY.            NATRONA:   COUNTY
 STAT.            WYOMING:   STATE
 CTRY. UNITED STATES OF AMERICA:   COUNTRY
 SRVC.     ATLAS WIRELINE:   SERVICE COMPANY
 DATE.        09-AUG-1994:   LOGDATE
 API .     49025226450000:   API NUMBER
~CURVE INFORMATION
#MNEM.UNIT       API CODE    CURVE DESCRIPTION
#----------   ------------   ------------------------------
 DEPT.F                  :   
 GRR .GAPI   07 310 01 00:   GAMMA RAY FROM RESISTIVITY
 TENR.LBS    07 635 01 00:   TENSION FROM RESISTIVITY
 RILD.OHMM   07 120 46 00:   INDUCTION LOG DEEP RESISTIVITY
 RILM.OHMM   07 120 44 00:   INDUCTION LOG MEDIUM RESISTIVITY
~PARAMETER INFORMATION
#MNEM.UNIT          VALUE    DESCRIPTION
#----------   ------------   ------------------------------
 EKB .F         5143.0000:   Kelly bushing
 EGL .F         5133.0000:   Ground level
 EDF .F         5142.0000:   Drilling floor
 TD  .F          970.0000:   Total depth
 CLNT.            A2DTECH:   Client Code
 PD  .                 GL:   Permanent Datum
 EPD .F              5133:   Elevation Permanent Datum
 LMF .                 KB:   Log Measured From
 DMF .                 KB:   Drilling Measured From
 DAPD.F                10:   Feet Above Permanent Datum
 DATE.        09-AUG-1994:   Date Logged [DD-MMM-YYYY]
 DD  .F               970:   Depth driller
 DL  .F               970:   Depth logger
 BLI .F               962:   Bottom log interval
 TLI .F                 0:   Top log interval
 CS1 .IN            9.625:   Casing size
 CBD1.       9.625" @ 56':   Casing driller 1
 CBL1.F                59:   Casing logger 1
 BS1 .IN             8.75:   Bit size
 BSD1.F               970:   Depth drilled with bit1
 DFT .                AIR:   Type fluid in hole
 MRT .F                94:   Maximum recorded temp.
 LUN .            HL 6530:   Logging unit number
 LUL .             CASPER:   Logging unit location
 ENGI.      PAT RASMUSSEN:   Recorded By
 WITN.        GARY STRONG:   Witnessed by
 ORIG.           5" PRINT:   Origin of data
 UWI .     49025226450000:   Unique Well ID
 DICO. A2D TECHNOLOGIES, INC.:   Digitizing Company
 SL  . 173' FNL & 2204' FWL:   Surface Location
~OTHER INFORMATION
~A    DEPT      GRR      TENR       RILD       RILM   
# ...
  512.5000   131.5621   -38.5291     7.4239     7.4051
  513.0000   131.5562   -23.7384     7.4208     7.4031
  513.5000   131.5503   -23.4471     7.4183     7.4011
  514.0000   131.8479   -23.1559     7.4158     7.4509
  514.5000   133.0560   -22.8646     7.4652     7.5005
  515.0000   140.3543   -30.1763     7.5148     7.5509
  515.5000   141.8455   -37.3494     7.5648     7.6022
  516.0000   140.3206   -37.0482     7.6677     7.6534
  516.5000   140.0113   -29.1569     7.7191     7.7044
  517.0000   138.7914   -28.8656     7.8244     7.8104
  517.5000   133.6262   -28.5744     7.9315     7.8683
  518.0000   131.7994   -20.7530     7.9849     8.0269
  518.5000   132.4005   -20.4618     8.0936     8.1374
  519.0000   133.9303   -20.1705     8.2081     8.3066
  519.5000   138.6324   -27.4096     8.3166     8.3631
  520.0000   140.2735   -27.1084     8.3720     8.3602
  520.5000   139.9642   -34.2842     8.3684     8.3580
  521.0000   141.7777   -33.9930     8.3656     8.3557
  521.5000   143.2893   -33.7017     8.3628     8.3534
  522.0000   144.1939   -33.4104     8.3600     8.3506
  522.5000   145.4019   -33.1192     8.3572     8.3484
  523.0000   148.7366   -25.2978     8.4128     8.4639
  523.5000   147.2779   -25.0000     8.5272     8.5798
  524.0000   143.5619   -24.6425     8.6439     8.6986
  524.5000   143.2540   -24.3512     8.7630     8.8178
  525.0000   146.8885   -39.1202     8.9443     9.0017
  525.5000   145.6686   -46.4319     9.2583     9.2619
  526.0000   141.4139   -46.0678     9.5167     9.6458
  526.5000   139.2836   -45.7766     9.7189     9.8470
  527.0000   136.8498   -37.9518     9.8474     9.9833
  527.5000   135.5943   -37.5911     9.9814    10.0504
  528.0000   135.6240   -29.7698    10.1189    10.1180
  528.5000   138.9551   -29.4785    10.3282    10.4006
  529.0000   139.8611   -29.1873    10.3978    10.5438
  529.5000   138.3363   -31.6646    10.5394    10.5409
  530.0000   132.8676   -39.4068    10.6835    10.6854
  530.5000   128.3094   -43.3737    10.8398    10.8332
  531.0000   125.5721   -43.0723    10.9781    11.0585
  531.5000   125.9008   -42.7184    10.9734    11.1336
  532.0000   131.6286   -27.3669    10.8936    10.9757
  532.5000   138.6030   -19.5456    10.7392    10.7456
  533.0000   139.5090   -19.2543    10.2246    10.3007
  533.5000   133.1284   -18.9630    10.1502    10.2281
  534.0000   132.5170   -18.6747    10.2177    10.2248
  534.5000   132.2061   -20.4381    10.2134    10.2220
  535.0000   130.9863   -25.6194    10.1391    10.2193
  535.5000   129.7663   -25.2553    10.1357    10.1455
  536.0000   129.4556   -24.9641    10.0622    10.0723
  536.5000   133.3951   -32.2758    10.0585    10.0696
  537.0000   137.9415   -31.9117    10.0551    10.0668
  537.5000   139.4546   -31.6204     9.9819    10.0640
  538.0000   134.5914   -31.3253     9.9092     9.9913
  538.5000   133.3715   -30.9651     9.7681     9.9191
  539.0000   133.9726   -30.6739     9.6296     9.8471
  539.5000   136.3947   -30.3826     9.4932     9.7082
  540.0000   132.7454   -30.0914     9.4241     9.5711
  540.5000   131.5256   -29.8001     9.4209     9.5021
  541.0000   133.9476   -37.0482     9.4837     9.5695
  541.5000   135.4592   -36.7470     9.5511     9.6977
  542.0000   139.0952   -36.4458     9.6774     9.8305
  542.5000   140.9102   -36.0924     9.7409     9.8973
  543.0000   141.2079   -35.8011     9.7376     9.8942
  543.5000   140.5949   -27.9798     9.7344     9.9612
  544.0000   140.8925   -20.1584     9.7999     9.9578
  544.5000   141.7956   -19.8671     9.7278     9.9551
  545.0000   143.3072   -12.0458     9.5900     9.8786
  545.5000   146.0327   -11.7470     9.3796     9.4093
  546.0000   148.4548   -18.9934     9.1904     9.4068
  546.5000   149.6643   -26.2322     9.3813     9.4042
  547.0000   150.2640   -33.4711     9.1842     9.4017
  547.5000   149.9394   -33.1071     8.9912     9.3338
  548.0000   146.9017   -25.2857     9.0510     9.2021
  548.5000   143.8715   -24.4219     9.0479     9.1357
  549.0000   143.2586   -32.2333     8.9197     9.0647
  549.5000   141.4318   -31.8692     8.6709     8.8173
  550.0000   139.5717   -31.5780     8.3960     8.6325
  550.5000   139.3571   -31.2867     7.9675     8.1140
  551.0000   142.0211   -23.8044     7.6969     7.7171
  551.5000   145.6794   -38.7187     7.5362     7.6081
  552.0000   147.4722   -38.5362     7.4823     7.5532
  552.5000   148.3753   -45.9568     7.4808     7.5512
  553.0000   148.9778   -30.7141     7.4793     7.5491
  553.5000   149.8810   -30.5682     7.5300     7.6531
  554.0000   151.3925   -30.4217     7.5811     7.7579
  554.5000   153.5125   -30.2711     7.7934     7.8653
  555.0000   152.2912   -37.6603     7.9016     7.9181
  555.5000   146.4768   -37.4779     7.8996     7.9714
  556.0000   139.9973   -37.3319     7.8979     8.0811
  556.5000   132.2417   -37.1859     8.2334     8.1919
  557.0000   130.1114   -37.0399     8.4056     8.3635
  557.5000   128.5881   -36.8939     8.4039     8.4779
  558.0000   129.1892   -36.7470     8.4018     8.4750
  558.5000   131.6112   -36.5964     8.4001     8.4138
  559.0000   132.5159   -36.4195     8.3984     8.4115
  559.5000   130.6859   -28.7434     8.3384     8.4093
  560.0000   130.0761   -21.0673     8.2213     8.3486
  560.5000   134.9246   -20.9213     8.1059     8.3463
  561.0000   136.1341   -28.3420     7.9921     8.2861
  561.5000   134.0023   -35.6928     7.9905     8.2262
  562.0000   130.9615   -35.5422     8.0522     8.1669
  562.5000   131.2591   -35.3916     8.2125     8.2794
  563.0000   132.1637   -35.2152     8.3843     8.3350
  563.5000   134.8892   -35.0692     8.6195     8.5089
  564.0000   133.8636   -34.9232     8.7998     8.7466
  564.5000   131.5376   -34.7772     8.9214     8.9290
  565.0000   130.6212   -42.1979     8.9196     8.9891
  565.5000   130.6153   -42.0154     9.0429     9.0495
  566.0000   130.6094   -34.3374     9.0411     9.0470
  566.5000   131.2120   -34.1568     8.9137     8.9188
  567.0000   133.0256   -34.0108     8.8500     8.8544
  567.5000   137.2686   -33.8649     8.7868     8.7905
  568.0000   139.6906   -41.2855     8.7850     8.7271
  568.5000   136.3448   -33.5729     8.7832     8.7247
  569.0000   136.0355   -33.4269     8.6599     8.6617
  569.5000   136.6366   -33.2809     8.5384     8.5992
  570.0000   137.5426   -33.1325     8.4774     8.5371
  570.5000   134.8038   -40.5191     8.5349     8.5343
  571.0000   130.2456   -40.3366     8.5928     8.5922
  571.5000   129.3292   -40.1906     8.5310     8.7100
  572.0000   130.7350   -47.6113     8.4113     8.6471
  572.5000   138.7242   -47.4288     8.4095     8.5847
  573.0000   142.0582   -54.8193     8.4078     8.5227
  573.5000   139.3194   -62.1988     8.4061     8.5204
  574.0000   137.7961   -54.5181     8.3461     8.5181
  574.5000   137.4867   -39.2783     8.3444     8.4561
  575.0000   136.8738   -39.1323     8.3330     8.4538
  575.5000   135.6539   -38.9863     8.3410     8.4515
  576.0000   135.0410   -38.8403     8.3389     8.3905
  576.5000   136.5512   -31.1642     8.2793     8.3882
  577.0000   143.2221   -31.0183     8.2776     8.3277
  577.5000   145.0386   -30.8723     8.2759     8.2676
  578.0000   143.5138   -30.7229     8.2168     8.2653
  578.5000   143.2044   -30.5438     8.1581     8.2531
  579.0000   143.5020   -37.9645     8.0998     8.2029
  579.5000   144.4066   -37.7820     8.0415     8.2007
  580.0000   146.2619   -45.2026     8.0399     8.1985
  580.5000   149.5527   -45.0201     8.0383     8.1393
  581.0000   148.0293   -37.3441     7.9809     8.1371
  581.5000   141.9536   -37.1981     7.9238     8.1349
  582.0000   141.6457   -37.0482     7.9222     8.0201
  582.5000   144.3698   -36.8696     7.8656     8.0179
  583.0000   146.4883   -36.7236     7.9190     8.0152
  583.5000   146.7860   -36.5777     7.9256     8.0130
  584.0000   145.8533   -43.9983     8.0269     8.0669
  584.5000   142.5238   -43.8158     8.0813     8.1212
  585.0000   138.8761   -43.6698     8.1926     8.1763
