~VERSION INFORMATION
 VERS.                2.0:   CWLS LOG ASCII STANDARD - VERSION 2.0
 WRAP.                 NO:   ONE LINE PER DEPTH STEP
~WELL INFORMATION
#MNEM.UNIT      DATA TYPE    INFORMATION
#----------   ------------   ------------------------------
 STRT.F           42.0000:   START DEPTH
 STOP.F         4542.0000:   STOP DEPTH
 STEP.F            0.5000:   STEP LENGTH
 NULL.          -999.2500:   NO VALUE
 COMP. LAWRENCE ALLISON & ASSOC.:   COMPANY
 WELL. ALLISON NPR 3 #86-27:   WELL
 FLD .                NPR:   FIELD
 LOC .      S27 T39N R78W:   LOCATION
 CNTY.            NATRONA:   COUNTY
 STAT.            WYOMING:   STATE
 CTRY. UNITED STATES OF AMERICA:   COUNTRY
 SRVC.      DRESSER ATLAS:   SERVICE COMPANY
 DATE.        20-MAR-1985:   LOGDATE
 API .     49025110190000:   API NUMBER
~CURVE INFORMATION
#MNEM.UNIT       API CODE    CURVE DESCRIPTION
#----------   ------------   ------------------------------
 DEPT.F                  :   
 CALD.IN     45 280 60 00:   CALIPER FROM DENSITY LOG
 TEND.LBS    45 635 01 00:   TENSION FROM DENSITY LOG
 CORR.G/C3   45 356 01 00:   DENSITY CORRECTION
 RHOB.G/C3   45 350 01 00:   BULK DENSITY
 CNC .DEC    42 890 03 00:   NEUTRON PORISITY SANDSTONE
 TENR.LBS    07 635 01 00:   TENSION FROM RESISTIVITY
 GRR .GAPI   07 310 01 00:   GAMMA RAY FROM RESISTIVITY
 SFL .OHMM   07 220 01 00:   SHALLOW FOCUSED LOG RESISTIVITY
 ILD .OHMM   07 120 46 00:   DEEP INDUCTION RESISTIVITY
 ILM .OHMM   07 120 44 00:   INDUCTION LOG MEDIUM RESISTIVITY
 TENS.LBS    60 635 01 00:   TENSION FROM SONIC LOG
 DT  .US/F   60 520 00 00:   DELTA TIME
 CALS.IN     60 280 50 00:   CALIPER FROM SONIC LOG
 GRS .GAPI   60 310 01 00:   GAMMA RAY FROM SONIC LOG
~PARAMETER INFORMATION
#MNEM.UNIT          VALUE    DESCRIPTION
#----------   ------------   ------------------------------
 EKB .F         5095.0000:   Kelly bushing
 EGL .F         5083.0000:   Ground level
 EDF .F            0.0000:   Drilling floor
 TD  .F         4545.0000:   Total depth
 DATE.        20-MAR-1985:   Date logged
 CLNT.            A2DTECH:   Client Code
 SL  . 292' FEL & 1975' FWL:   Surface Location
 PD  .                 GL:   Permanent Datum
 EPD .F              5083:   Elevation Permanent Datum
 LMF .                 KB:   Log Measured From
 DMF .                 KB:   Drilling Measured From
 DAPD.F                12:   Feet Above Permanent Datum
 DD  .F              4545:   Depth driller
 DL  .F              4533:   Depth logger
 BLI .F              4534:   Bottom log interval
 TLI .F              1045:   Top log interval
 CS1 .IN            8.625:   Casing size
 CBD1.     8.625" @ 1033':   Casing driller 1
 CBL1.F              1045:   Casing logger 1
 BS1 .IN            7.875:   Bit size
 BSD1.F              4545:   Depth drilled with bit1
 DFT .    GEL/KCL/STA/FLO:   Type fluid in hole
 DFD .                9.1:   Density
 DFV .                 30:   Viscosity
 DFPH.                  8:   pH
 DFL .                 12:   Fluid loss
 MSS .           MUD/TANK:   Source of sample
 RMS .OHMM            .46:   Rm
 MST .F                74:   Rm Meas. temp.
 RMF .OHMM            .37:   Rmf
 MFST.F                72:   Rmf Meas. temp.
 RMC .OHMM            .58:   Rmc
 MCST.F                74:   Rmc Meas. temp.
 MFSS.               MEAS:   Source Rmf.
 MCSS.               CALC:   Source Rmc.
 RMB .OHMM            .25:   Rm. at BHT
 BHT .F               138:   BHT.
 TCS .HRS             4.5:   Time Circ. stopped
 MRT .F               138:   Maximum recorded temp.
 LUN .            HL-6274:   Logging unit number
 LUL .           GILLETTE:   Logging unit location
 ENGI.             RAUTIO:   Recorded By
 WITN.             STRONG:   Witnessed by
 ORIG.           5" PRINT:   Origin of data
 UWI .     49025110190000:   Unique Well ID
 DICO. A2D TECHNOLOGIES, INC.:   Digitizing Company
~OTHER INFORMATION
~A   DEPT     CALD       TEND       CORR       RHOB        CNC       TENR        GRR        SFL        ILD        ILM       TENS         DT        CALS        GRS  
# ...
 3325.0000     9.5650   -20.4590    -0.0280     2.4930     0.2710    26.8520    88.9930     5.5310     4.9270     4.8680  -999.2500  -999.2500  -999.2500  -999.2500
 3325.5000     9.5680   -22.1870    -0.0270     2.5000     0.2720    26.1750    89.2800     5.5310     4.9970     4.9330  -999.2500  -999.2500  -999.2500  -999.2500
 3326.0000     9.5710   -23.9140    -0.0120     2.5070     0.2720    25.4980    89.7790     5.5700     5.0680     4.9970  -999.2500  -999.2500  -999.2500  -999.2500
 3326.5000     9.5740   -25.6420    -0.0030     2.5150     0.2720    24.8210    89.2670     5.7520     5.1370     5.0610  -999.2500  -999.2500  -999.2500  -999.2500
 3327.0000     9.5770   -27.3690    -0.0060     2.5230     0.2710    24.1440    86.6080     5.9330     5.1100     5.1370  -999.2500  -999.2500  -999.2500  -999.2500
 3327.5000     9.5800   -29.0970    -0.0090     2.5310     0.2740    23.4670    86.4430     6.1800     5.0830     5.0010  -999.2500  -999.2500  -999.2500  -999.2500
 3328.0000     9.5830   -30.8250     0.0050     2.5350     0.2820    22.7900    88.1470     6.1070     5.0570     4.8380  -999.2500  -999.2500  -999.2500  -999.2500
 3328.5000     9.5860   -32.5520     0.0240     2.5400     0.3000    22.1130    92.3420     5.9940     4.9730     4.6750  -999.2500  -999.2500  -999.2500  -999.2500
 3329.0000     9.5880   -34.2800     0.0400     2.5440     0.3240    21.4360    96.4310     5.8150     4.8180     4.5130  -999.2500  -999.2500  -999.2500  -999.2500
 3329.5000     9.5920   -36.0070     0.0200     2.5460     0.3340    20.7590    96.5750     5.6010     4.6640     4.3500  -999.2500  -999.2500  -999.2500  -999.2500
 3330.0000     9.5960   -37.7350     0.0130     2.5260     0.3240    20.0820    97.7240     5.4460     4.5100     4.1870  -999.2500  -999.2500  -999.2500  -999.2500
 3330.5000     9.6230   -39.4620     0.0760     2.4800     0.2970    19.4050   101.0100     5.3300     4.4140     4.0390  -999.2500  -999.2500  -999.2500  -999.2500
 3331.0000     9.6500   -40.4190     0.1100     2.4520     0.2800    18.7280   101.9970     4.7400     4.3790     4.1490  -999.2500  -999.2500  -999.2500  -999.2500
 3331.5000     9.6780   -40.4190     0.0830     2.4620     0.2710    18.0510    97.4030     4.0650     4.3490     4.2510  -999.2500  -999.2500  -999.2500  -999.2500
 3332.0000     9.7060   -39.5290     0.0450     2.4860     0.2660    17.3740    91.8710     4.1290     4.4050     4.3530  -999.2500  -999.2500  -999.2500  -999.2500
 3332.5000     9.7160   -38.4860     0.0050     2.5240     0.2640    16.6970    89.0770     4.8160     4.4610     4.4540  -999.2500  -999.2500  -999.2500  -999.2500
 3333.0000     9.7150   -37.4420    -0.0180     2.5280     0.2650    16.0200    89.1070     5.6920     4.5210     4.5560  -999.2500  -999.2500  -999.2500  -999.2500
 3333.5000     9.7150   -36.3980    -0.0230     2.5240     0.2670    15.3430    88.1000     5.8460     4.5810     4.6580  -999.2500  -999.2500  -999.2500  -999.2500
 3334.0000     9.7150   -35.3540    -0.0070     2.5210     0.2690    14.6660    86.5170     5.6270     4.7330     4.7590  -999.2500  -999.2500  -999.2500  -999.2500
 3334.5000     9.7150   -34.3110     0.0090     2.5220     0.2670    13.9890    85.0400     5.4340     4.9180     4.8610  -999.2500  -999.2500  -999.2500  -999.2500
 3335.0000     9.7150   -33.2670     0.0100     2.5220     0.2660    13.3120    85.1930     5.2320     5.1030     4.9630  -999.2500  -999.2500  -999.2500  -999.2500
 3335.5000     9.7150   -32.2230     0.0100     2.5170     0.2640    12.6350    86.2890     5.4450     5.2880     5.0650  -999.2500  -999.2500  -999.2500  -999.2500
 3336.0000     9.7150   -31.1790     0.0100     2.5170     0.2610    11.9580    87.3780     5.6660     5.3890     5.1660  -999.2500  -999.2500  -999.2500  -999.2500
 3336.5000     9.7150   -30.1360     0.0110     2.5130     0.2490    11.2810    88.1300     5.8460     5.4660     5.2680  -999.2500  -999.2500  -999.2500  -999.2500
 3337.0000     9.7150   -29.0920     0.0030     2.5100     0.2410    10.6040    87.3050     5.8460     5.5420     5.3300  -999.2500  -999.2500  -999.2500  -999.2500
 3337.5000     9.7150   -28.0480    -0.0140     2.5060     0.2420     9.9270    86.6120     5.7420     5.6340     5.3300  -999.2500  -999.2500  -999.2500  -999.2500
 3338.0000     9.7150   -27.0040    -0.0300     2.5000     0.2510     9.2500    85.8100     5.5670     5.6050     5.3300  -999.2500  -999.2500  -999.2500  -999.2500
 3338.5000     9.7150   -25.9610    -0.0310     2.5020     0.2560     8.5730    85.4950     5.4700     5.5680     5.3610  -999.2500  -999.2500  -999.2500  -999.2500
 3339.0000     9.7150   -24.9170    -0.0180     2.5060     0.2520     7.8960    86.5580     5.6590     5.5310     5.4120  -999.2500  -999.2500  -999.2500  -999.2500
 3339.5000     9.7150   -23.8730    -0.0060     2.5160     0.2520     7.2190    87.6850     5.8480     5.4940     5.4620  -999.2500  -999.2500  -999.2500  -999.2500
 3340.0000     9.7150   -22.8290     0.0070     2.5160     0.2530     6.5420    88.3140     6.0370     5.4570     5.5310  -999.2500  -999.2500  -999.2500  -999.2500
 3340.5000     9.7150   -21.7860     0.0120     2.5180     0.2570     5.8650    88.1530     6.1620     5.3950     5.4180  -999.2500  -999.2500  -999.2500  -999.2500
 3341.0000     9.7150   -20.7420     0.0130     2.5120     0.2720     5.1880    89.1480     6.0910     5.2560     5.2420  -999.2500  -999.2500  -999.2500  -999.2500
 3341.5000     9.7200   -20.4590     0.0050     2.5000     0.3110     4.5110    91.3290     5.9000     5.1170     5.0420  -999.2500  -999.2500  -999.2500  -999.2500
 3342.0000     9.7260   -20.4590    -0.0070     2.4920     0.3070     3.8340    93.8960     5.6460     4.8570     4.6590  -999.2500  -999.2500  -999.2500  -999.2500
 3342.5000     9.7330   -20.4590    -0.0210     2.4790     0.3100     3.1570    96.9510     5.3930     4.4610     4.2160  -999.2500  -999.2500  -999.2500  -999.2500
 3343.0000     9.7400   -20.4590    -0.0290     2.4590     0.3060     2.4800   100.0740     5.1390     4.0650     3.7740  -999.2500  -999.2500  -999.2500  -999.2500
 3343.5000     9.7460   -20.4590    -0.0700     2.4160     0.3130     1.8030   105.0060     4.8590     3.6690     3.3310  -999.2500  -999.2500  -999.2500  -999.2500
 3344.0000     9.7530   -20.4590    -0.1130     2.3910     0.3340     1.1260   112.1410     4.4150     3.2730     2.8880  -999.2500  -999.2500  -999.2500  -999.2500
 3344.5000     9.7450   -20.4590    -0.1260     2.2770     0.3400     0.4490   119.4710     3.8300     2.8420     2.4060  -999.2500  -999.2500  -999.2500  -999.2500
 3345.0000     9.7310   -20.4590    -0.0560     2.2210     0.3090    -0.2280   119.3950     3.2090     2.7250     2.4060  -999.2500  -999.2500  -999.2500  -999.2500
 3345.5000     9.7180   -20.4590     0.0420     2.2400     0.2970    -0.9050   113.1800     2.6730     2.7840     2.7130  -999.2500  -999.2500  -999.2500  -999.2500
 3346.0000     9.7050   -20.4590     0.0160     2.2900     0.2740    -1.4910   105.5830     2.3620     2.9210     3.0760  -999.2500  -999.2500  -999.2500  -999.2500
 3346.5000     9.6910   -20.4590    -0.0220     2.3570     0.2580    -0.3540    91.1070     3.3690     3.0590     3.4390  -999.2500  -999.2500  -999.2500  -999.2500
 3347.0000     9.6780   -20.4590    -0.0280     2.4670     0.2560     0.6480    86.2370     4.2560     3.1760     3.8020  -999.2500  -999.2500  -999.2500  -999.2500
 3347.5000     9.6780   -20.4590    -0.0010     2.5280     0.2530     1.6500    84.7870     5.1440     3.7170     4.1640  -999.2500  -999.2500  -999.2500  -999.2500
 3348.0000     9.6830   -20.4590     0.0210     2.5320     0.2510     2.6520    85.7180     5.5410     4.1870     4.5270  -999.2500  -999.2500  -999.2500  -999.2500
 3348.5000     9.6880   -21.5830     0.0120     2.5260     0.2490     3.6540    84.2800     5.5580     4.6580     5.0420  -999.2500  -999.2500  -999.2500  -999.2500
 3349.0000     9.6930   -23.0140    -0.0060     2.5230     0.2460     4.6560    82.1410     5.5750     5.0420     5.0300  -999.2500  -999.2500  -999.2500  -999.2500
