~VERSION INFORMATION
 VERS.                2.0:   CWLS LOG ASCII STANDARD - VERSION 2.0
 WRAP.                 NO:   ONE LINE PER DEPTH STEP
~WELL INFORMATION
#MNEM.UNIT      DATA TYPE    INFORMATION
#----------   ------------   ------------------------------
 STRT.F         1053.5000:   START DEPTH
 STOP.F         3062.0000:   STOP DEPTH
 STEP.F            0.5000:   STEP LENGTH
 NULL.          -999.2500:   NO VALUE
 COMP.    FENIX & SCISSON:   COMPANY
 WELL.  FENIX "A" #301-11:   WELL
 FLD .              NPR-3:   FIELD
 LOC .      S11 T38N R78W:   LOCATION
 CNTY.            NATRONA:   COUNTY
 STAT.            WYOMING:   STATE
 CTRY. UNITED STATES OF AMERICA:   COUNTRY
 SRVC.      NL MCCULLOUGH:   SERVICE COMPANY
 DATE.        13-OCT-1977:   LOGDATE
 API .     49025104410000:   API NUMBER
~CURVE INFORMATION
#MNEM.UNIT       API CODE    CURVE DESCRIPTION
#----------   ------------   ------------------------------
 DEPT.F                  :   
 GR  .GAPI   35 310 01 00:   GAMMA RAY
 NEUT.NAPI   35 330 01 00:   NEUTRON
~PARAMETER INFORMATION
#MNEM.UNIT          VALUE    DESCRIPTION
#----------   ------------   ------------------------------
 EDF .F         5165.0000:   Drilling floor
 TD  .F         3097.0000:   Total depth
 CLNT.            A2DTECH:   Client Code
 PD  .                 DF:   Permanent Datum
 EPD .F              5165:   Elevation Permanent Datum
 LMF .                 GL:   Log Measured From
 DMF .                 DF:   Drilling Measured From
 DATE.        13-OCT-1977:   Date Logged [DD-MMM-YYYY]
 DD  .F              3097:   Depth driller
 BLI .F              3060:   Bottom log interval
 TLI .F              1060:   Top log interval
 BSD1.F              3097:   Depth drilled with bit1
 DFT .              WATER:   Type fluid in hole
 ENGI.            MUNDELL:   Recorded By
 ORIG.           5" PRINT:   Origin of data
 UWI .     49025104410000:   Unique Well ID
 DICO. A2D TECHNOLOGIES, INC.:   Digitizing Company
~OTHER INFORMATION
~A  DEPT         GR      NEUT   
# ...
 1418.0000    78.5551   183.8051
 1418.5000    78.0861   183.7834
 1419.0000    76.9881   185.4346
 1419.5000    75.5295   185.9871
 1420.0000    76.2077   202.2684
 1420.5000    75.8953   207.1122
 1421.0000    74.6413   210.9994
 1421.5000    74.9567   201.4922
 1422.0000    75.1152   195.8940
 1422.5000    75.1167   195.8722
 1423.0000    74.6474   196.4136
 1423.5000    74.0211   196.9448
 1424.0000    73.7088   203.6141
 1424.5000    73.8782   204.7077
 1425.0000    76.8242   202.4544
 1425.5000    78.2653   203.5434
 1426.0000    78.7377   192.3687
 1426.5000    78.7392   194.5776
 1427.0000    78.2699   196.7919
 1427.5000    75.6033   207.3600
 1428.0000    76.8604   220.1642
 1428.5000    76.8619   219.0271
 1429.0000    76.8635   211.7560
 1429.5000    77.4928   206.6607
 1430.0000    78.1222   207.8035
 1430.5000    78.9088   211.1276
 1431.0000    78.9103   209.9906
 1431.5000    78.5976   207.1806
 1432.0000    79.0704   208.8318
 1432.5000    78.9146   207.6948
 1433.0000    79.3873   206.0001
 1433.5000    80.4875   207.0936
 1434.0000    80.8030   209.8745
 1434.5000    80.8045   212.0690
 1435.0000    81.1356   211.4842
 1435.5000    81.4357   210.9048
 1436.0000    81.7512   210.8830
 1436.5000    81.9097   211.4244
 1437.0000    80.4986   209.7242
 1437.5000    79.7150   207.4719
 1438.0000    80.9725   211.9113
 1438.5000    81.4449   211.8896
 1439.0000    79.5630   209.0457
 1439.5000    78.7798   207.2930
 1440.0000    78.3000   206.2424
 1440.5000    77.6587   206.2207
 1441.0000    76.5875   206.1989
 1441.5000    75.6469   206.1772
 1442.0000    76.9045   212.8472
 1442.5000    77.3765   216.1768
 1443.0000    76.7506   203.8814
 1443.5000    76.2809   202.1867
 1444.0000    76.1258   200.9312
 1444.5000    76.1175   192.6577
 1445.0000    73.1417   185.3866
 1445.5000    72.5206   183.1342
 1446.0000    73.3073   187.5737
 1446.5000    74.4071   198.1472
 1447.0000    73.1530   199.8039
 1447.5000    73.1549   201.4496
 1448.0000    73.7842   208.6773
 1448.5000    74.4136   209.2132
 1449.0000    75.0429   208.0755
 1449.5000    75.6722   206.9337
 1450.0000    76.3016   206.9120
 1450.5000    76.9309   205.7749
 1451.0000    75.9907   204.6379
 1451.5000    76.9344   205.7369
 1452.0000    76.4650   208.4979
 1452.5000    73.6411   212.9374
 1453.0000    75.2125   209.5697
 1453.5000    76.1557   203.3499
 1454.0000    76.3142   200.5136
 1454.5000    75.2171   200.0191
 1455.0000    74.4339   198.8820
 1455.5000    73.8076   197.7450
 1456.0000    74.6379   201.6268
 1456.5000    78.6765   218.0686
 1457.0000    79.3059   223.6451
 1457.5000    79.1504   213.6074
 1458.0000    78.6807   210.8191
 1458.5000    79.1535   230.3369
 1459.0000    79.3119   232.5674
 1459.5000    77.8738   229.7792
 1460.0000    76.0190   232.5674
 1460.5000    76.3344   233.6827
 1461.0000    75.8651   226.9910
 1461.5000    76.8087   219.6765
 1462.0000    76.6532   220.2992
 1462.5000    76.1839   219.7415
 1463.0000    75.5576   215.8380
 1463.5000    74.9313   213.0497
 1464.0000    76.1888   218.0686
 1464.5000    75.0917   219.7511
 1465.0000    73.0528   219.1839
 1465.5000    73.6821   220.2992
 1466.0000    75.5671   220.8568
 1466.5000    75.5686   221.9721
 1467.0000    75.4135   222.5298
 1467.5000    73.2177   221.4145
 1468.0000    73.3762   221.4145
 1468.5000    74.1625   220.2992
 1469.0000    75.1057   216.3956
 1469.5000    78.5601   218.0686
 1470.0000    79.6603   220.2992
 1470.5000    78.8774   214.7227
 1471.0000    78.0942   214.7227
 1471.5000    77.1540   218.8211
 1472.0000    78.5681   219.7415
 1472.5000    78.7265   218.0686
 1473.0000    78.5711   219.1839
 1473.5000    78.7406   220.2992
 1474.0000    81.7135   228.1063
 1474.5000    81.2438   229.7792
 1475.0000    80.6175   228.3845
 1475.5000    79.3638   222.5298
 1476.0000    77.4815   222.5298
 1476.5000    78.7390   223.0874
 1477.0000    78.8975   220.2992
 1477.5000    79.9981   220.8568
 1478.0000    81.7260   220.8568
 1478.5000    81.8845   219.1839
 1479.0000    82.1999   208.0309
 1479.5000    81.8873   209.1462
 1480.0000    80.9475   211.3768
 1480.5000    80.1638   209.7038
 1481.0000    81.1074   206.3580
 1481.5000    81.4324   206.6828
 1482.0000    82.3665   221.4145
 1482.5000    81.7402   215.2803
 1483.0000    79.3874   214.7227
 1483.5000    78.4472   209.1462
 1484.0000    78.7626   201.3391
 1484.5000    79.0781   201.3391
 1485.0000    78.7657   197.1576
 1485.5000    78.9245   187.9555
 1486.0000    78.7687   192.4167
 1486.5000    78.7706   203.0121
 1487.0000    78.1443   205.8003
 1487.5000    77.6750   204.1273
 1488.0000    78.1474   205.4291
 1488.5000    80.5203   211.3768
 1489.0000    81.6033   202.4544
 1489.5000    80.1923   200.2238
 1490.0000    80.6646   196.3203
 1490.5000    77.6845   194.6473
 1491.0000    75.0178   194.6473
 1491.5000    74.3753   189.9242
 1492.0000    74.5500   186.8402
 1492.5000    72.5115   190.1861
 1493.0000    71.7279   191.3014
 1493.5000    72.2007   194.6473
 1494.0000    72.5161   201.8968
 1494.5000    72.6745   210.2999
 1495.0000    71.2635   218.0686
 1495.5000    70.4734   219.1839
 1496.0000    71.4238   219.1839
 1496.5000    71.2684   219.7415
 1497.0000    71.4267   214.1650
 1497.5000    71.4307   211.3768
 1498.0000    70.8441   211.3768
 1498.5000    70.1757   211.3768
 1499.0000    73.9444   209.1462
 1499.5000    75.2015   199.1085
 1500.0000    75.5169   203.5697
 1500.5000    78.1866   204.6850
 1501.0000    79.9146   204.6850
 1501.5000    80.8578   206.9806
 1502.0000    79.6041   201.3391
 1502.5000    78.9778   200.2238
 1503.0000    79.1363   203.5697
 1503.5000    81.1782   204.6850
 1504.0000    80.7089   201.3391
 1504.5000    80.3708   192.9653
 1505.0000    81.1879   195.7626
 1505.5000    79.4123   204.1273
 1506.0000    78.2037   210.2615
 1506.5000    78.2056   211.3768
 1507.0000    77.5790   211.3768
 1507.5000    76.9527   204.6850
 1508.0000    76.4833   180.5943
 1508.5000    77.5839   182.3790
 1509.0000    78.8410   185.7249
 1509.5000    77.3659   175.6873
 1510.0000    77.5888   167.8802
 1510.5000    78.3751   178.4755
 1511.0000    79.4753   180.1485
 1511.5000    80.1046   183.8842
 1512.0000    80.5770   193.5320
 1512.5000    77.5964   198.1237
 1513.0000    76.3351   205.7769
 1513.5000    74.4608   205.1975
 1514.0000    73.8342   204.6182
 1514.5000    76.5042   206.2695
 1515.0000    77.9183   204.0119
 1515.5000    78.7046   202.8749
 1516.0000    78.8631   207.3144
 1516.5000    79.0215   209.5234
 1517.0000    78.8525   210.6224
 1517.5000    77.6120   212.2683
 1518.0000    79.8112   221.7267
 1518.5000    80.1267   222.1802
 1519.0000    80.4421   232.8309
 1519.5000    81.3853   231.6940
 1520.0000    81.3868   243.9406
 1520.5000    80.1327   257.3025
 1521.0000    79.3298   260.0745
 1521.5000    78.8802   237.7415
 1522.0000    78.8821   229.3551
 1522.5000    79.0402   210.6737
 1523.0000    73.7057   189.1557
 1523.5000    70.0974   188.0187
 1524.0000    69.8978   172.3829
 1524.5000    72.8028   165.1118
 1525.0000    73.8688   166.2108
 1525.5000    73.2425   164.5108
 1526.0000    76.6973   165.6050
 1526.5000    78.1110   170.0590
 1527.0000    77.3281   169.9401
 1527.5000    76.8584   170.5529
 1528.0000    77.0173   176.1078
 1528.5000    75.7512   183.3355
 1529.0000    76.3929   187.7751
 1529.5000    74.6676   189.4318
 1530.0000    75.7678   185.5012
 1530.5000    73.1015   180.4607
 1531.0000    72.0044   178.7655
 1531.5000    71.2211   180.4119
 1532.0000    74.3617   192.1009
 1532.5000    76.6156   198.7765
 1533.0000    78.7597   192.0576
 1533.5000    79.7029   189.8054
 1534.0000    80.0180   189.7837
 1534.5000    76.5670   190.8776
 1535.0000    72.6447   193.1229
 1535.5000    72.6462   194.1799
 1536.0000    75.1631   193.0375
 1536.5000    76.0434   193.5735
 1537.0000    78.3014   195.7825
 1537.5000    78.9307   196.8761
 1538.0000    80.1878   209.6804
 1538.5000    78.9338   222.4846
 1539.0000    78.9353   225.8089
