~VERSION INFORMATION
 VERS.                2.0:   CWLS LOG ASCII STANDARD - VERSION 2.0
 WRAP.                 NO:   ONE LINE PER DEPTH STEP
~WELL INFORMATION
#MNEM.UNIT      DATA TYPE    INFORMATION
#----------   ------------   ------------------------------
 STRT.F            0.0000:   START DEPTH
 STOP.F         4030.0000:   STOP DEPTH
 STEP.F            0.5000:   STEP LENGTH
 NULL.          -999.2500:   NO VALUE
 COMP.  FENIX AND SCISSON:   COMPANY
 WELL.  FENIX "LX" #33-10:   WELL
 FLD . TEAPOT DOME (NPR #3):   FIELD
 LOC .      S10 T38N R78W:   LOCATION
 CNTY.            NATRONA:   COUNTY
 STAT.            WYOMING:   STATE
 CTRY. UNITED STATES OF AMERICA:   COUNTRY
 SRVC.       SCHLUMBERGER:   SERVICE COMPANY
 DATE.        03-APR-1978:   LOGDATE
 API .     49025105980000:   API NUMBER
~CURVE INFORMATION
#MNEM.UNIT       API CODE    CURVE DESCRIPTION
#----------   ------------   ------------------------------
 DEPT.F                  :   
 SPR .MV     07 010 01 00:   SPONTANEOUS POTENTIAL
 ILD .OHMM   07 120 46 00:   DEEP INDUCTION RESISTIVITY
 SFL .OHMM   07 220 01 00:   SHALLOW FOCUSED LOG RESISTIVITY
 ILM .OHMM   07 120 44 00:   INDUCTION LOG MEDIUM RESISTIVITY
 NPHI.DEC    42 890 03 00:   NEUTRON POROSITY SANDSTONE
 GRD .GAPI   45 310 01 00:   GAMMA RAY FROM DENSITY LOG
 CALD.IN     45 280 60 00:   CALIPER FROM DENSITY LOG
 RHOB.G/C3   45 350 01 00:   BULK DENSITY
 CORR.G/C3   45 356 01 00:   DENSITY CORRECTION
~PARAMETER INFORMATION
#MNEM.UNIT          VALUE    DESCRIPTION
#----------   ------------   ------------------------------
 EKB .F         5232.0000:   Kelly bushing
 EGL .F         5222.0000:   Ground level
 EDF .F            0.0000:   Drilling floor
 EPD .F         5222.0000:   Permanent datum
 TD  .F         4040.0000:   Total depth
 DATE.        03-APR-1978:   Date logged
 CLNT.            A2DTECH:   Client Code
 SL  . 1700' FNL & 1700' FWL:   Surface Location
 PD  .                 GL:   Permanent Datum
 DD  .F              4040:   Depth driller
 DL  .F              4031:   Depth logger
 BLI .F              4025:   Bottom log interval
 CS1 .IN            8.625:   Casing size
 CBD1.      8.625" @ 503':   Casing driller 1
 CBL1.F               504:   Casing logger 1
 BS1 .IN            7.875:   Bit size
 DFT .           CHEM GEL:   Type fluid in hole
 DFD .                9.5:   Density
 DFV .                 43:   Viscosity
 DFPH.               11.5:   pH
 DFL .                4.4:   Fluid loss
 MSS .            MUD PIT:   Source of sample
 RMS .OHMM           1.16:   Rm
 MST .F                80:   Rm Meas. temp.
 RMF .OHMM           0.93:   Rmf
 MFST.F                80:   Rmf Meas. temp.
 RMC .OHMM           1.74:   Rmc
 MCST.F                80:   Rmc Meas. temp.
 MFSS.               MEAS:   Source Rmf.
 RMB .OHMM          0.742:   Rm. at BHT
 BHT .F               125:   BHT.
 TCS .HRS            0800:   Time Circ. stopped
 MRT .F               125:   Maximum recorded temp.
 LUN .               7660:   Logging unit number
 LUL .                GLT:   Logging unit location
 ENGI.            TOEPPER:   Recorded By
 WITN.           MCGINLEY:   Witnessed by
 ORIG.         2.5" PRINT:   Origin of data
 UWI .     49025105980000:   Unique Well ID
 DICO. A2D TECHNOLOGIES, INC.:   Digitizing Company
 DAPD.                 10:   Feet Above Permanent Datum
 BSD1.               4040:   Depth drilled with bit1
 MCSS.               CALC:   Source Rmc.
 LMF .                 KB:   Log Measured From
 DMF .                 KB:   Drilling Measured From
 TLI .                504:   Top log interval
 TLAB.               1000:   Time logger at bottom
~OTHER INFORMATION
~A    DEPT     SPR        ILD        SFL        ILM       NPHI         GRD      CALD       RHOB       CORR   
# ...
 1423.5000   -43.9420     7.4180     6.9990     7.2820     0.3090    93.7710    12.6690     2.5180     0.0580
 1424.0000   -43.5850     7.4440     6.9920     7.3080     0.3200    92.7060    12.7100     2.4960     0.0410
 1424.5000   -43.6430     7.4700     6.9840     7.3340     0.3180    91.4800    12.7500     2.5420     0.0680
 1425.0000   -43.6170     7.4960     6.9760     7.3590     0.3170    89.9620    12.7640     2.5330     0.0800
 1425.5000   -43.6320     7.5220     6.9690     7.3850     0.3150    89.3760    12.7270     2.5340     0.0780
 1426.0000   -43.6170     7.5490     6.9610     7.4110     0.3140    89.8750    12.6980     2.5540     0.0780
 1426.5000   -43.6210     7.5490     6.9530     7.4110     0.2840    90.2510    12.6660     2.5720     0.0780
 1427.0000   -43.7140     7.5100     6.9450     7.3640     0.2760    90.6180    12.6340     2.5920     0.0900
 1427.5000   -44.0430     7.4760     6.9380     7.3230     0.2830    91.3940    12.6040     2.6100     0.1030
 1428.0000   -44.0040     7.4420     6.9310     7.2830     0.2950    92.5990    12.5690     2.6260     0.1150
 1428.5000   -43.6800     7.4090     6.9240     7.2420     0.3010    93.7720    12.5760     2.6100     0.0810
 1429.0000   -44.4020     7.3750     6.9150     7.2020     0.3030    95.0980    12.5940     2.5950     0.0680
 1429.5000   -44.3940     7.3420     6.9070     7.1610     0.3050    95.2470    12.6130     2.5770     0.0690
 1430.0000   -44.4430     7.3080     6.8990     7.1210     0.3070    94.1480    12.6310     2.5610     0.0640
 1430.5000   -44.4170     7.2760     6.8880     7.0800     0.3130    93.1940    12.6500     2.5450     0.0380
 1431.0000   -44.4130     7.2800     7.0130     7.0400     0.3230    92.0670    12.6690     2.5370     0.0440
 1431.5000   -44.4510     7.2910     7.5030     6.9990     0.3190    92.4230    12.6870     2.5530     0.0710
 1432.0000   -44.3760     7.3020     8.2760     6.9580     0.3110    94.2290    12.7060     2.5950     0.0970
 1432.5000   -44.6790     7.3130     8.0670     6.9180     0.3130    95.9790    12.7240     2.6080     0.1260
 1433.0000   -43.8910     7.3240     7.5770     6.8880     0.3140    95.2710    12.7420     2.5850     0.1390
 1433.5000   -43.6440     7.3350     7.0860     6.9000     0.3080    93.6850    12.7630     2.5730     0.1240
 1434.0000   -43.4990     7.3460     6.8860     6.9120     0.2810    90.3740    12.7310     2.5850     0.1140
 1434.5000   -43.5130     7.3580     6.8860     6.9230     0.2700    86.0030    12.6110     2.5700     0.0950
 1435.0000   -43.6400     7.3690     6.8860     6.9350     0.2730    83.9250    12.5030     2.5930     0.1630
 1435.5000   -43.6310     7.3800     6.8860     6.9470     0.2810    85.5030    12.4290     2.6080     0.1520
 1436.0000   -43.6160     7.3910     6.8860     6.9580     0.2790    86.6820    12.6500     2.5750     0.0880
 1436.5000   -43.6300     7.4030     6.8860     6.9700     0.2760    87.7150    12.7990     2.5480     0.0560
 1437.0000   -43.6240     7.4140     6.8860     6.9820     0.2820    88.5670    12.8360     2.5650     0.0770
 1437.5000   -43.6240     7.4250     6.8860     6.9930     0.2940    89.2360    12.8610     2.5800     0.0940
 1438.0000   -43.6270     7.4360     6.8860     7.0050     0.3010    89.9740    12.8840     2.5980     0.1090
 1438.5000   -43.6240     7.4470     6.8860     7.0250     0.3030    90.7060    12.9110     2.6240     0.1220
 1439.0000   -43.6220     7.4590     6.8860     7.0680     0.3070    91.3210    12.9350     2.6100     0.1000
 1439.5000   -43.6980     7.4700     6.8860     7.1110     0.3120    92.6840    12.9600     2.5580     0.0780
 1440.0000   -43.9790     7.4810     6.9270     7.1540     0.3180    94.5720    12.9860     2.5700     0.0560
 1440.5000   -44.2740     7.4930     6.9750     7.1960     0.3230    96.3710    12.9900     2.6040     0.1390
 1441.0000   -44.4370     7.5030     7.0230     7.2390     0.3280    97.9380    12.9370     2.5910     0.1130
 1441.5000   -44.4190     7.5140     7.0710     7.2810     0.3190    98.7090    12.8850     2.5620     0.0940
 1442.0000   -44.4220     7.5280     7.1190     7.3230     0.3110    97.3890    12.8310     2.5390     0.0580
 1442.5000   -44.4280     7.5480     7.1680     7.3650     0.3030    95.6620    12.7780     2.5790     0.0630
 1443.0000   -44.4160     7.5390     7.2160     7.4090     0.3050    94.5380    12.7230     2.5930     0.0780
 1443.5000   -44.4160     7.6770     7.2750     7.5330     0.3080    94.1190    12.6860     2.5840     0.0900
 1444.0000   -43.9920     7.6440     7.2420     7.4920     0.3110    93.5930    12.6870     2.6020     0.1020
 1444.5000   -43.3890     7.5840     7.1440     7.4200     0.3150    93.1060    12.6860     2.5870     0.1050
 1445.0000   -43.1760     7.5240     7.0460     7.3470     0.3160    92.6070    12.6860     2.6100     0.1050
 1445.5000   -43.1340     7.4640     6.9480     7.2730     0.3120    93.0380    12.6940     2.6030     0.1040
 1446.0000   -43.0790     7.4040     6.8500     7.2000     0.3030    93.8840    12.7370     2.5910     0.0820
 1446.5000   -43.0210     7.3440     6.7600     7.1260     0.2930    94.7640    12.7820     2.5640     0.0670
 1447.0000   -42.9690     7.2760     6.7600     7.0530     0.2980    95.5170    12.8220     2.5700     0.0890
 1447.5000   -42.9140     7.2760     6.7600     7.0140     0.3040    96.3310    12.8670     2.5790     0.1120
 1448.0000   -42.8530     7.2890     6.7600     7.0140     0.3110    94.8500    12.9090     2.5890     0.1340
 1448.5000   -42.8580     7.2990     6.7600     7.0140     0.3180    93.2030    12.9520     2.5970     0.1560
 1449.0000   -42.9370     7.3110     6.7600     7.0140     0.3290    90.9270    12.9940     2.5350     0.1310
 1449.5000   -43.0190     7.3230     6.7600     7.0130     0.3220    91.1360    13.0030     2.5390     0.1160
 1450.0000   -43.0870     7.3350     6.7600     7.0130     0.3070    91.2480    12.9810     2.5660     0.1140
 1450.5000   -43.1570     7.3460     6.7600     7.0130     0.3090    91.4410    12.9580     2.5860     0.1050
 1451.0000   -43.3690     7.3580     6.7600     7.0130     0.3120    91.5980    12.9350     2.5770     0.0910
 1451.5000   -43.6480     7.3700     6.7600     7.0140     0.3150    89.6160    12.9130     2.5660     0.0780
 1452.0000   -43.6260     7.3810     6.7610     7.0130     0.3050    88.1510    12.8870     2.5560     0.0580
 1452.5000   -43.6270     7.3930     6.7600     7.0130     0.2980    89.8890    12.8850     2.5680     0.0640
 1453.0000   -43.5500     7.4040     6.7600     7.0130     0.2940    91.5750    12.8840     2.5920     0.0880
 1453.5000   -43.1870     7.4170     6.7610     7.0300     0.2930    93.4440    12.8900     2.6170     0.1090
 1454.0000   -43.2480     7.4320     6.7610     7.0740     0.2950    94.0840    12.9030     2.6290     0.1420
 1454.5000   -43.2060     7.4470     6.7950     7.1170     0.2980    93.9580    12.9150     2.6160     0.1330
 1455.0000   -43.2690     7.4620     6.8390     7.1610     0.3100    92.6470    12.9270     2.5820     0.0990
 1455.5000   -42.8990     7.4770     6.8820     7.2040     0.3150    91.3660    12.9400     2.5510     0.0670
 1456.0000   -42.8370     7.4920     6.9260     7.2470     0.3170    90.0160    12.9520     2.5380     0.0530
 1456.5000   -42.8190     7.5070     6.9690     7.2900     0.3120    88.6450    12.9640     2.5760     0.0880
 1457.0000   -42.7600     7.5220     7.0120     7.3330     0.3090    87.7260    12.9650     2.6300     0.1190
 1457.5000   -42.3860     7.5360     7.0550     7.3750     0.3120    87.8270    12.9640     2.6030     0.1490
 1458.0000   -42.4490     7.5460     7.0970     7.4090     0.3150    89.6630    12.9630     2.5570     0.1040
 1458.5000   -42.4210     7.5060     7.1490     7.3690     0.3150    91.4350    12.9210     2.5510     0.0660
 1459.0000   -42.4870     7.4730     7.1390     7.3360     0.3070    93.2800    12.8720     2.5370     0.0180
 1459.5000   -42.6000     7.4380     6.9890     7.3030     0.2860    95.1740    12.8210     2.5660     0.0440
