~VERSION INFORMATION
 VERS.                2.0:   CWLS LOG ASCII STANDARD - VERSION 2.0
 WRAP.                 NO:   ONE LINE PER DEPTH STEP
~WELL INFORMATION
#MNEM.UNIT      DATA TYPE    INFORMATION
#----------   ------------   ------------------------------
 STRT.F           15.0000:   START DEPTH
 STOP.F         3245.5000:   STOP DEPTH
 STEP.F            0.5000:   STEP LENGTH
 NULL.          -999.2500:   NO VALUE
 COMP. LAWRENCE ALLISON AND ASSOCIATES:   COMPANY
 WELL. LAWRENCE ALLISON 11 X34 #3-3:   WELL
 FLD .             NPR #3:   FIELD
 LOC .       S3 T38N R78W:   LOCATION
 CNTY.            NATRONA:   COUNTY
 STAT.            WYOMING:   STATE
 CTRY. UNITED STATES OF AMERICA:   COUNTRY
 SRVC.      DRESSER ATLAS:   SERVICE COMPANY
 DATE.        23-MAY-1985:   LOGDATE
 API .     49025110530000:   API NUMBER
~CURVE INFORMATION
#MNEM.UNIT       API CODE    CURVE DESCRIPTION
#----------   ------------   ------------------------------
 DEPT.F                  :   
 SPR .MV     07 010 01 00:   SPONTANEOUS POTENTIAL
 GRR .GAPI   07 310 01 00:   GAMMA RAY FROM RESISTIVITY
 SFL .OHMM   07 220 01 00:   SHALLOW FOCUSED LOG RES.
 ILD .OHMM   07 120 46 00:   INDUCTION LOG DEEP RESISTIVITY
 ILM .OHMM   07 120 44 00:   INDUCTION LOG MEDIUM RESISTIVITY
 TENR.LBS    07 635 01 00:   TENSION
 CALR.IN     07 280 01 00:   CALIPER FROM RESISTIVITY
 RHOB.G/C3   45 350 01 00:   BULK DENSITY
 CORR.G/C3   45 356 01 00:   DENSITY CORRECTION
 CNC .DEC    42 890 03 00:   NEUTRON POROSITY SANDSTONE
~PARAMETER INFORMATION
#MNEM.UNIT          VALUE    DESCRIPTION
#----------   ------------   ------------------------------
 EKB .F         5099.0000:   Kelly bushing
 EGL .F         5087.0000:   Ground level
 EDF .F            0.0000:   Drilling floor
 EPD .F         5087.0000:   Permanent datum
 TD  .F         3240.0000:   Total depth
 DATE.         2-MAY-1985:   Date logged
 CLNT.            A2DTECH:   Client Code
 PD  .                 GL:   Permanent Datum
 DD  .F              3239:   Depth driller
 DL  .F              3242:   Depth logger
 BLI .F              3240:   Bottom log interval
 TLI .F                15:   Top log interval
 CS1 .IN            8.625:   Casing size
 CBD1.      8.625" @ 487':   Casing driller 1
 CBL1.F               487:   Casing logger 1
 BSD1.F              3239:   Depth drilled with bit1
 DFT .            KCL GEL:   Type fluid in hole
 ENGI.      MACK. EDWARDS:   Recorded By
 WITN.         MR. STRONG:   Witnessed by
 ORIG.           5" PRINT:   Origin of data
 UWI .     49025110530000:   Unique Well ID
 DICO. A2D TECHNOLOGIES, INC.:   Digitizing Company
 DAPD.IN               12:   Feet Above Permanent Datum
 BS1 .              7.875:   Bit size
 DFD .                9.1:   Density
 DFV .                 35:   Viscosity
 DFPH.                  8:   pH
 DFL .                9.8:   Fluid loss
 MSS .           FLOWLINE:   Source of sample
 RMS .OHMM            .27:   Rm
 MST .F                68:   Rm Meas. temp.
 RMF .OHMM             .2:   Rmf
 MFST.F                68:   Rmf Meas. temp.
 MFSS.               MEAS:   Source Rmf.
 RMC .OHMM            .34:   Rmc
 MCST.F                68:   Rmc Meas. temp.
 MCSS.               CALC:   Source Rmc.
 RMB .OHMM            .15:   Rm. at BHT
 BHT .F               126:   BHT.
 TCS .HRS               3:   Time Circ. stopped
 MRT .F               126:   Maximum recorded temp.
 LUN .               6274:   Logging unit number
 LUL .               GLTE:   Logging unit location
~OTHER INFORMATION
~A   DEPT      SPR        GRR        SFL        ILD        ILM       TENR       CALR       RHOB       CORR        CNC   
# ...
 2661.5000   -57.1146    83.3457     6.1757     6.0634     5.6336   -28.6553     8.7547     2.4832    -0.0181     0.2401
 2662.0000   -57.1120    83.3497     6.0636     6.0637     5.7385   -28.7216     8.7551     2.4872    -0.0161     0.2346
 2662.5000   -57.3078    80.6749     5.8452     6.0640     5.8452   -28.7879     8.7555     2.4932    -0.0061     0.2226
 2663.0000   -57.3051    75.9176     6.5270     6.1769     5.9541   -38.8345     8.7558     2.5022     0.0095     0.2090
 2663.5000   -57.3025    72.9452     7.4233     6.1772     6.0648   -38.9009     8.7365     2.5132     0.0132     0.2066
 2664.0000   -57.2999    70.2705     8.4426     6.1776     6.0651   -68.9082     8.7368     2.5202    -0.0179     0.2050
 2664.5000   -57.4956    74.4413     7.8449     6.0656     6.0655   -39.0335     8.7767     2.5222    -0.0139     0.2066
 2665.0000   -57.6935    78.6113     7.2893     5.8470     5.8471   -39.0998     8.7770     2.5232    -0.0059     0.2134
 2665.5000   -57.8801    83.6750     6.6500     5.6365     5.5338   -39.1661     8.7774     2.5192    -0.0058     0.2202
 2666.0000   -57.8846    86.6553     6.0667     5.4334     5.1420   -39.2324     8.7777     2.5013    -0.0078     0.2314
 2666.5000   -58.2788    96.7787     5.2377     5.3348     5.0486   -49.2791     8.7781     2.4894    -0.0376     0.2361
 2667.0000   -58.2761   100.6511     4.9570     5.1426     5.0490   -59.3257     8.7785     2.4765    -0.0515     0.2385
 2667.5000   -58.2735   101.2495     5.1430     5.1430     5.0493   -59.3920     8.7789     2.4745    -0.0435     0.2401
 2668.0000   -58.6677    93.5166     5.7427     5.0496     4.9690   -49.4780     8.7792     2.4795    -0.0335     0.2389
 2668.5000   -58.2682    88.1648     6.1811     5.0499     4.9694   -49.5443     8.7402     2.4776    -0.0215     0.2338
 2669.0000   -58.0677    89.3569     6.1814     5.0502     5.3364   -39.6303     8.7406     2.4696    -0.0175     0.2258
 2669.5000   -57.7367    94.7190     5.7438     5.3368     5.6391   -49.6770     8.7406     2.4567    -0.0334     0.2198
 2670.0000   -57.6651    94.7222     5.6395     5.6395     6.0697   -39.7629     8.7413     2.4478    -0.0612     0.2146
 2670.5000   -57.2656    88.7743     5.8510     6.1826     6.1825   -49.8096     8.7416     2.4478    -0.0631     0.2102
 2671.0000   -57.0645    75.0880     7.2948     6.5333     6.6545   -49.8759     8.7420     2.4607    -0.0611     0.2058
 2671.5000   -57.0619    70.0322     8.4503     6.7782     6.7783   -49.9422     8.7526     2.4767    -0.0653     0.2038
 2672.0000   -57.0592    69.1448     9.0955     7.0324     6.9043   -79.9495     8.7625     2.4817    -0.0710     0.2006
 2672.5000   -56.8582    71.5282     8.7677     7.2960     7.1633   -50.0748     8.7431     2.4857    -0.0690     0.2006
 2673.0000   -57.0540    73.6156     8.1470     7.4319     7.2965   -50.1412     8.7434     2.4877    -0.0450     0.2018
 2673.5000   -57.0509    73.9172     7.7104     7.5701     7.2970   -40.2271     8.7569     2.4887    -0.0271     0.2038
 2674.0000   -57.0482    74.2188     7.4328     7.7110     7.2974   -50.2738     8.7639     2.4917    -0.0231     0.2106
 2674.5000   -57.0455    74.5204     7.4331     7.8544     7.2979   -50.3401     8.7446     2.4907    -0.0270     0.2094
 2675.0000   -57.0429    74.5243     7.2983     7.8550     7.2983   -50.4064     8.7446     2.4957    -0.0449     0.2086
 2675.5000   -56.8418    74.5283     7.4340     7.7123     7.2988   -40.4924     8.7453     2.4977    -0.0488     0.2070
 2676.0000   -56.8392    73.9370     7.8559     7.7129     7.2991   -40.5720     8.7457     2.4968    -0.0368     0.2042
 2676.5000   -56.8366    73.6433     8.0020     7.5728     7.1668   -40.6383     8.7459     2.4908    -0.0288     0.2010
 2677.0000   -56.8339    73.9449     8.3021     7.4355     7.0368   -40.7046     8.7464     2.4878    -0.0288     0.1990
 2677.5000   -57.0313    74.2465     8.6133     7.3005     7.0372   -40.7709     8.7468     2.4899    -0.0212     0.1982
 2678.0000   -57.0271    74.2504     8.6140     7.1681     6.7837   -40.8372     8.7471     2.4958    -0.0267     0.2002
 2678.5000   -57.0244    76.3370     8.0039     7.1686     6.3035   -40.9035     8.7275     2.4909    -0.0167     0.2166
 2679.0000   -57.0218    86.1636     6.9103     7.0384     6.1890   -40.9699     8.7443     2.4819    -0.0465     0.2186
 2679.5000   -57.0192    89.7384     6.3042     6.9108     6.1893   -41.0362     8.7482     2.4750    -0.0485     0.2202
 2680.0000   -57.0165    91.2297     5.8577     6.9111     6.4215   -41.1025     8.7486     2.4760    -0.0485     0.2210
 2680.5000   -56.6170    81.4134     7.3033     6.9116     6.5409   -41.1290     8.7289     2.4880    -0.0544     0.2226
 2681.0000   -56.8128    78.1434     8.1550     6.9120     6.7862   -31.2548     8.7494     2.5099    -0.0563     0.2266
 2681.5000   -56.6123    76.9568     8.4606     6.9125     6.9124   -41.3014     8.7495     2.5149    -0.0304     0.2306
 2682.0000   -56.8076    77.8537     7.8617     6.9128     7.0411   -41.3677     8.7501     2.5209    -0.0045     0.2286
 2682.5000   -56.8049    78.7505     7.5786     7.0415     7.0414   -41.4341     8.7378     2.5229     0.0075     0.2258
 2683.0000   -57.1986    78.4568     7.3055     7.1725     7.1726   -41.5004     8.7508     2.5279    -0.0084     0.2286
 2683.5000   -56.7996    77.8655     7.4415     7.3060     7.1729   -41.5667     8.7512     2.5359    -0.0144     0.2294
 2684.0000   -56.5986    77.8695     7.5799     7.4419     7.3065   -41.6330     8.7513     2.5409     0.0076     0.2270
 2684.5000   -56.7944    75.4924     7.8642     7.5804     7.3068   -41.6993     8.7319     2.5419     0.0235     0.2126
 2685.0000   -56.7917    74.3058     8.3102     7.7214     7.3073   -41.7656     8.7326     2.5389    -0.0023     0.2118
 2685.5000   -56.7891    74.3098     8.4648     7.8651     7.4432   -41.8320     8.7526     2.5349    -0.0006     0.2138
 2686.0000   -56.7865    74.6114     8.4654     7.8655     7.4438   -41.9115     8.7530     2.5280    -0.0201     0.2186
 2686.5000   -56.5854    76.4003     8.4658     8.0120     7.5822   -41.9646     8.7534     2.5230    -0.0324     0.2178
 2687.0000   -56.5828    75.8098     8.3123     8.0124     7.5827   -42.0309     8.7538     2.5161     0.0078     0.2154
 2687.5000   -56.5801    75.8130     8.3129     7.8671     7.5831   -42.0972     8.7538     2.5121    -0.0220     0.2138
 2688.0000   -56.5775    74.9248     8.4675     7.7242     7.4456   -42.1635     8.7545     2.5092    -0.0498     0.2150
 2688.5000   -56.7733    74.9288     8.4681     7.4460     7.3104   -32.2495     8.7548     2.5102    -0.0617     0.2202
 2689.0000   -57.1675    75.2304     8.3143     7.3108     7.1778   -32.3158     8.7355     2.5172    -0.0557     0.2250
 2689.5000   -57.1648    77.0193     8.1635     7.3114     6.9195   -32.3821     8.7356     2.5252    -0.0397     0.2321
 2690.0000   -57.1622    78.2146     7.8694     7.1786     6.9197   -32.4485     8.7559     2.5292    -0.0158     0.2329
 2690.5000   -57.9554    78.2177     7.4478     7.0484     6.7940   -32.5148     8.7563     2.5212    -0.0078     0.2305
 2691.0000   -57.3554    78.2225     6.9205     7.0488     6.7945   -22.6007     8.7565     2.5073    -0.0118     0.2230
 2691.5000   -57.1543    77.6312     6.6711     7.0493     6.7948   -32.6474     8.7570     2.5014    -0.0197     0.2122
 2692.0000   -56.9532    77.3375     6.9214     6.9213     6.8166   -32.7137     8.7575     2.5044    -0.0256     0.2106
 2692.5000   -57.1490    77.6391     7.8718     7.0501     6.9439   -22.7997     8.7578     2.5103    -0.0276     0.2138
 2693.0000   -56.9480    77.9407     8.1670     7.0505     6.9442   -32.8463     8.7582     2.5163    -0.0255     0.2119
 2693.5000   -56.9453    77.6470     8.0187     7.3149     7.2054   -32.9127     8.7586     2.5154    -0.0096     0.2102
 2694.0000   -56.9427    77.9486     7.8733     7.4509     7.3398   -32.9790     8.7589     2.5084    -0.0215     0.2138
 2694.5000   -56.9416    78.2502     8.0197     7.7304     7.6158   -23.0649     8.7592     2.5104    -0.0413     0.2170
