~VERSION INFORMATION
 VERS.                2.0:   CWLS LOG ASCII STANDARD - VERSION 2.0
 WRAP.                 NO:   ONE LINE PER DEPTH STEP
~WELL INFORMATION
#MNEM.UNIT      DATA TYPE    INFORMATION
#----------   ------------   ------------------------------
 STRT.F          196.5000:   START DEPTH
 STOP.F         3202.0000:   STOP DEPTH
 STEP.F            0.5000:   STEP LENGTH
 NULL.          -999.2500:   NO VALUE
 COMP.    FENIX & SCISSON:   COMPANY
 WELL.   FENIX "AX" #26-3:   WELL
 FLD .              NPR-3:   FIELD
 LOC .       S3 T38N R78W:   LOCATION
 CNTY.            NATRONA:   COUNTY
 STAT.            WYOMING:   STATE
 CTRY. UNITED STATES OF AMERICA:   COUNTRY
 SRVC.              WELEX:   SERVICE COMPANY
 DATE.        19-JUN-1977:   LOGDATE
 API .     49025103800000:   API NUMBER
~CURVE INFORMATION
#MNEM.UNIT       API CODE    CURVE DESCRIPTION
#----------   ------------   ------------------------------
 DEPT.F                  :   
 CALD.IN     45 280 60 00:   CALIPER FROM DENSITY LOG
 GRD .GAPI   45 310 01 00:   GAMMA RAY FROM DENSITY LOG
 RHOB.G/C3   45 350 01 00:   BULK DENSITY
 CORR.G/C3   45 356 01 00:   DENSITY CORRECTION
 SPR .MV     07 010 01 00:   SPONTANEOUS POTENTIAL
 ILD .OHMM   07 120 46 00:   DEEP INDUCTION RESISTIVITY
 ILM .OHMM   07 120 44 00:   INDUCTION LOG MEDIUM RESISTIVITY
 SGRD.OHMM   07 220 05 00:   SHALLOW SHORT GUARD RESISTIVITY
~PARAMETER INFORMATION
#MNEM.UNIT          VALUE    DESCRIPTION
#----------   ------------   ------------------------------
 EKB .F         5231.0000:   Kelly bushing
 EGL .F         5221.0000:   Ground level
 EDF .F            0.0000:   Drilling floor
 TD  .F         3204.0000:   Total depth
 CLNT.            A2DTECH:   Client Code
 SL  . 1320' FSL & 740' FWL:   Surface Location
 PD  .                 GL:   Permanent Datum
 EPD .F              5221:   Elevation Permanent Datum
 LMF .                 KB:   Log Measured From
 DMF .                 KB:   Drilling Measured From
 DAPD.F                10:   Feet Above Permanent Datum
 DATE.        19-JUN-1977:   Date Logged [DD-MMM-YYYY]
 DD  .F              3200:   Depth driller
 DL  .F              3204:   Depth logger
 BLI .F              3202:   Bottom log interval
 TLI .F               220:   Top log interval
 CS1 .IN            8.625:   Casing size
 CBD1.      8.625" @ 220':   Casing driller 1
 CBL1.F               220:   Casing logger 1
 BS1 .IN            7.875:   Bit size
 BSD1.F              3200:   Depth drilled with bit1
 DFT .                KCL:   Type fluid in hole
 DFD .                9.1:   Density
 RMS .OHMM           1.19:   Rm
 MST .F                65:   Rm Meas. temp.
 TCS .HRS               4:   Time Circ. stopped
 MRT .F               115:   Maximum recorded temp.
 LUN .               8766:   Logging unit number
 ENGI.          T. JOYNER:   Recorded By
 WITN.         PETTINGILL:   Witnessed by
 ORIG.           5" PRINT:   Origin of data
 UWI .     49025103800000:   Unique Well ID
 DICO. A2D TECHNOLOGIES, INC.:   Digitizing Company
 DFPH.                7.5:   pH
 DFL .                4.2:   Fluid loss
 MSS .            MUD PIT:   Source of sample
 RMF .OHMM           1.19:   Rmf
 MFST.F                65:   Rmf Meas. temp.
 MFSS.               MEAS:   Source Rmf.
 RMC .OHMM           2.01:   Rmc
 MCST.F                65:   Rmc Meas. temp.
 MCSS.               MEAS:   Source Rmc.
 RMB .OHMM            .67:   Rm. at BHT
 BHT .F               115:   BHT.
~OTHER INFORMATION
~A   DEPT     CALD         GRD      RHOB       CORR        SPR        ILD        ILM       SGRD   
# ...
 2181.0000     9.3419    87.8769     2.4019     0.0074   -58.7795     8.3559     8.7602    11.4486
 2181.5000     9.3284    88.8091     2.4028     0.0075   -58.1713     8.4774     8.8265    11.6176
 2182.0000     9.3300    89.4442     2.4081     0.0081   -57.8590     8.4830     8.8333    11.3897
 2182.5000     9.3311    89.4849     2.4120     0.0084   -57.5467     8.6063     8.8395    11.1662
 2183.0000     9.3475    88.3368     2.4158     0.0078   -57.3823     8.6121     8.8457    11.1759
 2183.5000     9.3488    86.0001     2.4175     0.0079   -57.2179     8.6181     8.8521    11.4195
 2184.0000     9.3499    83.3662     2.4138     0.0080   -57.3494     8.6250     8.7972    11.6023
 2184.5000     9.3513    81.6238     2.4100     0.0058   -57.4809     8.6299     8.7428    11.7616
 2185.0000     9.3527    81.3670     2.4058     0.0051   -57.6123     8.6366     8.6902    11.6106
 2185.5000     9.3540    82.3167     2.4022     0.0037   -57.2959     8.6423     8.7246    11.3046
 2186.0000     9.3553    83.8709     2.4000     0.0023   -56.3918     8.6595     8.7627    11.0805
 2186.5000     9.3566    85.3629     2.4017     0.0024   -55.6357     8.7135     8.8297    11.0925
 2187.0000     9.3579    86.5923     2.4063     0.0025   -55.3234     8.7797     8.8972    11.2562
 2187.5000     9.3595    87.5245     2.4065     0.0026   -55.1590     8.7858     8.9654    11.1886
 2188.0000     9.3606    88.7539     2.4080     0.0027   -54.9946     8.9148     9.0420    11.2008
 2188.5000     9.3470    89.3788     2.4014     0.0035   -55.1261     8.9207     9.1674    11.1311
 2189.0000     9.3338    87.3494     2.4061     0.0052   -55.2576     9.0504     9.3015    11.2978
 2189.5000     9.3351    87.0827     2.4099     0.0060   -55.2370     9.0565     9.3081    11.7042
 2190.0000     9.3212    88.3223     2.4108     0.0068   -55.2205     9.1881     9.3792    12.1252
 2190.5000     9.3229    87.7686     2.4116     0.0077   -55.2041     9.1941     9.3858    12.3894
 2191.0000     9.3242    87.5122     2.4134     0.0077   -55.3358     9.2640     9.3924    12.4001
 2191.5000     9.3255    87.8514     2.4227     0.0063   -55.3188     9.2081     9.4644    12.3256
 2192.0000     9.3102    86.4150     2.4270     0.0057   -55.4505     9.2142     9.4073    12.3390
 2192.5000     9.2984    84.3755     2.4263     0.0043   -55.4299     9.0943     9.4129    12.1780
 2193.0000     9.2999    81.7415     2.4280     0.0036   -55.4135     9.0199     9.3540    11.8596
 2193.5000     9.2862    80.2963     2.4303     0.0037   -55.6970     8.8581     9.3622    11.4677
 2194.0000     9.2879    79.1483     2.4320     0.0038   -55.6764     8.7656     9.1512    11.1655
 2194.5000     9.2892    78.8817     2.4305     0.0054   -55.8084     8.6084     8.9727    10.8710
 2195.0000     9.2905    79.5269     2.4307     0.0070   -55.9394     8.5139     8.8752    10.5824
 2195.5000     9.2918    78.9732     2.4293     0.0071   -56.0900     8.3506     8.6430    10.3058
 2196.0000     9.2931    76.6365     2.4279     0.0071   -56.2012     8.1854     8.5304    10.1036
 2196.5000     9.2944    74.2776     2.4281     0.0087   -56.1842     8.1346     8.4193    10.2550
 2197.0000     9.2957    73.1518     2.4321     0.0096   -56.1639     8.0829     8.3096    10.5509
 2197.5000     9.2973    74.6783     2.4418     0.0104   -56.1474     8.0328     8.2013    10.8553
 2198.0000     9.2984    71.4603     2.4456     0.0105   -56.1309     7.9841     8.0930    11.0155
 2198.5000     9.2997    70.0151     2.4458     0.0098   -56.1145     7.9896     8.0443    11.1782
 2199.0000     9.3010    69.1540     2.4444     0.0092   -56.6925     8.0526     8.0501    11.1056
 2199.5000     9.3025    68.8976     2.4423     0.0085   -56.6719     8.1126     8.1129    10.8205
 2200.0000     9.2890    70.4241     2.4409     0.0079   -56.6554     8.2305     8.2887    10.5354
 2200.5000     9.2902    67.2060     2.4387     0.0079   -56.7869     8.3760     8.4682    10.2577
 2201.0000     9.2768    66.3552     2.4359     0.0080   -56.9184     8.4940     8.5921    10.0543
 2201.5000     9.2562    66.9902     2.4316     0.0081   -57.1978     8.6541     8.7782    10.1348
 2202.0000     9.2349    68.2199     2.4294     0.0082   -57.4772     8.7800     8.9684    11.4838
 2202.5000     9.2363    68.2615     2.4296     0.0075   -57.9004     8.9076     9.0995    12.0620
 2203.0000     9.2079    68.6084     2.4298     0.0084   -58.3277     8.9810     9.2329    12.2404
 2203.5000     9.1799    69.2434     2.4299     0.0092   -58.6071     9.1072     9.3694    12.1666
 2204.0000     9.1812    70.7700     2.4305     0.0086   -58.8906     9.1132     9.3760    12.5203
 2204.5000     9.1825    73.1881     2.4307     0.0087   -59.3138     9.1823     9.2538    12.9707
 2205.0000     9.1646    69.9598     2.4323     0.0087   -59.5932     9.2519     9.2603    13.0718
 2205.5000     9.1516    74.1404     2.4324     0.0088   -59.7247     9.2581     9.1396    12.5123
 2206.0000     9.1544    71.1264     2.4278     0.0089   -59.2603     9.2643     9.1461    12.0212
 2206.5000     9.1419    73.5357     2.4280     0.0090   -58.8000     9.2704     9.1525    11.7807
 2207.0000     9.1443    69.7043     2.4297     0.0084   -58.1919     9.2766     9.1589    11.6853
 2207.5000     9.1467    73.8966     2.4305     0.0085   -57.5837     9.1574     9.1023    11.7736
 2208.0000     9.1495    72.7398     2.4291     0.0086   -57.0581     9.1721     9.2207    11.8600
 2208.5000     9.1518    70.3862     2.4261     0.0094   -56.6028     9.2074     9.0281    12.0317
 2209.0000     9.1541    70.8472     2.4239     0.0095   -56.1474     9.0954     8.8496    12.2049
 2209.5000     9.1712    68.9718     2.4232     0.0096   -56.1260     8.9749     8.7303    12.5525
 2210.0000     9.1883    72.6100     2.4272     0.0097   -56.1243     8.7977     8.6644    12.5588
 2210.5000     9.1753    75.0809     2.4312     0.0105   -56.1124     8.6755     8.5731    12.1394
 2211.0000     9.1782    74.1276     2.4329     0.0113   -56.0984     8.5685     8.5778    11.7340
 2211.5000     9.1953    74.7538     2.4337     0.0114   -56.0868     8.5146     8.4644    11.1837
 2212.0000     9.1976    71.8139     2.4338     0.0115   -56.2261     8.4610     8.4708    10.6547
 2212.5000     9.2000    70.6491     2.4347     0.0108   -56.2117     8.3513     8.4031    10.2382
 2213.0000     9.2028    73.0584     2.4356     0.0102   -56.2002     8.2987     8.3648    10.5311
 2213.5000     9.2051    71.9016     2.4326     0.0103   -56.1886     8.2463     8.3064    10.8310
 2214.0000     9.2074    78.1821     2.4312     0.0096   -56.1771     8.1384     8.2042    10.9869
 2214.5000     9.2245    80.5914     2.4266     0.0089   -56.1655     8.1430     8.1527    11.1450
 2215.0000     9.2269    80.9205     2.4229     0.0091   -56.1538     8.0363     8.0444    11.1507
 2215.5000     9.2292    77.3942     2.4261     0.0099   -56.1424     7.9868     7.9771    11.0794
 2216.0000     9.2315    76.2294     2.4324     0.0100   -56.4268     7.9354     7.9446    10.8583
 2216.5000     9.2338    78.0522     2.4302     0.0108   -56.4123     7.8314     7.8404    10.7150
 2217.0000     9.2510    80.4615     2.4287     0.0101   -56.5516     7.8197     7.7376    10.5736
 2217.5000     9.2533    79.6019     2.4265     0.0095   -56.6880     7.7331     7.7423    10.2925
 2218.0000     9.2561    78.4450     2.4235     0.0081   -56.6736     7.6855     7.6937    10.0176
 2218.5000     9.2584    77.5840     2.4167     0.0067   -56.6620     7.6372     7.6995     9.8842
 2219.0000     9.2608    77.6172     2.4114     0.0053   -56.6509     7.6416     7.7042    10.0277
 2219.5000     9.2631    82.1070     2.4069     0.0045   -56.6391     7.6459     7.6546    10.5288
 2220.0000     9.2654    81.4657     2.4046     0.0040   -56.6272     7.5456     7.6604    11.2084
 2220.5000     9.2677    78.6123     2.4040     0.0048   -56.6730     7.5510     7.6651    11.5276
 2221.0000     9.2700    77.7447     2.4057     0.0056   -56.7715     7.5547     7.6695    10.9145
