~VERSION INFORMATION
 VERS.                2.0:   CWLS LOG ASCII STANDARD - VERSION 2.0
 WRAP.                 NO:   ONE LINE PER DEPTH STEP
~WELL INFORMATION
#MNEM.UNIT      DATA TYPE    INFORMATION
#----------   ------------   ------------------------------
 STRT.F          196.0000:   START DEPTH
 STOP.F         3430.0000:   STOP DEPTH
 STEP.F            0.5000:   STEP LENGTH
 NULL.          -999.2500:   NO VALUE
 COMP.    FENIX $ SCISSON:   COMPANY
 WELL.   FENIX "A" #23-10:   WELL
 FLD .              N P R:   FIELD
 LOC .      S10 T38N R78W:   LOCATION
 CNTY.            NATRONA:   COUNTY
 STAT.            WYOMING:   STATE
 CTRY. UNITED STATES OF AMERICA:   COUNTRY
 SRVC.              WELEX:   SERVICE COMPANY
 DATE.        23-JUL-1977:   LOGDATE
 API .     49025103990000:   API NUMBER
~CURVE INFORMATION
#MNEM.UNIT       API CODE    CURVE DESCRIPTION
#----------   ------------   ------------------------------
 DEPT.F                  :   
 SPR .MV     07 010 01 00:   SPONTANEOUS POTENTIAL
 GURD.OHMM   07 220 05 00:   GUARD LOG RESISTIVITY
 FORX.OHMM   07 220 00 00:   FORMATION FACTOR
 NPHI.DEC    42 890 03 00:   NEUTRON POROSITY SANDSTONE
 CALD.IN     45 280 60 00:   CALIPER FROM DENSITY LOG
 CORR.G/C3   45 356 01 00:   DENSITY CORRECTION
 GRD .GAPI   45 310 01 00:   GAMMA RAY FROM DENSITY LOG
 RHOB.G/C3   45 350 01 00:   BULK DENSITY
~PARAMETER INFORMATION
#MNEM.UNIT          VALUE    DESCRIPTION
#----------   ------------   ------------------------------
 EKB .F         5251.0000:   Kelly bushing
 EGL .F         5241.0000:   Ground level
 EDF .F            0.0000:   Drilling floor
 EPD .F         5241.0000:   Permanent datum
 TD  .F         3430.0000:   Total depth
 DATE.        23-JUL-1977:   Date logged
 CLNT.            A2DTECH:   Client Code
 SL  . 1650' FNL & 990' FWL:   Surface Location
 PD  .                 GL:   Permanent Datum
 DD  .F              3430:   Depth driller
 DL  .F              3430:   Depth logger
 BLI .F              3428:   Bottom log interval
 CS1 .IN            8.625:   Casing size
 CBD1.      8.625" @ 220':   Casing driller 1
 BS1 .IN            7.875:   Bit size
 DFT .            KCL MUD:   Type fluid in hole
 DFD .                8.9:   Density
 DFV .                 33:   Viscosity
 DFPH.                  8:   pH
 DFL .                  8:   Fluid loss
 MSS .           FLOWLINE:   Source of sample
 RMS .OHMM            .49:   Rm
 MST .F                94:   Rm Meas. temp.
 RMF .OHMM            .46:   Rmf
 MFST.F                90:   Rmf Meas. temp.
 RMC .OHMM            .40:   Rmc
 MCST.F                90:   Rmc Meas. temp.
 MFSS.               FANN:   Source Rmf.
 RMB .OHMM            .15:   Rm. at BHT
 BHT .F               122:   BHT.
 TCS .HRS               6:   Time Circ. stopped
 MRT .F               122:   Maximum recorded temp.
 LUN .               8611:   Logging unit number
 LUL .             CASPER:   Logging unit location
 ENGI.            C. DOAK:   Recorded By
 WITN.      B. HARRINGTON:   Witnessed by
 ORIG.           5" PRINT:   Origin of data
 UWI .     49025103990000:   Unique Well ID
 DICO. A2D TECHNOLOGIES, INC.:   Digitizing Company
 DAPD.                 10:   Feet Above Permanent Datum
 BSD1.               3430:   Depth drilled with bit1
 MCSS.                KIT:   Source Rmc.
 TLI .                200:   Top log interval
~OTHER INFORMATION
~A   DEPT      SPR         GURD     FORX       NPHI       CALD       CORR        GRD       RHOB   
# ...
  641.5000   -78.4150    10.3470     9.6310     0.2550    11.1710     0.0490   100.2070     2.3990
  642.0000   -78.5790    10.0740     9.5870     0.2570    11.1690     0.0490   103.3330     2.3820
  642.5000   -78.7250     9.8550     9.2290     0.2610    11.1670     0.0440   105.3920     2.3630
  643.0000   -78.6830     9.5070     8.7650     0.2660    11.1660     0.0380   105.8290     2.3440
  643.5000   -78.6210     9.0310     7.8680     0.2720    11.1640     0.0320   104.9760     2.3320
  644.0000   -78.5600     8.7050     7.1110     0.2780    11.1620     0.0260   102.5270     2.3410
  644.5000   -78.4990     7.1530     4.6090     0.2810    11.1610     0.0230   101.2750     2.3900
  645.0000   -78.4380     5.6350     1.8750     0.2730    11.1590     0.0340   100.1290     2.4650
  645.5000   -78.3760     4.0710     7.1100     0.2640    11.1590     0.0410    99.1770     2.4570
  646.0000   -78.3150     3.6020    12.3440     0.2550    11.1590     0.0380    98.3550     2.4440
  646.5000   -78.2540     7.1300    12.2310     0.2490    11.1600     0.0350    99.8810     2.4340
  647.0000   -78.1920    11.3640    15.8210     0.2480    11.1610     0.0320    99.3220     2.4290
  647.5000   -78.1310    11.3210    10.2710     0.2480    11.1620     0.0290    98.6580     2.4240
  648.0000   -78.0700    11.2340    10.3910     0.2480    11.1620     0.0290    98.8910     2.4180
  648.5000   -78.0080    11.1570    10.6560     0.2490    11.1630     0.0290    99.4070     2.4200
  649.0000   -77.9450    11.0550    10.5130     0.2490    11.1640     0.0280    99.9300     2.4220
  649.5000   -77.8920    11.0830    10.2270     0.2500    11.1650     0.0270   100.3040     2.4250
  650.0000   -77.8230    11.1080    10.0840     0.2500    11.1650     0.0270   100.3130     2.4270
  650.5000   -77.7540    11.1340    11.0550     0.2510    11.1660     0.0310    99.2230     2.4290
  651.0000   -77.6850    11.1570    10.7540     0.2500    11.1670     0.0350    97.4140     2.4320
  651.5000   -77.6160    11.3800    10.9120     0.2480    11.1680     0.0390    96.7910     2.4390
  652.0000   -77.5460    11.7950    11.2340     0.2440    11.1690     0.0430    96.5760     2.4480
  652.5000   -77.4770    12.2100    11.5560     0.2410    11.1690     0.0470    96.3820     2.4560
  653.0000   -77.4080    12.5730    11.7890     0.2420    11.1700     0.0510    96.1960     2.4650
  653.5000   -77.3380    12.4360    11.5740     0.2440    11.1710     0.0550    97.0300     2.4730
  654.0000   -77.2690    12.3440    13.0440     0.2490    11.1720     0.0530    96.1080     2.4800
  654.5000   -77.2000    12.4570    12.5730     0.2530    11.1720     0.0510    94.5570     2.4750
  655.0000   -77.1310    12.6270    13.1260     0.2560    11.1730     0.0490    94.8190     2.4720
  655.5000   -77.0610    12.7970    13.4080     0.2560    11.1740     0.0470    95.1870     2.4730
  656.0000   -76.9920    12.9240    13.0440     0.2540    11.1750     0.0450    95.5560     2.4740
  656.5000   -76.9230    12.9240    14.5650     0.2520    11.1750     0.0460    95.9220     2.4750
  657.0000   -76.8530    12.9240    14.1690     0.2490    11.1760     0.0470    96.2900     2.4770
  657.5000   -76.7840    12.9240    14.4320     0.2490    11.1770     0.0470    96.7960     2.4780
  658.0000   -76.7150    13.2830    13.6570     0.2510    11.1780     0.0480    97.5480     2.4790
  658.5000   -76.6460    13.4080    13.8400     0.2530    11.1780     0.0490    98.2720     2.4810
  659.0000   -76.5760    13.3790    13.5260     0.2550    11.1750     0.0490    97.7210     2.4820
  659.5000   -76.5070    13.3320    13.4080     0.2530    11.1720     0.0500    97.0700     2.4800
  660.0000   -76.4380    13.2860    13.7420     0.2490    11.1690     0.0510    95.5000     2.4730
  660.5000   -76.3740    13.4550    14.4110     0.2460    11.1660     0.0510    94.0640     2.4660
  661.0000   -76.3720    13.6610    14.3220     0.2460    11.1630     0.0520    93.7360     2.4650
  661.5000   -76.3730    13.9110    14.1440     0.2490    11.1600     0.0530    94.5510     2.4660
  662.0000   -76.3990    14.0390    13.9650     0.2510    11.1580     0.0520    95.4410     2.4700
  662.5000   -76.5180    13.6740    13.7870     0.2530    11.1550     0.0490    96.3370     2.4760
  663.0000   -76.6340    13.2860    13.6090     0.2530    11.1520     0.0450    97.2770     2.4640
  663.5000   -76.7500    13.1360    13.4300     0.2510    11.1490     0.0420    96.9460     2.4570
  664.0000   -76.8660    12.9240    13.2860     0.2520    11.1460     0.0390    96.2240     2.4500
  664.5000   -76.9820    12.9860    13.5640     0.2530    11.1430     0.0360    96.2430     2.4430
  665.0000   -77.0980    13.1470    13.9670     0.2560    11.1400     0.0320    97.3390     2.4350
  665.5000   -77.2140    13.3080    14.3000     0.2600    11.1370     0.0310    98.4330     2.4360
  666.0000   -77.3310    13.4080    13.9110     0.2640    11.1340     0.0340    99.5290     2.4440
  666.5000   -77.4470    13.3170    13.7830     0.2660    11.1320     0.0380    99.7810     2.4580
  667.0000   -77.5630    13.1570    13.7830     0.2670    11.1290     0.0410    99.8710     2.4610
  667.5000   -77.6790    12.9970    13.6630     0.2670    11.1260     0.0450   100.2180     2.4670
  668.0000   -77.7950    12.8370    13.4480     0.2670    11.1230     0.0480   100.7850     2.4780
  668.5000   -77.9110    12.6770    13.2330     0.2650    11.1200     0.0520   101.7250     2.4840
  669.0000   -78.0270    12.5730    13.0180     0.2630    11.1170     0.0510   101.8920     2.4830
  669.5000   -78.1430    12.4110    12.8040     0.2600    11.1140     0.0480   101.4490     2.4720
  670.0000   -78.2590    12.1950    12.5890     0.2560    11.1110     0.0450   100.8860     2.4600
  670.5000   -78.3750    11.9790    12.3740     0.2540    11.1080     0.0420   100.6780     2.4500
  671.0000   -78.4910    11.7630    12.2310     0.2540    11.1060     0.0390   100.6940     2.4500
  671.5000   -78.6070    11.4690    12.9240     0.2590    11.1030     0.0360   100.6970     2.4490
  672.0000   -78.7240    11.4190    12.4740     0.2650    11.1000     0.0330   100.6570     2.4480
  672.5000   -78.8400    11.3650    11.6810     0.2720    11.0950     0.0350   100.5890     2.4540
  673.0000   -78.9560    11.3120    11.7680     0.2770    11.0900     0.0370   100.5200     2.4530
  673.5000   -79.0730    11.2580    11.8980     0.2850    11.0850     0.0390   100.4510     2.4500
  674.0000   -79.1170    11.2050    11.8980     0.2920    11.0800     0.0410   100.3830     2.4540
  674.5000   -79.1180    11.1570    11.6300     0.2950    11.0750     0.0400   100.3140     2.4660
  675.0000   -79.1180    10.9540    11.4250     0.2930    11.0700     0.0380   100.2450     2.4660
  675.5000   -79.1180    10.7370    11.2600     0.2870    11.0650     0.0360   100.1690     2.4520
  676.0000   -79.1180    10.5580    11.6210     0.2820    11.0600     0.0340   100.1140     2.4470
  676.5000   -79.1180    10.5580    11.7890     0.2770    11.0550     0.0350   101.7680     2.4480
  677.0000   -79.1180    10.8310    11.5750     0.2740    11.0500     0.0400   103.5210     2.4510
  677.5000   -79.1180    11.0420    11.6610     0.2770    11.0450     0.0440   102.9030     2.4540
  678.0000   -79.1180    11.2540    11.8400     0.2810    11.0400     0.0490   103.7190     2.4600
  678.5000   -79.1180    11.4650    11.8980     0.2850    11.0350     0.0530   103.8150     2.4560
  679.0000   -79.1180    11.6760    11.8980     0.2890    11.0300     0.0580   103.5430     2.4550
  679.5000   -79.1180    11.7890    11.6790     0.2920    11.0250     0.0620   103.2930     2.4670
  680.0000   -79.1180    11.7890    11.2090     0.2910    11.0200     0.0650   103.3890     2.4800
  680.5000   -79.1180    11.4420    10.9540     0.2890    11.0150     0.0630   104.9340     2.4820
  681.0000   -79.1180    11.0780    11.1570     0.2870    11.0100     0.0610   106.4320     2.4810
  681.5000   -79.1180    10.7140    10.9300     0.2860    11.0050     0.0590   107.5100     2.4790
