~VERSION INFORMATION
 VERS.                2.0:   CWLS LOG ASCII STANDARD - VERSION 2.0
 WRAP.                 NO:   ONE LINE PER DEPTH STEP
~WELL INFORMATION
#MNEM.UNIT      DATA TYPE    INFORMATION
#----------   ------------   ------------------------------
 STRT.F          450.0000:   START DEPTH
 STOP.F         3070.0000:   STOP DEPTH
 STEP.F            0.5000:   STEP LENGTH
 NULL.          -999.2500:   NO VALUE
 COMP. LAWRENCE ALLISON & ASSOCIATES:   COMPANY
 WELL. LAWRENCE "X" #86-28:   WELL
 FLD .             NPR #3:   FIELD
 LOC .      S28 T39N R78W:   LOCATION
 CNTY.            NATRONA:   COUNTY
 STAT.            WYOMING:   STATE
 CTRY. UNITED STATES OF AMERICA:   COUNTRY
 SRVC.      WESTERN ATLAS:   SERVICE COMPANY
 DATE.        03-JAN-1988:   LOGDATE
 API .     49025111920000:   API NUMBER
~CURVE INFORMATION
#MNEM.UNIT       API CODE    CURVE DESCRIPTION
#----------   ------------   ------------------------------
 DEPT.F                  :   
 TEND.LBS    45 635 01 00:   TENSION FROM DENSITY LOG
 CALD.IN     45 280 60 00:   CALIPER FROM DENSITY LOG
 NPHI.DEC    42 890 03 00:   NEUTRON POROSITY SANDSTONE
 DEN .G/C3   45 350 01 00:   BULK DENSITY
 CORR.G/C3   45 356 01 00:   DENSITY CORRECTION
 TENR.LBS    07 635 01 00:   TENSION FROM RESISTIVITY
 RFOC.OHMM   07 220 04 00:   RESISTIVITY FOCUSED LOG RES.
 RILD.OHMM   07 120 46 00:   DEEP INDUCTION RESISTIVITY
 RILM.OHMM   07 120 44 00:   INDUCTION LOG MEDIUM RESISTIVITY
 SPR .MV     07 010 01 00:   SPONTANEOUS POTENTIAL
 GRR .GAPI   07 310 01 00:   GAMMA RAY FROM RESISTIVITY
~PARAMETER INFORMATION
#MNEM.UNIT          VALUE    DESCRIPTION
#----------   ------------   ------------------------------
 EKB .F         5072.0000:   Kelly bushing
 EGL .F         5061.0000:   Ground level
 EDF .F         5071.0000:   Drilling floor
 TD  .F         3062.0000:   Total depth
 DATE.        03-JAN-1988:   Date logged
 CLNT.            A2DTECH:   Client Code
 SL  . 1721' FSL & 556' FEL:   Surface Location
 PD  .                 GL:   Permanent Datum
 DD  .F              3060:   Depth driller
 DL  .F              3062:   Depth logger
 BLI .F              3060:   Bottom log interval
 CS1 .IN            8.625:   Casing size
 CBD1.      8.625" @ 480':   Casing driller 1
 CBL1.F               480:   Casing logger 1
 BS1 .IN            7.875:   Bit size
 DFT .        KCL-POLYMER:   Type fluid in hole
 DFD .                8.9:   Density
 DFV .                 36:   Viscosity
 DFPH.                9.5:   pH
 DFL .                8.4:   Fluid loss
 MSS .               TANK:   Source of sample
 RMS .OHMM           0.45:   Rm
 MST .F                80:   Rm Meas. temp.
 RMF .OHMM           0.41:   Rmf
 MFST.F                60:   Rmf Meas. temp.
 RMC .OHMM           0.65:   Rmc
 MCST.F                60:   Rmc Meas. temp.
 MFSS.               MEAS:   Source Rmf.
 RMB .OHMM           0.31:   Rm. at BHT
 BHT .F               110:   BHT.
 TCS .HRS               4:   Time Circ. stopped
 MRT .F               110:   Maximum recorded temp.
 LUN .            HL 6343:   Logging unit number
 LUL .               CODY:   Logging unit location
 ENGI.               RALL:   Recorded By
 WITN.              FIVRS:   Witnessed by
 ORIG.     2.5", 5" PRINT:   Origin of data
 UWI .     49025111920000:   Unique Well ID
 DICO. A2D TECHNOLOGIES, INC.:   Digitizing Company
 DAPD.                 11:   Feet Above Permanent Datum
 BSD1.               3060:   Depth drilled with bit1
 MCSS.               CALC:   Source Rmc.
 EPD .               5061:   Elevation Permanent Datum
 LMF .                 KB:   Log Measured From
 DMF .                 KB:   Drilling Measured From
 TLI .                480:   Top log interval
~OTHER INFORMATION
~A   DEPT     TEND       CALD       NPHI        DEN       CORR       TENR       RFOC       RILD       RILM        SPR         GRR  
# ...
 1517.5000  -999.2500  -999.2500  -999.2500  -999.2500  -999.2500   -82.6570     8.8170     7.4100     7.7350   -17.1850   100.9800
 1518.0000  -999.2500  -999.2500  -999.2500  -999.2500  -999.2500   -82.6570     8.5900     7.3530     7.7340   -17.4770   106.0210
 1518.5000  -999.2500  -999.2500  -999.2500  -999.2500  -999.2500   -82.6570     8.2580     7.2960     7.7340   -17.7690   110.1280
 1519.0000  -999.2500  -999.2500  -999.2500  -999.2500  -999.2500   -82.6570     8.3830     7.2390     7.7340   -18.0620   109.4210
 1519.5000  -999.2500  -999.2500  -999.2500  -999.2500  -999.2500   -82.6570     8.4930     7.1820     7.7340   -18.3590   106.2300
 1520.0000  -999.2500  -999.2500  -999.2500  -999.2500  -999.2500   -82.6570     8.2230     7.1250     7.7440   -18.6030   103.0830
 1520.5000  -999.2500  -999.2500  -999.2500  -999.2500  -999.2500   -82.6570     7.9920     7.0680     7.7570   -18.4810   106.0580
 1521.0000  -999.2500  -999.2500  -999.2500  -999.2500  -999.2500   -82.6570     7.8070     6.9780     7.7700   -18.5070   110.0000
 1521.5000  -999.2500  -999.2500  -999.2500  -999.2500  -999.2500   -82.6570     8.1150     7.0040     7.7820   -18.5450   109.5170
 1522.0000  -999.2500  -999.2500  -999.2500  -999.2500  -999.2500   -82.6570     8.4140     7.0680     7.7950   -18.5850   108.1050
 1522.5000  -999.2500  -999.2500  -999.2500  -999.2500  -999.2500   -82.6570     8.2960     7.1320     7.8070   -18.6190   108.1040
 1523.0000  -999.2500  -999.2500  -999.2500  -999.2500  -999.2500   -82.6570     8.1050     7.1950     7.7790   -18.5340   108.0000
 1523.5000  -999.2500  -999.2500  -999.2500  -999.2500  -999.2500   -82.6570     8.2320     7.2590     7.7520   -18.0130   106.8070
 1524.0000  -999.2500  -999.2500  -999.2500  -999.2500  -999.2500   -82.6570     8.5090     7.3230     7.7250   -17.5010   104.4420
 1524.5000  -999.2500  -999.2500  -999.2500  -999.2500  -999.2500   -82.6570     8.7990     7.3870     7.6980   -16.9860   101.8820
 1525.0000  -999.2500  -999.2500  -999.2500  -999.2500  -999.2500   -82.6570     8.6970     7.4510     7.6620   -16.4540    99.8670
 1525.5000  -999.2500  -999.2500  -999.2500  -999.2500  -999.2500   -82.6570     8.5620     7.5200     7.7340   -16.4260   100.9120
 1526.0000  -999.2500  -999.2500  -999.2500  -999.2500  -999.2500   -82.6570     8.4260     7.5080     7.7340   -16.4560   105.2600
 1526.5000  -999.2500  -999.2500  -999.2500  -999.2500  -999.2500   -82.6570     8.3360     7.4940     7.7340   -16.4920   105.6840
 1527.0000  -999.2500  -999.2500  -999.2500  -999.2500  -999.2500   -82.6570     8.3360     7.4810     7.7340   -16.5270   102.7050
 1527.5000  -999.2500  -999.2500  -999.2500  -999.2500  -999.2500   -82.6570     8.3360     7.4670     7.7190   -16.5620   100.5570
 1528.0000  -999.2500  -999.2500  -999.2500  -999.2500  -999.2500   -82.6570     8.3440     7.4530     7.6980   -16.5960   100.5480
 1528.5000  -999.2500  -999.2500  -999.2500  -999.2500  -999.2500   -82.6570     8.3640     7.4480     7.6770   -16.6420   102.2940
 1529.0000  -999.2500  -999.2500  -999.2500  -999.2500  -999.2500   -82.1570     8.3850     7.4450     7.6570   -17.0940   104.4410
 1529.5000  -999.2500  -999.2500  -999.2500  -999.2500  -999.2500   -81.6490     8.4060     7.4420     7.6360   -17.3410   106.6360
 1530.0000  -999.2500  -999.2500  -999.2500  -999.2500  -999.2500   -81.1410     8.6100     7.4390     7.6150   -17.5950   107.4990
 1530.5000  -999.2500  -999.2500  -999.2500  -999.2500  -999.2500   -80.6330     8.9840     7.4360     7.5940   -17.7060   106.1120
 1531.0000  -999.2500  -999.2500  -999.2500  -999.2500  -999.2500   -80.1250     8.8110     7.4340     7.5910   -17.7850   104.4930
 1531.5000  -999.2500  -999.2500  -999.2500  -999.2500  -999.2500   -79.6170     8.6050     7.4310     7.5910   -17.8790   102.8470
 1532.0000  -999.2500  -999.2500  -999.2500  -999.2500  -999.2500   -79.1090     8.4930     7.4280     7.5910   -18.0210   101.2250
 1532.5000  -999.2500  -999.2500  -999.2500  -999.2500  -999.2500   -78.6000     8.4930     7.4250     7.5910   -18.2640   101.6920
 1533.0000  -999.2500  -999.2500  -999.2500  -999.2500  -999.2500   -78.0920     8.4930     7.4220     7.5910   -18.5870   102.4590
 1533.5000  -999.2500  -999.2500  -999.2500  -999.2500  -999.2500   -77.5840     8.4930     7.4190     7.5910   -18.9130   102.7290
 1534.0000  -999.2500  -999.2500  -999.2500  -999.2500  -999.2500   -77.0760     8.4930     7.4160     7.5910   -19.2360   101.5700
 1534.5000  -999.2500  -999.2500  -999.2500  -999.2500  -999.2500   -76.5680     8.4930     7.4130     7.5910   -19.4040   100.9480
 1535.0000  -999.2500  -999.2500  -999.2500  -999.2500  -999.2500   -76.0600     8.4930     7.4110     7.5910   -18.9650   103.6110
 1535.5000  -999.2500  -999.2500  -999.2500  -999.2500  -999.2500   -75.5520     8.4930     7.4080     7.5900   -18.5260   106.3210
 1536.0000  -999.2500  -999.2500  -999.2500  -999.2500  -999.2500   -75.0440     8.4940     7.4050     7.6190   -18.0890   108.9890
 1536.5000  -999.2500  -999.2500  -999.2500  -999.2500  -999.2500   -74.5360     8.4930     7.4020     7.6490   -17.6520   109.0920
 1537.0000  -999.2500  -999.2500  -999.2500  -999.2500  -999.2500   -74.0270     8.4940     7.3990     7.6790   -17.2120   108.8090
 1537.5000  -999.2500  -999.2500  -999.2500  -999.2500  -999.2500   -73.5190     8.3850     7.3960     7.7090   -17.0230   107.2880
 1538.0000  -999.2500  -999.2500  -999.2500  -999.2500  -999.2500   -73.0110     8.2460     7.3930     7.7390   -16.9820   105.8160
 1538.5000  -999.2500  -999.2500  -999.2500  -999.2500  -999.2500   -72.5150     8.0300     7.3900     7.7690   -16.9420   105.2950
 1539.0000  -999.2500  -999.2500  -999.2500  -999.2500  -999.2500   -73.5660     8.1120     7.3880     7.7990   -16.9030   108.7380
 1539.5000  -999.2500  -999.2500  -999.2500  -999.2500  -999.2500   -74.5920     8.3040     7.3850     7.8290   -16.8660   111.8240
 1540.0000  -999.2500  -999.2500  -999.2500  -999.2500  -999.2500   -75.6190     8.4950     7.3810     7.8590   -16.8260   110.8770
 1540.5000  -999.2500  -999.2500  -999.2500  -999.2500  -999.2500   -76.6450     8.6870     7.3910     7.8810   -16.6200   106.3310
 1541.0000  -999.2500  -999.2500  -999.2500  -999.2500  -999.2500   -77.6710     8.8780     7.4060     7.8640   -16.4140   101.9260
 1541.5000  -999.2500  -999.2500  -999.2500  -999.2500  -999.2500   -78.6980     8.9000     7.4210     7.8520   -16.2100   100.3070
 1542.0000  -999.2500  -999.2500  -999.2500  -999.2500  -999.2500   -79.7240     8.6660     7.4360     7.8390   -16.0280    99.0420
 1542.5000  -999.2500  -999.2500  -999.2500  -999.2500  -999.2500   -80.7510     8.4520     7.4510     7.8260   -15.9120    99.5660
 1543.0000  -999.2500  -999.2500  -999.2500  -999.2500  -999.2500   -81.7770     8.1810     7.4660     7.8130   -15.8260   101.7440
 1543.5000  -999.2500  -999.2500  -999.2500  -999.2500  -999.2500   -82.8030     8.2620     7.4810     7.8010   -15.8660   104.3830
 1544.0000  -999.2500  -999.2500  -999.2500  -999.2500  -999.2500   -83.8300     8.3730     7.4960     7.7880   -16.0030   106.6730
 1544.5000  -999.2500  -999.2500  -999.2500  -999.2500  -999.2500   -84.8560     8.4830     7.5180     7.7750   -16.1350   106.1880
 1545.0000  -999.2500  -999.2500  -999.2500  -999.2500  -999.2500   -85.8820     8.5930     7.5020     7.7620   -16.2660   105.8300
 1545.5000  -999.2500  -999.2500  -999.2500  -999.2500  -999.2500   -86.9090     8.7030     7.4540     7.7500   -16.3990   105.8350
 1546.0000  -999.2500  -999.2500  -999.2500  -999.2500  -999.2500   -87.9350     8.8140     7.4060     7.7370   -16.5290   105.9040
 1546.5000  -999.2500  -999.2500  -999.2500  -999.2500  -999.2500   -88.9610     8.9000     7.3570     7.7340   -16.6350   108.1060
 1547.0000  -999.2500  -999.2500  -999.2500  -999.2500  -999.2500   -89.9880     8.6860     7.3090     7.7340   -16.4730   109.4540
 1547.5000  -999.2500  -999.2500  -999.2500  -999.2500  -999.2500   -91.0140     8.5100     7.2610     7.7340   -16.0880   108.6520
