~VERSION INFORMATION
 VERS.                2.0:   CWLS LOG ASCII STANDARD - VERSION 2.0
 WRAP.                 NO:   ONE LINE PER DEPTH STEP
~WELL INFORMATION
#MNEM.UNIT      DATA TYPE    INFORMATION
#----------   ------------   ------------------------------
 STRT.F          470.0000:   START DEPTH
 STOP.F         3791.5000:   STOP DEPTH
 STEP.F            0.5000:   STEP LENGTH
 NULL.          -999.2500:   NO VALUE
 COMP.    FENIX & SCISSON:   COMPANY
 WELL.   FENIX MDX #44-10:   WELL
 FLD .                NPR:   FIELD
 LOC .      S10 T38N R78W:   LOCATION
 CNTY.            NATRONA:   COUNTY
 STAT.            WYOMING:   STATE
 CTRY. UNITED STATES OF AMERICA:   COUNTRY
 SRVC.       SCHLUMBERGER:   SERVICE COMPANY
 DATE.        25-OCT-1977:   LOGDATE
 API .     49025104310000:   API NUMBER
~CURVE INFORMATION
#MNEM.UNIT       API CODE    CURVE DESCRIPTION
#----------   ------------   ------------------------------
 DEPT.F                  :   
 DT  .US/F   60 520 00 00:   DELTA TIME
 SPR .MV     11 010 01 00:   SPONTANEOUS POTENTIAL FROM RES.
 LLS .OHMM   11 220 09 00:   LATEROLOG LOG SHALLOW
 LLD .OHMM   11 220 10 00:   LATEROLOG LOG DEEP
 MSFL.OHMM   11 270 04 00:   MICRO SPHERICALLY FOCUSED
 NPOR.DEC    42 890 03 00:   ALPHA PROCESSED NEUTRON POROSITY
 RHOB.G/C3   45 350 01 00:   BULK DENSITY
 CORR.G/C3   45 356 01 00:   DENSITY CORRECTION
 GRD .GAPI   45 310 01 00:   GAMMA RAY FROM DENSITY LOG
 CALD.IN     45 280 60 00:   CALIPER FROM DENSITY LOG
~PARAMETER INFORMATION
#MNEM.UNIT          VALUE    DESCRIPTION
#----------   ------------   ------------------------------
 EKB .F         5239.0000:   Kelly bushing
 EGL .F         5229.0000:   Ground level
 EDF .F            0.0000:   Drilling floor
 EPD .F           10.0000:   Permanent datum
 TD  .F         3802.0000:   Total depth
 DATE.        25-OCT-1977:   Date logged
 CLNT.            A2DTECH:   Client Code
 SL  . 2640' FNL & 2640' FEL:   Surface Location
 PD  .                 GL:   Permanent Datum
 DD  .F              3802:   Depth driller
 DL  .F              3791:   Depth logger
 BLI .F              3789:   Bottom log interval
 TLI .F               505:   Top log interval
 CS1 .IN            8.625:   Casing size
 CBD1.       8.625 @ 505':   Casing driller 1
 CBL1.F               505:   Casing logger 1
 BS1 .IN            7.875:   Bit size
 DFT .            KCL MUD:   Type fluid in hole
 DFD .                9.1:   Density
 DFV .                 45:   Viscosity
 DFPH.               10.5:   pH
 DFL .                  8:   Fluid loss
 MSS .             MUDPIT:   Source of sample
 RMS .OHMM           .209:   Rm
 MST .F                72:   Rm Meas. temp.
 RMF .OHMM           .179:   Rmf
 MFST.F                72:   Rmf Meas. temp.
 RMC .OHMM           .314:   Rmc
 MCST.F                72:   Rmc Meas. temp.
 MFSS.               MEAS:   Source Rmf.
 RMB .OHMM           .122:   Rm. at BHT
 BHT .F               123:   BHT.
 TCS .HRS            1400:   Time Circ. stopped
 MRT .F               123:   Maximum recorded temp.
 LUN .               5642:   Logging unit number
 LUL .               CSPR:   Logging unit location
 ENGI.             SAYLER:   Recorded By
 WITN.         PETTINGILL:   Witnessed by
 ORIG.           5" PRINT:   Origin of data
 UWI .     49025104310000:   Unique Well ID
 DICO. A2D TECHNOLOGIES, INC.:   Digitizing Company
 DAPD.                 10:   Feet Above Permanent Datum
 BSD1.               3802:   Depth drilled with bit1
 MCSS.               CALC:   Source Rmc.
~OTHER INFORMATION
~A   DEPT        DT       SPR        LLS        LLD       MSFL       NPOR       RHOB       CORR        GRD       CALD   
# ...
  939.0000    95.9500   -33.6820     8.8560     8.3320     9.6050     0.3340     2.5130    -0.0110    91.4110    12.0520
  939.5000    96.9500   -33.6640     8.9240     8.4140     9.6930     0.3430     2.5190    -0.0100    92.9640    12.0330
  940.0000    96.5740   -33.6450     8.9920     8.4960     9.7800     0.3440     2.5090     0.0170    94.6240    12.0150
  940.5000    96.1500   -33.6270     9.0600     8.6110     9.7960     0.3500     2.4930     0.0060    92.0360    12.0020
  941.0000    96.0910   -33.6090     9.1000     8.5170     9.7560     0.3540     2.4900    -0.0010    93.6190    12.0020
  941.5000    95.8830   -33.5910     8.8950     8.3630     9.8060     0.3570     2.4880     0.0130    95.6240    12.0020
  942.0000    95.3840   -33.5730     8.6900     8.1480     9.8560     0.3570     2.4800    -0.0070    96.5740    12.0020
  942.5000    95.5870   -33.5860     8.7340     8.1770     9.8860     0.3400     2.4830     0.0110    95.6730    12.0020
  943.0000    96.0480   -33.6480     8.8080     8.2260    10.0940     0.3460     2.4770    -0.0070    95.3280    12.0020
  943.5000    96.5310   -33.7100     8.8810     8.2760    10.4480     0.3490     2.4700    -0.0030    96.4920    12.0020
  944.0000    97.1730   -33.7720     8.9550     8.3250    10.7410     0.3400     2.4640     0.0040    97.6040    12.0210
  944.5000    97.2150   -33.8330     9.0160     8.3760    10.7410     0.3380     2.4570    -0.0190    98.6460    12.0420
  945.0000    97.0450   -33.8950     8.8860     8.2900    10.3690     0.3460     2.4500    -0.0130    99.6020    12.0650
  945.5000    97.0070   -33.9560     8.7740     8.2020    10.1880     0.3560     2.4550    -0.0200   100.5110    12.1370
  946.0000    96.9690   -34.0560     8.6110     8.0730    10.0700     0.3610     2.4620    -0.0160    99.3270    12.2030
  946.5000    97.1210   -34.1830     8.6410     8.1320    10.1500     0.3640     2.4490    -0.0020    95.9680    12.2020
  947.0000    97.6100   -34.3120     8.6960     8.2410    10.2190     0.3430     2.4670     0.0010    95.8160    12.0100
  947.5000    98.2400   -34.4410     8.7510     8.3490    10.2880     0.3340     2.4780    -0.0080    96.2330    11.9270
  948.0000    98.1060   -34.5690     8.8070     8.4580    10.3580     0.3340     2.4830     0.0030    96.9370    12.0210
  948.5000    98.2360   -34.6980     8.8620     8.5320    10.4270     0.3470     2.4770    -0.0060    97.9280    11.9540
  949.0000    97.8140   -34.8270     8.9340     8.3790    10.4970     0.3470     2.4830    -0.0120   102.5550    11.8200
  949.5000    97.3500   -34.9550     8.8180     8.2430    10.5450     0.3380     2.4830     0.0070   101.8790    11.7630
  950.0000    97.1890   -35.0840     8.6540     8.1070    10.1960     0.3380     2.4770    -0.0130    96.8700    11.7630
  950.5000    97.0110   -35.2130     8.4910     7.9740     9.9300     0.3480     2.4780     0.0020    95.3880    11.7640
  951.0000    96.8500   -35.3410     8.3760     7.8530     9.7960     0.3490     2.4870    -0.0040    95.5620    11.7640
  951.5000    97.3970   -35.4700     8.4290     8.0530     9.9410     0.3410     2.4900     0.0070    98.3240    11.7750
  952.0000    97.3030   -35.5980     8.4890     8.2230    10.0700     0.3460     2.4950     0.0100   100.5540    11.7860
  952.5000    97.4560   -35.7270     8.5320     7.9220     9.8690     0.3570     2.4920     0.0030    99.8170    11.7950
  953.0000    98.5220   -35.8560     8.3360     7.7810     9.5750     0.3540     2.5070     0.0060    98.6420    11.7870
  953.5000    98.1620   -35.9840     8.1840     7.7320     9.2810     0.3570     2.5170     0.0240   100.4160    11.7550
  954.0000    97.9500   -36.1130     8.0700     7.6760     9.1000     0.3450     2.5220     0.0080   102.6120    11.7280
  954.5000    98.3020   -36.2410     8.0580     7.6200     9.1000     0.3440     2.5220     0.0190   107.0550    11.7010
  955.0000    98.6550   -36.3320     8.0470     7.5640     9.2280     0.3410     2.5080     0.0090   108.5770    11.7090
  955.5000    99.0070   -36.2970     8.0360     7.5080     9.4230     0.3450     2.4890    -0.0030   107.4500    11.7660
  956.0000    98.7770   -36.2660     8.0240     7.4820     9.5290     0.3370     2.4790     0.0090   103.6070    11.8220
  956.5000    98.4140   -36.2350     8.0130     7.4560     9.5020     0.3310     2.4780    -0.0160   101.7570    11.8800
  957.0000    98.1950   -36.2030     8.0010     7.4290     9.3950     0.3330     2.4810     0.0060   102.6850    11.8950
  957.5000    98.3500   -36.1720     7.9900     7.4030     9.2880     0.3370     2.4850     0.0080   101.7680    11.8840
  958.0000    98.9200   -36.1410     7.9790     7.3760     9.1820     0.3410     2.4890    -0.0090   103.7660    11.8730
  958.5000    99.4520   -36.1090     7.9670     7.3500     9.1000     0.3450     2.4850     0.0060   106.7610    11.8630
  959.0000    99.9500   -36.0780     7.9560     7.3230     9.3020     0.3570     2.4890    -0.0060   109.8730    11.8770
  959.5000   100.3630   -36.0470     7.9440     7.2970     9.5290     0.3650     2.4860     0.0070   108.8680    11.8910
  960.0000   100.4130   -36.0150     7.9330     7.2700     9.4710     0.3660     2.4990    -0.0150   106.7580    11.9050
  960.5000   100.4070   -35.9840     7.9210     7.2440     9.3790     0.3540     2.5080     0.0060   104.6060    11.9190
  961.0000   100.2410   -35.9520     7.9100     7.2280     9.2690     0.3410     2.5140    -0.0030   102.4550    11.9230
  961.5000   100.4340   -35.9450     7.8990     7.2340     9.5350     0.3360     2.5170     0.0140   100.3080    11.9270
  962.0000   101.0570   -35.9510     7.8870     7.2440     9.7960     0.3450     2.5060     0.0130    98.1750    11.9300
  962.5000   100.5600   -35.9580     7.8760     7.2550     9.7960     0.3330     2.5100     0.0110    96.1700    11.9330
  963.0000    99.9610   -35.9640     7.8640     7.2650     9.5210     0.3400     2.5030    -0.0020    94.3200    11.9360
  963.5000    99.3620   -35.9710     7.8530     7.2750     9.2690     0.3410     2.4960    -0.0090    94.3300    11.9400
  964.0000    98.7640   -35.9770     7.9130     7.2850     9.2690     0.3320     2.4980     0.0050    94.5560    11.9430
  964.5000    98.9700   -35.9830     7.9740     7.2950     9.4410     0.3250     2.5050     0.0100    92.5370    11.9430
  965.0000    99.6220   -35.9900     8.1200     7.3780     9.8090     0.3230     2.5050    -0.0020    90.4600    11.9390
  965.5000   100.2500   -35.9960     8.3290     7.5790    10.1820     0.3070     2.5090     0.0070    90.0160    11.9020
  966.0000    99.7330   -36.0030     8.6850     7.9720    10.5550     0.2910     2.5140     0.0080    93.0870    11.8680
  966.5000    98.9220   -36.0090     9.1670     8.4540    10.9400     0.2700     2.5060    -0.0030    96.1980    11.8450
  967.0000    98.1120   -36.0160    10.0600     9.3710    13.1570     0.2690     2.4950     0.0070    99.3100    11.9250
  967.5000    96.9740   -36.0220    10.9530    10.2890    14.1590     0.2740     2.4850    -0.0030    99.6830    12.0050
  968.0000    95.4500   -36.0290    11.8860    11.2470    13.9410     0.2780     2.4890     0.0080    96.0870    12.0850
  968.5000    92.4680   -36.0350    11.7380    11.2470    13.3780     0.2790     2.4820    -0.0030    93.8000    12.1660
  969.0000    89.6140   -36.0420    11.4710    10.8980    12.8160     0.2800     2.4840     0.0140    92.3830    12.1810
  969.5000    87.3960   -36.0480    11.2030    10.5320    12.2530     0.2820     2.4900    -0.0010    91.0170    12.1610
  970.0000    87.9990   -36.0550    10.9360    10.1660    11.9560     0.2900     2.4840     0.0150    88.4190    12.1370
  970.5000    89.2050   -36.0610    10.6690     9.7960    11.8820     0.2960     2.4750    -0.0050    85.6960    12.1120
  971.0000    90.4920   -36.0680    10.5450     9.8360    11.8080     0.2960     2.4730     0.0070    84.7020    12.0870
  971.5000    92.0500   -36.0740    10.5890     9.9100    11.7340     0.2890     2.4850    -0.0020    84.7340    12.0900
  972.0000    92.2310   -36.0810    10.6720     9.9850    11.6690     0.2850     2.4950    -0.0010    84.8890    12.1020
