~VERSION INFORMATION
 VERS.                2.0:   CWLS LOG ASCII STANDARD - VERSION 2.0
 WRAP.                 NO:   ONE LINE PER DEPTH STEP
~WELL INFORMATION
#MNEM.UNIT      DATA TYPE    INFORMATION
#----------   ------------   ------------------------------
 STRT.F            0.0000:   START DEPTH
 STOP.F         3083.0000:   STOP DEPTH
 STEP.F            0.5000:   STEP LENGTH
 NULL.          -999.2500:   NO VALUE
 COMP. LAWRENCE & ALLISON & ASSOCIATES:   COMPANY
 WELL. LAWRENCE 71 "AX" #3-29:   WELL
 FLD .              N P R:   FIELD
 LOC .      S29 T38N R78W:   LOCATION
 CNTY.            NATRONA:   COUNTY
 STAT.            WYOMING:   STATE
 CTRY. UNITED STATES OF AMERICA:   COUNTRY
 SRVC.      DRESSER ATLAS:   SERVICE COMPANY
 DATE.        12-MAR-1985:   LOGDATE
 API .     49025110160000:   API NUMBER
~CURVE INFORMATION
#MNEM.UNIT       API CODE    CURVE DESCRIPTION
#----------   ------------   ------------------------------
 DEPT.F                  :   
 GRR .GAPI   07 310 01 00:   GAMMA RAY FROM RESISTIVITY
 SPR .MV     07 010 01 00:   SPONTANEOUS POTENTIAL
 TENR.LBS    07 635 01 00:   TENSION FROM RESISTIVITY
 RFOC.OHMM   07 220 04 00:   RESISTIVITY FOCUSED LOG RES.
 RILD.OHMM   07 120 46 00:   DEEP INDUCTION RESISTIVITY
 RILM.OHMM   07 120 44 00:   INDUCTION LOG MEDIUM RESISTIVITY
 TEND.LBS    45 635 01 00:   TENSION FROM DENSITY LOG
 DEN .G/C3   45 350 01 00:   BULK DENSITY
 CORR.G/C3   45 356 01 00:   DENSITY CORRECTION
 CNC .DEC    42 890 01 00:   NEUTRON PORISITY LIMESTONE
 CALD.IN     45 280 60 00:   CALIPER FROM DENSITY LOG
~PARAMETER INFORMATION
#MNEM.UNIT          VALUE    DESCRIPTION
#----------   ------------   ------------------------------
 EKB .F         4983.0000:   Kelly bushing
 EGL .F         4971.0000:   Ground level
 TD  .F         3082.0000:   Total depth
 DATE.        12-MAR-1985:   Date logged
 CLNT.            A2DTECH:   Client Code
 SL  . 568' FNL AND 829' FEL:   Surface Location
 PD  .                 GL:   Permanent Datum
 EPD .F              4971:   Elevation Permanent Datum
 LMF .                 KB:   Log Measured From
 DMF .                 KB:   Drilling Measured From
 DD  .F              3080:   Depth driller
 DL  .F              3082:   Depth logger
 BLI .F              3080:   Bottom log interval
 TLI .F              2100:   Top log interval
 CS1 .IN            8.625:   Casing size
 CBD1.      8.625" @ 311':   Casing driller 1
 BS1 .IN            7.875:   Bit size
 DFT .            KCL GEL:   Type fluid in hole
 DFD .                9.1:   Density
 DFV .                 38:   Viscosity
 DFPH.                  8:   pH
 DFL .               10.4:   Fluid loss
 MSS .           FLOWLINE:   Source of sample
 RMS .OHMM            .47:   Rm
 MST .F                60:   Rm Meas. temp.
 RMF .OHMM            .35:   Rmf
 MFST.F                61:   Rmf Meas. temp.
 RMC .OHMM            .53:   Rmc
 MCST.F                61:   Rmc Meas. temp.
 MFSS.               CLAC:   Source Rmf.
 RMB .OHMM           .209:   Rm. at BHT
 BHT .F               134:   BHT.
 TCS .HRS               3:   Time Circ. stopped
 MRT .F               134:   Maximum recorded temp.
 LUN .               6234:   Logging unit number
 LUL .               CLTE:   Logging unit location
 ENGI.      MACK/ EDWARDS:   Recorded By
 WITN.             STRONG:   Witnessed by
 PWI .                  -:   Primary Well Identifier
 ORIG.           5" PRINT:   Origin of data
 UWI .     49025110160000:   Unique Well ID
 DICO. A2D TECHNOLOGIES, INC.:   Digitizing Company
 DAPD.F                12:   Feet Above Permanent Datum
 BSD1.F              3080:   Depth drilled with bit1
 MCSS.               CALC:   Source Rmc.
~OTHER INFORMATION
~A    DEPT      GRR       SPR       TENR       RFOC       RILD       RILM       TEND        DEN       CORR        CNC       CALD   
# ...
 2684.0000   107.1960   -51.3190    -9.1780     5.5730     4.7380     4.9780   -56.4670     2.5180     0.0210     0.2790     9.1050
 2684.5000   108.0840   -51.3960   -16.6190     5.8280     4.6510     4.8880   -58.9950     2.5240     0.0130     0.2790     9.1040
 2685.0000   111.5600   -51.4720   -24.0590     6.0070     4.5130     4.6190   -62.4520     2.5290    -0.0080     0.2740     9.1040
 2685.5000   116.1910   -51.5490   -31.5000     6.0840     4.2060     4.3510   -65.9100     2.5340    -0.0230     0.2730     9.1030
 2686.0000   120.8330   -51.6220   -37.1290     5.8920     3.9000     4.0830   -69.3670     2.5300    -0.0170     0.2750     9.1030
 2686.5000   125.4790   -51.5790   -37.1290     5.7070     3.5940     3.8150   -72.8240     2.5180     0.0010     0.2780     9.1020
 2687.0000   130.4210   -51.1690   -37.1290     5.3920     3.3250     3.5460   -76.2810     2.5180     0.0000     0.2920     9.1020
 2687.5000   135.6480   -50.7720   -37.1290     4.9150     3.1680     3.2780   -79.7380     2.5140     0.0000     0.3050     9.1010
 2688.0000   147.6730   -50.4670   -37.1290     4.1250     3.0110     3.1720   -83.1960     2.4980     0.0000     0.3170     9.1010
 2688.5000   166.7530   -50.3940   -37.1290     3.2790     2.9600     3.1550   -86.1470     2.4540     0.0020     0.3300     9.1000
 2689.0000   167.7420   -50.3130   -37.1290     2.9330     2.9780     3.5300   -86.1470     2.4100     0.0550     0.3250     9.1000
 2689.5000   155.5850   -50.4180   -37.1290     3.2410     3.0820     3.8850   -86.1470     2.3660     0.1060     0.3110     9.0990
 2690.0000   130.9950   -50.5830   -37.1290     4.1180     3.4480     4.2400   -86.1470     2.3550     0.1030     0.3020     9.0990
 2690.5000   111.9000   -50.7490   -34.4330     4.9950     3.8140     4.5950   -86.1470     2.4300     0.0150     0.2740     9.0980
 2691.0000   107.4590   -50.9170   -31.8890     5.3530     4.1800     4.9510   -86.1470     2.4950    -0.0300     0.2520     9.0980
 2691.5000   106.0330   -51.0800   -29.3450     5.5540     4.6030     5.1880   -86.1470     2.5250    -0.0020     0.2520     9.0970
 2692.0000   105.3450   -51.0200   -26.8010     5.5540     5.0240     5.3660   -86.1470     2.5220     0.0010     0.2540     9.0970
 2692.5000   104.7170   -50.9480   -24.2570     5.6340     5.1120     5.5440   -78.8980     2.5160    -0.0320     0.2630     9.0960
 2693.0000   104.4210   -50.8760   -21.7140     5.7270     5.2580     5.7220   -68.9870     2.5110    -0.0360     0.2660     9.0960
 2693.5000   104.3470   -50.8050   -19.1700     5.8130     5.3290     5.9000   -59.0760     2.5040    -0.0390     0.2640     9.0950
 2694.0000   104.8900   -50.7340   -16.8560     5.8860     5.3960     6.0460   -62.1370     2.4950    -0.0420     0.2610     9.0950
 2694.5000   106.6430   -50.6630   -15.1450     5.9540     5.5370     6.1080   -73.1490     2.4860    -0.0430     0.2560     9.0940
 2695.0000   107.5080   -50.5910   -13.4350     6.0230     5.6890     6.1700   -71.7480     2.4800    -0.0440     0.2490     9.0940
 2695.5000   105.8840   -50.5190   -11.7240     6.0910     5.8410     6.2330   -65.5540     2.4740    -0.0660     0.2420     9.0930
 2696.0000   103.6360   -50.4450   -10.0140     6.2040     5.9250     6.2950   -59.3590     2.4690    -0.0880     0.2390     9.0930
 2696.5000   101.3750   -50.3290    -8.3030     6.4300     5.9370     6.3570   -58.1780     2.4740    -0.0750     0.2400     9.0920
 2697.0000    99.1250   -50.2140   -10.8770     6.6560     5.9480     6.4190   -61.7180     2.4790    -0.0500     0.2400     9.0910
 2697.5000    97.0180   -50.0990   -17.9630     6.7620     5.9590     6.4900   -65.2570     2.4790    -0.0280     0.2400     9.0900
 2698.0000    98.9310   -49.9850   -25.0500     6.7880     5.9710     6.5620   -65.5660     2.4760    -0.0270     0.2390     9.0900
 2698.5000   103.7790   -49.9080   -27.2280     6.7880     6.1300     6.6330   -64.5520     2.4810    -0.0300     0.2390     9.0890
 2699.0000   107.2400   -49.9470   -27.2280     6.8160     6.3560     6.7050   -63.5380     2.4890    -0.0320     0.2380     9.0880
 2699.5000   105.5360   -49.9840   -27.2280     6.9120     6.6050     6.7770   -62.5230     2.4950    -0.0350     0.2390     9.0870
 2700.0000   101.5420   -50.0200   -27.2280     7.0070     6.6430     6.8480   -61.5090     2.4890    -0.0370     0.2430     9.0860
 2700.5000    99.0310   -50.0560   -26.8240     7.1030     6.7260     6.9130   -60.4950     2.4830    -0.0410     0.2470     9.0860
 2701.0000    98.6810   -50.0920   -25.4830     7.2330     6.6650     6.8840   -59.4800     2.4870    -0.0470     0.2490     9.0850
 2701.5000    98.7670   -50.1280   -24.1420     7.4420     6.5450     6.8580   -58.4660     2.5020    -0.0480     0.2400     9.0840
 2702.0000    98.8740   -50.1640   -22.8020     7.6510     6.3890     6.6880   -57.4510     2.5160    -0.0360     0.2320     9.0830
 2702.5000    98.9780   -50.2000   -21.4610     7.7120     6.2010     6.4610   -56.4370     2.5230    -0.0240     0.2290     9.0830
 2703.0000   100.5320   -50.2370   -20.1200     7.1790     6.0120     6.2360   -55.4230     2.5170    -0.0140     0.2510     9.0820
 2703.5000   103.3330   -50.2720   -18.7800     6.5930     5.8230     6.0110   -54.4080     2.5140    -0.0090     0.2700     9.0810
 2704.0000   106.1040   -50.2870   -17.3270     6.2940     5.6020     5.7660   -53.3940     2.5140    -0.0050     0.2770     9.0800
 2704.5000   108.6420   -50.2520   -17.9090     6.1080     5.1380     5.3570   -52.3800     2.5190     0.0040     0.2640     9.0800
 2705.0000   109.0000   -50.2190   -18.5450     5.9230     4.6740     4.9480   -51.3650     2.5170     0.0160     0.2510     9.0790
 2705.5000   108.8550   -50.1860   -19.1810     5.7600     4.2900     4.5400   -50.3510     2.5130     0.0090     0.2450     9.0780
 2706.0000   110.1060   -50.1520   -19.8170     5.9200     3.8030     3.9870   -49.3370     2.5090    -0.0150     0.2630     9.0770
 2706.5000   114.6200   -50.1150   -20.4530     6.1400     3.3150     3.4820   -48.3220     2.5040    -0.0640     0.2930     9.0760
 2707.0000   122.7590   -49.7560   -21.0890     5.9100     2.9380     3.1090   -47.3080     2.4890    -0.0630     0.3220     9.0760
 2707.5000   146.4500   -48.8330   -21.7250     5.0000     2.7770     2.9070   -46.5720     2.4520    -0.0430     0.3530     9.0750
 2708.0000   162.3930   -47.9500   -22.3610     3.5630     2.5910     2.9890   -47.7020     2.4030     0.0140     0.3380     9.0740
 2708.5000   172.3990   -47.9190   -22.9970     2.3570     2.3780     3.1550   -48.8330     2.3540     0.0970     0.3170     9.0730
 2709.0000   161.6310   -47.9230   -23.6330     2.3570     2.3780     3.7130   -49.9640     2.3210     0.1680     0.3000     9.0750
 2709.5000   137.3630   -47.9270   -24.2690     3.4250     2.9440     4.3110   -51.0950     2.3720     0.0990     0.2750     9.0770
 2710.0000   114.5060   -48.0360   -24.9050     5.1730     3.6820     4.8230   -52.2250     2.4260     0.0230     0.2370     9.0790
 2710.5000    96.6350   -48.5910   -25.5410     7.8540     4.4200     5.2620   -53.3560     2.4960    -0.0450     0.2170     9.0820
 2711.0000    89.4710   -49.1390   -26.1770     7.7240     5.1590     5.7020   -54.4870     2.4890    -0.0420     0.2190     9.0840
 2711.5000    85.7900   -49.6820   -26.8130     7.5480     5.8970     6.1410   -55.6170     2.4810    -0.0450     0.2210     9.0860
 2712.0000    85.2300   -50.1250   -25.6580     7.2820     6.2050     6.3460   -51.4190     2.4710    -0.0550     0.2290     9.0880
 2712.5000    86.9930   -50.1790   -15.0280     6.9840     6.3100     6.4260   -37.2040     2.4680    -0.0590     0.2370     9.0910
 2713.0000    90.4970   -50.2420    -4.3990     6.6860     6.3100     6.2280   -22.9890     2.4700    -0.0540     0.2450     9.0930
 2713.5000    95.8250   -50.3070     1.4590     6.3880     6.1200     6.0190   -17.8430     2.4700    -0.0610     0.2480     9.0920
 2714.0000    96.6350   -50.3710    -5.1550     6.1570     5.8680     5.8100   -20.0300     2.4570    -0.0710     0.2500     9.0910
