~VERSION INFORMATION
 VERS.                2.0:   CWLS LOG ASCII STANDARD - VERSION 2.0
 WRAP.                 NO:   ONE LINE PER DEPTH STEP
~WELL INFORMATION
#MNEM.UNIT      DATA TYPE    INFORMATION
#----------   ------------   ------------------------------
 STRT.F           20.0000:   START DEPTH
 STOP.F         4128.0000:   STOP DEPTH
 STEP.F            0.5000:   STEP LENGTH
 NULL.          -999.2500:   NO VALUE
 COMP. LAWRENCE-ALLISON & ASSOCIATES:   COMPANY
 WELL. LAWRENCE "X" #53-3:   WELL
 FLD .             NPR #3:   FIELD
 LOC .       S3 T38N R78W:   LOCATION
 CNTY.            NATRONA:   COUNTY
 STAT.            WYOMING:   STATE
 CTRY. UNITED STATES OF AMERICA:   COUNTRY
 SRVC.      DRESSER ATLAS:   SERVICE COMPANY
 DATE.        18-SEP-1983:   LOGDATE
 API .     49025109370000:   API NUMBER
~CURVE INFORMATION
#MNEM.UNIT       API CODE    CURVE DESCRIPTION
#----------   ------------   ------------------------------
 DEPT.F                  :   
 NPHI.DEC    42 890 03 00:   NEUTRON POROSITY SANDSTONE
 TEND.LBS    45 635 01 00:   TENSION FORM DENSITY LOG
 CORR.G/C3   45 356 01 00:   DENSITY CORRECTION
 RHOB.G/C3   45 350 01 00:   BULK DENSITY
 CALD.IN     45 280 60 00:   CALIPER FROM DENSITY LOG
 GRR .GAPI   07 310 01 00:   GAMMA RAY FROM RESISTIVITY
 TENR.LBS    06 635 01 00:   TENSION FROM RESISTIVITY
 SPR .MV     07 010 01 00:   SPONTANEOUS POTENTIAL
 RILD.OHMM   07 120 46 00:   DEEP INDUCTION RESISTIVITY
 RILM.OHMM   07 120 44 00:   INDUCTION LOG MEDIUM RESISTIVITY
 RSFL.OHMM   07 220 01 00:   SPHERICALLY FOCUSED RESISTIVITY
 TENS.LBS    60 635 01 00:   TENSION FROM SONIC
 DT  .US/F   60 520 00 00:   DELTA TIME
~PARAMETER INFORMATION
#MNEM.UNIT          VALUE    DESCRIPTION
#----------   ------------   ------------------------------
 EKB .F         5214.0000:   Kelly bushing
 EGL .F         5204.0000:   Ground level
 EDF .F            0.0000:   Drilling floor
 TD  .F         4117.0000:   Total depth
 CLNT.            A2DTECH:   Client Code
 PD  .                 GL:   Permanent Datum
 EPD .F              5204:   Elevation Permanent Datum
 LMF .                 KB:   Log Measured From
 DMF .                 KB:   Drilling Measured From
 DAPD.F                10:   Feet Above Permanent Datum
 DATE.        18-SEP-1983:   Date Logged [DD-MMM-YYYY]
 DD  .F              4117:   Depth driller
 DL  .F              4113:   Depth logger
 BLI .F              4110:   Bottom log interval
 TLI .F                 0:   Top log interval
 CS1 .IN            9.625:   Casing size
 CBD1.      9.625" @ 523':   Casing driller 1
 CBL1.F               523:   Casing logger 1
 BS1 .IN            7.875:   Bit size
 BSD1.F              4117:   Depth drilled with bit1
 DFT .            GEL KCL:   Type fluid in hole
 DFD .                9.0:   Density
 DFV .                 42:   Viscosity
 DFPH.                8.5:   pH
 DFL .                 10:   Fluid loss
 MSS .               TANK:   Source of sample
 RMS .OHMM           0.35:   Rm
 MST .F                68:   Rm Meas. temp.
 RMF .OHMM          0.266:   Rmf
 MFST.F                68:   Rmf Meas. temp.
 MFSS.               MEAS:   Source Rmf.
 RMC .OHMM          0.443:   Rmc
 MCST.F                68:   Rmc Meas. temp.
 MCSS.               CALC:   Source Rmc.
 RMB .OHMM          0.185:   Rm. at BHT
 BHT .F               130:   BHT.
 TCS .HRS               4:   Time Circ. stopped
 MRT .F               130:   Maximum recorded temp.
 LUN .               6270:   Logging unit number
 LUL .              WLSTN:   Logging unit location
 ENGI.             REEVES:   Recorded By
 WITN.             STRONG:   Witnessed by
 ORIG.           5" PRINT:   Origin of data
 UWI .     49025109370000:   Unique Well ID
 DICO. A2D TECHNOLOGIES, INC.:   Digitizing Company
~OTHER INFORMATION
~A   DEPT     NPHI       TEND       CORR       RHOB       CALD         GRR      TENR        SPR       RILD       RILM       RSFL       TENS         DT   
# ...
 2412.0000     0.2387   -68.0988     0.0125     2.5465     9.5559   119.3175   -82.7358   -76.1715     5.2548     5.2071     6.2896   -41.9932    84.9163
 2412.5000     0.2394   -68.0544     0.0004     2.5473     9.5539   119.3002   -84.5075   -76.3258     5.1381     5.1298     6.1085   -42.9308    86.2851
 2413.0000     0.2388   -64.2482     0.0004     2.5489     9.5518   118.0506   -86.4258   -76.3328     5.0604     5.0902     6.0183   -43.8685    86.8211
 2413.5000     0.2367   -64.2127     0.0034     2.5489     9.5497   116.8297   -86.0195   -76.4887     4.9839     4.9780     5.9973   -44.8062    86.9770
 2414.0000     0.2343   -60.4064     0.0094     2.5475     9.5477   119.5480   -85.5765   -76.7903     4.9084     4.9395     5.9694   -45.7439    87.1329
 2414.5000     0.2320   -56.5913     0.0199     2.5475     9.5456   120.7508   -85.1336   -77.2391     4.7641     4.7966     5.9664   -46.6816    87.2130
 2415.0000     0.2320   -52.7850     0.0305     2.5491     9.5435   120.1213   -84.6906   -77.5406     4.6583     4.6915     5.9202   -47.6192    87.2940
 2415.5000     0.2332   -52.7526     0.0425     2.5499     9.5415   119.1915   -84.2477   -77.6951     4.4897     4.5541     5.9173   -48.5569    87.2982
 2416.0000     0.2402   -52.7140     0.0485     2.5522     9.5394   120.9942   -83.8048   -77.7036     4.3576     4.3288     5.9580   -49.4946    87.7634
 2416.5000     0.2567   -52.6772     0.0425     2.5522     9.5374   124.0165   -83.3618   -77.7106     4.2302     4.2340     5.8661   -50.4323    88.5966
 2417.0000     0.2616   -52.6341     0.0304     2.5507     9.5353   126.4308   -82.9189   -77.5685     4.0478     4.1412     5.6583   -51.3700    89.4348
 2417.5000     0.2553   -52.5986     0.0168     2.5493     9.5332   127.3453   -82.4759   -77.4249     3.9013     4.0214     5.4163   -51.8939    90.6521
 2418.0000     0.2514   -52.5630     0.0228     2.5418     9.5312   130.3433   -82.0330   -76.9951     3.7062     3.9313     5.0375   -51.9807    91.8704
 2418.5000     0.2541   -56.2983     0.0409     2.5329     9.5291   131.8457   -81.5900   -77.0039     3.5457     3.8465     4.7532   -52.0511    92.2537
 2419.0000     0.2635   -60.0335     0.0394     2.5239     9.5270   134.2601   -81.5430   -77.3054     3.4669     3.7895     4.5449   -52.1212    92.5612
 2419.5000     0.2668   -63.7687     0.0107     2.5187     9.5249   135.4586   -81.5430   -77.1649     3.4392     3.7332     4.4500   -52.2094    92.7170
 2420.0000     0.2608   -67.4950    -0.0014     2.5202     9.5229   134.8328   -81.5430   -76.5635     3.4863     3.6252     4.6443   -48.4743    91.8884
 2420.5000     0.2638   -67.4585     0.0122     2.5240     9.5215   132.6841   -81.5430   -76.0026     3.5341     3.5709     4.8822   -48.5622    91.2861
 2421.0000     0.2697   -63.6444     0.0273     2.5271     9.5237   132.0590   -81.5430   -75.7133     3.5825     3.7266     5.0242   -48.6502    90.9057
 2421.5000     0.2756   -56.0674     0.0397     2.5294     9.5258   134.1693   -81.5430   -75.5730     3.6571     3.8891     4.9835   -48.7206    90.6880
 2422.0000     0.2805   -52.2611     0.0574     2.5227     9.5280   136.2797   -81.5430   -75.5817     3.7079     4.0005     4.7704   -48.7909    90.3142
 2422.5000     0.2781   -48.4540     0.0634     2.5114     9.5302   134.1304   -81.5430   -75.5904     3.7446     4.1152     4.8026   -48.8636    89.4845
 2423.0000     0.2704   -48.4105     0.0317     2.5055     9.5323   131.0736   -81.5430   -75.8920     3.8086     4.1727     4.9763   -48.9493    87.8218
 2423.5000     0.2619   -52.1457    -0.0015     2.5108     9.5345   128.6247   -81.5430   -76.1935     3.8467     4.2349     5.3835   -49.0196    86.7646
 2424.0000     0.2550   -52.1102    -0.0241     2.5213     9.5366   126.7837   -81.5430   -76.6423     3.9420     4.2671     5.4204   -49.0909    86.5333
 2424.5000     0.2478   -55.8454     0.0181     2.5289     9.5388   125.2118   -81.5430   -76.8134     3.9960     4.2994     5.3397   -45.3724    87.0774
 2425.0000     0.2416   -59.5806     0.0573     2.5334     9.5409   123.7053   -81.5430   -76.8035     4.0555     4.3316     5.2608   -45.4545    87.7640
 2425.5000     0.2386   -63.3159     0.1025     2.5357     9.5431   124.9038   -81.5430   -76.8123     4.1650     4.4388     5.2583   -45.5303    88.2989
 2426.0000     0.2359   -63.2715     0.0965     2.5335     9.5452   123.6708   -81.5430   -77.1138     4.2229     4.5990     5.2552   -45.6187    88.6065
 2426.5000     0.2347   -59.4646     0.0708     2.5366     9.5474   122.4377   -81.5430   -77.4153     4.2800     4.7309     5.2913   -45.6891    88.6117
 2427.0000     0.2381   -59.4208     0.0573     2.5396     9.5495   123.6319   -81.5430   -77.7186     4.3725     4.9395     5.3649   -45.7576    88.6159
 2427.5000     0.2582   -59.3853     0.0482     2.5389     9.5517   126.9580   -81.5430   -77.7256     4.5256     5.0780     5.4794   -45.8474    88.4674
 2428.0000     0.2697   -59.3498     0.0481     2.5342     9.5538   131.1961   -81.5430   -77.7326     4.6208     5.1126     5.7180   -44.9761    88.1705
 2428.5000     0.2703   -59.3137     0.0542     2.5277     9.5560   135.1301   -81.5430   -77.4448     4.7180     5.2207     5.8831   -45.9881    87.6441
 2429.0000     0.2616   -59.2699     0.0572     2.5240     9.5582   136.0247   -81.5430   -76.9966     4.8521     5.2936     6.0514   -46.0606    87.1176
 2429.5000     0.2559   -59.2343     0.0738     2.5203     9.5602   136.0031   -81.5430   -76.4298     4.9890     5.4107     6.2253   -46.1465    86.4405
 2430.0000     0.2505   -59.1988     0.0873     2.5205     9.5589   135.9858   -81.5430   -76.1404     5.0583     5.5605     6.5035   -46.2168    85.8382
 2430.5000     0.2445   -60.7782     0.0843     2.5257     9.5575   136.5808   -81.5430   -76.0002     5.2010     5.6788     6.8793   -46.2879    85.3118
 2431.0000     0.2467   -62.8985     0.0647     2.5310     9.5561   134.7354   -81.5430   -76.0089     5.3489     5.7997     6.8752   -46.3751    84.9380
 2431.5000     0.2527   -66.6290     0.0300     2.5355     9.5547   131.9783   -81.5430   -75.8686     5.4221     5.9232     6.7736   -46.4455    84.7895
 2432.0000     0.2555   -66.5894    -0.0017     2.5394     9.5533   130.7452   -81.5430   -75.5828     5.4964     6.0050     6.6735   -46.5151    85.2497
 2432.5000     0.2542   -66.5536    -0.0063     2.5401     9.5519   129.5121   -81.5430   -75.1479     5.5705     6.0888     6.4801   -46.5909    85.4852
 2433.0000     0.2510   -70.2891     0.0224     2.5394     9.5505   129.1909   -81.5430   -74.8603     5.5660     6.1303     6.3386   -46.6742    85.6383
 2433.5000     0.2477   -70.2447     0.0284     2.5387     9.5491   129.8037   -81.5430   -74.7201     5.6422     6.1705     6.2001   -46.7445    85.5667
 2434.0000     0.2447   -70.2091     0.0012     2.5356     9.5477   131.2796   -81.5430   -74.8760     5.6784     6.1227     6.0212   -46.8182    85.2677
 2434.5000     0.2436   -70.1735    -0.0154     2.5335     9.5464   131.8746   -81.5430   -75.1776     5.7148     6.0747     5.9321   -46.8939    84.7422
 2435.0000     0.2439   -70.1292    -0.0003     2.5343     9.5450   131.5490   -81.5430   -75.4791     5.7931     5.9845     5.9287   -46.9732    84.4432
 2435.5000     0.2472   -70.0937     0.0268     2.5374     9.5436   131.2278   -81.5430   -75.9279     5.9137     6.0253     6.0553   -46.8425    84.2200
 2436.0000     0.2503   -70.0582     0.0555     2.5435     9.5422   133.0299   -81.5430   -76.2312     6.0805     6.1527     6.2743   -39.5558    84.1484
 2436.5000     0.2515   -70.0226     0.0751     2.5442     9.5408   137.5719   -81.5430   -76.5327     6.2084     6.2452     6.5013   -39.6320    83.8504
 2437.0000     0.2506   -69.9783     0.0539     2.5398     9.5400   143.3296   -81.5430   -76.8343     6.4310     6.4630     6.8829   -39.6970    83.3998
 2437.5000     0.2509   -69.9428     0.0147     2.5443     9.5392   146.3519   -81.5430   -77.1358     6.6617     6.6963     7.1327   -39.7727    82.8606
