~VERSION INFORMATION
 VERS.                2.0:   CWLS LOG ASCII STANDARD - VERSION 2.0
 WRAP.                 NO:   ONE LINE PER DEPTH STEP
~WELL INFORMATION
#MNEM.UNIT      DATA TYPE    INFORMATION
#----------   ------------   ------------------------------
 STRT.F          200.0000:   START DEPTH
 STOP.F         3078.0000:   STOP DEPTH
 STEP.F            0.5000:   STEP LENGTH
 NULL.          -999.2500:   NO VALUE
 COMP.   FENIX & SCISSION:   COMPANY
 WELL. FENIX NPR 72 "A" #3-28:   WELL
 FLD .              NPR-3:   FIELD
 LOC .      S28 T39N R78W:   LOCATION
 CNTY.            NATRONA:   COUNTY
 STAT.            WYOMING:   STATE
 CTRY. UNITED STATES OF AMERICA:   COUNTRY
 SRVC.              WELEX:   SERVICE COMPANY
 DATE.        06-JUN-1977:   LOGDATE
 API .     49025103770000:   API NUMBER
~CURVE INFORMATION
#MNEM.UNIT       API CODE    CURVE DESCRIPTION
#----------   ------------   ------------------------------
 DEPT.F                  :   
 CORR.G/C3   45 356 01 00:   DENSITY CORRECTION
 RHOB.G/C3   45 350 01 00:   BULK DENSITY
 CALD.IN     45 280 60 00:   CALIPER FROM DENSITY LOG
 SPR .MV     07 010 01 00:   SPONTANEOUS POTENTIAL
 GURD.OHMM   07 220 05 00:   GUARD LOG RESISTIVITY
 ILM .OHMM   07 120 44 00:   INDUCTION LOG MEDIUM RESISTIVITY
 ILD .OHMM   07 120 46 00:   DEEP INDUCTION RESISTIVITY
 GRD .GAPI   45 310 01 00:   GAMMA RAY FROM DENSITY LOG
~PARAMETER INFORMATION
#MNEM.UNIT          VALUE    DESCRIPTION
#----------   ------------   ------------------------------
 EKB .F         5022.0000:   Kelly bushing
 EGL .F         5011.0000:   Ground level
 EDF .F            0.0000:   Drilling floor
 EPD .F         5011.0000:   Permanent datum
 TD  .F         3081.0000:   Total depth
 DATE.        06-JUN-1977:   Date logged
 CLNT.            A2DTECH:   Client Code
 SL  . 990' FNL & 990' FEL:   Surface Location
 PD  .                 GL:   Permanent Datum
 DAPD.F                11:   Feet Above Permanent Datum
 DD  .F              3041:   Depth driller
 DL  .F              3081:   Depth logger
 BLI .F              3079:   Bottom log interval
 TLI .F               200:   Top log interval
 CS1 .IN            8.625:   Casing size
 CBD1.      8.625" @ 200':   Casing driller 1
 CBL1.F               218:   Casing logger 1
 BS1 .IN            7.875:   Bit size
 BSD1.F              3041:   Depth drilled with bit1
 DFT .            KCL MUD:   Type fluid in hole
 DFD .                8.8:   Density
 DFV .                 38:   Viscosity
 DFPH.                7.5:   pH
 DFL .                5.8:   Fluid loss
 MSS .           FLOWLINE:   Source of sample
 RMS .OHMM           1.19:   Rm
 MST .F                89:   Rm Meas. temp.
 RMF .OHMM           1.05:   Rmf
 MFST.F                89:   Rmf Meas. temp.
 RMC .OHMM           2.17:   Rmc
 MCST.F                89:   Rmc Meas. temp.
 MFSS.               FANN:   Source Rmf.
 MCSS.                KIT:   Source Rmc.
 RMB .OHMM           0.98:   Rm. at BHT
 BHT .F               108:   BHT.
 TCS .HRS             2.5:   Time Circ. stopped
 MRT .F               108:   Maximum recorded temp.
 LUN .               8611:   Logging unit number
 LUL .             CASPER:   Logging unit location
 ENGI.          T. JOYNER:   Recorded By
 WITN.      W. PETTINGILL:   Witnessed by
 ORIG.           5" PRINT:   Origin of data
 UWI .     49025103770000:   Unique Well ID
 DICO. A2D TECHNOLOGIES, INC.:   Digitizing Company
~OTHER INFORMATION
~A   DEPT     CORR       RHOB         CALD      SPR       GURD        ILM        ILD         GRD  
# ...
  564.5000     0.0070     2.4150     9.6740   -50.5880     9.0730     8.5880     8.1010    99.0850
  565.0000     0.0070     2.4090     9.6750   -50.5650     8.9900     8.6130     8.1520    97.7110
  565.5000     0.0060     2.4040     9.6780   -50.5420     8.9080     8.4830     8.2270    96.1440
  566.0000     0.0060     2.3980     9.6920   -50.5190     8.8260     8.3850     8.1410    97.4040
  566.5000     0.0060     2.3990     9.7050   -50.4960     8.7440     8.2880     7.9840    98.7390
  567.0000     0.0100     2.4010     9.7060   -50.4730     8.6090     8.1730     7.8280    99.9360
  567.5000     0.0140     2.4030     9.6890   -50.4500     8.3860     8.0260     7.6720    98.9250
  568.0000     0.0180     2.4040     9.6720   -50.4270     8.1620     7.8800     7.5090    97.8630
  568.5000     0.0220     2.4050     9.6550   -50.4040     7.9380     7.7330     7.3700    97.4450
  569.0000     0.0230     2.3990     9.6550   -50.3810     7.7160     7.5940     7.3240    97.9220
  569.5000     0.0230     2.3920     9.6550   -50.3580     7.4790     7.3390     7.2790    98.3920
  570.0000     0.0200     2.3850     9.6560   -50.3340     7.0190     7.0840     7.2330    98.8660
  570.5000     0.0160     2.3790     9.6730   -50.3120     6.5310     6.8300     7.1870    99.3410
  571.0000     0.0110     2.3840     9.6900   -50.3150     5.9460     6.3900     7.0530    99.8250
  571.5000     0.0070     2.3990     9.7160   -50.4160     5.3610     5.9130     6.9120    99.6310
  572.0000     0.0060     2.4360     9.7430   -50.5150     5.1080     5.6500     7.0790    99.0460
  572.5000     0.0070     2.4480     9.7700   -50.6140     6.1690     6.1720     7.2760    98.4590
  573.0000     0.0080     2.4500     9.7880   -50.7130     7.4130     6.9730     7.4740    97.8520
  573.5000     0.0080     2.4460     9.7660   -50.8110     7.8050     7.2740     7.6710    98.5830
  574.0000     0.0090     2.4430     9.7520   -50.9100     8.0690     7.3030     7.8690   100.1220
  574.5000     0.0100     2.4390     9.7530   -51.0090     8.2140     7.8040     7.9410   101.6540
  575.0000     0.0100     2.4390     9.7530   -51.0860     8.3040     8.2670     7.9630   102.8030
  575.5000     0.0110     2.4420     9.7530   -51.1080     8.3940     8.7720     7.9850   103.8410
  576.0000     0.0120     2.4470     9.7650   -51.1300     8.5520     9.1110     7.9310   104.8880
  576.5000     0.0120     2.4520     9.7860   -51.1530     8.8580     9.4840     8.2630   105.8540
  577.0000     0.0130     2.4510     9.8070   -51.1750     9.1640     9.8560     8.6250   104.6590
  577.5000     0.0130     2.4460     9.7780   -51.1970     9.4700    10.2510     8.9870   103.3670
  578.0000     0.0130     2.4410     9.7240   -51.2200     9.7750    10.1090     9.4390   102.0770
  578.5000     0.0130     2.4360     9.7140   -51.2430     9.9730     9.8490     9.3730   100.8310
  579.0000     0.0120     2.4330     9.7130   -51.2650     9.9730     9.5880     9.1870   100.9140
  579.5000     0.0120     2.4320     9.7140   -51.3060     9.9730     9.2680     9.0000   101.0570
  580.0000     0.0110     2.4310     9.7130   -51.3610     9.9730     9.3410     8.7720   101.1950
  580.5000     0.0110     2.4310     9.6850   -51.4160     9.9730     9.5340     8.9150   101.3320
  581.0000     0.0110     2.4310     9.6560   -51.4670    10.0340     9.7280     9.1600   101.4630
  581.5000     0.0100     2.4370     9.6260   -51.3980    10.0960     9.8820     9.4040   101.3890
  582.0000     0.0110     2.4430     9.5970   -51.3230    10.1580     9.8220     9.7920   100.2320
  582.5000     0.0130     2.4480     9.5960   -51.2490    10.0540     9.7610     9.7030    99.0790
  583.0000     0.0150     2.4500     9.5960   -51.1740     9.9520     9.7030     9.4900    97.9330
  583.5000     0.0170     2.4520     9.5960   -51.1000     9.7920     9.5810     9.2770    96.7980
  584.0000     0.0170     2.4530     9.5960   -51.0260     9.8020     9.4340     9.0630    96.4740
  584.5000     0.0150     2.4470     9.5960   -50.9520     9.8230     9.2820     8.8500    97.6610
  585.0000     0.0120     2.4400     9.5960   -50.8840     9.8450     9.1170     8.6920    98.6250
  585.5000     0.0100     2.4330     9.5960   -50.8820     9.8660     9.2320     8.9250    97.0280
  586.0000     0.0090     2.4310     9.5960   -50.8820     9.8820     9.3860     9.1100    95.4840
  586.5000     0.0090     2.4300     9.5960   -50.8820     9.8820     9.5260     9.3530    94.7390
  587.0000     0.0090     2.4320     9.5960   -50.8820     9.8820     9.3960     9.1660    95.9740
  587.5000     0.0090     2.4340     9.6000   -50.8820     9.5850     9.2060     8.8930    98.0230
  588.0000     0.0090     2.4350     9.6050   -50.8820     9.3120     9.0160     8.6210   100.0580
  588.5000     0.0090     2.4360     9.6090   -50.8820     9.0170     8.7720     8.3790   102.0940
  589.0000     0.0090     2.4370     9.6140   -50.8820     9.0340     8.8020     8.4660   104.1230
  589.5000     0.0090     2.4370     9.6230   -50.8820     9.0530     8.8610     8.5600   106.1620
  590.0000     0.0090     2.4380     9.6340   -50.8820     9.0720     8.9340     8.6540   106.7750
  590.5000     0.0090     2.4380     9.6460   -50.8820     9.1000     8.8600     8.7720   106.2100
  591.0000     0.0090     2.4340     9.6580   -50.8820     9.0690     8.7590     8.6350   105.6420
  591.5000     0.0090     2.4280     9.6700   -50.8820     9.0130     8.6580     8.4520   105.0680
  592.0000     0.0080     2.4270     9.6820   -50.8820     8.9340     8.5340     8.2270   104.5070
  592.5000     0.0080     2.4300     9.6940   -50.8780     9.0550     8.7030     8.3650   103.3060
  593.0000     0.0070     2.4330     9.7050   -50.8670     9.2640     8.9200     8.5440   101.8900
  593.5000     0.0060     2.4350     9.7140   -50.8550     9.4740     9.1380     8.7220   100.4620
  594.0000     0.0060     2.4310     9.7130   -50.8440     9.6830     9.3560     8.9010   100.9660
  594.5000     0.0050     2.4240     9.7130   -50.8330     9.9450     9.6140     9.0790   101.6040
  595.0000     0.0050     2.4210     9.7130   -50.8210     9.7510     9.4590     9.2680   102.2390
  595.5000     0.0040     2.4200     9.7130   -50.8100     9.3900     9.2690     9.4160   102.8800
  596.0000     0.0040     2.4190     9.7310   -50.7980     9.0290     9.0790     9.5980   103.5030
  596.5000     0.0040     2.4200     9.7550   -50.7870     8.6130     8.9340     9.5300   102.0100
  597.0000     0.0050     2.4210     9.7790   -50.7760     8.7460     9.0780     9.3530   100.3190
  597.5000     0.0060     2.4210     9.7720   -50.7640     8.9030     9.1940     9.5490    98.9410
  598.0000     0.0070     2.4200     9.7340   -50.7530     9.0600     9.3100     9.8480    99.8970
  598.5000     0.0080     2.4240     9.6960   -50.7420     9.2680     9.4310    10.0650   100.9170
  599.0000     0.0080     2.4270     9.7040   -50.7300     9.2020     9.3810    10.0300   100.6400
  599.5000     0.0090     2.4310     9.7150   -50.7190     9.1040     9.3150    10.0030    99.6040
  600.0000     0.0100     2.4340     9.7270   -50.7070     9.0170     9.2680     9.9730    98.5600
  600.5000     0.0110     2.4370     9.7380   -50.6960     9.1300     9.4240    10.0930    98.1190
  601.0000     0.0120     2.4400     9.7490   -50.6850     9.2320     9.5440    10.2260    98.4460
  601.5000     0.0120     2.4410     9.7600   -50.6730     9.3350     9.6640    10.3600    98.7610
  602.0000     0.0130     2.4410     9.7720   -50.6620     9.4380     9.7920    10.4930    99.0800
  602.5000     0.0130     2.4440     9.7830   -50.6510     9.5200     9.7540    10.6340    99.4020
  603.0000     0.0130     2.4460     9.7940   -50.6390     9.4770     9.7130    10.5900    99.7190
  603.5000     0.0150     2.4510     9.8050   -50.6280     9.4330     9.6730    10.5440    99.7740
  604.0000     0.0170     2.4580     9.8110   -50.6170     9.3900     9.6140    10.4980    97.9160
  604.5000     0.0190     2.4650     9.8110   -50.6050     9.3530     9.8390    10.4410    96.0290
