~VERSION INFORMATION
 VERS.                2.0:   CWLS LOG ASCII STANDARD - VERSION 2.0
 WRAP.                 NO:   ONE LINE PER DEPTH STEP
~WELL INFORMATION
#MNEM.UNIT      DATA TYPE    INFORMATION
#----------   ------------   ------------------------------
 STRT.F          444.0000:   START DEPTH
 STOP.F         3018.0000:   STOP DEPTH
 STEP.F            0.5000:   STEP LENGTH
 NULL.          -999.2500:   NO VALUE
 COMP.    FENIX & SCISSON:   COMPANY
 WELL.  FENIX "AX" #25-28:   WELL
 FLD .             TEAPOT:   FIELD
 LOC .      S28 T39N R78W:   LOCATION
 CNTY.            NATRONA:   COUNTY
 STAT.            WYOMING:   STATE
 CTRY. UNITED STATES OF AMERICA:   COUNTRY
 SRVC.              WELEX:   SERVICE COMPANY
 DATE.        01-DEC-1979:   LOGDATE
 API .     49025107940000:   API NUMBER
~CURVE INFORMATION
#MNEM.UNIT       API CODE    CURVE DESCRIPTION
#----------   ------------   ------------------------------
 DEPT.F                  :   
 SPR .MV     07 010 01 00:   SPONTANEOUS POTENTIAL
 RILM.OHMM   07 120 44 00:   INDUCTION LOG MEDIUM RESISTIVITY
 RILD.OHMM   07 120 46 00:   DEEP INDUCTION RESISTIVITY
 SGRD.OHMM   07 220 05 00:   SHALLOW GUARD LOG RESISTIVITY
 TENR.LBS    07 635 01 00:   TENSION FROM RESISTIVITY
 NPHI.DEC    42 890 03 00:   NEUTRON POROSITY SANDSTONE
 GRD .GAPI   45 310 01 00:   GAMMA RAY FROM DENSITY LOG
 CALD.IN     45 280 60 00:   CALIPER FROM DENSITY LOG
 RHOB.G/C3   45 350 01 00:   BULK DENSITY
 DCOR.G/C3   45 356 01 00:   DENSITY CORRECTION
 TEND.LBS    45 635 01 00:   TENSION FROM DENSITY LOG
~PARAMETER INFORMATION
#MNEM.UNIT          VALUE    DESCRIPTION
#----------   ------------   ------------------------------
 EKB .F         5092.0000:   Kelly bushing
 EGL .F         5082.0000:   Ground level
 EDF .F            0.0000:   Drilling floor
 TD  .F         3013.5000:   Total depth
 DATE.        01-DEC-1979:   Date logged
 CLNT.            A2DTECH:   Client Code
 SL  . 2267' FSL & 1070' FWL:   Surface Location
 PD  .                 GL:   Permanent Datum
 EPD .F              5082:   Elevation Permanent Datum
 LMF .                 KB:   Log Measured From
 DMF .                 KB:   Drilling Measured From
 DAPD.F                10:   Feet Above Permanent Datum
 DD  .F              3000:   Depth driller
 DL  .F            3013.5:   Depth logger
 BLI .F              3013:   Bottom log interval
 TLI .F               350:   Top log interval
 CS1 .IN            8.625:   Casing size
 CBD1.      8.625" @ 465':   Casing driller 1
 CBL1.F               462:   Casing logger 1
 BS1 .IN            7.875:   Bit size
 BSD1.F              3000:   Depth drilled with bit1
 DFT .           CHEM GEL:   Type fluid in hole
 DFD .                8.8:   Density
 DFV .                 55:   Viscosity
 DFPH.                  9:   pH
 DFL .                6.4:   Fluid loss
 MSS .           FLOWLINE:   Source of sample
 RMS .OHMM           1.53:   Rm
 MST .F                75:   Rm Meas. temp.
 RMF .OHMM           1.24:   Rmf
 MFST.F                75:   Rmf Meas. temp.
 RMC .OHMM           1.83:   Rmc
 MCST.F                75:   Rmc Meas. temp.
 MFSS.               MEAS:   Source Rmf.
 MCSS.               MEAS:   Source Rmc.
 RMB .OHMM           1.09:   Rm. at BHT
 BHT .F               105:   BHT.
 TCS .HRS             2.5:   Time Circ. stopped
 MRT .F               105:   Maximum recorded temp.
 LUN .                965:   Logging unit number
 LUL .             CASPER:   Logging unit location
 ENGI.            BENTSEN:   Recorded By
 WITN.           P. AMEND:   Witnessed by
 ORIG.           5" PRINT:   Origin of data
 UWI .     49025107940000:   Unique Well ID
 DICO. A2D TECHNOLOGIES, INC.:   Digitizing Company
~OTHER INFORMATION
~A   DEPT      SPR       RILM       RILD       SGRD       TENR       NPHI         GRD      CALD       RHOB       DCOR       TEND   
# ...
 1450.5000   -43.6800     9.2230     7.9700     9.8800   841.7850     0.2760    72.2830     8.1990     2.5050     0.0530  1329.5740
 1451.0000   -43.6840     9.5170     8.0910     9.7880   841.7850     0.2770    70.2680     8.2030     2.5260     0.0650  1353.2770
 1451.5000   -43.4120     9.3660     8.2610     9.6670   841.7850     0.2800    71.1360     8.1960     2.5440     0.0760  1348.6720
 1452.0000   -43.1590     9.0780     8.5080     9.4290   841.7850     0.2800    69.5280     8.1900     2.5550     0.0830  1344.0670
 1452.5000   -43.0620     8.8320     8.3850     9.2540   841.7850     0.2780    69.3070     8.1850     2.5580     0.0780  1339.4611
 1453.0000   -43.0900     8.9640     8.1580     9.2540   841.7850     0.2750    69.7230     8.1920     2.5500     0.0750  1334.8560
 1453.5000   -43.1180     9.0830     7.9700     9.2540   841.7850     0.2720    67.8490     8.2000     2.5560     0.0790  1330.2510
 1454.0000   -43.1470     8.9470     8.1630     9.7880   841.7850     0.2720    67.5230     8.1960     2.5490     0.0740  1325.6460
 1454.5000   -43.1770     8.7500     8.3290     9.6840   841.7850     0.2780    66.5470     8.1820     2.5460     0.0710  1321.0410
 1455.0000   -43.2060     8.8570     8.4130     9.2540   841.7850     0.2790    66.5460     8.1680     2.5470     0.0750  1316.4351
 1455.5000   -43.2350     9.0380     8.2800     9.6970   841.7850     0.2790    67.1110     8.1540     2.5530     0.0820  1316.7450
 1456.0000   -43.2640     9.2180     8.1960     9.9040   841.7850     0.2780    66.7980     8.1400     2.5490     0.0780  1321.5750
 1456.5000   -43.2930     9.3980     8.4740     9.9720   841.7850     0.2780    66.7300     8.1260     2.5330     0.0640  1326.4050
 1457.0000   -43.3220     9.4290     8.6690     9.9400   841.7850     0.2780    67.6110     8.1110     2.5290     0.0660  1331.2350
 1457.5000   -43.3510     9.4290     8.8320     9.9000   841.7850     0.2790    66.9260     8.1020     2.5410     0.0740  1336.0649
 1458.0000   -43.3800     9.4290     8.9990     9.8610   841.7850     0.2790    67.4060     8.0960     2.5470     0.0830  1340.8950
 1458.5000   -43.4090     9.4290     8.9990     9.8220   841.7850     0.2790    67.1440     8.0900     2.5360     0.0760  1345.7240
 1459.0000   -43.4420     9.4290     8.9150     9.7830   841.7850     0.2810    69.2530     8.0850     2.5240     0.0680  1350.5540
 1459.5000   -43.3410     9.4290     8.8320     9.7430   841.7850     0.2810    71.3580     8.0790     2.5160     0.0710  1352.2010
 1460.0000   -43.1880     9.4290     8.7500     9.7040   841.7850     0.2820    72.5630     8.0730     2.5160     0.0670  1347.5959
 1460.5000   -43.0340     9.4290     8.7500     9.6650   841.7850     0.2830    75.2080     8.0680     2.5120     0.0590  1342.9910
 1461.0000   -42.8790     9.2840     8.8320     9.6250   841.7850     0.2820    73.4130     8.0650     2.5200     0.0640  1338.3860
 1461.5000   -42.7240     9.1260     8.8320     9.5810   841.7850     0.2830    72.9520     8.0650     2.5240     0.0570  1333.7810
 1462.0000   -42.5720     8.9670     8.4580     9.3860   841.7850     0.2860    72.1260     8.0650     2.5280     0.0560  1329.1750
 1462.5000   -42.4650     8.8320     8.1520     9.1900   841.7850     0.2860    71.7030     8.0650     2.5420     0.0660  1324.5699
 1463.0000   -42.6730     8.5080     8.0880     8.9950   841.7850     0.2870    73.0390     8.0650     2.5560     0.0810  1319.9650
 1463.5000   -42.8780     8.4290     8.0440     8.8320   841.7850     0.2870    72.2600     8.0690     2.5580     0.0790  1315.3600
 1464.0000   -43.0820     8.5460     8.1000     9.0280   841.7850     0.2840    71.3890     8.0750     2.5500     0.0710  1318.9980
 1464.5000   -43.2830     8.7280     8.1580     9.1960   841.7850     0.2810    68.1360     8.0810     2.5460     0.0740  1325.3170
 1465.0000   -43.4130     8.9690     8.2160     9.3640   841.7850     0.2790    66.8710     8.0860     2.5490     0.0760  1331.6370
 1465.5000   -43.1940     9.2540     8.2730     9.5320   841.7850     0.2770    65.0940     8.0900     2.5530     0.0830  1337.9570
 1466.0000   -42.9810     9.2350     8.3820     9.6970   841.7850     0.2760    66.2300     8.0930     2.5590     0.0910  1344.2770
 1466.5000   -42.7700     9.2110     8.5080     8.9150   841.7850     0.2760    67.0240     8.0970     2.5550     0.0840  1350.5970
 1467.0000   -42.5600     9.1860     8.3440     9.5170   841.7850     0.2780    68.8020     8.1000     2.5440     0.0680  1356.9170
 1467.5000   -42.5100     9.0940     8.1850     9.3090   841.7850     0.2800    70.0220     8.1040     2.5360     0.0650  1363.2371
 1468.0000   -42.6670     8.7920     8.1200     9.0830   841.7850     0.2830    70.3880     8.1060     2.5360     0.0660  1369.5570
 1468.5000   -42.8230     8.6720     8.1320     9.1870   841.7850     0.2840    70.4540     8.1080     2.5280     0.0590  1369.4120
 1469.0000   -42.9790     8.5880     8.1580     9.3440   841.7850     0.2840    72.0430     8.1100     2.5200     0.0540  1358.4100
 1469.5000   -43.1350     8.6300     8.1830     9.5090   841.7850     0.2840    71.6610     8.1120     2.5160     0.0510  1347.4091
 1470.0000   -43.2390     8.6690     8.2090     9.4640   841.7850     0.2800    72.4020     8.1130     2.5170     0.0530  1336.4080
 1470.5000   -43.1990     8.7080     8.2350     9.4050   841.7850     0.2770    71.3480     8.1150     2.5230     0.0530  1325.4060
 1471.0000   -43.1630     8.7500     8.2610     9.3410   841.7850     0.2740    69.3090     8.1170     2.5210     0.0460  1314.4050
 1471.5000   -43.1280     8.8500     8.3540     9.4390   841.7850     0.2710    66.9170     8.1190     2.5280     0.0400  1303.4041
 1472.0000   -43.0920     8.9590     8.5070     9.5450   841.7850     0.2670    65.3420     8.1210     2.5360     0.0490  1292.4020
 1472.5000   -43.0560     9.0670     8.6690     9.6520   841.7850     0.2670    64.4180     8.1230     2.5550     0.0610  1281.4010
 1473.0000   -43.0200     9.1760     8.8170     9.7580   841.7850     0.2660    65.6120     8.1240     2.5600     0.0660  1282.4510
 1473.5000   -42.9840     9.2850     8.9050     9.8640   841.7850     0.2670    65.7230     8.1260     2.5670     0.0710  1302.2531
 1474.0000   -42.9480     9.3930     8.9940     9.9720   841.7850     0.2670    67.6630     8.1280     2.5760     0.0760  1322.0551
 1474.5000   -42.9120     9.5020     9.0830     9.9620   841.7850     0.2640    67.3370     8.1300     2.5780     0.0710  1332.7230
 1475.0000   -42.8760     9.6110     9.0930     9.9490   841.7850     0.2630    65.4600     8.1320     2.5800     0.0710  1329.5300
 1475.5000   -42.8400     9.6970     9.1090     9.9350   841.7850     0.2610    66.7580     8.1330     2.5820     0.0700  1326.3361
 1476.0000   -42.8040     9.6320     9.1260     9.9220   841.7850     0.2630    69.2700     8.1350     2.5720     0.0600  1323.1420
 1476.5000   -42.7680     9.5790     9.1430     9.9080   841.7850     0.2620    70.7200     8.1370     2.5670     0.0590  1319.9480
 1477.0000   -42.7320     9.5260     9.1680     9.8950   841.7850     0.2640    72.9160     8.1390     2.5700     0.0620  1316.7540
 1477.5000   -42.6960     9.4050     9.0940     9.8820   841.7850     0.2700    70.5210     8.1400     2.5780     0.0610  1313.2570
 1478.0000   -42.6610     9.2720     8.9260     9.7120   841.7850     0.2750    71.7950     8.1420     2.5760     0.0540  1308.6150
 1478.5000   -42.6470     9.1390     8.7590     9.5140   841.7850     0.2800    70.3400     8.1440     2.5700     0.0500  1303.9740
 1479.0000   -42.6600     9.0060     8.5910     9.2540   841.7850     0.2820    75.6420     8.1490     2.5700     0.0470  1299.3330
 1479.5000   -42.6720     8.8730     8.4240     9.2900   841.7850     0.2820    75.0510     8.1550     2.5720     0.0390  1294.6920
 1480.0000   -42.6850     8.8130     8.2730     9.3420   841.7850     0.2790    74.7240     8.1600     2.5700     0.0320  1290.0510
 1480.5000   -42.6980     8.7850     8.2450     9.3930   841.7850     0.2770    72.2440     8.1660     2.5740     0.0350  1285.4091
