~VERSION INFORMATION
 VERS.                2.0:   CWLS LOG ASCII STANDARD - VERSION 2.0
 WRAP.                 NO:   ONE LINE PER DEPTH STEP
~WELL INFORMATION
#MNEM.UNIT      DATA TYPE    INFORMATION
#----------   ------------   ------------------------------
 STRT.F          206.0000:   START DEPTH
 STOP.F         2974.0000:   STOP DEPTH
 STEP.F            0.5000:   STEP LENGTH
 NULL.          -999.2500:   NO VALUE
 COMP.    FENIX & SCISSON:   COMPANY
 WELL.    FENIX AX #32-21:   WELL
 FLD .                NPR:   FIELD
 LOC .      S21 T39N R78W:   LOCATION
 CNTY.            NATRONA:   COUNTY
 STAT.            WYOMING:   STATE
 CTRY. UNITED STATES OF AMERICA:   COUNTRY
 SRVC.              WELEX:   SERVICE COMPANY
 DATE.        29-JUL-1977:   LOGDATE
 API .     49025104050000:   API NUMBER
~CURVE INFORMATION
#MNEM.UNIT       API CODE    CURVE DESCRIPTION
#----------   ------------   ------------------------------
 DEPT.F                  :   
 SPR .MV     07 010 01 00:   SPONTANEOUS POTENTIAL
 RILM.OHMM   07 120 44 00:   INDUCTION LOG MEDIUM RESISTIVITY
 RILD.OHMM   07 120 46 00:   INDUCTION LOG DEEP RESISTIVITY
 SGRD.OHMM   07 220 05 00:   SHALLOW GUARD LOG RESISTIVITY
 CALD.IN     45 280 60 00:   CALIPER FROM DENSITY LOG
 RHOB.G/C3   45 350 01 00:   BULK DENSITY
 DCOR.G/C3   45 356 01 00:   DENSITY CORRECTION
 GRD .GAPI   45 310 01 00:   GAMMA RAY FROM DENSITY LOG
~PARAMETER INFORMATION
#MNEM.UNIT          VALUE    DESCRIPTION
#----------   ------------   ------------------------------
 EKB .F         4995.0000:   Kelly bushing
 EGL .F         4985.0000:   Ground level
 EDF .F            0.0000:   Drilling floor
 EPD .F         4985.0000:   Permanent datum
 TD  .F         2978.0000:   Total depth
 DATE.        29-JUL-1977:   Date logged
 CLNT.            A2DTECH:   Client Code
 SL  . 1040' FNL & 1500' FWL:   Surface Location
 PD  .                 GL:   Permanent Datum
 LMF .                 KB:   Log Measured From
 DMF .                 KB:   Drilling Measured From
 DAPD.F                10:   Feet Above Permanent Datum
 DD  .F              2972:   Depth driller
 DL  .F              2978:   Depth logger
 BLI .F              2976:   Bottom log interval
 TLI .F               120:   Top log interval
 CS1 .IN            8.625:   Casing size
 CBD1.      8.625" @ 205':   Casing driller 1
 CBL1.F               220:   Casing logger 1
 BS1 .IN            7.875:   Bit size
 BSD1.F              2972:   Depth drilled with bit1
 DFT .                KCL:   Type fluid in hole
 DFD .                9.2:   Density
 DFV .                 43:   Viscosity
 DFPH.                 10:   pH
 DFL .                  8:   Fluid loss
 MSS .            MUD PIT:   Source of sample
 RMS .OHMM            .21:   Rm
 MST .F                91:   Rm Meas. temp.
 RMF .OHMM            .18:   Rmf
 MFST.F                91:   Rmf Meas. temp.
 RMC .OHMM            .23:   Rmc
 MCST.F                91:   Rmc Meas. temp.
 MFSS.               MEAS:   Source Rmf.
 MCSS.               MEAS:   Source Rmc.
 RMB .OHMM            .17:   Rm. at BHT
 BHT .F               110:   BHT.
 TCS .HRS               3:   Time Circ. stopped
 MRT .F               110:   Maximum recorded temp.
 LUN .               9685:   Logging unit number
 LUL .             CASPER:   Logging unit location
 ENGI.   T JOYNER/ E HOCH:   Recorded By
 WITN.         PETTINGILL:   Witnessed by
 ORIG.     2.5", 5" PRINT:   Origin of data
 UWI .     49025104050000:   Unique Well ID
 DICO. A2D TECHNOLOGIES, INC.:   Digitizing Company
~OTHER INFORMATION
~A   DEPT      SPR       RILM       RILD       SGRD       CALD       RHOB       DCOR         GRD  
# ...
 1461.5000   -76.7350     7.7430     7.7240    11.0280     8.5800     2.5080     0.0310   115.7730
 1462.0000   -76.7340     7.9470     7.8850    11.6870     8.5800     2.5160     0.0310   115.5340
 1462.5000   -76.8610     7.8970     8.0960    12.3470     8.5800     2.5230     0.0380   114.6060
 1463.0000   -76.9720     7.7970     8.0560    13.0820     8.5800     2.5310     0.0430   113.7740
 1463.5000   -77.0900     7.6970     7.9990    12.4810     8.5800     2.5370     0.0490   112.7600
 1464.0000   -77.2070     7.5980     7.9420    11.7100     8.5800     2.5380     0.0540   112.9160
 1464.5000   -77.3170     7.4980     7.8850    11.8260     8.5800     2.5560     0.0600   114.2560
 1465.0000   -77.4510     7.3820     7.8280    11.9280     8.5800     2.5600     0.0660   115.4470
 1465.5000   -77.3850     7.4300     7.7710    11.4890     8.5800     2.5570     0.0680   116.6710
 1466.0000   -77.1400     7.4880     7.7140    11.1710     8.5800     2.5540     0.0670   117.9330
 1466.5000   -76.9330     7.5460     7.6570    11.5900     8.5800     2.5520     0.0660   118.7500
 1467.0000   -76.7150     7.6030     7.6000    11.9280     8.5800     2.5490     0.0650   118.5890
 1467.5000   -76.7960     7.6610     7.5190    11.2860     8.5800     2.5450     0.0640   118.4630
 1468.0000   -76.9000     7.7190     7.5350    11.5430     8.5800     2.5430     0.0630   118.2910
 1468.5000   -77.0260     7.8020     7.5610    11.7100     8.5800     2.5420     0.0620   118.1500
 1469.0000   -77.0980     7.7580     7.5880    11.4120     8.5800     2.5410     0.0610   118.0330
 1469.5000   -77.0890     7.6770     7.6140    11.0790     8.5800     2.5410     0.0600   118.3980
 1470.0000   -77.0930     7.5960     7.6590    11.1190     8.5800     2.5350     0.0630   118.7600
 1470.5000   -77.0900     7.5160     7.6380    11.1610     8.5800     2.5360     0.0660   119.1410
 1471.0000   -77.0930     7.4350     7.5700    11.2040     8.5800     2.5430     0.0680   119.5120
 1471.5000   -77.1010     7.3540     7.5020    11.2460     8.5800     2.5490     0.0650   119.8890
 1472.0000   -77.2360     7.2740     7.4340    11.2860     8.5800     2.5540     0.0620   120.2400
 1472.5000   -77.3670     7.2110     7.3660    10.8460     8.5800     2.5450     0.0580   120.6890
 1473.0000   -77.5040     7.1570     7.2990    10.2910     8.5800     2.5350     0.0550   121.2060
 1473.5000   -77.6380     7.1040     7.2410    10.3470     8.5800     2.5270     0.0520   121.7180
 1474.0000   -77.7730     7.0500     7.2160    10.4340     8.5800     2.5230     0.0480   122.1840
 1474.5000   -77.9070     6.9970     7.1900    10.5210     8.5800     2.5210     0.0450   122.7480
 1475.0000   -78.0430     6.9430     7.1650    10.6080     8.5800     2.5250     0.0460   122.5700
 1475.5000   -78.1780     6.8560     7.1400    10.6780     8.5800     2.5360     0.0490   122.2930
 1476.0000   -78.2780     6.8680     7.1150    10.4500     8.5800     2.5460     0.0520   122.0000
 1476.5000   -78.2150     6.9000     7.1150    10.2910     8.5800     2.5570     0.0540   121.7150
 1477.0000   -78.1610     6.9320     7.1140    10.6780     8.5800     2.5670     0.0600   121.4330
 1477.5000   -78.1010     6.9840     7.1140    10.4530     8.5800     2.5780     0.0680   121.2330
 1478.0000   -78.0430     6.9630     7.1140    10.1030     8.5800     2.5880     0.0780   121.5440
 1478.5000   -77.9840     6.9010     7.1140    10.1640     8.5800     2.5840     0.0760   121.8170
 1479.0000   -77.9320     6.8380     7.1140    10.2810     8.5770     2.5710     0.0670   122.1090
 1479.5000   -77.7790     6.7760     7.1140    10.3990     8.5720     2.5650     0.0640   122.3740
 1480.0000   -77.4460     6.7380     7.1140    10.4830     8.5670     2.5710     0.0630   122.7270
 1480.5000   -77.1300     6.7630     7.1140    10.1030     8.5630     2.5750     0.0620   122.3630
 1481.0000   -76.7800     6.7880     7.1140    10.3580     8.5580     2.5730     0.0600   121.4830
 1481.5000   -76.8020     6.8130     7.1140    10.5970     8.5540     2.5670     0.0560   120.6250
 1482.0000   -77.0120     6.8380     7.1140    10.8770     8.5490     2.5600     0.0510   121.1040
 1482.5000   -77.1960     6.8630     7.1140    10.7750     8.5450     2.5540     0.0470   122.2220
 1483.0000   -77.3770     6.8880     7.1140    10.6780     8.5400     2.5490     0.0420   122.7130
 1483.5000   -77.5660     6.9120     7.1140    10.7570     8.5420     2.5370     0.0380   122.1550
 1484.0000   -77.7510     6.9370     7.1140    10.8770     8.5430     2.5270     0.0330   121.7360
 1484.5000   -77.8960     6.9620     7.1140    10.6780     8.5450     2.5230     0.0320   121.2630
 1485.0000   -77.9320     6.9870     7.1140    10.5230     8.5470     2.5180     0.0330   120.8020
 1485.5000   -77.9710     7.0120     7.1140    10.3640     8.5490     2.5150     0.0340   120.4340
 1486.0000   -78.0070     7.0360     7.1140    10.1030     8.5510     2.5170     0.0350   120.6090
 1486.5000   -78.0440     7.0610     7.1140    10.3160     8.5520     2.5180     0.0350   120.7760
 1487.0000   -78.0810     7.0850     7.1140    10.4830     8.5540     2.5190     0.0360   120.9780
 1487.5000   -78.1160     7.1120     7.1140    10.2960     8.5560     2.5160     0.0340   121.1120
 1488.0000   -78.1540     7.0260     7.1140    10.0330     8.5580     2.5140     0.0330   121.5460
 1488.5000   -78.1900     6.9300     7.1020     9.7370     8.5590     2.5170     0.0340   122.1490
 1489.0000   -78.2250     6.8340     7.0570     9.8610     8.5610     2.5220     0.0380   122.6900
 1489.5000   -78.2720     6.7370     7.0110    10.0020     8.5630     2.5230     0.0410   123.2480
 1490.0000   -78.2150     6.6400     6.9650    10.1440     8.5650     2.5210     0.0440   123.8030
 1490.5000   -77.9950     6.4870     6.9180    10.2860     8.5670     2.5270     0.0480   124.3310
 1491.0000   -77.7880     6.5240     6.8560    10.4830     8.5680     2.5290     0.0440   124.9800
 1491.5000   -77.5740     6.6120     6.9340    10.2750     8.5700     2.5250     0.0400   124.6570
 1492.0000   -77.3650     6.7000     7.0620     9.9360     8.5720     2.5190     0.0360   123.2040
 1492.5000   -77.1520     6.7880     7.1310     9.3840     8.5740     2.5140     0.0320   121.9520
 1493.0000   -77.0600     6.8760     7.1600     9.4540     8.5750     2.5130     0.0280   120.5110
 1493.5000   -77.0240     6.9640     7.1890     9.6420     8.5770     2.5120     0.0310   120.2200
 1494.0000   -76.9850     7.0520     7.2170     9.8310     8.5790     2.5210     0.0330   119.9740
 1494.5000   -76.9440     7.1400     7.2460    10.1520     8.5760     2.5310     0.0350   119.7800
 1495.0000   -76.9050     7.2270     7.2750    10.5850     8.5650     2.5390     0.0370   119.5430
 1495.5000   -76.8660     7.3150     7.3040    11.0190     8.5560     2.5430     0.0390   119.3220
 1496.0000   -76.8260     7.4030     7.3320    11.4530     8.5460     2.5490     0.0410   119.1200
 1496.5000   -76.7860     7.5190     7.3610    11.8870     8.5350     2.5500     0.0430   118.8560
 1497.0000   -76.7490     7.3600     7.3740    12.3770     8.5260     2.5460     0.0450   118.9380
 1497.5000   -76.7040     7.1260     7.3470    11.3990     8.5160     2.5430     0.0470   119.2370
 1498.0000   -76.7240     6.8560     7.3190    10.1030     8.5050     2.5370     0.0470   119.3470
 1498.5000   -76.7840     6.7530     7.2910    10.1590     8.5010     2.5280     0.0450   120.9360
 1499.0000   -76.8380     6.6080     7.2640    10.2250     8.5070     2.5200     0.0430   124.2900
 1499.5000   -76.8930     6.5270     7.2360    10.2910     8.5120     2.5110     0.0400   127.4480
 1500.0000   -76.9480     6.4290     7.2080    10.0050     8.5170     2.5070     0.0380   127.1500
 1500.5000   -77.0020     6.3310     7.1810     9.7230     8.5220     2.5030     0.0360   126.4070
 1501.0000   -77.0610     6.2520     7.1530     9.3840     8.5270     2.5060     0.0380   126.0150
 1501.5000   -77.0940     6.3940     7.1150     9.5830     8.5320     2.5130     0.0410   126.7920
