~VERSION INFORMATION
 VERS.                2.0:   CWLS LOG ASCII STANDARD - VERSION 2.0
 WRAP.                 NO:   ONE LINE PER DEPTH STEP
~WELL INFORMATION
#MNEM.UNIT      DATA TYPE    INFORMATION
#----------   ------------   ------------------------------
 STRT.F            0.0000:   START DEPTH
 STOP.F         3474.0000:   STOP DEPTH
 STEP.F            0.5000:   STEP LENGTH
 NULL.          -999.2500:   NO VALUE
 COMP. LAWRENCE ALLISON & ASSOCIATES:   COMPANY
 WELL. LAWRENCE ALLISON #13-AX-14:   WELL
 FLD .            WILDCAT:   FIELD
 LOC .      S14 T38N R78W:   LOCATION
 CNTY.            NATRONA:   COUNTY
 STAT.            WYOMING:   STATE
 CTRY. UNITED STATES OF AMERICA:   COUNTRY
 SRVC.      DRESSER ATLAS:   SERVICE COMPANY
 DATE.        31-MAR-1986:   LOGDATE
 API .     49025110640000:   API NUMBER
~CURVE INFORMATION
#MNEM.UNIT       API CODE    CURVE DESCRIPTION
#----------   ------------   ------------------------------
 DEPT.F                  :   
 TEND.LBS    45 635 01 00:   TENSION FROM DENSITY LOG
 RHOB.G/C3   45 350 01 00:   BULK DENSITY
 CORR.G/C3   45 356 01 00:   DENSITY CORRECTION
 CALD.IN     45 280 60 00:   CALIPER FROM DENSITY LOG
 NPHI.DEC    42 890 00 00:   NEUTRON POROSITY
 TENR.LBS    07 635 01 00:   TENSION FROM RESISTIVITY
 RFOC.OHMM   07 220 01 00:   RESISTIVITY FOCUSED LOG RES.
 RILD.OHMM   07 120 46 00:   DEEP INDUCTION RESISTIVITY
 RILM.OHMM   07 120 44 00:   INDUCTION LOG MEDIUM RESISTIVITY
 GRR .GAPI   07 310 01 00:   GAMMA RAY FROM RESISTIVITY
 SPR .MV     07 010 01 00:   SPONTANEOUS POTENTIAL
 TENS.LBS    60 635 01 00:   TENSION FROM SONIC LOG
 DT  .US/F   60 520 00 00:   DELTA TIME
~PARAMETER INFORMATION
#MNEM.UNIT          VALUE    DESCRIPTION
#----------   ------------   ------------------------------
 EKB .F         5251.0000:   Kelly bushing
 EGL .F         5239.2000:   Ground level
 EDF .F         5248.1000:   Drilling floor
 TD  .F         3456.0000:   Total depth
 DATE.        31-MAR-1986:   Date logged
 CLNT.            A2DTECH:   Client Code
 SL  . 238' FWL & 1739' FNL:   Surface Location
 PD  .                 GL:   Permanent Datum
 EPD .F            5239.2:   Elevation Permanent Datum
 LMF .                 KB:   Log Measured From
 DMF .                 KB:   Drilling Measured From
 DAPD.F              11.8:   Feet Above Permanent Datum
 DD  .F              3450:   Depth driller
 DL  .F              3456:   Depth logger
 BLI .F              3450:   Bottom log interval
 CS1 .IN            8.625:   Casing size
 CBD1.      8.625" @ 689':   Casing driller 1
 CBL1.F               692:   Casing logger 1
 BS1 .IN            7.875:   Bit size
 BSD1.F              3450:   Depth drilled with bit1
 DFT .        POLYMER/KCL:   Type fluid in hole
 DFD .                9.1:   Density
 DFV .                 38:   Viscosity
 DFPH.                8.5:   pH
 DFL .               11.2:   Fluid loss
 MSS .           FLOWLINE:   Source of sample
 RMS .OHMM            .29:   Rm
 MST .F                65:   Rm Meas. temp.
 RMF .OHMM           .235:   Rmf
 MFST.F                65:   Rmf Meas. temp.
 RMC .OHMM           .378:   Rmc
 MCST.F                65:   Rmc Meas. temp.
 MFSS.               MEAS:   Source Rmf.
 MCSS.               MEAS:   Source Rmc.
 RMB .OHMM           .163:   Rm. at BHT
 BHT .F               115:   BHT.
 TCS .HRS               3:   Time Circ. stopped
 MRT .F               115:   Maximum recorded temp.
 LUN .            HL-6274:   Logging unit number
 LUL .           GILLETTE:   Logging unit location
 ENGI.             RAUTIO:   Recorded By
 WITN.             STRONG:   Witnessed by
 ORIG.           5" PRINT:   Origin of data
 UWI .     49025110640000:   Unique Well ID
 DICO. A2D TECHNOLOGIES, INC.:   Digitizing Company
~OTHER INFORMATION
~A    DEPT    TEND       RHOB       CORR       CALD       NPHI       TENR       RFOC       RILD       RILM          GRR      SPR       TENS         DT   
# ...
 2808.0000   -64.8150     2.3930     0.0100     9.5680     0.2380   -82.6650    10.6030    10.9460    10.0580    92.2350   -13.9020  -104.8550    79.1890
 2808.5000   -64.8150     2.3970     0.0160     9.5710     0.2300   -82.6890     9.9800    10.5590     9.6400    89.7730   -13.1690  -104.8550    79.7900
 2809.0000   -64.8150     2.4060     0.0220     9.5750     0.2250   -80.3480     9.3570    10.1720     9.1830    89.0410   -13.0960  -104.8550    79.7820
 2809.5000   -64.8150     2.4150     0.0100     9.5740     0.2280   -78.0080     8.7350     9.9110     8.7070    91.8190   -12.9830  -103.1390    79.4690
 2810.0000   -64.8150     2.4230    -0.0020     9.5530     0.2390   -75.6670     8.1120     9.9110     8.2300    98.5530   -12.8620   -97.8840    79.2890
 2810.5000   -65.3440     2.4320    -0.0060     9.5440     0.2440   -73.3270     7.7700     9.6980     7.7540   105.8570   -13.4060   -92.6280    79.6830
 2811.0000   -68.5220     2.4430     0.0000     9.5350     0.2440   -70.9870     7.7230     8.9540     7.3070   113.4710   -14.0270   -87.3730    80.2030
 2811.5000   -71.6990     2.4540     0.0060     9.5270     0.2360   -68.6460     7.7230     8.2100     7.1070   115.9520   -14.6440   -82.1180    81.4670
 2812.0000   -74.8760     2.4570     0.0040     9.5190     0.2240   -66.3060     7.7950     8.0880     7.1070   113.9440   -15.2580   -76.8630    82.0200
 2812.5000   -78.0540     2.4450     0.0000     9.4610     0.2120   -64.9450     8.4210     8.2390     7.3740   106.5310   -15.4860   -76.4930    81.3710
 2813.0000   -81.2310     2.4320    -0.0030     9.4030     0.2130   -67.4020     9.6840     8.9300     8.4390    99.0320   -15.1170   -84.6680    80.0890
 2813.5000   -84.4090     2.4220    -0.0070     9.4020     0.2200   -69.8600    10.9480     9.5690     9.6500    91.5310   -14.7560   -92.8430    78.7040
 2814.0000   -83.2840     2.4220    -0.0020     9.3760     0.2260   -72.3170    12.2110    10.0960    10.8600    85.9560   -14.4420   -93.2980    77.3190
 2814.5000   -81.4930     2.4200     0.0050     9.3300     0.2240   -74.7740    13.3200    11.1440    11.9990    84.6790   -14.4380   -88.8390    76.2260
 2815.0000   -79.7020     2.4180     0.0100     9.2990     0.2210   -77.2320    13.3200    12.2610    12.6230    84.6070   -14.4390   -84.8350    76.0860
 2815.5000   -77.9120     2.4130     0.0100     9.2690     0.2190   -79.6890    13.3200    13.3770    13.2460    83.8930   -14.0620   -84.8350    76.4690
 2816.0000   -76.1210     2.4080     0.0100     9.2380     0.2190   -82.1460    13.2080    14.4940    13.8700    84.2110   -13.2850   -84.8350    76.9870
 2816.5000   -74.3300     2.4080     0.0270     9.2120     0.2210   -84.5040    12.6540    15.1590    14.6090    84.5510   -13.0610   -79.7530    77.4350
 2817.0000   -72.5390     2.4130     0.0300     9.1900     0.2200   -79.1190    12.8510    15.1590    14.6090    84.1940   -13.6780   -68.4340    77.5690
 2817.5000   -70.7480     2.4230     0.0280     9.1680     0.2160   -73.9460    13.2460    15.1590    14.4250    83.4840   -14.0400   -57.1150    77.4870
 2818.0000   -68.9570     2.4340     0.0210     9.1460     0.2130   -68.7720    13.6250    15.1590    14.1250    83.5470   -13.9410   -54.8050    77.4060
 2818.5000   -67.1660     2.4410     0.0140     9.1240     0.2130   -66.5830    13.6940    15.1590    13.8250    85.8490   -13.3740   -66.8170    77.3240
 2819.0000   -65.3750     2.4330     0.0140     9.1040     0.2230   -79.6890    13.3670    15.3000    13.5250    86.1160   -13.2510   -79.0790    77.1520
 2819.5000   -67.7930     2.4210     0.0120     9.0910     0.2280   -92.7950    13.0250    15.4950    13.2250    82.4910   -13.2390   -91.3410    76.9070
 2820.0000   -73.9490     2.4090     0.0080     9.0770     0.2230  -104.5640    12.6840    15.7040    12.9560    78.8450   -13.0610   -91.9010    76.6870
 2820.5000   -80.1050     2.4030     0.0110     9.0640     0.2150   -94.4080    12.3420    15.9120    12.9560    75.5000   -12.7620   -86.1300    76.6330
 2821.0000   -83.4080     2.4030     0.0180     9.0510     0.2160   -85.1930    11.8130    16.0230    13.5620    74.4310   -12.2670   -80.3600    76.5870
 2821.5000   -77.2520     2.4020     0.0240     9.0380     0.2230   -75.9780    11.8930    16.4730    13.9780    73.4720   -12.1970   -74.8250    76.7520
 2822.0000   -71.0960     2.4020     0.0300     9.0310     0.2230   -76.1870    12.0330    16.8770    14.3260    72.6230   -12.1120   -74.8250    76.9080
 2822.5000   -64.8150     2.4070     0.0310     9.0400     0.2230   -78.2350    12.7540    17.2730    14.7450    68.0160   -11.9840   -77.3270    77.0640
 2823.0000   -66.4790     2.4130     0.0240     9.0490     0.2270   -80.2830    13.4610    17.6690    14.6100    62.7440   -11.6030   -80.3930    77.2200
 2823.5000   -68.1770     2.4130     0.0130     9.0570     0.2310   -82.3300    14.1680    18.0650    14.3820    60.0790   -11.0020   -83.4580    77.2350
 2824.0000   -69.8750     2.4050     0.0060     9.0660     0.2350   -84.5040    14.3420    18.4040    14.1540    57.8420   -10.1080   -79.0430    77.1430
 2824.5000   -71.5730     2.4040     0.0160     9.0750     0.2320   -67.2020    13.3020    18.4040    13.9270    56.8120    -9.1120   -68.5330    77.0510
 2825.0000   -73.2720     2.4100     0.0170     9.0840     0.2200   -56.5630    12.4860    18.4040    13.6990    58.2130    -9.0590   -58.0220    76.8800
 2825.5000   -74.8250     2.4160     0.0170     9.0890     0.2130   -63.5840    12.4860    18.1380    13.4710    59.8180    -9.0630   -54.8050    76.5290
 2826.0000   -73.4320     2.4150     0.0130     9.0900     0.2120   -70.6050    13.1970    17.8400    13.4440    65.0860    -9.0640   -62.3840    76.4250
 2826.5000   -71.3800     2.3990     0.0090     9.0920     0.2180   -73.5910    12.9810    17.5430    13.3200    69.5330    -9.0530   -69.3910    76.5880
 2827.0000   -69.3280     2.3920     0.0020     9.0930     0.2220   -71.6250    12.7700    17.2520    13.3200    70.7600    -9.3850   -74.8250    77.0380
 2827.5000   -67.2760     2.3890    -0.0080     9.0940     0.2220   -69.6590    12.6020    17.2520    13.5680    69.5190    -9.7610   -72.3220    77.4870
 2828.0000   -65.2240     2.3900    -0.0030     9.0960     0.2230   -67.6930    13.3150    17.2520    13.8210    68.3000   -10.1390   -68.2350    77.4650
 2828.5000   -66.1590     2.3950     0.0040     9.0970     0.2220   -65.7270    13.6660    17.4880    13.9500    68.9340   -10.5610   -64.8150    77.0470
 2829.0000   -73.1950     2.3990     0.0040     9.0980     0.2170   -69.3150    13.3660    17.7290    14.2010    70.6450   -11.1240   -69.8650    76.9550
 2829.5000   -80.2300     2.4030     0.0040     9.1000     0.2130   -83.3570    13.1260    17.9700    14.6580    72.3520   -11.7000   -76.5540    77.3540
 2830.0000   -84.8350     2.3980     0.0040     9.1010     0.2090   -97.3990    12.8860    18.2350    15.1150    74.3680   -12.3000   -83.2420    78.0880
 2830.5000   -84.8350     2.3920     0.0140     9.1020     0.2090  -102.3070    12.6450    18.0470    15.4420    76.9810   -12.6010   -89.9310    79.4390
 2831.0000   -84.8350     2.3920     0.0220     9.1040     0.2150   -97.6990    12.4050    17.8380    15.3840    76.9590   -12.6870   -94.8450    80.4740
 2831.5000   -84.8350     2.3930     0.0210     9.1050     0.2200   -93.0920    12.3230    17.6280    15.3390    75.9020   -13.2270   -92.7480    80.6750
 2832.0000   -84.8350     2.3960     0.0170     9.1060     0.2220   -88.4840    12.2570    17.4190    15.2950    75.6490   -13.8160   -88.0760    79.8720
 2832.5000   -84.8350     2.3990     0.0120     9.1080     0.2110   -83.8770    12.5470    17.2520    15.2500    74.8840   -14.4060   -83.4050    78.0080
 2833.0000   -84.8350     2.3970     0.0080     9.1090     0.2010   -79.2690    12.8370    17.2520    15.2050    71.7130   -14.6280   -78.7330    76.3320
 2833.5000   -84.8350     2.3980     0.0020     9.1100     0.1920   -74.4730    12.6960    18.0610    15.1590    68.5430   -14.3000   -74.8250    75.4910
