~VERSION INFORMATION
 VERS.                2.0:   CWLS LOG ASCII STANDARD - VERSION 2.0
 WRAP.                 NO:   ONE LINE PER DEPTH STEP
~WELL INFORMATION
#MNEM.UNIT      DATA TYPE    INFORMATION
#----------   ------------   ------------------------------
 STRT.F          705.5000:   START DEPTH
 STOP.F         3212.0000:   STOP DEPTH
 STEP.F            0.5000:   STEP LENGTH
 NULL.          -999.2500:   NO VALUE
 COMP.    FENIX & SCISSON:   COMPANY
 WELL. FENIX 41 "AX" #1-15:   WELL
 FLD .             NPR #3:   FIELD
 LOC .      S15 T38N R78W:   LOCATION
 CNTY.            NATRONA:   COUNTY
 STAT.            WYOMING:   STATE
 CTRY. UNITED STATES OF AMERICA:   COUNTRY
 SRVC.              WELEX:   SERVICE COMPANY
 DATE.        18-NOV-1980:   LOGDATE
 API .     49025108530000:   API NUMBER
~CURVE INFORMATION
#MNEM.UNIT       API CODE    CURVE DESCRIPTION
#----------   ------------   ------------------------------
 DEPT.F                  :   
 SPR .MV     07 010 01 00:   SPONTANEOUS POTENTIAL
 ILD .OHMM   07 120 46 00:   INDUCTION LOG DEEP RESISTIVITY
 ILM .OHMM   07 120 44 00:   INDUCTION LOG MEDIUM RESISTIVITY
 SGRD.OHMM   07 220 05 00:   SHORT GUARD RESISTIVITY
 GRD .GAPI   45 310 01 00:   GAMMA RAY FROM DENSITY LOG
 CALD.IN     45 280 60 00:   CALIPER FROM DENSITY LOG
 RHOB.G/C3   45 350 01 00:   BULK DENSITY
 NPHI.DEC    42 890 03 00:   NEUTRON POROSITY SANDSTONE
~PARAMETER INFORMATION
#MNEM.UNIT          VALUE    DESCRIPTION
#----------   ------------   ------------------------------
 EKB .F         5252.0000:   Kelly bushing
 EGL .F         5242.0000:   Ground level
 EDF .F            0.0000:   Drilling floor
 TD  .F         3214.0000:   Total depth
 CLNT.            A2DTECH:   Client Code
 SL  . 2150' FWL & 550' FNL:   Surface Location
 PD  .                 GL:   Permanent Datum
 EPD .F              5242:   Elevation Permanent Datum
 LMF .                 KB:   Log Measured From
 DMF .                 KB:   Drilling Measured From
 DATE.        18-NOV-1980:   Date Logged [DD-MMM-YYYY]
 DD  .F              3210:   Depth driller
 DL  .F              3214:   Depth logger
 BLI .F              3212:   Bottom log interval
 TLI .F               734:   Top log interval
 CS1 .IN            8.625:   Casing size
 CBD1.      8.625" @ 709':   Casing driller 1
 CBL1.F               734:   Casing logger 1
 BS1 .IN            7.875:   Bit size
 BSD1.F              3210:   Depth drilled with bit1
 DFT .          FRESH MUD:   Type fluid in hole
 DFD .                8.8:   Density
 DFV .                 45:   Viscosity
 DFPH.               10.5:   pH
 DFL .                 12:   Fluid loss
 MSS .           FLOWLINE:   Source of sample
 RMS .OHMM           1.25:   Rm
 MST .F                70:   Rm Meas. temp.
 RMF .OHMM           1.25:   Rmf
 MFST.F                70:   Rmf Meas. temp.
 MFSS.               MEAS:   Source Rmf.
 RMB .OHMM           0.78:   Rm. at BHT
 BHT .F               112:   BHT.
 TCS .HRS               7:   Time Circ. stopped
 MRT .F               112:   Maximum recorded temp.
 LUN .               1892:   Logging unit number
 LUL .             CASPER:   Logging unit location
 ENGI.               REIN:   Recorded By
 WITN.              SCOTT:   Witnessed by
 ORIG.      2.5" 5" PRINT:   Origin of data
 UWI .     49025108530000:   Unique Well ID
 DICO. A2D TECHNOLOGIES, INC.:   Digitizing Company
 DAPD.                 10:   Feet Above Permanent Datum
~OTHER INFORMATION
~A   DEPT      SPR        ILD        ILM       SGRD         GRD      CALD       RHOB       NPHI   
  705.5000  -999.2500  -999.2500  -999.2500  -999.2500    50.2089  -999.2500  -999.2500  -999.2500
  706.0000  -999.2500  -999.2500  -999.2500  -999.2500    46.9498  -999.2500  -999.2500  -999.2500
  706.5000  -999.2500  -999.2500  -999.2500  -999.2500    43.6907  -999.2500  -999.2500  -999.2500
  707.0000  -999.2500  -999.2500  -999.2500  -999.2500    39.8317  -999.2500  -999.2500  -999.2500
  707.5000  -999.2500  -999.2500  -999.2500  -999.2500    38.2151  -999.2500  -999.2500  -999.2500
  708.0000  -999.2500  -999.2500  -999.2500  -999.2500    37.3226  -999.2500  -999.2500  -999.2500
  708.5000  -999.2500  -999.2500  -999.2500  -999.2500    42.3860  -999.2500  -999.2500  -999.2500
  709.0000  -999.2500  -999.2500  -999.2500  -999.2500    47.8880  -999.2500  -999.2500  -999.2500
  709.5000  -999.2500  -999.2500  -999.2500  -999.2500    50.3043  -999.2500  -999.2500  -999.2500
  710.0000  -999.2500  -999.2500  -999.2500  -999.2500    51.1765  -999.2500  -999.2500  -999.2500
  710.5000  -999.2500  -999.2500  -999.2500  -999.2500    50.5020  -999.2500  -999.2500  -999.2500
  711.0000  -999.2500  -999.2500  -999.2500  -999.2500    49.8301  -999.2500  -999.2500  -999.2500
  711.5000  -999.2500  -999.2500  -999.2500  -999.2500    49.1581  -999.2500  -999.2500  -999.2500
  712.0000  -999.2500  -999.2500  -999.2500  -999.2500    50.4690  -999.2500  -999.2500  -999.2500
  712.5000  -999.2500  -999.2500  -999.2500  -999.2500    52.0029  -999.2500  -999.2500  -999.2500
  713.0000  -999.2500  -999.2500  -999.2500  -999.2500    54.2315  -999.2500  -999.2500  -999.2500
  713.5000  -999.2500  -999.2500  -999.2500  -999.2500    55.9532  -999.2500  -999.2500  -999.2500
  714.0000  -999.2500  -999.2500  -999.2500  -999.2500    54.6170  -999.2500  -999.2500  -999.2500
  714.5000  -999.2500  -999.2500  -999.2500  -999.2500    53.0459  -999.2500  -999.2500  -999.2500
  715.0000  -999.2500  -999.2500  -999.2500  -999.2500    51.2853  -999.2500  -999.2500  -999.2500
  715.5000  -999.2500  -999.2500  -999.2500  -999.2500    50.1722  -999.2500  -999.2500  -999.2500
  716.0000  -999.2500  -999.2500  -999.2500  -999.2500    49.2794  -999.2500  -999.2500  -999.2500
  716.5000  -999.2500  -999.2500  -999.2500  -999.2500    50.3699  -999.2500  -999.2500  -999.2500
  717.0000  -999.2500  -999.2500  -999.2500  -999.2500    51.6833  -999.2500  -999.2500  -999.2500
  717.5000  -999.2500  -999.2500  -999.2500  -999.2500    52.1143  -999.2500  -999.2500  -999.2500
  718.0000  -999.2500  -999.2500  -999.2500  -999.2500    50.1163  -999.2500  -999.2500  -999.2500
  718.5000  -999.2500  -999.2500  -999.2500  -999.2500    48.5620  -999.2500  -999.2500  -999.2500
  719.0000  -999.2500  -999.2500  -999.2500  -999.2500    46.7846  -999.2500  -999.2500  -999.2500
  719.5000  -999.2500  -999.2500  -999.2500  -999.2500    45.2303  -999.2500  -999.2500  -999.2500
  720.0000  -999.2500  -999.2500  -999.2500  -999.2500    44.1172  -999.2500  -999.2500  -999.2500
  720.5000  -999.2500  -999.2500  -999.2500  -999.2500    52.9281  -999.2500  -999.2500  -999.2500
  721.0000  -999.2500  -999.2500  -999.2500  -999.2500    57.9914  -999.2500  -999.2500  -999.2500
  721.5000  -999.2500  -999.2500  -999.2500  -999.2500    61.5107  -999.2500  -999.2500  -999.2500
  722.0000  -999.2500  -999.2500  -999.2500  -999.2500    67.8950  -999.2500  -999.2500     0.3089
  722.5000  -999.2500  -999.2500  -999.2500  -999.2500    71.1937  -999.2500  -999.2500     0.3004
  723.0000  -999.2500  -999.2500  -999.2500  -999.2500    72.7276  -999.2500  -999.2500     0.3048
  723.5000  -999.2500  1372.2131  -999.2500  -999.2500    73.8204  -999.2500  -999.2500     0.3083
  724.0000   -33.8157   793.1350  -999.2500  -999.2500    73.1460  -999.2500  -999.2500     0.3093
  724.5000   -34.3345   214.0568    30.9975     3.4867    72.2534  -999.2500  -999.2500     0.2999
  725.0000   -35.2211     0.6546     7.8966     3.8939    71.3584  -999.2500  -999.2500     0.2895
  725.5000   -35.8136     0.4153     5.3707     4.1722    71.1276  -999.2500  -999.2500     0.2858
  726.0000   -36.4062     0.3824     5.3707     4.3217    70.4557  -999.2500  -999.2500     0.2855
  726.5000   -36.7045     0.3538     5.2972     4.4705    69.5607  -999.2500  -999.2500     0.2861
  727.0000   -37.0029     0.3377     5.2972     4.5327    68.8887  -999.2500  -999.2500     0.2865
  727.5000   -37.3186     0.6027     5.2972     4.5957    68.4374  -999.2500  -999.2500     0.2859
  728.0000   -37.6000     1.3225     5.2972     4.5957    67.7629  -999.2500  -999.2500     0.2849
  728.5000   -37.6579     2.1427     5.2972     4.6596    67.0910  -999.2500  -999.2500     0.2840
  729.0000   -37.9029     3.0666     5.2946     4.7585    66.8603  -999.2500  -999.2500     0.2834
  729.5000   -37.9971     4.2694     5.2248     4.8567    66.4064  -999.2500  -999.2500     0.2815
  730.0000   -38.2059     4.6377     5.1534     4.9242    66.1756  -999.2500  -999.2500     0.2841
  730.5000   -37.9162     4.7673     4.9449     4.8567    65.9449  -999.2500  -999.2500     0.2800
  731.0000   -37.9206     5.1076     4.6159     4.6066    66.1528  -999.2500  -999.2500     0.2756
  731.5000   -37.7628     5.6251     4.1345     4.1722    66.8069  -999.2500  -999.2500     0.2725
  732.0000   -37.6353     6.0266     3.7033     3.8939    68.3530  -999.2500  -999.2500     0.2729
  732.5000   -37.3463     6.2811     3.9672     3.7359    70.3135  -999.2500  -999.2500     0.2694
  733.0000   -37.0559     6.1003     4.1399     4.0654    70.3008  -999.2500  -999.2500     0.2657
  733.5000   -36.7662     5.7032     4.3686     4.4705    69.3821  -999.2500  -999.2500     0.2657
  734.0000   -36.4765     6.0266     4.6178     4.7901    67.8514    10.4100     2.4515     0.2648
  734.5000   -36.4810     6.1951     4.8106     4.9927    67.1795    10.3319     2.4445     0.2623
  735.0000   -37.0736     6.2811     5.0134     5.0621    66.9302    10.3008     2.4247     0.2604
  735.5000   -37.6794     6.1951     5.2248     5.0621    66.2743    10.2696     2.3965     0.2664
  736.0000   -38.2902     5.7824     5.2972     5.0621    65.8229    10.2532     2.3856     0.2696
  736.5000   -38.8515     5.6251     5.4451     5.1325    65.3713    10.2509     2.3811     0.2727
  737.0000   -38.8559     5.7824     5.5206     5.2038    66.0207    10.2491     2.3817     0.2749
  737.5000   -38.8603     6.0266     5.5996     5.1325    67.7752    10.2625     2.3854     0.2762
  738.0000   -38.8647     6.1951     5.7534     4.9242    69.3092    10.2765     2.3960     0.2775
  738.5000   -38.8691     6.3683     5.8331     4.7901    69.0759    10.3025     2.4096     0.2744
  739.0000   -38.8735     6.3683     5.9140     4.9242    68.1834    10.3003     2.4323     0.2709
  739.5000   -38.8779     6.2811     5.9960     5.1325    66.8471    10.2985     2.4679     0.2685
  740.0000   -38.8832     6.1951     5.9960     5.4993    66.6164    10.2963     2.5027     0.2691
  740.5000   -38.5926     6.1103     6.0791     5.8116    65.9445    10.2945     2.5262     0.2713
  741.0000   -38.5976     6.2811     6.0791     5.8924    65.9317    10.2780     2.5352     0.2735
  741.5000   -38.3078     6.4567     5.9038     5.8924    65.9216    10.2615     2.5335     0.2751
  742.0000   -38.3121     6.6372     5.9015     5.8116    66.1320    10.2593     2.5046     0.2707
  742.5000   -38.3164     6.4567     5.8991     5.8116    67.0017    10.2575     2.4696     0.2654
  743.0000   -38.3206     6.3683     5.8967     5.7713    67.8739    10.2704     2.4626     0.2764
  743.5000   -38.3250     6.1951     5.8943     5.7319    69.4078    10.2686     2.4557     0.2815
  744.0000   -38.3294     6.1951     5.9049     5.7319    71.8216    10.2815     2.4472     0.2828
  744.5000   -38.3338     6.1103     5.9715     5.7319    72.6938    10.2793     2.4342     0.2812
  745.0000   -38.3382     6.0880     5.9687     5.7319    73.5660    10.2775     2.4227     0.2771
  745.5000   -38.3426     6.0266     5.9969     5.6533    74.2150    10.2753     2.4028     0.2677
