~VERSION INFORMATION
 VERS.                2.0:   CWLS LOG ASCII STANDARD - VERSION 2.0
 WRAP.                 NO:   ONE LINE PER DEPTH STEP
~WELL INFORMATION
#MNEM.UNIT      DATA TYPE    INFORMATION
#----------   ------------   ------------------------------
 STRT.F            0.0000:   START DEPTH
 STOP.F         3083.0000:   STOP DEPTH
 STEP.F            0.5000:   STEP LENGTH
 NULL.          -999.2500:   NO VALUE
 COMP. LAWRENCE & ALLISON & ASSOCIATES:   COMPANY
 WELL. LAWRENCE 71 "AX" #3-29:   WELL
 FLD .              N P R:   FIELD
 LOC .      S29 T38N R78W:   LOCATION
 CNTY.            NATRONA:   COUNTY
 STAT.            WYOMING:   STATE
 CTRY. UNITED STATES OF AMERICA:   COUNTRY
 SRVC.      DRESSER ATLAS:   SERVICE COMPANY
 DATE.        12-MAR-1985:   LOGDATE
 API .     49025110160000:   API NUMBER
~CURVE INFORMATION
#MNEM.UNIT       API CODE    CURVE DESCRIPTION
#----------   ------------   ------------------------------
 DEPT.F                  :   
 GRR .GAPI   07 310 01 00:   GAMMA RAY FROM RESISTIVITY
 SPR .MV     07 010 01 00:   SPONTANEOUS POTENTIAL
 TENR.LBS    07 635 01 00:   TENSION FROM RESISTIVITY
 RFOC.OHMM   07 220 04 00:   RESISTIVITY FOCUSED LOG RES.
 RILD.OHMM   07 120 46 00:   DEEP INDUCTION RESISTIVITY
 RILM.OHMM   07 120 44 00:   INDUCTION LOG MEDIUM RESISTIVITY
 TEND.LBS    45 635 01 00:   TENSION FROM DENSITY LOG
 DEN .G/C3   45 350 01 00:   BULK DENSITY
 CORR.G/C3   45 356 01 00:   DENSITY CORRECTION
 CNC .DEC    42 890 01 00:   NEUTRON PORISITY LIMESTONE
 CALD.IN     45 280 60 00:   CALIPER FROM DENSITY LOG
~PARAMETER INFORMATION
#MNEM.UNIT          VALUE    DESCRIPTION
#----------   ------------   ------------------------------
 EKB .F         4983.0000:   Kelly bushing
 EGL .F         4971.0000:   Ground level
 TD  .F         3082.0000:   Total depth
 DATE.        12-MAR-1985:   Date logged
 CLNT.            A2DTECH:   Client Code
 SL  . 568' FNL AND 829' FEL:   Surface Location
 PD  .                 GL:   Permanent Datum
 EPD .F              4971:   Elevation Permanent Datum
 LMF .                 KB:   Log Measured From
 DMF .                 KB:   Drilling Measured From
 DD  .F              3080:   Depth driller
 DL  .F              3082:   Depth logger
 BLI .F              3080:   Bottom log interval
 TLI .F              2100:   Top log interval
 CS1 .IN            8.625:   Casing size
 CBD1.      8.625" @ 311':   Casing driller 1
 BS1 .IN            7.875:   Bit size
 DFT .            KCL GEL:   Type fluid in hole
 DFD .                9.1:   Density
 DFV .                 38:   Viscosity
 DFPH.                  8:   pH
 DFL .               10.4:   Fluid loss
 MSS .           FLOWLINE:   Source of sample
 RMS .OHMM            .47:   Rm
 MST .F                60:   Rm Meas. temp.
 RMF .OHMM            .35:   Rmf
 MFST.F                61:   Rmf Meas. temp.
 RMC .OHMM            .53:   Rmc
 MCST.F                61:   Rmc Meas. temp.
 MFSS.               CLAC:   Source Rmf.
 RMB .OHMM           .209:   Rm. at BHT
 BHT .F               134:   BHT.
 TCS .HRS               3:   Time Circ. stopped
 MRT .F               134:   Maximum recorded temp.
 LUN .               6234:   Logging unit number
 LUL .               CLTE:   Logging unit location
 ENGI.      MACK/ EDWARDS:   Recorded By
 WITN.             STRONG:   Witnessed by
 PWI .                  -:   Primary Well Identifier
 ORIG.           5" PRINT:   Origin of data
 UWI .     49025110160000:   Unique Well ID
 DICO. A2D TECHNOLOGIES, INC.:   Digitizing Company
 DAPD.F                12:   Feet Above Permanent Datum
 BSD1.F              3080:   Depth drilled with bit1
 MCSS.               CALC:   Source Rmc.
~OTHER INFORMATION
~A    DEPT      GRR       SPR       TENR       RFOC       RILD       RILM       TEND        DEN       CORR        CNC       CALD   
# ...
  701.5000    95.0310   -45.5350   -76.7330     8.3350     7.9260     7.5800  -999.2500  -999.2500  -999.2500  -999.2500  -999.2500
  702.0000    95.8560   -45.3800   -75.9640     8.4330     7.9080     7.5220  -999.2500  -999.2500  -999.2500  -999.2500  -999.2500
  702.5000    95.5080   -45.2230   -75.1160     8.2880     7.8880     7.4360  -999.2500  -999.2500  -999.2500  -999.2500  -999.2500
  703.0000    91.9870   -45.0660   -74.2680     8.1420     7.8680     7.4460  -999.2500  -999.2500  -999.2500  -999.2500  -999.2500
  703.5000    87.6850   -44.9090   -73.4200     8.0550     7.8540     7.4660  -999.2500  -999.2500  -999.2500  -999.2500  -999.2500
  704.0000    87.3760   -44.7530   -72.5730     8.0210     7.8540     7.4860  -999.2500  -999.2500  -999.2500  -999.2500  -999.2500
  704.5000    92.7190   -44.5960   -71.7250     7.9990     7.8540     7.5170  -999.2500  -999.2500  -999.2500  -999.2500  -999.2500
  705.0000    94.1520   -44.4390   -70.8770     8.1430     7.8890     7.6270  -999.2500  -999.2500  -999.2500  -999.2500  -999.2500
  705.5000    91.5360   -44.2830   -70.0290     8.2530     7.9980     7.7370  -999.2500  -999.2500  -999.2500  -999.2500  -999.2500
  706.0000    88.8120   -44.1260   -69.1810     8.3720     8.1080     7.8470  -999.2500  -999.2500  -999.2500  -999.2500  -999.2500
  706.5000    86.4730   -43.9690   -68.3330     8.3720     8.2170     7.9570  -999.2500  -999.2500  -999.2500  -999.2500  -999.2500
  707.0000    87.9220   -43.8100   -67.4850     8.4010     8.3260     8.0670  -999.2500  -999.2500  -999.2500  -999.2500  -999.2500
  707.5000    92.4050   -43.7750   -66.6370     8.4560     8.4360     8.1760  -999.2500  -999.2500  -999.2500  -999.2500  -999.2500
  708.0000    94.6920   -43.7740   -65.7890     8.5110     8.5450     8.2860  -999.2500  -999.2500  -999.2500  -999.2500  -999.2500
  708.5000    93.9040   -43.7750   -64.9410     8.6220     8.6540     8.3960  -999.2500  -999.2500  -999.2500  -999.2500  -999.2500
  709.0000    92.8580   -43.7740   -64.0930     8.8030     8.7640     8.5060  -999.2500  -999.2500  -999.2500  -999.2500  -999.2500
  709.5000    93.4900   -43.7580   -63.2450     8.9320     8.8730     8.6160  -999.2500  -999.2500  -999.2500  -999.2500  -999.2500
  710.0000    92.5880   -44.3190   -62.3970     8.9910     8.9430     8.7260  -999.2500  -999.2500  -999.2500  -999.2500  -999.2500
  710.5000    90.5960   -45.0140   -61.5490     9.0500     8.9790     8.8420  -999.2500  -999.2500  -999.2500  -999.2500  -999.2500
  711.0000    88.4250   -45.2520   -60.7020     9.1090     9.0140     8.7450  -999.2500  -999.2500  -999.2500  -999.2500  -999.2500
  711.5000    86.7070   -45.3500   -59.8540     9.1710     9.0500     8.6950  -999.2500  -999.2500  -999.2500  -999.2500  -999.2500
  712.0000    85.2890   -45.2900   -59.0060     9.1240     9.0880     8.6780  -999.2500  -999.2500  -999.2500  -999.2500  -999.2500
  712.5000    83.8360   -45.2340   -58.1580     9.0740     9.0700     8.6710  -999.2500  -999.2500  -999.2500  -999.2500  -999.2500
  713.0000    85.0540   -45.1810   -57.3100     9.0250     9.0510     8.6640  -999.2500  -999.2500  -999.2500  -999.2500  -999.2500
  713.5000    87.7250   -44.9850   -57.0520     8.9750     9.0330     8.6570  -999.2500  -999.2500  -999.2500  -999.2500  -999.2500
  714.0000    90.1770   -44.7030   -57.2700     8.9230     9.0140     8.6500  -999.2500  -999.2500  -999.2500  -999.2500  -999.2500
  714.5000    87.9760   -44.4210   -57.4890     9.0180     8.9950     8.6440  -999.2500  -999.2500  -999.2500  -999.2500  -999.2500
  715.0000    85.6370   -44.1400   -57.7070     9.1180     8.9760     8.6370  -999.2500  -999.2500  -999.2500  -999.2500  -999.2500
  715.5000    85.6170   -43.9650   -57.9260     9.2170     8.9580     8.6300  -999.2500  -999.2500  -999.2500  -999.2500  -999.2500
  716.0000    87.6160   -43.9240   -58.1440     9.3400     8.9390     8.6230  -999.2500  -999.2500  -999.2500  -999.2500  -999.2500
  716.5000    89.5990   -43.8820   -58.3630     9.2410     8.9200     8.6160  -999.2500  -999.2500  -999.2500  -999.2500  -999.2500
  717.0000    89.9210   -43.8420   -58.5810     9.1120     8.9000     8.6100  -999.2500  -999.2500  -999.2500  -999.2500  -999.2500
  717.5000    90.2320   -43.8010   -58.8000     9.0050     8.8800     8.5990  -999.2500  -999.2500  -999.2500  -999.2500  -999.2500
  718.0000    90.9400   -43.7610   -59.0180     9.0050     8.8600     8.5730  -999.2500  -999.2500  -999.2500  -999.2500  -999.2500
  718.5000    91.6840   -43.7200   -59.2370     9.0050     8.8400     8.5470  -999.2500  -999.2500  -999.2500  -999.2500  -999.2500
  719.0000    91.5660   -43.6800   -59.4550     9.0050     8.8200     8.5210  -999.2500  -999.2500  -999.2500  -999.2500  -999.2500
  719.5000    90.4170   -43.6400   -59.6740     9.0050     8.7990     8.4950  -999.2500  -999.2500  -999.2500  -999.2500  -999.2500
  720.0000    89.1520   -43.6010   -59.8920     9.0050     8.7790     8.4690  -999.2500  -999.2500  -999.2500  -999.2500  -999.2500
  720.5000    87.8850   -43.7250   -60.1110     9.0050     8.7590     8.4420  -999.2500  -999.2500  -999.2500  -999.2500  -999.2500
  721.0000    85.8450   -44.0460   -60.3290     9.0050     8.7390     8.4160  -999.2500  -999.2500  -999.2500  -999.2500  -999.2500
  721.5000    83.8480   -44.3650   -60.5480     9.0050     8.7190     8.3900  -999.2500  -999.2500  -999.2500  -999.2500  -999.2500
  722.0000    81.6280   -44.6850   -60.7660     9.0050     8.6990     8.3640  -999.2500  -999.2500  -999.2500  -999.2500  -999.2500
  722.5000    80.9910   -45.0060   -60.9850     9.0050     8.6790     8.3380  -999.2500  -999.2500  -999.2500  -999.2500  -999.2500
  723.0000    80.8420   -45.3210   -61.2030     9.0050     8.6580     8.3120  -999.2500  -999.2500  -999.2500  -999.2500  -999.2500
  723.5000    81.6510   -45.4850   -61.4220     9.0050     8.6380     8.2740  -999.2500  -999.2500  -999.2500  -999.2500  -999.2500
  724.0000    83.3350   -45.1900   -61.6400     9.0050     8.6180     8.1620  -999.2500  -999.2500  -999.2500  -999.2500  -999.2500
  724.5000    84.9820   -44.9070   -61.8590     9.0050     8.5980     8.0720  -999.2500  -999.2500  -999.2500  -999.2500  -999.2500
  725.0000    84.8150   -44.8480   -62.0770     9.0050     8.5780     8.3720  -999.2500  -999.2500  -999.2500  -999.2500  -999.2500
  725.5000    85.3850   -45.0120   -62.2960     9.0050     8.5580     8.3630  -999.2500  -999.2500  -999.2500  -999.2500  -999.2500
  726.0000    85.9310   -45.1100   -62.5150     9.0190     8.5260     8.3400  -999.2500  -999.2500  -999.2500  -999.2500  -999.2500
  726.5000    84.0560   -44.7020   -62.7330     9.0520     8.5450     8.3180  -999.2500  -999.2500  -999.2500  -999.2500  -999.2500
  727.0000    81.8440   -44.2800   -62.9520     9.0850     8.5910     8.2960  -999.2500  -999.2500  -999.2500  -999.2500  -999.2500
  727.5000    83.2910   -44.0070   -63.1700     9.1180     8.6380     8.2720  -999.2500  -999.2500  -999.2500  -999.2500  -999.2500
  728.0000    85.5480   -43.7760   -63.3890     9.1710     8.6850     8.2480  -999.2500  -999.2500  -999.2500  -999.2500  -999.2500
  728.5000    87.6940   -43.5790   -63.6070     9.1640     8.7310     8.2200  -999.2500  -999.2500  -999.2500  -999.2500  -999.2500
  729.0000    87.9430   -43.6680   -63.8260     9.1450     8.7780     8.2500  -999.2500  -999.2500  -999.2500  -999.2500  -999.2500
  729.5000    87.8290   -43.7730   -64.0440     9.1270     8.8400     8.2860  -999.2500  -999.2500  -999.2500  -999.2500  -999.2500
  730.0000    85.9100   -43.9080   -64.2630     9.1090     8.8270     8.3220  -999.2500  -999.2500  -999.2500  -999.2500  -999.2500
  730.5000    83.6540   -44.0490   -64.4810     9.0910     8.8030     8.3670  -999.2500  -999.2500  -999.2500  -999.2500  -999.2500
  731.0000    82.3130   -44.1910   -64.7000     9.0730     8.7780     8.3130  -999.2500  -999.2500  -999.2500  -999.2500  -999.2500
  731.5000    82.6470   -44.3330   -64.9180     9.0550     8.7530     8.1460  -999.2500  -999.2500  -999.2500  -999.2500  -999.2500
