~VERSION INFORMATION
 VERS.                2.0:   CWLS LOG ASCII STANDARD - VERSION 2.0
 WRAP.                 NO:   ONE LINE PER DEPTH STEP
~WELL INFORMATION
#MNEM.UNIT      DATA TYPE    INFORMATION
#----------   ------------   ------------------------------
 STRT.F          517.0000:   START DEPTH
 STOP.F         3222.0000:   STOP DEPTH
 STEP.F            0.5000:   STEP LENGTH
 NULL.          -999.2500:   NO VALUE
 COMP.    FENIX & SCISSON:   COMPANY
 WELL.  FENIX "TX" #53-33:   WELL
 FLD .             NPR #3:   FIELD
 LOC .      S33 T39N R78W:   LOCATION
 CNTY.            NATRONA:   COUNTY
 STAT.            WYOMING:   STATE
 CTRY. UNITED STATES OF AMERICA:   COUNTRY
 SRVC.              WELEX:   SERVICE COMPANY
 DATE.        24-AUG-1980:   LOGDATE
 API .     49025108460000:   API NUMBER
~CURVE INFORMATION
#MNEM.UNIT       API CODE    CURVE DESCRIPTION
#----------   ------------   ------------------------------
 DEPT.F                  :   
 CALD.IN     45 280 60 00:   CALIPER FROM DENSITY LOG
 GRD .GAPI   45 310 01 00:   GAMMA RAY FROM DENSITY LOG
 CORR.G/C3   45 356 01 00:   DENSITY CORRECTION
 RHOB.G/C3   45 350 01 00:   BULK DENSITY
 SPR .MV     07 010 01 00:   SPONTANEOUS POTENTIAL
 ILD .OHMM   07 120 46 00:   DEEP INDUCTION RESISTIVITY
 ILM .OHMM   07 120 44 00:   INDUCTION LOG MEDIUM RESISTIVITY
 SGRD.OHMM   07 220 05 00:   SHALLOW SHORT GUARD RESISTIVITY
~PARAMETER INFORMATION
#MNEM.UNIT          VALUE    DESCRIPTION
#----------   ------------   ------------------------------
 EKB .F         5173.0000:   Kelly bushing
 EGL .F         5163.0000:   Ground level
 EDF .F            0.0000:   Drilling floor
 EPD .F            0.0000:   Permanent datum
 TD  .F         3224.0000:   Total depth
 CLNT.            A2DTECH:   Client Code
 SL  . 1650' FNL & 2500' FEL:   Surface Location
 PD  .                 GL:   Permanent Datum
 DAPD.F                10:   Feet Above Permanent Datum
 DATE.        24-AUG-1980:   Date Logged [DD-MMM-YYYY]
 DD  .F              3190:   Depth driller
 DL  .F              3224:   Depth logger
 BLI .F              3222:   Bottom log interval
 TLI .F               528:   Top log interval
 CS1 .IN            8.625:   Casing size
 CBD1.      8.625" @ 532':   Casing driller 1
 CBL1.F               528:   Casing logger 1
 BS1 .IN            7.875:   Bit size
 BSD1.F              3190:   Depth drilled with bit1
 DFT .     WATER BASE MUD:   Type fluid in hole
 DFD .                8.8:   Density
 DFV .                 45:   Viscosity
 DFL .                9.4:   Fluid loss
 MSS .            MUD PIT:   Source of sample
 RMS .OHMM           2.10:   Rm
 MST .F                65:   Rm Meas. temp.
 RMF .OHMM           1.68:   Rmf
 MFST.F                65:   Rmf Meas. temp.
 MFSS.               CALC:   Source Rmf.
 RMC .OHMM           2.52:   Rmc
 MCST.F                65:   Rmc Meas. temp.
 MCSS.               CALC:   Source Rmc.
 RMB .OHMM           1.14:   Rm. at BHT
 BHT .F               120:   BHT.
 TCS .HRS               3:   Time Circ. stopped
 MRT .F               120:   Maximum recorded temp.
 LUN .               1892:   Logging unit number
 LUL .             CASPER:   Logging unit location
 ENGI.           WACHTEIL:   Recorded By
 ORIG.         2.5" PRINT:   Origin of data
 UWI .     49025108460000:   Unique Well ID
 DICO. A2D TECHNOLOGIES, INC.:   Digitizing Company
~OTHER INFORMATION
~A   DEPT     CALD         GRD      CORR       RHOB        SPR        ILD        ILM       SGRD   
# ...
 1570.0000    11.6977    95.3587     0.0806     2.5477   -25.0151     7.2867     7.5223     8.0176
 1570.5000    11.6658    95.7898     0.0895     2.5514   -25.4726     7.2807     7.6207     8.0147
 1571.0000    11.6640    97.5794     0.0925     2.5417   -25.4784     7.2746     7.7202     8.1240
 1571.5000    11.6622    98.4538     0.0981     2.5447   -25.4841     7.3013     7.8211     8.1208
 1572.0000    11.6604    98.4324     0.1056     2.5552   -25.7902     7.4678     7.8136     8.2818
 1572.5000    11.6586    96.9295     0.1073     2.5582   -25.7959     7.6176     7.9513     8.5225
 1573.0000    11.6568    94.8934     0.1089     2.5566   -26.1021     7.8775     8.2453     8.5745
 1573.5000    11.6550    92.5383     0.1132     2.5504   -26.1081     8.0933     8.4673     8.8119
 1574.0000    11.6532    91.1441     0.1130     2.5473   -26.1141     8.3130     8.7681     9.0564
 1574.5000    11.6511    89.3188     0.1129     2.5446   -25.8189     8.5402     9.1836     9.1797
 1575.0000    11.6191    88.3985     0.1128     2.5446   -25.5243     8.7726     9.4334     9.5660
 1575.5000    11.6174    87.0277     0.1127     2.5445   -25.2312     9.0118     9.6907    11.3365
 1576.0000    11.5552    85.6570     0.1095     2.5445   -24.9369     9.1303     9.6816    11.9619
 1576.5000    11.4931    84.7139     0.1277     2.5626   -24.9438     9.2502     9.8082    11.7469
 1577.0000    11.4575    82.8095     0.1220     2.5732   -24.6493     9.2417     9.7993    10.6034
 1577.5000    11.3925    81.9953     0.1122     2.5807   -24.6550     9.1816     9.7905     9.6925
 1578.0000    11.3668    84.0452     0.1165     2.6004   -24.9611     9.0994     9.7817     9.0871
 1578.5000    11.3229    87.0655     0.1288     2.6064   -24.9845     8.9654     9.7729     8.7814
 1579.0000    11.2881    92.2480     0.1240     2.5828   -25.3182     8.9583     9.7641     8.6577
 1579.5000    11.2405    95.4933     0.1269     2.5705   -25.5796     8.9511     9.6211     8.5358
 1580.0000    11.2384    98.1049     0.1146     2.5615   -25.8859     8.6997     9.6108     8.4156
 1580.5000    11.2366    98.1967     0.1267     2.5631   -25.8919     8.4553     9.6025     8.4128
 1581.0000    11.2653    96.2643     0.1296     2.5738   -25.8979     8.3322     9.4622     8.4099
 1581.5000    11.3238    96.2449     0.1265     2.5655   -25.9039     8.3253     9.2698     8.4070
 1582.0000    11.3523    96.2103     0.1233     2.5579   -25.9108     8.3184     9.1879     8.4400
 1582.5000    11.3844    95.2477     0.1224     2.5534   -25.9165     8.3114     9.0536     8.5183
 1583.0000    11.4458    94.2853     0.1170     2.5624   -25.8556     8.3045     9.0317     8.5154
 1583.5000    11.4679    92.7335     0.1242     2.5790   -25.7046     8.3558     8.7668     8.5118
 1584.0000    11.5082    92.5405     0.1258     2.5946   -25.6336     8.4064     8.5425     8.5090
 1584.5000    11.5393    92.0772     0.1288     2.6099   -25.5921     8.5165     8.3752     8.5062
 1585.0000    11.5827    90.2437     0.1378     2.6179   -25.3453     8.6281     8.2429     8.5034
 1585.5000    11.5810    90.0811     0.1407     2.6228   -25.2488     8.6205     8.0603     8.5006
 1586.0000    11.5793    92.4572     0.1376     2.6187   -25.0571     8.4952     8.0518     8.4977
 1586.5000    11.5775    93.3387     0.1344     2.6037   -25.0631     8.3715     8.0448     8.4947
 1587.0000    11.5758    91.0671     0.1282     2.5925   -24.7688     8.3646     8.0379     8.4918
 1587.5000    11.6043    91.0477     0.1345     2.5804   -24.4753     8.2427     8.0309     8.4597
 1588.0000    11.6064    92.4985     0.1519     2.5804   -24.4811     8.1225     8.0240     8.3692
 1588.5000    11.6310    94.2613     0.1772     2.5804   -24.4868     8.0699     8.0169     8.3065
 1589.0000    11.6688    95.3258     0.1990     2.5789   -24.4925     7.9423     8.0097     8.2478
 1589.5000    11.6880    96.2891     0.1977     2.5720   -24.8213     7.8797     7.9789     8.1317
 1590.0000    11.7009    98.6041     0.1976     2.5491   -25.1051     7.8734     7.8853     8.0172
 1590.5000    11.7743    96.7776     0.1913     2.5422   -25.1111     7.6522     7.7699     7.7956
 1591.0000    11.8030    96.3077     0.1851     2.5405   -25.4174     7.6461     7.7629     7.7930
 1591.5000    11.8010    96.2884     0.1819     2.5446   -25.5560     7.6401     7.7559     7.7903
 1592.0000    11.8296    95.8185     0.1879     2.5540   -25.7297     7.7453     7.8558     7.9153
 1592.5000    11.8580    95.7991     0.1970     2.5622   -25.7368     7.8422     7.9584     8.0040
 1593.0000    11.8562    93.9775     0.1935     2.5606   -26.0429     7.9452     7.9516     8.1129
 1593.5000    11.8847    93.3793     0.1828     2.5455   -26.0486     8.0496     8.1679     8.2747
 1594.0000    11.8828    92.0301     0.1644     2.5410   -26.3546     8.2007     8.3900     8.3980
 1594.5000    11.8810    90.9210     0.1433     2.5394   -26.3604     8.2609     8.3825     8.4478
 1595.0000    11.8364    89.9173     0.1290     2.5411   -26.3414     8.3678     8.3925     8.5627
 1595.5000    11.8016    88.4707     0.1369     2.5386   -26.0195     8.3612     8.4850     8.5804
 1596.0000    11.7845    89.3475     0.1351     2.5283   -25.7770     8.4718     8.3599     8.4389
 1596.5000    11.7828    90.2290     0.1441     2.5213   -25.4825     8.3479     8.3059     8.3186
 1597.0000    11.7509    90.2096     0.1745     2.5381   -25.3544     8.1134     8.0622     8.1908
 1597.5000    11.7189    90.1902     0.1957     2.5579   -25.1952     7.6604     7.8881     7.9759
 1598.0000    11.6870    90.1708     0.2078     2.5680   -25.2023     7.3516     7.8452     7.9732
 1598.5000    11.6550    90.1509     0.2248     2.5756   -24.9077     7.2445     7.6579     7.8399
 1599.0000    11.6835    90.1982     0.2373     2.5801   -24.9134     7.1389     7.6513     7.7500
 1599.5000    11.6889    90.6696     0.2463     2.5846   -24.9192     7.1330     7.5395     7.6862
 1600.0000    11.7405    91.8951     0.2341     2.5875   -24.9249     7.0290     7.5330     7.6381
 1600.5000    11.7686    93.1556     0.2370     2.5904   -25.2312     7.0220     7.4701     7.6351
 1601.0000    11.7824    94.3363     0.2460     2.5909   -25.2372     7.0165     7.4161     7.5276
 1601.5000    11.8855    95.4309     0.2463     2.5634   -25.2432     7.0115     7.4094     7.5251
 1602.0000    11.9139    97.2133     0.2366     2.5362   -25.2493     7.0053     7.4027     7.5226
 1602.5000    11.9426    98.9957     0.2272     2.5286   -25.2553     6.9787     7.3961     7.5200
 1603.0000    11.9710    99.4268     0.2287     2.5301   -25.4264     6.9263     7.3894     7.5174
 1603.5000    11.9994    99.4074     0.2364     2.5235   -25.5686     6.8953     7.3827     7.5148
 1604.0000    11.9674    97.9758     0.2182     2.5225   -25.5743     6.8902     7.3761     7.5122
 1604.5000    11.9656    96.5219     0.2361     2.5327   -25.2793     6.8850     7.3307     7.5096
 1605.0000    11.9562    95.0675     0.2417     2.5440   -25.2855     6.8592     7.2611     7.4032
 1605.5000    11.9317    92.5585     0.1725     2.5272   -25.2913     6.7799     7.2548     7.3437
 1606.0000    11.9299    93.7809     0.1966     2.5106   -25.2672     6.7748     7.1478     7.2574
 1606.5000    11.9281    96.6059     0.2267     2.5361   -25.0030     6.7247     7.1424     7.1938
 1607.0000    11.8957    98.8116     0.2508     2.5527   -24.7079     6.6714     7.0378     7.1594
 1607.5000    11.8336   100.1436     0.2689     2.5542   -24.7147     6.6655     7.0049     7.0901
 1608.0000    11.7714   100.5746     0.2848     2.5330   -24.4204     6.5690     6.9285     7.0877
 1608.5000    11.7395   100.5553     0.2928     2.5224   -24.1261     6.4739     6.9223     7.0852
 1609.0000    11.7378   100.5359     0.2706     2.5224   -24.1331     6.4692     6.8209     7.0828
 1609.5000    11.7707    99.5811     0.2654     2.5206   -24.1389     6.4645     6.7199     6.9829
 1610.0000    11.8551    98.6937     0.2683     2.5125   -24.1446     6.4596     6.6218     6.8845
