~VERSION INFORMATION
 VERS.                2.0:   CWLS LOG ASCII STANDARD - VERSION 2.0
 WRAP.                 NO:   ONE LINE PER DEPTH STEP
~WELL INFORMATION
#MNEM.UNIT      DATA TYPE    INFORMATION
#----------   ------------   ------------------------------
 STRT.F           36.0000:   START DEPTH
 STOP.F         4960.0000:   STOP DEPTH
 STEP.F            0.5000:   STEP LENGTH
 NULL.          -999.2500:   NO VALUE
 COMP.   TESORO PETROLEUM:   COMPANY
 WELL. TESORO NPR 3 "DX" #55-23:   WELL
 FLD .        TEAPOT DOME:   FIELD
 LOC .      S23 T38N R78W:   LOCATION
 CNTY.            NATRONA:   COUNTY
 STAT.            WYOMING:   STATE
 CTRY. UNITED STATES OF AMERICA:   COUNTRY
 SRVC.           BIRDWELL:   SERVICE COMPANY
 DATE.        17-AUG-1975:   LOGDATE
 API .     49025102510000:   API NUMBER
~CURVE INFORMATION
#MNEM.UNIT       API CODE    CURVE DESCRIPTION
#----------   ------------   ------------------------------
 DEPT.F                  :   
 TEND.LBS    45 635 01 00:   TENSION FROM DENSITY LOG
 CALD.IN     45 280 60 00:   CALIPER FROM DENSITY LOG
 CORR.G/C3   45 356 01 00:   DENSITY CORRECTION
 GRD .GAPI   45 310 01 00:   GAMMA RAY FROM DENSITY LOG
 RHOB.G/C3   45 350 01 00:   BULK DENSITY
 SPR .MV     07 010 01 00:   SPONTANEOUS POTENTIAL
 ILM .OHMM   07 120 44 00:   INDUCTION LOG MEDIUM RESISTIVITY
 ILD .OHMM   07 120 46 00:   DEEP INDUCTION RESISTIVITY
 SFL .OHMM   07 220 01 00:   SHALLOW FOCUSED LOG RESISTIVITY
~PARAMETER INFORMATION
#MNEM.UNIT          VALUE    DESCRIPTION
#----------   ------------   ------------------------------
 EKB .F         5371.0000:   Kelly bushing
 EGL .F         5360.0000:   Ground level
 EDF .F            0.0000:   Drilling floor
 TD  .F         4955.0000:   Total depth
 DATE.        17-AUG-1975:   Date logged
 CLNT.            A2DTECH:   Client Code
 SL  . 1980' FSL & 2030' FEL:   Surface Location
 PD  .                 GL:   Permanent Datum
 DD  .F              4955:   Depth driller
 DL  .F              4945:   Depth logger
 BLI .F              4943:   Bottom log interval
 CS1 .IN            8.625:   Casing size
 CBD1.     8.625" @ 1450':   Casing driller 1
 CBL1.F              1457:   Casing logger 1
 BS1 .IN            7.875:   Bit size
 DFT .            KCL/GEL:   Type fluid in hole
 DFD .                9.5:   Density
 DFV .                 53:   Viscosity
 DFPH.                8.5:   pH
 DFL .                7.4:   Fluid loss
 MSS .           FLOWLINE:   Source of sample
 RMS .OHMM            1.2:   Rm
 MST .F                72:   Rm Meas. temp.
 RMF .OHMM            .94:   Rmf
 MFST.F                74:   Rmf Meas. temp.
 MFSS.               MEAS:   Source Rmf.
 RMB .OHMM            .71:   Rm. at BHT
 BHT .F               121:   BHT.
 TCS .HRS               4:   Time Circ. stopped
 MRT .F               121:   Maximum recorded temp.
 LUN .               6078:   Logging unit number
 LUL .              GLTTE:   Logging unit location
 ENGI.      NORDEN/SUTTON:   Recorded By
 WITN.          UNDERWOOD:   Witnessed by
 ORIG.           5" PRINT:   Origin of data
 UWI .     49025102510000:   Unique Well ID
 DICO. A2D TECHNOLOGIES, INC.:   Digitizing Company
 DAPD.F                11:   Feet Above Permanent Datum
 BSD1.F              5360:   Depth drilled with bit1
 EPD .F              5360:   Elevation Permanent Datum
 LMF .                 KB:   Log Measured From
 DMF .                 KB:   Drilling Measured From
 TLI .F              1457:   Top log interval
~OTHER INFORMATION
~A   DEPT     TEND       CALD       CORR        GRD       RHOB        SPR        ILM        ILD          SFL 
# ...
 2591.0000  -999.2500  -999.2500  -999.2500  -999.2500  -999.2500   -32.7510     7.1060     7.5390     7.8980
 2591.5000  -999.2500  -999.2500  -999.2500  -999.2500  -999.2500   -32.5010     7.1280     7.5520     7.9330
 2592.0000  -999.2500  -999.2500  -999.2500  -999.2500  -999.2500   -32.2570     7.1490     7.5660     7.9690
 2592.5000  -999.2500  -999.2500  -999.2500  -999.2500  -999.2500   -32.0830     7.1700     7.5800     8.0040
 2593.0000  -999.2500  -999.2500  -999.2500  -999.2500  -999.2500   -32.2880     7.1910     7.5930     8.0390
 2593.5000  -999.2500  -999.2500  -999.2500  -999.2500  -999.2500   -32.4870     7.2130     7.6070     8.0740
 2594.0000  -999.2500  -999.2500  -999.2500  -999.2500  -999.2500   -32.6920     7.2340     7.6200     8.1100
 2594.5000  -999.2500  -999.2500  -999.2500  -999.2500  -999.2500   -32.6730     7.2550     7.6340     8.1450
 2595.0000  -999.2500  -999.2500  -999.2500  -999.2500  -999.2500   -32.4390     7.2760     7.6470     8.1800
 2595.5000  -999.2500  -999.2500  -999.2500  -999.2500  -999.2500   -32.5490     7.2980     7.6610     8.2160
 2596.0000  3742.5149     8.3550     0.0750    43.1860     2.5350   -32.9160     7.3190     7.6740     8.2680
 2596.5000  3742.5149     8.3550     0.0750    43.1860     2.5350   -33.1680     7.3400     7.6880     8.1980
 2597.0000  3742.5149     8.3550     0.0750    43.1860     2.5350   -32.9480     7.3610     7.7020     8.0590
 2597.5000  3742.5149     8.3550     0.0750    43.1860     2.5320   -32.7150     7.3830     7.7150     7.9690
 2598.0000  3742.5149     8.3550     0.0750    43.1860     2.5340   -32.6270     7.4040     7.7290     8.2870
 2598.5000  3742.5149     8.3550     0.0750    43.1860     2.5340   -32.9330     7.3650     7.7420     8.5000
 2599.0000  3742.5149     8.3550     0.0750    43.1760     2.5340   -33.0690     7.3260     7.7520     8.3620
 2599.5000  3742.5149     8.3550     0.0750    43.1340     2.5340   -32.5880     7.2870     7.7020     8.2490
 2600.0000  3742.5149     8.3550     0.0750    43.0940     2.5330   -32.1760     7.2470     7.6610     8.1360
 2600.5000  3742.5149     8.3580     0.0770    43.0540     2.5320   -32.3290     7.2080     7.6200     8.0220
 2601.0000  3749.1299     8.4110     0.0710    43.0150     2.5280   -32.5080     7.1690     7.5790     7.8960
 2601.5000  3756.3589     8.4270     0.0640    43.0310     2.5270   -32.6840     7.1360     7.5380     7.9030
 2602.0000  3761.6970     8.4130     0.0620    43.1950     2.5270   -32.8590     7.1470     7.4970     7.9120
 2602.5000  3756.6370     8.3980     0.0630    43.3590     2.5260   -32.9570     7.1620     7.4720     7.9200
 2603.0000  3751.5769     8.3840     0.0650    43.1900     2.5270   -32.9060     7.1760     7.4880     7.9290
 2603.5000  3746.5171     8.3690     0.0670    42.9390     2.5280   -32.8550     7.1910     7.5030     7.9370
 2604.0000  3743.6289     8.3560     0.0690    42.6860     2.5300   -32.8080     7.2050     7.5180     7.9460
 2604.5000  3748.9551     8.3880     0.0710    42.4350     2.5330   -32.8520     7.2200     7.5330     7.9550
 2605.0000  3754.2810     8.4220     0.0740    42.2870     2.5350   -33.1850     7.2340     7.5480     7.9630
 2605.5000  3759.6069     8.4540     0.0760    42.2720     2.5380   -33.5090     7.2480     7.5630     7.9720
 2606.0000  3760.3521     8.4550     0.0770    42.7090     2.5410   -33.8270     7.2690     7.5780     7.9800
 2606.5000  3755.7520     8.4490     0.0760    43.1400     2.5440   -34.1500     7.2640     7.5930     7.9890
 2607.0000  3751.1521     8.4250     0.0760    43.5700     2.5460   -33.9470     7.2490     7.6110     7.9980
 2607.5000  3746.5520     8.4010     0.0760    43.9980     2.5450   -33.7580     7.2350     7.6020     8.0060
 2608.0000  3742.5149     8.3760     0.0750    44.3830     2.5440   -33.5740     7.2210     7.5870     8.0150
 2608.5000  3742.5149     8.3750     0.0770    44.3890     2.5430   -33.3900     7.2060     7.5720     8.0230
 2609.0000  3742.5149     8.3750     0.0800    44.3830     2.5450   -33.2040     7.1920     7.5570     8.0320
 2609.5000  3742.5149     8.3750     0.0840    44.6580     2.5470   -33.0070     7.1780     7.5420     8.0430
 2610.0000  3744.4060     8.3790     0.0890    45.0230     2.5420   -33.2660     7.1640     7.5270     7.9750
 2610.5000  3755.0581     8.3880     0.0860    45.5610     2.5370   -33.6760     7.1490     7.5120     7.8960
 2611.0000  3765.7109     8.3960     0.0840    46.2400     2.5330   -33.6660     7.1350     7.4970     7.8550
 2611.5000  3776.3630     8.4050     0.0810    46.6550     2.5300   -33.5050     7.1210     7.4820     7.7460
 2612.0000  3778.4790     8.4140     0.0780    46.4460     2.5270   -33.3390     7.1060     7.4670     7.6360
 2612.5000  3769.2800     8.3920     0.0760    45.8590     2.5270   -33.1730     7.0920     7.4520     7.5270
 2613.0000  3760.0801     8.3630     0.0730    45.2990     2.5270   -33.0070     7.0780     7.4370     7.4180
 2613.5000  3750.8799     8.3340     0.0700    44.9250     2.5230   -32.8420     7.0640     7.4230     7.5840
 2614.0000  3742.5149     8.3030     0.0680    44.7960     2.5190   -32.6750     7.0490     7.4080     7.7910
 2614.5000  3742.5149     8.3080     0.0670    44.8110     2.5150   -32.5110     7.0350     7.3930     7.9510
 2615.0000  3745.1760     8.3270     0.0660    44.2240     2.5140   -32.3650     7.0200     7.3780     7.8130
 2615.5000  3767.6650     8.3470     0.0650    43.5770     2.5150   -32.3680     7.0060     7.3630     7.6760
 2616.0000  3777.8040     8.3670     0.0680    42.9220     2.5330   -32.3820     6.8990     7.3480     7.5380
 2616.5000  3764.3110     8.3860     0.0720    42.5940     2.5520   -32.7960     6.8780     7.3110     7.4000
 2617.0000  3750.8181     8.4060     0.0740    42.7540     2.5550   -33.2360     6.9160     7.2020     7.2690
 2617.5000  3753.6360     8.4260     0.0750    43.0070     2.5570   -33.5870     6.9520     7.2020     7.4360
 2618.0000  3782.4351     8.4460     0.0780    43.1780     2.5570   -33.3210     6.9880     7.2850     7.5960
 2618.5000  3753.4070     8.4460     0.0840    42.8690     2.5580   -32.9560     7.1460     7.3500     7.7550
 2619.0000  3751.5259     8.4300     0.0920    42.5300     2.5600   -32.5920     7.4250     7.4150     7.9150
 2619.5000  3765.9819     8.4140     0.1040    42.2280     2.5650   -32.2270     7.8240     7.4810     8.0740
 2620.0000  3780.4390     8.3980     0.1150    43.2180     2.5700   -31.8680     7.7310     7.5460     8.2680
 2620.5000  3736.7581     8.3940     0.1160    44.2850     2.5040   -31.6360     7.5660     7.6110     8.1910
 2621.0000  3715.4529     8.3900     0.1100    45.3540     2.4800   -32.0300     7.4020     7.6110     7.9950
 2621.5000  3694.1489     8.3870     0.1110    46.0130     2.4790   -32.4130     7.2380     7.3950     7.7980
 2622.0000  3672.8440     8.3830     0.1310    46.0470     2.5010   -32.7930     7.0730     7.2530     7.6020
 2622.5000  3681.3430     8.3800     0.1290    46.0880     2.5020   -33.1740     6.9090     7.1100     7.4050
 2623.0000  3717.0601     8.3770     0.1270    46.1300     2.4980   -33.3650     6.7440     6.9670     7.0710
 2623.5000  3752.7771     8.3980     0.1260    46.1710     2.4890   -33.3650     6.5690     6.8150     7.1590
 2624.0000  3785.2959     8.4490     0.1240    46.1610     2.4740   -33.3670     6.5570     6.8490     7.2690
 2624.5000  3802.1621     8.4660     0.1220    46.0930     2.4590   -33.3670     6.5340     6.8780     7.0920
 2625.0000  3819.0291     8.4790     0.1220    46.0250     2.4450   -33.3670     6.5110     6.8600     6.8780
 2625.5000  3787.5391     8.4920     0.1260    45.9580     2.4540   -33.3660     6.4880     6.8360     6.9590
 2626.0000  3754.7090     8.5050     0.1300    45.8900     2.4640   -33.4430     6.4650     6.8120     7.1540
 2626.5000  3736.3091     8.5180     0.1340    45.8210     2.4700   -33.5620     6.4420     6.7880     7.3360
 2627.0000  3717.9099     8.5310     0.1360    45.7880     2.4710   -33.6800     6.4200     6.7640     7.2710
