~VERSION INFORMATION
 VERS.                2.0:   CWLS LOG ASCII STANDARD - VERSION 2.0
 WRAP.                 NO:   ONE LINE PER DEPTH STEP
~WELL INFORMATION
#MNEM.UNIT      DATA TYPE    INFORMATION
#----------   ------------   ------------------------------
 STRT.F           85.5000:   START DEPTH
 STOP.F         2750.0000:   STOP DEPTH
 STEP.F            0.5000:   STEP LENGTH
 NULL.          -999.2500:   NO VALUE
 COMP.          INTEX OIL:   COMPANY
 WELL. INTEX NPR 3 "AX" #74-20:   WELL
 FLD .             TEAPOT:   FIELD
 LOC .      S20 T39N R78W:   LOCATION
 CNTY.            NATRONA:   COUNTY
 STAT.            WYOMING:   STATE
 CTRY. UNITED STATES OF AMERICA:   COUNTRY
 SRVC.       SCHLUMBERGER:   SERVICE COMPANY
 DATE.        08-MAY-1966:   LOGDATE
 API .     49025095210000:   API NUMBER
~CURVE INFORMATION
#MNEM.UNIT       API CODE    CURVE DESCRIPTION
#----------   ------------   ------------------------------
 DEPT.F                  :   
 CALD.IN     45 280 60 00:   CALIPER FROM DENSITY LOG
 GRD .GAPI   45 310 01 00:   GAMMA RAY FROM DENSITY LOG
 RHOB.G/C3   45 350 01 00:   BULK DENSITY
 CORR.G/C3   45 356 01 00:   DENSITY CORRECTION
 SPR .MV     05 010 01 00:   SPONTANEOUS POTENTIAL FROM RES.
 ILD .OHMM   05 120 46 00:   INDUCTION LOG DEEP
 SN  .OHMM   05 040 00 00:   SHORT NORMAL
~PARAMETER INFORMATION
#MNEM.UNIT          VALUE    DESCRIPTION
#----------   ------------   ------------------------------
 EKB .F         5018.3000:   Kelly bushing
 EGL .F         5008.0000:   Ground level
 EDF .F            0.0000:   Drilling floor
 EPD .F         5008.0000:   Permanent datum
 TD  .F         2750.0000:   Total depth
 DATE.        08-MAY-1966:   Date logged
 CLNT.            A2DTECH:   Client Code
 DAPD.F              10.3:   Feet Above Permanent Datum
 DD  .F              2750:   Depth driller
 DL  .F              2749:   Depth logger
 BLI .F              2748:   Bottom log interval
 TLI .F                87:   Top log interval
 CS1 .IN            10.75:   Casing size
 CBD1.       10.75" @ 30':   Casing driller 1
 BS1 .IN            7.875:   Bit size
 BSD1.F              2750:   Depth drilled with bit1
 DFT .           OIL EMUL:   Type fluid in hole
 DFD .               10.1:   Density
 DFV .                 54:   Viscosity
 MSS .         CIRCULATED:   Source of sample
 RMS .OHMM           1.90:   Rm
 MST .F                72:   Rm Meas. temp.
 RMF .OHMM           1.15:   Rmf
 MFST.F                72:   Rmf Meas. temp.
 MFSS.                 FP:   Source Rmf.
 RMB .OHMM           1.23:   Rm. at BHT
 BHT .F               111:   BHT.
 TCS .HRS             1.5:   Time Circ. stopped
 MRT .F               111:   Maximum recorded temp.
 LUN .               4507:   Logging unit number
 LUL .               CSPR:   Logging unit location
 ENGI.               HAUG:   Recorded By
 WITN.             TUTTLE:   Witnessed by
 ORIG.        2" 5" PRINT:   Origin of data
 UWI .     49025095210000:   Unique Well ID
 DICO. A2D TECHNOLOGIES, INC.:   Digitizing Company
~OTHER INFORMATION
~A   DEPT     CALD        GRD       RHOB       CORR        SPR        ILD         SN   
# ...
 2451.5000     8.4160    88.3410     2.5710     0.0200   -42.4940     9.0350    12.7330
 2452.0000     8.4120    84.5790     2.5770     0.0300   -42.4770     8.8500    12.6300
 2452.5000     8.4080    81.9330     2.6040     0.0610   -42.4610     8.6570    12.3780
 2453.0000     8.4040    85.2950     2.6190     0.0530   -42.4450     8.4760    11.9320
 2453.5000     8.4000    90.7950     2.5870     0.0280   -42.4280     8.2750    11.5040
 2454.0000     8.3960    95.7050     2.5730     0.0200   -42.4120     8.1750    11.0230
 2454.5000     8.3930   100.4990     2.5780     0.0220   -42.3950     7.9020    10.7570
 2455.0000     8.3890    99.7800     2.5890     0.0250   -42.3790     7.8330    10.9310
 2455.5000     8.3850    98.2910     2.6000     0.0300   -42.3630     7.9020    11.0690
 2456.0000     8.3820    97.1610     2.6030     0.0360   -42.3450     7.9730    11.2300
 2456.5000     8.3820   100.1210     2.5960     0.0420   -42.3330     7.9650    11.3780
 2457.0000     8.3820   100.8850     2.5860     0.0440   -42.2850     7.8360    11.5340
 2457.5000     8.3820    98.7580     2.5830     0.0360   -42.2050     7.7160    11.6920
 2458.0000     8.3820    96.2690     2.5790     0.0250   -42.1310     7.5940    11.7350
 2458.5000     8.3820    93.2220     2.5740     0.0220   -42.0550     7.4650    11.3970
 2459.0000     8.3820    94.5680     2.5830     0.0390   -41.9800     7.4070    11.0920
 2459.5000     8.3820    93.7700     2.5890     0.0520   -41.9050     7.4150    10.7820
 2460.0000     8.3820    91.2380     2.5730     0.0340   -41.8290     7.4110    10.4680
 2460.5000     8.3820    93.9170     2.5820     0.0450   -41.7550     7.4130    10.5580
 2461.0000     8.3820   100.3430     2.6080     0.0490   -41.6780     7.4230    10.8420
 2461.5000     8.3820   106.8080     2.6180     0.0430   -41.6040     7.5510    11.1020
 2462.0000     8.3820   110.9550     2.6170     0.0510   -41.5440     7.6700    11.3950
 2462.5000     8.3820   103.7000     2.5890     0.0350   -41.5940     7.7960    11.5930
 2463.0000     8.3820    98.6970     2.5730     0.0230   -41.6430     7.9170    11.6180
 2463.5000     8.3820    98.1400     2.5690     0.0300   -41.6970     8.0400    11.6760
 2464.0000     8.3820   100.6720     2.5990     0.0210   -41.7470     8.1630    11.7230
 2464.5000     8.3820   103.0610     2.5930     0.0260   -41.7990     8.2860    11.7720
 2465.0000     8.3760   103.2190     2.5820     0.0320   -41.8490     8.4070    11.8220
 2465.5000     8.3660   101.6320     2.5970     0.0320   -41.9050     8.5310    11.8710
 2466.0000     8.3570    99.5550     2.5890     0.0200   -41.9190     8.6530    11.9200
 2466.5000     8.3490    96.8580     2.5810     0.0450   -41.8860     8.7810    11.9690
 2467.0000     8.3390    95.0670     2.5890     0.0410   -41.8600     8.7810    12.0180
 2467.5000     8.3310    94.6660     2.5940     0.0320   -41.8310     8.6290    12.0660
 2468.0000     8.3210    92.6420     2.5980     0.0410   -41.8030     8.4770    12.1200
 2468.5000     8.3130    90.5850     2.5900     0.0440   -41.7760     8.3220    12.1040
 2469.0000     8.3040    89.3690     2.5750     0.0250   -41.7480     8.1690    11.9200
 2469.5000     8.3030    89.8800     2.5600     0.0110   -41.7200     8.0180    11.7390
 2470.0000     8.3030    93.4980     2.5520     0.0070   -41.6920     7.8610    11.5560
 2470.5000     8.3090    96.8250     2.5600     0.0100   -41.6640     7.8030    11.3660
 2471.0000     8.3150    98.4590     2.5550     0.0140   -41.6360     7.8090    11.1910
 2471.5000     8.3200    99.1360     2.5530     0.0170   -41.6080     7.8070    10.9900
 2472.0000     8.3260   100.0440     2.5610     0.0200   -41.5800     7.8090    11.0330
 2472.5000     8.3320   100.6730     2.5730     0.0200   -41.5520     7.8030    11.1070
 2473.0000     8.3380   100.3540     2.5770     0.0180   -41.5240     7.8630    11.1850
 2473.5000     8.3420    96.7100     2.5790     0.0150   -41.4960     8.0090    11.2650
 2474.0000     8.3410    92.6030     2.5800     0.0180   -41.4680     8.1460    11.3210
 2474.5000     8.3360    94.4070     2.5770     0.0290   -41.4400     8.2880    11.5520
 2475.0000     8.3320    98.4040     2.5720     0.0250   -41.4120     8.4280    11.9180
 2475.5000     8.3270   101.1200     2.5690     0.0170   -41.3840     8.5700    12.2520
 2476.0000     8.3230   100.0290     2.5780     0.0170   -41.3560     8.7090    12.5890
 2476.5000     8.3180   100.6550     2.5920     0.0330   -41.3280     8.8510    12.9510
 2477.0000     8.3140   101.5150     2.5930     0.0260   -41.3000     9.0000    13.2330
 2477.5000     8.3090   102.6530     2.5980     0.0310   -41.2720     9.2620    13.4120
 2478.0000     8.3050   101.5150     2.6050     0.0440   -41.2440     9.5330    13.6150
 2478.5000     8.3030    96.7890     2.6140     0.0540   -41.2160     9.8080    13.8060
 2479.0000     8.3030    94.5310     2.6150     0.0460   -41.1880    10.0780    14.1290
 2479.5000     8.3030    91.8660     2.6140     0.0300   -41.1580    10.3560    14.6570
 2480.0000     8.3030    89.4900     2.6260     0.0310   -41.1320    10.6220    15.1730
 2480.5000     8.3030    86.7160     2.6400     0.0390   -41.1110    10.8970    15.7130
 2481.0000     8.3030    85.6640     2.6450     0.0450   -41.0880    10.9690    16.2190
 2481.5000     8.3030    83.8490     2.6490     0.0530   -41.0650    10.9520    16.7470
 2482.0000     8.3030    80.5850     2.6330     0.0470   -41.0420    10.7910    16.4230
 2482.5000     8.3030    76.9950     2.6070     0.0350   -41.0190    10.6540    15.7450
 2483.0000     8.3030    75.0640     2.6120     0.0400   -40.9970    10.4970    15.0860
 2483.5000     8.3030    76.7210     2.6240     0.0480   -40.9740    10.3530    14.5130
 2484.0000     8.3030    81.4800     2.6330     0.0560   -40.9510    10.0350    14.0730
 2484.5000     8.3030    86.4140     2.6220     0.0500   -40.9280     9.7480    13.7420
 2485.0000     8.3030    90.1530     2.6100     0.0380   -40.9050     9.4470    13.6340
 2485.5000     8.3030    89.4650     2.5980     0.0290   -40.8830     9.1560    13.5480
 2486.0000     8.3100    84.7890     2.5850     0.0190   -40.8600     8.8570    13.4410
 2486.5000     8.3250    84.4610     2.5770     0.0320   -40.8370     8.5670    13.4020
 2487.0000     8.3400    86.3700     2.5760     0.0270   -40.8130     8.2670    12.9520
 2487.5000     8.3550    87.9190     2.5740     0.0120   -40.7920     7.9850    12.2780
 2488.0000     8.3700    89.5600     2.5750     0.0160   -40.7680     7.6010    11.6710
 2488.5000     8.3840    89.7140     2.5640     0.0280   -40.7420     7.2430    11.0630
 2489.0000     8.3990    88.2750     2.5440     0.0160   -40.6570     6.8760    10.4000
 2489.5000     8.4140    90.2440     2.5340     0.0130   -40.5780     6.5150     9.7820
 2490.0000     8.4240    90.3720     2.5470     0.0220   -40.4950     6.1510     9.0890
 2490.5000     8.4290    89.4250     2.5580     0.0310   -40.4140     5.7880     8.4580
 2491.0000     8.4340    89.2850     2.5490     0.0260   -40.3320     5.4250     7.8170
 2491.5000     8.4390    93.3140     2.5440     0.0240   -40.2500     5.0620     7.1730
 2492.0000     8.4450    99.8360     2.5650     0.0300   -40.1690     4.6990     6.5380
 2492.5000     8.4500   109.0460     2.5330     0.0280   -40.0870     4.3360     6.0940
 2493.0000     8.4550   117.9390     2.5190     0.0110   -40.0050     3.9730     5.8740
 2493.5000     8.4610   126.8930     2.5090     0.0110   -39.9240     3.6100     5.6170
 2494.0000     8.4520   133.2230     2.5000     0.0170   -39.8420     3.2460     5.3800
 2494.5000     8.4350   124.8590     2.4900     0.0240   -39.7600     2.8850     5.0220
 2495.0000     8.4190   115.9610     2.4810     0.0300   -39.6800     2.5210     4.5260
 2495.5000     8.4020   118.2250     2.4710     0.0360   -39.5960     2.1530     4.0330
 2496.0000     8.3860   122.9330     2.4540     0.0430   -39.5650     1.8840     3.5440
 2496.5000     8.3690   128.2330     2.4360     0.0470   -39.5680     1.8780     3.0860
