~VERSION INFORMATION
 VERS.                2.0:   CWLS LOG ASCII STANDARD - VERSION 2.0
 WRAP.                 NO:   ONE LINE PER DEPTH STEP
~WELL INFORMATION
#MNEM.UNIT      DATA TYPE    INFORMATION
#----------   ------------   ------------------------------
 STRT.F           53.0000:   START DEPTH
 STOP.F         3110.0000:   STOP DEPTH
 STEP.F            0.5000:   STEP LENGTH
 NULL.          -999.2500:   NO VALUE
 COMP. LAWRENCE ALLISON & ASSOCIATES W:   COMPANY
 WELL. LAWRENCE NPR 3 "AX" #31-34:   WELL
 FLD .      NPR - WILDCAT:   FIELD
 LOC .      S34 T39N R78W:   LOCATION
 CNTY.            NATRONA:   COUNTY
 STAT.            WYOMING:   STATE
 CTRY. UNITED STATES OF AMERICA:   COUNTRY
 SRVC.      DRESSER ATLAS:   SERVICE COMPANY
 DATE.        11-JUL-1986:   LOGDATE
 API .     49025111020000:   API NUMBER
~CURVE INFORMATION
#MNEM.UNIT       API CODE    CURVE DESCRIPTION
#----------   ------------   ------------------------------
 DEPT.F                  :   
 DEN .G/C3   45 350 01 00:   BULK DENSITY
 TEND.LBS    45 635 01 00:   TENSION FROM DENSITY LOG
 CORR.G/C3   45 356 01 00:   DENSITY CORRECTION
 NPHI.DEC    42 890 03 00:   NEUTRON POROSITY SANDSTONE
 SPR .MV     07 010 01 00:   SPONTANEOUS POTENTIAL
 RILM.OHMM   07 120 44 00:   INDUCTION LOG MEDIUM RESISTIVITY
 RILD.OHMM   07 120 46 00:   DEEP INDUCTION RESISTIVITY
 RFOC.OHMM   07 220 04 00:   RESISTIVITY FOCUSED LOG RES.
 TENR.LBS    07 635 01 00:   TENSION FROM RESISTIVITY
 GRR .GAPI   07 310 01 00:   GAMMA RAY FROM RESISTIVITY
 CALR.IN     07 280 01 00:   CALIPER FROM RESISTIVITY
~PARAMETER INFORMATION
#MNEM.UNIT          VALUE    DESCRIPTION
#----------   ------------   ------------------------------
 EKB .F          5074.800:   Kelly bushing
 EGL .F          5063.000:   Ground level
 EDF .F            0.0000:   Drilling floor
 EPD .F            0.0000:   Permanent datum
 TD  .F         3108.0000:   Total depth
 DATE.        11-JUL-1986:   Date logged
 CLNT.            A2DTECH:   Client Code
 SL  . 1796' FWL & 318' FNL:   Surface Location
 PD  .                 GL:   Permanent Datum
 DAPD.F                11:   Feet Above Permanent Datum
 DD  .F              3103:   Depth driller
 DL  .F              3108:   Depth logger
 BLI .F              3106:   Bottom log interval
 CS1 .IN            8.625:   Casing size
 CBD1.      8.625" @ 602':   Casing driller 1
 CBL1.F               596:   Casing logger 1
 BS1 .IN            7.875:   Bit size
 BSD1.F              3103:   Depth drilled with bit1
 DFT .            KCL/GEL:   Type fluid in hole
 DFD .                  9:   Density
 DFV .                 42:   Viscosity
 MSS .           MUD/TANK:   Source of sample
 RMS .OHMM           .352:   Rm
 MST .F                82:   Rm Meas. temp.
 RMF .OHMM           .264:   Rmf
 MFST.F                82:   Rmf Meas. temp.
 RMC .OHMM            .44:   Rmc
 MCST.F                82:   Rmc Meas. temp.
 MFSS.               CALC:   Source Rmf.
 MCSS.               CALC:   Source Rmc.
 RMB .OHMM            .23:   Rm. at BHT
 BHT .F               115:   BHT.
 TCS .HRS               3:   Time Circ. stopped
 MRT .F               115:   Maximum recorded temp.
 LUN .            HL-6264:   Logging unit number
 LUL .           GILLETTE:   Logging unit location
 ENGI.     P. M. FASHSING:   Recorded By
 WITN.             STRONG:   Witnessed by
 ORIG.           5" PRINT:   Origin of data
 UWI .     49025111020000:   Unique Well ID
 DICO. A2D TECHNOLOGIES, INC.:   Digitizing Company
~OTHER INFORMATION
~A   DEPT      DEN       TEND       CORR       NPHI        SPR       RILM       RILD       RFOC       TENR         GRR      CALR   
# ...
 1761.0000  -999.2500  -999.2500  -999.2500  -999.2500   -88.1440     5.4880     6.2020     6.4920  -114.7300   114.6150    10.3960
 1761.5000  -999.2500  -999.2500  -999.2500  -999.2500   -88.0060     5.4700     6.0790     6.4350  -114.5800   112.7210    10.3990
 1762.0000  -999.2500  -999.2500  -999.2500  -999.2500   -87.8690     5.4530     5.9560     6.4350  -114.4300   110.6120    10.4030
 1762.5000  -999.2500  -999.2500  -999.2500  -999.2500   -87.7320     5.4300     5.8680     6.4350  -114.2800   109.4260    10.4060
 1763.0000  -999.2500  -999.2500  -999.2500  -999.2500   -87.6160     5.3510     5.4780     6.4350  -114.1300   109.8240    10.4090
 1763.5000  -999.2500  -999.2500  -999.2500  -999.2500   -87.4410     4.9360     5.1230     6.4350  -113.9800   112.0890    10.4310
 1764.0000  -999.2500  -999.2500  -999.2500  -999.2500   -87.2680     4.3650     4.6680     6.4350  -113.8300   114.2900    10.4570
 1764.5000  -999.2500  -999.2500  -999.2500  -999.2500   -87.0970     3.3970     3.7870     6.4350  -113.6800   114.7000    10.4830
 1765.0000  -999.2500  -999.2500  -999.2500  -999.2500   -86.9250     2.9230     3.3590     5.8350  -113.5300   112.2590    10.5080
 1765.5000  -999.2500  -999.2500  -999.2500  -999.2500   -86.7500     2.8380     3.1860     4.6780  -113.3800   109.7960    10.5350
 1766.0000  -999.2500  -999.2500  -999.2500  -999.2500   -86.4480     2.8070     3.0490     3.4860  -113.2300   107.9800    10.5860
 1766.5000  -999.2500  -999.2500  -999.2500  -999.2500   -85.9330     2.9930     3.0490     2.6800  -113.0800   109.5990    10.6830
 1767.0000  -999.2500  -999.2500  -999.2500  -999.2500   -85.7690     3.3440     3.0860     2.6800  -112.9310   110.3800    10.7560
 1767.5000  -999.2500  -999.2500  -999.2500  -999.2500   -86.3970     3.5990     3.1830     4.5870  -112.7810   111.0080    10.4950
 1768.0000  -999.2500  -999.2500  -999.2500  -999.2500   -87.0180     3.8810     3.2800     6.5230  -112.6310   112.7930    10.4850
 1768.5000  -999.2500  -999.2500  -999.2500  -999.2500   -87.1440     4.1630     3.7490     6.8150  -112.4810   114.5300    10.4810
 1769.0000  -999.2500  -999.2500  -999.2500  -999.2500   -87.2400     4.5300     4.4060     6.8360  -112.3310   114.7720    10.4770
 1769.5000  -999.2500  -999.2500  -999.2500  -999.2500   -87.3390     4.9330     5.0630     6.8570  -112.1810   114.9470    10.4730
 1770.0000  -999.2500  -999.2500  -999.2500  -999.2500   -87.4390     5.3370     5.9680     6.8780  -112.0310   113.8670    10.4690
 1770.5000  -999.2500  -999.2500  -999.2500  -999.2500   -87.5380     5.7410     6.2310     6.8990  -111.8810   111.9760    10.4650
 1771.0000  -999.2500  -999.2500  -999.2500  -999.2500   -87.6340     5.8930     6.3170     6.9200  -111.7310   112.0440    10.4610
 1771.5000  -999.2500  -999.2500  -999.2500  -999.2500   -87.8020     5.9880     6.3170     6.9560  -111.5810   116.7430    10.4570
 1772.0000  -999.2500  -999.2500  -999.2500  -999.2500   -87.9730     6.0840     6.3170     7.0190  -111.4310   119.4280    10.4530
 1772.5000  -999.2500  -999.2500  -999.2500  -999.2500   -87.9630     6.1800     6.3310     7.0820  -111.2810   120.4570    10.4490
 1773.0000  -999.2500  -999.2500  -999.2500  -999.2500   -87.7030     6.2590     6.4350     7.1450  -111.1310   120.2240    10.4450
 1773.5000  -999.2500  -999.2500  -999.2500  -999.2500   -87.4460     6.2590     6.5390     7.2070  -110.9820   121.1240    10.4410
 1774.0000  -999.2500  -999.2500  -999.2500  -999.2500   -87.2930     6.2590     6.6430     7.2700  -110.8320   121.2670    10.4370
 1774.5000  -999.2500  -999.2500  -999.2500  -999.2500   -87.5430     6.2590     6.7470     7.3330  -110.6820   119.8170    10.4320
 1775.0000  -999.2500  -999.2500  -999.2500  -999.2500   -87.7870     6.2590     6.8640     7.3960  -110.5320   117.3710    10.4280
 1775.5000  -999.2500  -999.2500  -999.2500  -999.2500   -88.0960     6.2590     6.7410     7.4580  -110.3820   116.3850    10.4240
 1776.0000  -999.2500  -999.2500  -999.2500  -999.2500   -88.4370     6.2590     6.6290     7.5210  -110.2320   115.7040    10.4200
 1776.5000  -999.2500  -999.2500  -999.2500  -999.2500   -88.6420     6.2590     6.4940     7.5960  -110.0820   114.2650    10.4160
 1777.0000  -999.2500  -999.2500  -999.2500  -999.2500   -88.5400     6.2590     6.5310     7.5490  -109.9320   112.9750    10.4120
 1777.5000  -999.2500  -999.2500  -999.2500  -999.2500   -88.4440     6.2590     6.5920     7.4900  -109.7820   112.8020    10.4080
 1778.0000  -999.2500  -999.2500  -999.2500  -999.2500   -88.3470     6.2580     6.6520     7.4310  -109.6320   113.0940    10.4040
 1778.5000  -999.2500  -999.2500  -999.2500  -999.2500   -88.2500     6.3230     6.7120     7.3720  -109.4820   113.5090    10.4000
 1779.0000  -999.2500  -999.2500  -999.2500  -999.2500   -88.1540     6.3820     6.7730     7.3210  -109.3320   115.6410    10.3960
 1779.5000  -999.2500  -999.2500  -999.2500  -999.2500   -88.0540     6.4400     6.8330     7.4470  -109.1830   117.4880    10.3920
 1780.0000  -999.2500  -999.2500  -999.2500  -999.2500   -87.9120     6.4990     6.8930     7.5570  -109.0330   115.7120    10.3880
 1780.5000  -999.2500  -999.2500  -999.2500  -999.2500   -87.7640     6.5550     6.9320     7.6660  -108.8830   113.4970    10.3830
 1781.0000  -999.2500  -999.2500  -999.2500  -999.2500   -87.6160     6.4670     6.9430     7.7760  -108.7330   112.3800    10.3790
 1781.5000  -999.2500  -999.2500  -999.2500  -999.2500   -87.4680     6.3850     6.9530     7.8300  -108.5830   113.2810    10.3750
 1782.0000  -999.2500  -999.2500  -999.2500  -999.2500   -87.4160     6.3020     6.9640     7.8720  -107.2700   116.1680    10.3710
 1782.5000  -999.2500  -999.2500  -999.2500  -999.2500   -87.3480     6.2190     6.9750     7.8820  -103.6730   119.1130    10.3730
 1783.0000  -999.2500  -999.2500  -999.2500  -999.2500   -87.2790     6.1360     6.9850     7.6910  -100.0760   119.2720    10.3780
 1783.5000  -999.2500  -999.2500  -999.2500  -999.2500   -87.1960     6.0890     6.9920     7.5280   -99.2940   117.3450    10.3830
 1784.0000  -999.2500  -999.2500  -999.2500  -999.2500   -87.1020     6.0890     6.8080     7.3650  -100.6190   115.6290    10.3880
 1784.5000  -999.2500  -999.2500  -999.2500  -999.2500   -87.0390     6.0890     6.6800     7.1880  -101.9440   114.2360    10.3930
 1785.0000  -999.2500  -999.2500  -999.2500  -999.2500   -87.3580     6.0890     6.5520     7.1880  -103.2700   113.0660    10.3980
 1785.5000  -999.2500  -999.2500  -999.2500  -999.2500   -87.7290     6.1350     6.4900     7.1880  -104.5950   113.9850    10.4030
 1786.0000  -999.2500  -999.2500  -999.2500  -999.2500   -88.1030     6.1840     6.4790     7.1880  -105.9200   116.7640    10.4080
 1786.5000  -999.2500  -999.2500  -999.2500  -999.2500   -88.4760     6.2330     6.4690     7.1880  -107.2460   118.5700    10.4130
 1787.0000  -999.2500  -999.2500  -999.2500  -999.2500   -88.8430     6.2820     6.4580     7.1880  -108.4830   116.7230    10.4170
 1787.5000  -999.2500  -999.2500  -999.2500  -999.2500   -88.8190     6.3170     6.4470     7.1880  -108.4830   114.8580    10.4220
 1788.0000  -999.2500  -999.2500  -999.2500  -999.2500   -88.7510     6.2690     6.4350     7.3630  -108.4830   114.5700    10.4270
 1788.5000  -999.2500  -999.2500  -999.2500  -999.2500   -88.6830     6.2160     6.5080     7.6110  -108.4830   115.2610    10.4320
 1789.0000  -999.2500  -999.2500  -999.2500  -999.2500   -88.6170     6.1630     6.5860     7.8580  -108.4830   116.4650    10.4370
 1789.5000  -999.2500  -999.2500  -999.2500  -999.2500   -88.5500     6.1100     6.6640     8.0280  -108.4830   117.6410    10.4420
 1790.0000  -999.2500  -999.2500  -999.2500  -999.2500   -88.4840     6.0570     6.6770     7.8410  -108.4830   118.8160    10.4470
 1790.5000  -999.2500  -999.2500  -999.2500  -999.2500   -88.2980     6.0030     6.4920     7.5490  -108.4830   120.1460    10.4520
 1791.0000  -999.2500  -999.2500  -999.2500  -999.2500   -88.0170     5.9270     6.3640     7.2570  -108.4830   122.2440    10.4570
