~VERSION INFORMATION
 VERS.                2.0:   CWLS LOG ASCII STANDARD - VERSION 2.0
 WRAP.                 NO:   ONE LINE PER DEPTH STEP
~WELL INFORMATION
#MNEM.UNIT      DATA TYPE    INFORMATION
#----------   ------------   ------------------------------
 STRT.F          448.5000:   START DEPTH
 STOP.F         4490.5000:   STOP DEPTH
 STEP.F            0.5000:   STEP LENGTH
 NULL.          -999.2500:   NO VALUE
 COMP.  FENIX AND SCISSON:   COMPANY
 WELL. FENIX AND SCISSON NPR 3 #11-10:   WELL
 FLD .              NPR-3:   FIELD
 LOC .      S10 T38N R78W:   LOCATION
 CNTY.            NATRONA:   COUNTY
 STAT.            WYOMING:   STATE
 CTRY. UNITED STATES OF AMERICA:   COUNTRY
 SRVC.              WELEX:   SERVICE COMPANY
 DATE.        22-DEC-1978:   LOGDATE
 API .     49025107450000:   API NUMBER
~CURVE INFORMATION
#MNEM.UNIT       API CODE    CURVE DESCRIPTION
#----------   ------------   ------------------------------
 DEPT.F                  :   
 SPR .MV     07 010 01 00:   SPONTANEOUS POTENTIAL
 ILM .OHMM   07 120 44 00:   INDUCTION LOG MEDIUM
 ILD .OHMM   07 120 46 00:   DEEP RESISTIVITY
 SGRD.OHMM   07 220 01 00:   SHALLOW SHORT GUARD RESISTIVITY
 TENR.LBS    07 635 01 00:   TENSION FROM RESISTIVITY
 NPHI.DEC    42 890 03 00:   NEUTRON POROSITY SANDSTONE
 CALD.IN     45 280 60 00:   CALIPER FROM DENSITY LOG
 GRD .GAPI   45 310 01 00:   GAMMA RAY FROM DENSITY LOG
 RHOB.G/C3   45 350 01 00:   BULK DENSITY
 DRHO.G/C3   45 356 01 00:   DENSITY CORRECTION
 TEND.LBS    45 635 01 00:   TENSION FROM DENSITY
~PARAMETER INFORMATION
#MNEM.UNIT          VALUE    DESCRIPTION
#----------   ------------   ------------------------------
 EKB .F         5275.0000:   Kelly bushing
 EGL .F         5265.0000:   Ground level
 EDF .F            0.0000:   Drilling floor
 EPD .F         5265.0000:   Permanent datum
 TD  .F         4500.0000:   Total depth
 DATE.        22-DEC-1978:   Date logged
 CLNT.            A2DTECH:   Client Code
 SL  . 300' FNL & 500' FWL:   Surface Location
 DD  .F              4500:   Depth driller
 DL  .F              4481:   Depth logger
 BLI .F              4479:   Bottom log interval
 TLI .F               450:   Top log interval
 CS1 .IN            8.625:   Casing size
 CBD1.      8.625" @ 500':   Casing driller 1
 CBL1.F               473:   Casing logger 1
 BS1 .IN            7.875:   Bit size
 BSD1.F              4500:   Depth drilled with bit1
 DFT .               LSND:   Type fluid in hole
 DFD .                8.7:   Density
 DFV .                 49:   Viscosity
 DFPH.               11.0:   pH
 DFL .                7.6:   Fluid loss
 MSS .           FLOWLINE:   Source of sample
 RMS .OHMM            1.1:   Rm
 MST .F                86:   Rm Meas. temp.
 RMF .OHMM           0.73:   Rmf
 MFST.F                86:   Rmf Meas. temp.
 RMC .OHMM           1.68:   Rmc
 MCST.F                86:   Rmc Meas. temp.
 MFSS.               CALC:   Source Rmf.
 MCSS.               CALC:   Source Rmc.
 RMB .OHMM           0.72:   Rm. at BHT
 BHT .F               130:   BHT.
 TCS .HRS             3.5:   Time Circ. stopped
 MRT .F               130:   Maximum recorded temp.
 LUN .               9685:   Logging unit number
 LUL .             CASPER:   Logging unit location
 ENGI.            BENTSEN:   Recorded By
 WITN.           DINSMORE:   Witnessed by
 ORIG.           5" PRINT:   Origin of data
 UWI .     49025107450000:   Unique Well ID
 DICO. A2D TECHNOLOGIES, INC.:   Digitizing Company
~OTHER INFORMATION
~A  DEPTH      SPR        ILM        ILD       SGRD       TENR       NPHI       CALD        GRD       RHOB       DRHO       TEND
# ...
 1790.5000   -64.7052     6.2609     6.1776     6.5778   883.0281     0.3547    15.7730    74.2689     2.3321     0.1304  1245.9708
 1791.0000   -64.6993     6.2742     6.2036     6.5369   883.3317     0.3508    16.0742    75.0857     2.3480     0.1337  1248.9961
 1791.5000   -64.6933     6.3185     6.2057     6.4962   883.6353     0.3496    16.0230    72.9513     2.3662     0.1355  1252.0215
 1792.0000   -64.6874     6.3353     6.1657     6.4798   883.9390     0.3492    15.8017    69.1256     2.3753     0.1599  1255.0469
 1792.5000   -64.6815     6.3654     6.0999     6.4349   884.2426     0.3499    15.4784    67.1180     2.3573     0.1722  1258.0721
 1793.0000   -64.6756     6.3269     6.0444     6.3492   884.5463     0.3516    15.4977    68.2157     2.3439     0.1784  1261.0975
 1793.5000   -64.6696     6.2742     6.0054     6.2647   884.8499     0.3524    15.6745    71.3811     2.3319     0.1908  1264.1228
 1794.0000   -64.6637     6.1917     5.9368     6.1814   885.1535     0.3511  -999.2500    73.2053     2.3041     0.1760  1267.1482
 1794.5000   -64.6578     6.0930     5.8563     6.0991   885.4572     0.3484  -999.2500    71.0056     2.2914     0.1567  1270.1736
 1795.0000   -64.6508     5.9698     5.7617     6.0488   885.7608     0.3449  -999.2500    68.2488     2.3224     0.1600  1273.1989
 1795.5000   -64.6450     5.8687     5.6863     6.0112   886.0645     0.3426  -999.2500    65.9634     2.3458     0.1723  1276.2242
 1796.0000   -64.6393     5.7705     5.6120     5.9670   886.3680     0.3427  -999.2500    64.0640     2.3127     0.1620  1279.2496
 1796.5000   -64.6336     5.6538     5.5386     5.9311   886.6717     0.3445  -999.2500    62.1763     2.2850     0.1698  1282.2749
 1797.0000   -64.6279     5.5625     5.4662     5.9363   886.9753     0.3468  -999.2500    61.4255     2.2693     0.1942  1285.3003
 1797.5000   -64.7703     5.5382     5.4698     5.9416   887.2790     0.3491  -999.2500    62.2616     2.2475     0.1929  1288.3256
 1798.0000   -64.9127     5.5970     5.4758     5.9469   887.5826     0.3513  -999.2500    64.1043     2.2423     0.1812  1291.3510
 1798.5000   -64.9067     5.7128     5.5943     5.9935   887.8862     0.3508  -999.2500    65.6961     2.2891     0.1709  1294.3763
 1799.0000   -64.9007     5.7828     5.6348     5.9995   888.1899     0.3462  -999.2500    66.9150     2.3125     0.1651  1297.4016
 1799.5000   -64.8948     5.7603     5.6387     6.0461   888.4935     0.3424  -999.2500    67.6319     2.3555     0.1638  1300.4270
 1800.0000   -64.8898     5.7476     5.6480     6.0532   888.7727     0.3402  -999.2500    67.5074     2.4126     0.1838  1303.9258
 1800.5000   -64.9109     5.7317     5.6871     6.0787   888.7703     0.3375  -999.2500    66.9914     2.4557     0.1570  1302.5573
 1801.0000   -64.9291     5.7447     5.7714     6.1043   888.7682     0.3338  -999.2500    67.2575     2.4482     0.1422  1300.9347
 1801.5000   -64.9473     5.8115     5.8580     6.1298   888.7660     0.3319  -999.2500    67.5311     2.4348     0.1259  1299.3123
 1802.0000   -64.9657     5.8778     5.9884     6.1641   888.7638     0.3313    15.9377    67.8346     2.4221     0.1262  1297.6898
 1802.5000   -64.9482     5.9488     6.0798     6.2599   888.7616     0.3306    15.7209    68.3859     2.4078     0.1175  1296.0673
 1803.0000   -64.9304     6.0396     6.1683     6.3571   888.7595     0.3296    15.6537    69.1308     2.4041     0.1132  1294.4448
 1803.5000   -64.9126     6.1317     6.2238     6.4456   888.7573     0.3286    15.6250    69.8096     2.4185     0.1377  1292.8223
 1804.0000   -64.8948     6.2252     6.3116     6.5110   888.7551     0.3278    15.5962    70.4755     2.4111     0.1289  1291.1998
 1804.5000   -64.8801     6.3514     6.3625     6.6121   888.7529     0.3292    15.5845    71.4561     2.3953     0.1157  1289.5774
 1805.0000   -65.0395     6.4611     6.4138     6.7148   888.7507     0.3329    15.5872    72.0268     2.3916     0.1280  1287.9548
 1805.5000   -65.1378     6.5245     6.4540     6.7853   888.7485     0.3385    15.5797    71.2629     2.4030     0.1494  1286.3324
 1806.0000   -65.1200     6.5867     6.4727     6.7930   888.7463     0.3419    15.5886    68.6379     2.4287     0.1557  1284.7100
 1806.5000   -65.1022     6.6378     6.4962     6.8006   888.7441     0.3437    15.6422    66.6678     2.4604     0.1455  1283.0874
 1807.0000   -65.1393     6.5520     6.4559     6.8083   888.7419     0.3449    15.8070    66.2157     2.4762     0.1338  1281.4650
 1807.5000   -65.2148     6.4672     6.3991     6.7930   888.7398     0.3459    15.9883    66.3441     2.4816     0.1145  1279.8425
 1808.0000   -65.2632     6.2958     6.2789     6.7522   888.7376     0.3462    15.9611    66.9680     2.4892     0.0982  1278.2200
 1808.5000   -65.3274     6.1290     6.1079     6.6862   888.7354     0.3461    15.8290    68.2749     2.5020     0.0880  1276.5975
 1809.0000   -65.3872     5.9664     5.9607     6.5987   888.7332     0.3461    15.6929    69.4286     2.5104     0.0823  1274.9750
 1809.5000   -65.5232     5.8894     5.9630     6.5124   888.7311     0.3462    15.6012    70.5824     2.5075     0.0856  1273.3525
 1810.0000   -65.5704     5.9879     6.1430     6.4561   888.7289     0.3464    15.5147    71.7362     2.4978     0.0919  1271.7301
 1810.5000   -65.5526     6.1755     6.3215     6.5091   888.7267     0.3482    15.4611    72.7047     2.4888     0.0937  1270.1075
 1811.0000   -65.6350     6.4517     6.4640     6.6431   888.7245     0.3509    15.4323    73.4740     2.4821     0.0925  1268.4851
 1811.5000   -65.6652     6.7243     6.5809     6.7595   888.7224     0.3527    15.4085    74.3034     2.4799     0.0928  1266.8627
 1812.0000   -65.7504     6.9060     6.6510     6.8932   888.7202     0.3534    15.4012    72.6185     2.4785     0.1006  1265.2401
 1812.5000   -65.7778     7.0002     6.6727     7.0390   888.7180     0.3535    15.3974    70.5897     2.4748     0.1175  1263.6177
 1813.0000   -65.7571     7.0308     6.6787     7.0956   888.7158     0.3530    15.3990    68.4713     2.4696     0.1207  1261.9952
 1813.5000   -65.7400     6.9867     6.6847     7.1527   888.7136     0.3523    15.4499    67.8396     2.4659     0.1000  1260.3727
 1814.0000   -65.7228     6.9428     6.6548     7.2102   888.7114     0.3532    15.5401    68.4039     2.4841     0.0988  1258.2937
 1814.5000   -65.8539     6.8822     6.6506     7.2181   888.7092     0.3538    15.6273    69.7117     2.5007     0.1157  1271.0647
 1815.0000   -65.8368     6.8087     6.6575     7.1761   888.7070     0.3507    15.6663    71.2780     2.5030     0.1251  1283.7444
 1815.5000   -65.8193     6.7659     6.7096     7.1344   888.7049     0.3477    15.6392    72.5967     2.5008     0.1283  1281.8472
 1816.0000   -65.8015     6.7235     6.7620     7.1425   888.7027     0.3527    15.5871    73.6677     2.5099     0.1151  1279.9501
 1816.5000   -65.7837     6.6813     6.8149     7.1505   888.7005     0.3584    15.5896    74.3334     2.5206     0.1078  1278.0529
 1817.0000   -65.7683     6.6633     6.9158     7.1585   888.6983     0.3616    15.5921    74.6732     2.5266     0.1082  1276.1558
 1817.5000   -65.8993     6.7205     7.0182     7.1666   888.6961     0.3637    15.6096    74.5485     2.5222     0.1085  1274.2585
 1818.0000   -65.8785     6.8230     7.0746     7.1747   888.6940     0.3607    15.6276    74.3610     2.5148     0.0816  1272.3613
 1818.5000   -65.8607     6.9270     7.1287     7.1928   888.6918     0.3524    15.6447    73.9499     2.5193     0.0744  1270.4642
 1819.0000   -65.8430     7.0327     7.1351     7.2526   888.6896     0.3465    15.6474    73.7625     2.5194     0.0702  1268.5670
 1819.5000   -65.8252     7.1399     7.1475     7.3128   888.6874     0.3408    15.6496    74.0361     2.5240     0.0630  1266.6699
 1820.0000   -65.8074     7.1771     7.1976     7.3735   888.6852     0.3353    15.6434    74.5641     2.5429     0.0602  1264.7727
 1820.5000   -65.7896     7.2582     7.2029     7.4347   888.6830     0.3322    15.6405    75.3090     2.5836     0.0757  1262.8756
