~VERSION INFORMATION
 VERS.                2.0:   CWLS LOG ASCII STANDARD - VERSION 2.0
 WRAP.                 NO:   ONE LINE PER DEPTH STEP
~WELL INFORMATION
#MNEM.UNIT      DATA TYPE    INFORMATION
#----------   ------------   ------------------------------
 STRT.F          212.5000:   START DEPTH
 STOP.F         3098.0000:   STOP DEPTH
 STEP.F            0.5000:   STEP LENGTH
 NULL.          -999.2500:   NO VALUE
 COMP.    FENIX & SCISSON:   COMPANY
 WELL. FENIX NPR 77 "A" #3-33:   WELL
 FLD .                NPR:   FIELD
 LOC .      S33 T39N R78W:   LOCATION
 CNTY.            NATRONA:   COUNTY
 STAT.            WYOMING:   STATE
 CTRY. UNITED STATES OF AMERICA:   COUNTRY
 SRVC.       SCHLUMBERGER:   SERVICE COMPANY
 DATE.        07-MAY-1977:   LOGDATE
 API .     49025103700000:   API NUMBER
~CURVE INFORMATION
#MNEM.UNIT       API CODE    CURVE DESCRIPTION
#----------   ------------   ------------------------------
 DEPT.F                  :   
 SPR .MV     07 010 01 00:   SPONTANEOUS POTENTIAL
 LL8 .OHMM   11 220 08 00:   LATERALOG-8 RESISTIVITY
 ILD .OHMM   07 120 46 00:   DEEP INDUCTION RESISTIVITY
 CALD.IN     45 280 60 00:   CALIPER FROM DENSITY LOG
 GRD .GAPI   45 310 01 00:   GAMMA RAY FROM DENSITY LOG
 RHOB.G/C3   45 350 01 00:   BULK DENSITY
 CORR.G/C3   45 356 01 00:   DENSITY CORRECTION
 ILM .OHMM   07 120 44 00:   INDUCTION LOG MEDIUM RESISTIVITY
~PARAMETER INFORMATION
#MNEM.UNIT          VALUE    DESCRIPTION
#----------   ------------   ------------------------------
 EKB .F         5152.0000:   Kelly bushing
 EGL .F         5141.0000:   Ground level
 TD  .F         3097.0000:   Total depth
 DATE.        07-MAY-1977:   Date logged
 CLNT.            A2DTECH:   Client Code
 SL  . 990' FEL & 990' FSL:   Surface Location
 PD  .                 GL:   Permanent Datum
 EPD .F              5141:   Elevation Permanent Datum
 LMF .                 KB:   Log Measured From
 DMF .                 KB:   Drilling Measured From
 DAPD.F                11:   Feet Above Permanent Datum
 DD  .F              3096:   Depth driller
 DL  .F              3097:   Depth logger
 BLI .F              3091:   Bottom log interval
 TLI .F               222:   Top log interval
 CS1 .IN            8.625:   Casing size
 CBD1.      8.625" @ 200':   Casing driller 1
 CBL1.F               222:   Casing logger 1
 BS1 .IN            7.875:   Bit size
 BSD1.F              3096:   Depth drilled with bit1
 DFT .                KCL:   Type fluid in hole
 DFD .                9.2:   Density
 DFV .                 38:   Viscosity
 DFPH.                  8:   pH
 DFL .                7.6:   Fluid loss
 MSS .           FLOWLINE:   Source of sample
 RMS .OHMM           .191:   Rm
 MST .F                76:   Rm Meas. temp.
 RMF .OHMM           .185:   Rmf
 MFST.F                76:   Rmf Meas. temp.
 MFSS.               MEAS:   Source Rmf.
 RMB .OHMM           .126:   Rm. at BHT
 BHT .F               115:   BHT.
 TCS .HRS            1200:   Time Circ. stopped
 TLAB.HRS            1530:   Time logger at bottom
 MRT .F                15:   Maximum recorded temp.
 LUN .               6442:   Logging unit number
 LUL .               CSPR:   Logging unit location
 ENGI.             MARTIN:   Recorded By
 WITN.          PETTMGILL:   Witnessed by
 ORIG.      2.5" 5" PRINT:   Origin of data
 UWI .     49025103700000:   Unique Well ID
 DICO. A2D TECHNOLOGIES, INC.:   Digitizing Company
~OTHER INFORMATION
~A   DEPT      SPR        LL8        ILD       CALD         GRD      RHOB       CORR        ILM   
# ...
 1549.0000   -80.2670     8.9980     7.6210     9.1770   116.3610     2.5950     0.0800     6.8230
 1549.5000   -80.7450     8.9980     7.5260     9.2060   114.3280     2.6040     0.0940     6.8560
 1550.0000   -80.5760     8.7910     7.4530     9.2340   112.2820     2.6200     0.0860     6.8850
 1550.5000   -79.9760     8.6310     7.3790     9.2630   110.1110     2.5780     0.0730     6.7500
 1551.0000   -79.3960     8.4710     7.3050     9.2750   109.2950     2.6170     0.0680     6.6680
 1551.5000   -78.8160     8.3110     7.2310     9.2780   109.7450     2.6080     0.0740     6.5860
 1552.0000   -78.2350     8.2050     7.1580     9.2820   110.0500     2.5980     0.0900     6.5030
 1552.5000   -77.6540     8.2610     7.0840     9.2870   110.3830     2.6080     0.1060     6.4210
 1553.0000   -77.0730     8.3200     7.0100     9.2900   110.5130     2.6300     0.1140     6.3380
 1553.5000   -76.4940     8.3580     6.9490     9.2950   110.2290     2.6200     0.1020     6.2210
 1554.0000   -75.9850     8.1120     7.0250     9.2980   109.7010     2.5980     0.0980     6.3010
 1554.5000   -75.6980     7.9020     7.0540     9.3030   110.3920     2.6160     0.1280     6.4410
 1555.0000   -75.3900     7.6920     7.0840     9.3070   112.3070     2.6400     0.1510     6.5800
 1555.5000   -75.0790     7.8350     7.1140     9.3080   113.8300     2.6570     0.1760     6.6360
 1556.0000   -74.7690     8.4010     7.1430     9.3350   115.0090     2.6460     0.1570     6.6360
 1556.5000   -74.4620     8.8330     7.1730     9.3400   116.1470     2.5600     0.1180     6.6360
 1557.0000   -74.1490     8.6990     7.2020     9.2970   117.5270     2.5730     0.0870     6.6360
 1557.5000   -74.3240     8.5130     7.2320     9.2580   116.1670     2.5870     0.0660     6.6360
 1558.0000   -74.9010     8.5620     7.2610     9.2160   114.3900     2.6050     0.0740     6.6360
 1558.5000   -75.4940     8.6200     7.2780     9.1920   112.5990     2.6150     0.0980     6.6360
 1559.0000   -76.0910     8.6770     7.2770     9.1960   113.0820     2.6030     0.0760     6.6360
 1559.5000   -76.6900     8.7520     7.2770     9.2050   113.0640     2.5790     0.0590     6.6360
 1560.0000   -77.3490     8.6230     7.2770     9.2140   112.4330     2.5620     0.0480     6.6350
 1560.5000   -77.2030     8.3600     7.2770     9.2230   112.0880     2.5760     0.0570     6.6360
 1561.0000   -76.9090     8.1290     7.2770     9.2330   112.3380     2.5880     0.0810     6.5750
 1561.5000   -76.6200     8.2120     7.2770     9.2380   112.6330     2.6010     0.1090     6.6650
 1562.0000   -76.3760     8.3020     7.2770     9.2440   111.2450     2.6070     0.1040     6.6910
 1562.5000   -76.3830     8.3920     7.2770     9.2490   108.7460     2.5810     0.0680     6.7170
 1563.0000   -76.3840     8.4820     7.2770     9.2550   106.9700     2.5770     0.0750     6.7430
 1563.5000   -76.3830     8.5720     7.2760     9.2610   107.0110     2.5960     0.0810     6.7700
 1564.0000   -76.3830     8.5920     7.2710     9.2660   106.8570     2.5870     0.0730     6.7960
 1564.5000   -76.3840     8.5060     7.2650     9.2720   107.5570     2.5630     0.0600     6.8220
 1565.0000   -76.3830     8.4180     7.2590     9.2740   109.4960     2.5430     0.0490     6.8220
 1565.5000   -76.3810     8.3290     7.2530     9.2680   110.6480     2.5530     0.0600     6.7660
 1566.0000   -76.2030     8.2410     7.2480     9.2630   116.0040     2.5910     0.0840     6.6970
 1566.5000   -75.7760     8.1530     7.2420     9.2580   114.9200     2.5850     0.0780     6.6280
 1567.0000   -75.3510     8.0650     7.2360     9.2530   113.3950     2.5700     0.0620     6.5140
 1567.5000   -74.9300     7.9810     7.2310     9.2480   114.1720     2.5760     0.0510     6.4550
 1568.0000   -74.5980     8.1620     7.2250     9.2430   115.3290     2.6300     0.0690     6.5040
 1568.5000   -74.7920     8.4400     7.2190     9.2380   116.3430     2.6220     0.0980     6.5630
 1569.0000   -75.2150     8.7170     7.2130     9.2340   115.2790     2.6110     0.1060     6.6210
 1569.5000   -75.6340     8.9150     7.2100     9.2350   114.1970     2.5980     0.0920     6.6790
 1570.0000   -76.0550     8.2340     7.2110     9.2380   113.3140     2.5880     0.0810     6.6970
 1570.5000   -76.4760     7.7630     7.2120     9.2830   113.1050     2.5910     0.0720     6.7590
 1571.0000   -76.8980     8.0100     7.2190     9.3210   112.9080     2.5960     0.0760     6.7510
 1571.5000   -77.3160     8.4900     7.2260     9.3590   112.6780     2.6020     0.0820     6.7340
 1572.0000   -77.3250     8.9980     7.2330     9.4140   112.0560     2.6040     0.0900     6.7170
 1572.5000   -77.2270     8.8450     7.2400     9.4060   111.5650     2.6000     0.0850     6.7000
 1573.0000   -77.1750     8.6280     7.2470     9.3220   112.9790     2.5950     0.0730     6.6830
 1573.5000   -77.2220     8.3520     7.2540     9.2500   115.5650     2.6010     0.0710     6.6660
 1574.0000   -77.3210     8.0770     7.2610     9.1620   116.7720     2.6330     0.0860     6.6490
 1574.5000   -77.3730     7.9390     7.2680     9.1550   116.5130     2.6280     0.1020     6.6360
 1575.0000   -77.2690     8.2280     7.2760     9.1540   115.5700     2.6100     0.0960     6.6530
 1575.5000   -77.1240     8.4600     7.2270     9.1560   114.6790     2.5930     0.0840     6.6680
 1576.0000   -76.9780     8.6910     7.1450     9.1540   113.7410     2.5740     0.0710     6.6830
 1576.5000   -76.8320     8.9150     7.0630     9.1550   112.8350     2.5680     0.0700     6.6970
 1577.0000   -76.6860     8.6200     6.9800     9.1550   112.1430     2.5730     0.0730     6.6640
 1577.5000   -76.5390     8.3320     6.8980     9.1550   112.8810     2.5820     0.0800     6.6240
 1578.0000   -76.3880     8.0450     6.8150     9.1550   113.8800     2.5880     0.0860     6.5840
 1578.5000   -76.3880     7.8350     6.7330     9.1550   113.8790     2.5910     0.0920     6.5440
 1579.0000   -76.7680     7.9820     6.6500     9.1550   113.2480     2.5940     0.0940     6.5140
 1579.5000   -77.1850     8.2520     6.5750     9.1550   112.6490     2.5960     0.0870     6.5140
 1580.0000   -77.6020     8.2810     6.5750     9.1550   112.0860     2.5990     0.0840     6.5450
 1580.5000   -78.0170     8.1670     6.6390     9.1550   111.4370     2.6080     0.0880     6.6040
 1581.0000   -78.4340     8.0550     6.6660     9.1550   110.8830     2.6170     0.0930     6.6460
 1581.5000   -78.8580     8.0550     6.6930     9.1550   110.6500     2.6270     0.0980     6.6880
 1582.0000   -78.9360     8.1530     6.7190     9.1550   114.3770     2.6260     0.1040     6.7300
 1582.5000   -78.8960     8.2580     6.7460     9.1550   117.7850     2.6170     0.1060     6.7720
 1583.0000   -78.8530     8.3630     6.7730     9.1550   122.0330     2.6070     0.1000     6.8140
 1583.5000   -78.8110     8.4690     6.8000     9.1550   121.4760     2.5930     0.0940     6.8560
 1584.0000   -78.7690     8.5920     6.8220     9.1550   119.2700     2.6000     0.0930     6.8980
 1584.5000   -78.7270     8.4620     6.8850     9.1550   116.3120     2.6480     0.1050     6.9400
 1585.0000   -78.6840     8.3290     6.8140     9.1550   113.1850     2.6410     0.1070     7.0140
 1585.5000   -78.6420     8.1960     6.6340     9.1550   112.9680     2.6270     0.0980     7.0140
 1586.0000   -78.6000     8.0630     6.4530     9.1550   113.5050     2.6060     0.0850     7.0140
 1586.5000   -78.5640     7.9080     6.2780     9.1550   114.2700     2.5860     0.0680     7.0220
 1587.0000   -78.3690     7.9250     6.1700     9.1550   114.4670     2.5670     0.0510     7.0430
 1587.5000   -78.1340     7.9670     6.1930     9.1550   114.5360     2.5410     0.0350     7.0640
 1588.0000   -77.8980     7.9810     6.2380     9.1550   114.2080     2.5490     0.0320     7.0850
 1588.5000   -77.6620     7.9450     6.2840     9.1550   115.5410     2.5710     0.0470     7.1050
 1589.0000   -77.3890     7.9080     6.3300     9.1550   117.4800     2.5830     0.0610     7.1260
