~VERSION INFORMATION
 VERS.                2.0:   CWLS LOG ASCII STANDARD - VERSION 2.0
 WRAP.                 NO:   ONE LINE PER DEPTH STEP
~WELL INFORMATION
#MNEM.UNIT      DATA TYPE    INFORMATION
#----------   ------------   ------------------------------
 STRT.F          218.0000:   START DEPTH
 STOP.F         3062.0000:   STOP DEPTH
 STEP.F            0.5000:   STEP LENGTH
 NULL.          -999.2500:   NO VALUE
 COMP.    FEXIN & SCISSON:   COMPANY
 WELL. FEXIN 32 "A" #3-34:   WELL
 FLD .              N P R:   FIELD
 LOC .      S34 T39N R78W:   LOCATION
 CNTY.            NATRONA:   COUNTY
 STAT.            WYOMING:   STATE
 CTRY. UNITED STATES OF AMERICA:   COUNTRY
 SRVC.              WELEX:   SERVICE COMPANY
 DATE.        18-JUL-1977:   LOGDATE
 API .     49025103960000:   API NUMBER
~CURVE INFORMATION
#MNEM.UNIT       API CODE    CURVE DESCRIPTION
#----------   ------------   ------------------------------
 DEPT.F                  :   
 CALD.IN     45 280 60 00:   CALIPER FROM DENSITY LOG
 RHOB.G/C3   45 350 01 00:   BULK DENSITY
 GRD .GAPI   45 310 01 00:   GAMMA RAY FROM DENSITY LOG
 CORR.G/C3   45 356 01 00:   DENSITY CORRECTION
 SPR .MV     07 010 01 00:   SPONTANEOUS POTENTIAL
 SGRD.OHMM   07 220 05 00:   SHALLOW SHORT GUARD RESISTIVITY
 ILM .OHMM   07 120 44 00:   INDUCTION LOG MEDIUM RESISTIVITY
 ILD .OHMM   07 120 46 00:   DEEP INDUCTION RESISTIVITY
~PARAMETER INFORMATION
#MNEM.UNIT          VALUE    DESCRIPTION
#----------   ------------   ------------------------------
 EKB .F         5080.0000:   Kelly bushing
 EGL .F         5070.0000:   Ground level
 TD  .F         3070.0000:   Total depth
 DATE.        18-JUL-1977:   Date logged
 CLNT.            A2DTECH:   Client Code
 SL  . 900' FNL & 1650'FWL:   Surface Location
 PD  .                 GL:   Permanent Datum
 DD  .F              3070:   Depth driller
 DL  .F              3063:   Depth logger
 BLI .F              3061:   Bottom log interval
 CS1 .IN            8.625:   Casing size
 CBD1.      8.625" @ 212':   Casing driller 1
 CBL1.F               222:   Casing logger 1
 BS1 .IN            7.875:   Bit size
 DFT .           CEHM-GEL:   Type fluid in hole
 DFD .                8.8:   Density
 DFV .                 42:   Viscosity
 DFPH.                7.5:   pH
 DFL .                  8:   Fluid loss
 MSS .           FLOWLINE:   Source of sample
 RMS .OHMM            .89:   Rm
 MST .F                94:   Rm Meas. temp.
 RMF .OHMM            .54:   Rmf
 MFST.F                94:   Rmf Meas. temp.
 RMC .OHMM           1.24:   Rmc
 MCST.F                94:   Rmc Meas. temp.
 MFSS.               FANN:   Source Rmf.
 RMB .OHMM            .67:   Rm. at BHT
 BHT .F               122:   BHT.
 TCS .HRS               4:   Time Circ. stopped
 MRT .F               122:   Maximum recorded temp.
 LUN .               8611:   Logging unit number
 LUL .             CASPER:   Logging unit location
 ENGI.          C.A. DOAK:   Recorded By
 WITN.         PETTINGILL:   Witnessed by
 ORIG.           5" PRINT:   Origin of data
 UWI .     49025103960000:   Unique Well ID
 DICO. A2D TECHNOLOGIES, INC.:   Digitizing Company
 DAPD.                 12:   Feet Above Permanent Datum
 BSD1.F              3950:   Depth drilled with bit1
 MCSS.                KIT:   Source Rmc.
 EPD .F              5070:   Elevation Permanent Datum
 LMF .                 KB:   Log Measured From
 DMF .                 KB:   Drilling Measured From
 TLI .F               200:   Top log interval
~OTHER INFORMATION
~A   DEPT     CALD       RHOB        GRD       CORR        SPR       SGRD        ILM        ILD   
# ...
 1878.5000     8.1990     2.4730   115.4980     0.0040   -66.9970    47.5360    34.8790    29.4050
 1879.0000     8.1990     2.4690   115.0120     0.0040   -66.9440    47.5360    34.5040    29.4200
 1879.5000     8.1990     2.4640   116.9760     0.0040   -66.8910    47.3680    34.2920    29.4350
 1880.0000     8.1990     2.4590   118.4620     0.0040   -66.8390    46.7220    34.0800    29.4490
 1880.5000     8.1990     2.4630   119.9670     0.0040   -66.7860    44.9910    33.8680    29.4640
 1881.0000     8.1990     2.4720   121.4580     0.0040   -66.7330    45.9390    33.7000    29.4790
 1881.5000     8.1990     2.4810   122.8110     0.0040   -66.6800    47.1080    33.8530    29.4930
 1882.0000     8.1990     2.4890   121.2280     0.0040   -66.6270    48.5280    33.9800    29.5080
 1882.5000     8.1990     2.4960   119.1180     0.0110   -66.5750    47.2520    34.1070    29.5220
 1883.0000     8.1990     2.4940   118.3480     0.0140   -66.5220    46.5650    34.2340    29.5360
 1883.5000     8.1990     2.5020   120.0880     0.0180   -66.4690    46.8980    34.3620    29.5520
 1884.0000     8.1990     2.5120   121.8030     0.0220   -66.4160    47.8060    34.4890    29.5560
 1884.5000     8.1990     2.5150   123.2380     0.0250   -66.3640    48.7140    34.6160    30.0530
 1885.0000     8.2000     2.5180   122.4280     0.0290   -66.3110    49.6220    34.7430    30.6940
 1885.5000     8.2010     2.5210   121.3180     0.0280   -66.2580    50.2260    34.8790    31.3340
 1886.0000     8.2020     2.5150   120.1980     0.0250   -66.2050    49.6340    34.9400    31.8950
 1886.5000     8.2030     2.5090   119.0990     0.0230   -66.1520    49.2000    35.0060    31.8540
 1887.0000     8.2040     2.5040   118.1170     0.0200   -66.1000    49.7240    35.0710    31.8110
 1887.5000     8.2060     2.5070   118.7570     0.0180   -66.0470    50.4590    35.1370    31.7670
 1888.0000     8.2070     2.5100   119.8500     0.0200   -65.9940    51.1940    35.2020    31.7230
 1888.5000     8.2080     2.5120   120.9540     0.0220   -65.9410    50.3400    35.2680    31.6800
 1889.0000     8.2090     2.5070   122.0120     0.0240   -65.8880    49.2920    35.3340    31.6360
 1889.5000     8.2100     2.5020   120.0950     0.0210   -65.8420    48.5280    35.3990    31.5920
 1890.0000     8.2110     2.4970   117.9630     0.0190   -65.8420    51.3180    35.4650    31.5490
 1890.5000     8.2120     2.4910   117.3470     0.0160   -65.8540    51.6280    35.5300    31.5050
 1891.0000     8.2130     2.4860   118.6340     0.0140   -65.9020    51.2770    35.6060    31.4610
 1891.5000     8.2150     2.4870   119.8710     0.0120   -65.9490    50.9980    35.5160    31.4180
 1892.0000     8.2160     2.4930   121.1130     0.0110   -65.9960    50.7190    35.3750    31.3740
 1892.5000     8.2170     2.4980   121.4310     0.0140   -66.0370    50.4390    35.2340    31.3300
 1893.0000     8.2180     2.5030   119.4250     0.0170   -65.9920    50.1600    35.0930    31.2870
 1893.5000     8.2190     2.5030   118.9190     0.0200   -65.9460    49.8820    34.9520    31.2430
 1894.0000     8.2180     2.4990   120.0660     0.0190   -65.9000    46.8440    34.8110    30.7590
 1894.5000     8.2180     2.4950   121.6150     0.0190   -65.8540    43.8180    34.6400    30.2770
 1895.0000     8.2170     2.4980   123.1930     0.0190   -65.8080    43.1710    35.2060    29.9800
 1895.5000     8.2170     2.5040   124.5330     0.0180   -65.7620    50.7740    35.9260    30.1870
 1896.0000     8.2160     2.5080   122.8230     0.0180   -65.7170    52.7040    36.6460    30.8230
 1896.5000     8.2150     2.5090   120.5660     0.0170   -65.6710    50.8680    37.3660    31.2430
 1897.0000     8.2150     2.5050   118.1670     0.0170   -65.6250    48.8630    37.3820    31.3310
 1897.5000     8.2140     2.5000   117.7500     0.0170   -65.5790    48.5280    37.3990    31.4230
 1898.0000     8.2140     2.4950   117.9070     0.0160   -65.5340    50.4190    37.4150    31.5160
 1898.5000     8.2130     2.4900   119.2930     0.0160   -65.4880    51.6280    37.4320    31.6080
 1899.0000     8.2130     2.4850   120.6930     0.0160   -65.4420    50.2260    37.4480    31.7000
 1899.5000     8.2120     2.4810   122.0910     0.0160   -65.3960    52.4610    37.4650    31.7920
 1900.0000     8.2120     2.4840   123.5230     0.0160   -65.3500    53.4350    37.4810    31.8840
 1900.5000     8.2110     2.4890   125.0290     0.0160   -65.3050    53.4760    37.4970    31.9760
 1901.0000     8.2100     2.4940   123.5660     0.0180   -65.2590    53.5140    37.5140    32.0690
 1901.5000     8.2100     2.4990   121.6850     0.0200   -65.2130    53.5510    37.5300    32.1610
 1902.0000     8.2090     2.5040   119.8010     0.0220   -65.1670    53.5890    37.5470    32.2530
 1902.5000     8.2090     2.5090   118.9660     0.0240   -65.1210    53.6260    37.5630    32.3370
 1903.0000     8.2080     2.5140   119.6380     0.0270   -65.0760    53.6640    37.5800    32.3370
 1903.5000     8.2080     2.5190   122.0260     0.0300   -65.0300    53.7010    37.6130    32.2520
 1904.0000     8.2070     2.5240   124.3850     0.0330   -64.9840    53.7390    37.6000    32.1860
 1904.5000     8.2060     2.5260   123.9650     0.0360   -64.9380    53.7770    37.1150    32.1200
 1905.0000     8.2060     2.5220   122.8510     0.0370   -64.8920    53.8040    37.1610    32.0540
 1905.5000     8.2050     2.5190   121.7100     0.0360   -64.8470    51.7240    37.2220    31.9880
 1906.0000     8.2050     2.5150   120.5750     0.0350   -64.8010    49.5400    37.2830    31.9220
 1906.5000     8.2040     2.5120   120.5980     0.0340   -64.7550    49.2000    37.3440    31.8560
 1907.0000     8.2040     2.5080   123.1070     0.0290   -64.7090    51.1240    37.4050    31.7900
 1907.5000     8.2030     2.5050   125.6050     0.0250   -64.6630    52.6330    37.4660    31.7240
 1908.0000     8.2020     2.5020   127.9640     0.0200   -64.6180    53.8040    37.5270    31.6760
 1908.5000     8.2020     2.4980   128.0040     0.0160   -64.5720    53.8040    37.5880    31.7130
 1909.0000     8.2010     2.4940   125.9570     0.0120   -64.5260    53.8040    37.6210    31.7430
 1909.5000     8.2010     2.4970   123.9690     0.0140   -64.4810    53.8040    37.8970    31.7730
 1910.0000     8.2000     2.5040   121.9790     0.0150   -64.4710    48.5280    37.9310    31.8030
 1910.5000     8.2000     2.5090   119.9110     0.0170   -64.5050    51.1140    37.9650    31.8330
 1911.0000     8.1990     2.5090   119.2780     0.0180   -64.5380    54.5490    38.0000    31.8620
 1911.5000     8.1980     2.5090   121.7140     0.0200   -64.5710    54.4960    38.0340    31.8920
 1912.0000     8.1980     2.5080   125.1140     0.0220   -64.6050    54.4340    38.0690    31.9220
 1912.5000     8.1970     2.5160   125.8090     0.0230   -64.6380    54.3710    38.1030    31.9510
 1913.0000     8.1960     2.5260   125.0740     0.0250   -64.6720    54.3090    38.1420    31.9810
 1913.5000     8.1960     2.5230   124.3240     0.0270   -64.7050    54.2470    37.8710    32.0110
 1914.0000     8.1950     2.5170   123.5770     0.0280   -64.7390    54.1850    37.5500    32.0400
 1914.5000     8.1940     2.5110   122.8310     0.0260   -64.7720    52.3460    37.2290    32.0700
 1915.0000     8.1940     2.5050   122.0850     0.0230   -64.8060    50.1780    36.9080    32.1000
 1915.5000     8.1930     2.5070   121.3450     0.0200   -64.8390    47.8650    36.6000    32.1300
 1916.0000     8.1920     2.5110   120.6140     0.0180   -64.8730    50.5750    36.9330    32.1590
 1916.5000     8.1920     2.5160   120.0280     0.0190   -64.9060    53.4350    37.2540    32.1890
 1917.0000     8.1910     2.5210   120.2050     0.0200   -64.9400    53.4180    37.5740    32.2190
 1917.5000     8.1900     2.5250   121.3530     0.0210   -64.9730    53.3810    37.8950    32.2480
 1918.0000     8.1890     2.5300   122.6220     0.0190   -65.0070    53.3440    38.1420    32.2780
 1918.5000     8.1890     2.5240   123.9030     0.0140   -65.0400    53.3070    37.8240    32.3080
