~VERSION INFORMATION
 VERS.                2.0:   CWLS LOG ASCII STANDARD - VERSION 2.0
 WRAP.                 NO:   ONE LINE PER DEPTH STEP
~WELL INFORMATION
#MNEM.UNIT      DATA TYPE    INFORMATION
#----------   ------------   ------------------------------
 STRT.F          590.0000:   START DEPTH
 STOP.F         3428.0000:   STOP DEPTH
 STEP.F            0.5000:   STEP LENGTH
 NULL.          -999.2500:   NO VALUE
 COMP.    FENIX & SCISSON:   COMPANY
 WELL. FENIX NPR 3 "AX" #25-27:   WELL
 FLD .                NPR:   FIELD
 LOC .      S27 T39N R78W:   LOCATION
 CNTY.            NATRONA:   COUNTY
 STAT.            WYOMING:   STATE
 CTRY. UNITED STATES OF AMERICA:   COUNTRY
 SRVC.       SCHLUMBERGER:   SERVICE COMPANY
 DATE.        13-AUG-1981:   LOGDATE
 API .     49025108780000:   API NUMBER
~CURVE INFORMATION
#MNEM.UNIT       API CODE    CURVE DESCRIPTION
#----------   ------------   ------------------------------
 DEPT.F                  :   
 CALD.IN     45 280 60 00:   CALIPER FROM DENSITY LOG
 GRD .GAPI   45 310 01 00:   GAMMA RAY FROM DENSITY LOG
 CORR.G/C3   45 356 01 00:   DENSITY CORRECTION
 RHOB.G/C3   45 350 01 00:   BULK DENSITY
 NPHI.DEC    42 890 03 00:   NEUTRON POROSITY SANDSTONE
 TENR.LBS    07 635 01 00:   TENSION
 SPR .MV     07 010 01 00:   SPONTANEOUS POTENTIAL
 ILD .OHMM   07 120 46 00:   INDUCTION LOG DEEP RESISTIVITY
 ILM .OHMM   07 120 44 00:   INDUCTION LOG MEDIUM RESISTIVITY
 SFL .OHMM   07 220 01 00:   SHALLOW FOCUSED LOG RESISTIVITY
 TEND.LBS    45 635 01 00:   TENSION FROM DENSITY LOG
~PARAMETER INFORMATION
#MNEM.UNIT          VALUE    DESCRIPTION
#----------   ------------   ------------------------------
 EKB .F         5057.0000:   Kelly bushing
 EGL .F         5047.0000:   Ground level
 EDF .F            0.0000:   Drilling floor
 TD  .F         3415.0000:   Total depth
 DATE.        13-AUG-1981:   Date logged
 CLNT.            A2DTECH:   Client Code
 SL  . 2100' FSL & 1050' FWL:   Surface Location
 PD  .                 GL:   Permanent Datum
 EPD .F              5047:   Elevation Permanent Datum
 LMF .                 KB:   Log Measured From
 DMF .                 KB:   Drilling Measured From
 DAPD.F                10:   Feet Above Permanent Datum
 DD  .F              3400:   Depth driller
 DL  .F              3415:   Depth logger
 BLI .F              3409:   Bottom log interval
 TLI .F               603:   Top log interval
 CS1 .IN            9.625:   Casing size
 CBD1.      9.625" @ 607':   Casing driller 1
 CBL1.F               603:   Casing logger 1
 BS1 .IN            7.875:   Bit size
 BSD1.F              3400:   Depth drilled with bit1
 DFT .                FGM:   Type fluid in hole
 DFD .                8.7:   Density
 DFV .                 36:   Viscosity
 DFPH.                  9:   pH
 DFL .                 13:   Fluid loss
 MSS .           MUD/TANK:   Source of sample
 RMS .OHMM           1.69:   Rm
 MST .F                75:   Rm Meas. temp.
 RMF .OHMM           1.34:   Rmf
 MFST.F                75:   Rmf Meas. temp.
 MFSS.               MEAS:   Source Rmf.
 RMB .OHMM           1.09:   Rm. at BHT
 BHT .F               120:   BHT.
 TCS .HRS            2145:   Time Circ. stopped
 TLAB.HRS            0200:   Time logger at bottom
 MRT .F               120:   Maximum recorded temp.
 LUN .               8039:   Logging unit number
 LUL .               CSPR:   Logging unit location
 ENGI.            PURPICH:   Recorded By
 WITN.              FIVAS:   Witnessed by
 ORIG.           5" PRINT:   Origin of data
 UWI .     49025108780000:   Unique Well ID
 DICO. A2D TECHNOLOGIES, INC.:   Digitizing Company
~OTHER INFORMATION
~A   DEPT     CALD         GRD      CORR       RHOB         NPHI     TENR        SPR        ILD        ILM        SFL       TEND   
# ...
 2999.5000     8.1970   137.0570     0.0190     2.5170     0.2630  1063.4230   -66.0180     6.0490     5.7080     7.6020  1089.1050
 3000.0000     8.1970   138.8180     0.0110     2.5120     0.2620  1063.8020   -65.8990     6.0490     5.7270     7.4120  1090.4360
 3000.5000     8.1970   137.7020     0.0060     2.5080     0.2620  1064.1810   -65.7810     6.0710     5.7340     7.2230  1091.7670
 3001.0000     8.1970   136.4120     0.0100     2.5230     0.2590  1064.5610   -66.0190     6.1420     5.8010     7.1300  1093.0980
 3001.5000     8.1970   135.2160     0.0120     2.5370     0.2530  1064.9399   -66.3020     6.2130     5.8680     7.5320  1094.4290
 3002.0000     8.1970   137.6300     0.0070     2.5370     0.2460  1065.3190   -66.2710     6.2830     5.9350     7.8400  1095.7610
 3002.5000     8.1970   140.9810     0.0020     2.5300     0.2390  1065.6980   -66.1410     6.3320     5.9860     8.1480  1097.0920
 3003.0000     8.1970   144.0980     0.0000     2.5240     0.2370  1066.0770   -66.0130     6.1190     5.8190     8.4800  1098.4230
 3003.5000     8.1970   143.1400     0.0050     2.5280     0.2510  1066.4570   -65.6410     5.9810     5.6880     8.1960  1099.7540
 3004.0000     8.1970   141.3740     0.0100     2.5320     0.2640  1066.8361   -65.1920     5.8430     5.5570     7.7650  1101.0850
 3004.5000     8.1950   141.1200     0.0150     2.5330     0.2770  1067.2150   -64.9800     5.7040     5.4270     7.3340  1102.4160
 3005.0000     8.2140   143.6860     0.0200     2.5320     0.2830  1067.5940   -64.7410     5.5660     5.2960     6.9030  1103.7469
 3005.5000     8.2090   146.1730     0.0240     2.5350     0.2850  1067.9740   -64.4920     5.4280     5.1650     6.4720  1105.0780
 3006.0000     8.2050   148.3940     0.0290     2.5330     0.2870  1068.3530   -64.3330     5.2900     5.0340     6.1050  1103.7200
 3006.5000     8.2000   148.4030     0.0270     2.5270     0.2890  1068.7321   -64.2420     5.2270     4.9390     6.2060  1096.1510
 3007.0000     8.1950   146.7370     0.0220     2.5150     0.2920  1069.1110   -64.1510     5.2270     4.8710     6.2740  1095.9550
 3007.5000     8.1910   144.8640     0.0200     2.5070     0.2940  1069.4900   -64.0620     5.2270     4.8150     6.2640  1095.7590
 3008.0000     8.1860   142.9020     0.0190     2.5140     0.2950  1069.8700   -64.0150     5.2270     4.9490     6.2350  1095.5620
 3008.5000     8.1810   141.3550     0.0190     2.5280     0.2950  1070.2490   -64.1900     5.4650     5.1080     6.1610  1095.3660
 3009.0000     8.1760   139.7440     0.0270     2.5420     0.2860  1070.6281   -64.4850     5.7770     5.3900     6.1050  1095.1689
 3009.5000     8.1720   138.1230     0.0300     2.5540     0.2780  1071.0070   -64.7860     6.0880     5.6720     6.4340  1094.9730
 3010.0000     8.1670   136.4960     0.0280     2.5490     0.2700  1071.3860   -65.1690     6.3990     5.9540     7.3120  1094.7770
 3010.5000     8.1620   134.8730     0.0230     2.5440     0.2610  1071.7660   -65.5510     6.7100     6.2360     8.1900  1094.5800
 3011.0000     8.1580   132.7310     0.0260     2.5510     0.2530  1072.1450   -65.8570     7.0210     6.5180     9.0680  1094.3840
 3011.5000     8.1530   130.0090     0.0290     2.5580     0.2440  1072.5240   -66.0560     7.3320     6.8000     9.9470  1094.1870
 3012.0000     8.1480   128.5120     0.0310     2.5590     0.2340  1072.9030   -66.2250     7.6440     7.1950    10.9490  1093.9910
 3012.5000     8.1430   127.9880     0.0290     2.5640     0.2250  1073.2830   -66.3510     8.0280     7.1570    10.8250  1093.7950
 3013.0000     8.1390   129.2420     0.0360     2.5780     0.2230  1073.6620   -66.4740     7.9690     7.0930    10.4880  1093.5980
 3013.5000     8.1340   130.4370     0.0430     2.5900     0.2250  1074.0410   -66.5190     7.8220     7.0300     9.8330  1093.4020
 3014.0000     8.1290   131.6400     0.0390     2.5940     0.2340  1074.4200   -66.2970     7.6760     6.9660     9.1780  1093.2050
 3014.5000     8.1240   132.9930     0.0290     2.5620     0.2430  1074.7990   -66.0820     7.5290     6.9030     8.5230  1093.0090
 3015.0000     8.1200   134.8960     0.0160     2.5420     0.2470  1075.1790   -65.6880     7.3830     6.8390     8.4030  1092.8120
 3015.5000     8.1170   136.7280     0.0080     2.5280     0.2500  1074.7080   -65.0900     7.2360     6.7750     8.7150  1092.6160
 3016.0000     8.1170   137.5780     0.0040     2.5290     0.2510  1073.7190   -64.7520     7.0900     6.7120     8.7150  1092.4200
 3016.5000     8.1170   135.6460     0.0100     2.5360     0.2510  1072.7310   -64.6850     7.0010     6.6270     8.5820  1092.2230
 3017.0000     8.1170   133.8190     0.0210     2.5450     0.2480  1071.7419   -64.6160     7.0010     6.6270     8.3700  1092.0270
 3017.5000     8.1170   134.4330     0.0300     2.5500     0.2460  1070.7540   -64.6170     7.0010     6.5500     8.1010  1091.8300
 3018.0000     8.1170   138.9550     0.0310     2.5460     0.2490  1069.7650   -64.6840     7.0010     6.5080     8.1010  1091.6340
 3018.5000     8.1170   142.3520     0.0250     2.5380     0.2530  1068.7770   -64.7510     7.0010     6.5700     8.4920  1091.4380
 3019.0000     8.1170   140.4630     0.0220     2.5380     0.2490  1067.7889   -64.8880     7.0650     6.6270     8.8050  1091.2410
 3019.5000     8.1170   137.6950     0.0260     2.5620     0.2420  1066.8000   -65.0880     7.0650     6.6880     9.1220  1091.0450
 3020.0000     8.1170   134.8320     0.0310     2.5730     0.2400  1065.8120   -65.3720     7.2530     6.7990     9.0830  1090.8480
 3020.5000     8.1180   133.4580     0.0270     2.5660     0.2390  1064.8230   -65.7270     7.4410     6.9060     9.0370  1090.6520
 3021.0000     8.1350   132.5570     0.0180     2.5510     0.2380  1063.8350   -66.0790     7.6290     7.0120     8.9910  1090.4561
 3021.5000     8.1520   131.7190     0.0160     2.5440     0.2370  1062.8459   -66.5430     7.8170     7.1190     8.9450  1090.2590
 3022.0000     8.1520   130.7860     0.0220     2.5580     0.2400  1061.8580   -67.0710     8.0050     7.2260     8.9000  1090.0630
 3022.5000     8.1340   126.1170     0.0310     2.5670     0.2420  1060.8690   -67.9600     8.1010     7.5670     8.8760  1089.8660
 3023.0000     8.1150   114.1210     0.0410     2.5530     0.2450  1059.8810   -70.3530     9.3560     8.6620     9.0390  1089.6700
 3023.5000     8.0970    99.8250     0.0410     2.5190     0.2450  1058.8920   -72.8600    10.5170     9.7580    10.8500  1089.4730
 3024.0000     8.0790    86.5690     0.0390     2.4830     0.2360  1057.9041   -77.3670    11.6790    10.8540    16.4420  1089.2770
 3024.5000     8.0610    76.4840     0.0390     2.4530     0.2290  1056.9160   -80.6720    12.8400    11.9500    22.8480  1089.0811
 3025.0000     8.0450    73.2510     0.0420     2.4450     0.2230  1055.9270   -83.9740    14.0020    13.0460    29.2540  1088.8840
 3025.5000     8.0180    74.3040     0.0400     2.4440     0.2230  1054.9390   -86.4040    15.1630    14.1420    34.0220  1088.6880
 3026.0000     8.0190    75.4120     0.0340     2.4330     0.2310  1053.9500   -88.7770    16.3250    15.2380    36.2000  1088.4910
 3026.5000     8.0190    72.8750     0.0250     2.4150     0.2360  1052.9620   -89.7630    16.6630    15.8050    33.7130  1088.2950
 3027.0000     8.0200    69.9470     0.0240     2.4060     0.2340  1051.9730   -90.4330    16.6630    16.2130    31.7640  1088.0990
 3027.5000     8.0210    67.0160     0.0280     2.4070     0.2290  1050.9850   -91.0840    16.6630    15.9850    29.9220  1087.9020
 3028.0000     8.0220    66.2360     0.0380     2.4150     0.2240  1049.9960   -90.7220    16.2990    15.5170    27.9360  1087.7061
 3028.5000     8.0220    68.0320     0.0460     2.4180     0.2220  1049.0081   -90.1880    15.6030    14.7200    25.9510  1087.5090
 3029.0000     8.0230    71.3280     0.0490     2.4100     0.2300  1048.0190   -89.5450    14.9070    13.9220    24.0060  1087.3130
 3029.5000     8.0240    74.5600     0.0460     2.3990     0.2360  1047.0310   -88.5370    14.2120    13.1250    22.7870  1087.1169
