~VERSION INFORMATION
 VERS.                2.0:   CWLS LOG ASCII STANDARD - VERSION 2.0
 WRAP.                 NO:   ONE LINE PER DEPTH STEP
~WELL INFORMATION
#MNEM.UNIT      DATA TYPE    INFORMATION
#----------   ------------   ------------------------------
 STRT.F           32.0000:   START DEPTH
 STOP.F         2998.0000:   STOP DEPTH
 STEP.F            0.5000:   STEP LENGTH
 NULL.          -999.2500:   NO VALUE
 COMP.   TESORO PETROLEUM:   COMPANY
 WELL. TESORO N.P.R. #3-34:   WELL
 FLD .        TEAPOT DOME:   FIELD
 LOC .      S34 T39N R78W:   LOCATION
 CNTY.            NATRONA:   COUNTY
 STAT.            WYOMING:   STATE
 CTRY. UNITED STATES OF AMERICA:   COUNTRY
 SRVC.       SCHLUMBERGER:   SERVICE COMPANY
 DATE.        08-AUG-1969:   LOGDATE
 API .     49025100250000:   API NUMBER
~CURVE INFORMATION
#MNEM.UNIT       API CODE    CURVE DESCRIPTION
#----------   ------------   ------------------------------
 DEPT.F                  :   
 SPR .MV     05 010 01 00:   SPONTANEOUS POTENTIAL FROM RES.
 ASN .OHMM   05 040 16 00:   AMPLIFIED SHORT NORMAL 16"
 ILD .OHMM   05 120 46 00:   INDUCTION LOG DEEP
 CORR.G/C3   45 356 01 00:   DENSITY CORRECTION
 GRD .GAPI   45 310 01 00:   GAMMA RAY FROM DENSITY LOG
 CALD.IN     45 280 60 00:   CALIPER FROM DENSITY LOG
 RHOB.G/C3   45 350 01 00:   BULK DENSITY
~PARAMETER INFORMATION
#MNEM.UNIT          VALUE    DESCRIPTION
#----------   ------------   ------------------------------
 EKB .F         5185.0000:   Kelly bushing
 EGL .F         5172.0000:   Ground level
 TD  .F         2999.0000:   Total depth
 CLNT.            A2DTECH:   Client Code
 SL  . 465' FWL & 1075' FSL':   Surface Location
 DATE.        08-AUG-1969:   Date Logged [DD-MMM-YYYY]
 DD  .F              2998:   Depth driller
 DL  .F              2999:   Depth logger
 BLI .F              2998:   Bottom log interval
 TLI .F               615:   Top log interval
 CS1 .              10.75:   Casing size
 CBD1.      10.75" @ 615':   Casing driller 1
 CBL1.IN              615:   Casing logger 1
 BS1 .IN                9:   Bit size
 BSD1.F              2998:   Depth drilled with bit1
 DFT .      FRESH GEL MUD:   Type fluid in hole
 DFD .                9.6:   Density
 DFV .                 55:   Viscosity
 DFPH.                9.5:   pH
 DFL .                7.0:   Fluid loss
 MSS .           FLOWLINE:   Source of sample
 RMS .OHMM           0.75:   Rm
 MST .F                87:   Rm Meas. temp.
 RMF .OHMM           1.09:   Rmf
 MFST.F                87:   Rmf Meas. temp.
 MFSS.               MEAS:   Source Rmf.
 RMB .OHMM           0.59:   Rm. at BHT
 BHT .F               111:   BHT.
 TCS .HRS               3:   Time Circ. stopped
 MRT .F               111:   Maximum recorded temp.
 LUN .               4507:   Logging unit number
 LUL .               CSPR:   Logging unit location
 ENGI.            ED MIXA:   Recorded By
 WITN.                MAY:   Witnessed by
 ORIG.   1" 2.5" 5" PRINT:   Origin of data
 UWI .     49025100250000:   Unique Well ID
 DICO. A2D TECHNOLOGIES, INC.:   Digitizing Company
~OTHER INFORMATION
~A   DEPT      SPR        ASN        ILD       CORR        GRD       CALD       RHOB   
# ...
 2762.0000   -26.5596    11.1521     9.5452     0.0174    95.1809     8.9358     2.5088
 2762.5000   -26.4168    11.3737     9.6197     0.0163    95.9734     8.9358     2.5074
 2763.0000   -26.4176    11.4476     9.6943     0.0212    93.3521     8.9358     2.5135
 2763.5000   -26.2747    11.5214     9.6950     0.0254    90.2971     8.9052     2.5221
 2764.0000   -26.2755    11.5214     9.6958     0.0238    87.8537     8.9052     2.4911
 2764.5000   -26.2762    11.5214     9.6965     0.0183    90.3032     8.9052     2.4931
 2765.0000   -26.2770    11.5214     9.7711     0.0162    92.1412     8.9358     2.5148
 2765.5000   -26.2777    11.5214     9.8458     0.0198    90.9210     8.9358     2.5449
 2766.0000   -26.4218    11.5214     9.9942     0.0278    91.5357     8.9358     2.5192
 2766.5000   -26.4261    11.6691    10.1426     0.0329    87.8690     8.9358     2.5234
 2767.0000   -26.5667    11.6691    10.1433     0.0340    87.2600     8.9358     2.5350
 2767.5000   -26.5675    11.5953    10.1442     0.0379    87.8751     8.9358     2.5444
 2768.0000   -26.5681    11.5953    10.1448     0.0439    89.1014     8.9052     2.5501
 2768.5000   -26.5689    11.6691    10.1455     0.0502    89.3190     8.9358     2.5315
 2769.0000   -26.5696    11.8168    10.0719     0.0527    87.8843     8.9358     2.5260
 2769.5000   -26.5703    11.8168     9.8515     0.0454    86.6636     8.9358     2.5345
 2770.0000   -26.5711    11.7430     9.7045     0.0380    89.7253     8.9358     2.5369
 2770.5000   -26.7152    11.6691     9.5576     0.0307    87.8935     8.9358     2.5286
 2771.0000   -26.7160    11.5214     9.5583     0.0233    85.4501     8.9358     2.5344
 2771.5000   -26.7167    11.4476     9.5592     0.0283    83.9959     8.9358     2.5282
 2772.0000   -26.7174    11.3737     9.5599     0.0462    87.2911     8.9052     2.5296
 2772.5000   -26.7182    11.4476     9.5606     0.0526    88.5174     8.8746     2.5473
 2773.0000   -26.8624    11.5214     9.5696     0.0585    87.9089     8.8440     2.5560
 2773.5000   -26.8630    11.6691     9.6360     0.0655    86.9340     8.8440     2.5279
 2774.0000   -26.7202    11.7430     9.6367     0.0652    89.0025     8.8440     2.5210
 2774.5000   -26.7209    11.7430     9.6374     0.0546    90.0042     8.8440     2.5457
 2775.0000   -26.7218    11.5953     9.7121     0.0374    88.1756     8.8440     2.5516
 2775.5000   -26.7224    11.5214     9.7128     0.0374    86.3464     8.9052     2.5413
 2776.0000   -26.7231    11.5953     9.7873     0.0440    85.1294     8.9358     2.5280
 2776.5000   -26.7238    11.6691     9.7880     0.0519    81.3817     8.9358     2.5280
 2777.0000   -26.7246    11.8168     9.9366     0.0589    80.3265     8.9358     2.5265
 2777.5000   -26.7254    11.8168    10.1589     0.0648    80.5963     8.9358     2.5044
 2778.0000   -26.7260    11.9645    10.3073     0.0663    80.8724     8.9358     2.5031
 2778.5000   -26.7267    12.0392    10.5303     0.0486    80.2671     8.9358     2.5088
 2779.0000   -26.7275    12.1861    10.7520     0.0417    79.3823     8.9358     2.4991
 2779.5000   -26.7281    12.3338    10.9742     0.0481    78.4444     8.8440     2.5339
 2780.0000   -26.7288    12.4077    11.1226     0.0574    77.2274     8.8135     2.5398
 2780.5000   -26.8731    12.4815    11.2757     0.0617    78.8144     8.8440     2.5236
 2781.0000   -27.0173    12.5554    11.4196     0.0576    80.9375     8.9052     2.5280
 2781.5000   -27.3049    12.6292    11.5680     0.0526    82.7725     8.9358     2.5278
 2782.0000   -27.4492    12.6292    11.5687     0.0477    79.6662     8.9664     2.4924
 2782.5000   -27.7368    12.6292    11.5694     0.0434    75.1128     8.9664     2.4943
 2783.0000   -27.7375    12.5554    11.4964     0.0495    73.2905     8.9664     2.4985
 2783.5000   -27.7382    12.5554    11.4233     0.0571    73.5985     8.9052     2.4853
 2784.0000   -27.8825    12.4815    11.3501     0.0641    75.4334     8.8440     2.4926
 2784.5000   -27.8832    12.4077    11.2771     0.0697    76.6842     8.7217     2.4761
 2785.0000   -27.8838    12.3338    11.2778     0.0738    71.1722     8.5994     2.4572
 2785.5000   -27.8845    12.1861    11.3523     0.0586    70.8593     8.7217     2.4828
 2786.0000   -27.7417    12.1123    11.5007     0.0632    71.1518     8.8135     2.4926
 2786.5000   -27.5989    12.1123    11.7970     0.0588    73.5984     8.8746     2.4788
 2787.0000   -27.4561    12.1123    11.9454     0.0453    75.4333     8.9358     2.4735
 2787.5000   -27.3135    12.4815    11.9461     0.0300    78.1598     8.9664     2.5025
 2788.0000   -27.3143    13.0742    12.0207     0.0312    78.8829     8.9358     2.5167
 2788.5000   -27.1713    13.7371    12.0215     0.0502    75.2222     8.9664     2.5057
 2789.0000   -27.1722    14.0325    12.0222     0.0654    73.6679     8.9664     2.4476
 2789.5000   -27.1729    14.1064    11.9489     0.0759    69.1246     8.8746     2.4192
 2790.0000   -27.1737    14.1064    11.8759     0.0823    67.2987     8.6606     2.4245
 2790.5000   -27.1744    14.0325    11.7289     0.0859    65.9969     8.5076     2.4439
 2791.0000   -27.1750    13.8848    11.5820     0.0835    66.8703     8.4465     2.4679
 2791.5000   -27.1759    13.7371    11.3612     0.0773    68.9617     8.6911     2.5115
 2792.0000   -27.1766    13.6545    11.2791     0.0680    70.5406     8.8135     2.5253
 2792.5000   -27.1772    13.4417    11.0671     0.0590    70.9021     8.8746     2.5103
 2793.0000   -27.1779    13.2939    10.9203     0.0555    71.1520     8.9664     2.4602
 2793.5000   -27.0351    13.2201    10.7733     0.0738    71.5193     8.9664     2.4533
 2794.0000   -26.8923    13.0724    10.5526     0.0698    69.4475     8.9358     2.4735
 2794.5000   -26.8932    12.8508    10.3317     0.0600    68.2303     8.9052     2.4631
 2795.0000   -26.7504    12.4815    10.1845     0.0477    66.1668     8.9358     2.4609
 2795.5000   -26.7512    12.0384     9.8900     0.0388    63.9614     8.9334     2.4985
 2796.0000   -26.6082    11.5214     9.6693     0.0494    66.1772     8.9305     2.5047
 2796.5000   -26.4654    11.2260     9.4484     0.0588    71.7467     8.9277     2.4853
 2797.0000   -26.4663    10.5613     9.2275     0.0699    75.6183     8.9248     2.5000
 2797.5000   -26.4671     9.8966     9.0066     0.0791    77.6916     8.9219     2.5147
 2798.0000   -26.6113     9.4387     8.7121     0.0852    76.8849     8.9191     2.5044
 2798.5000   -26.8989     9.0842     8.6388     0.0920    76.4618     8.9162     2.4794
 2799.0000   -27.3300     8.8922     8.4917     0.0908    77.2684     8.9133     2.4395
 2799.5000   -27.4743     8.7720     8.4187     0.0864    78.2910     8.9105     2.4425
 2800.0000   -27.1879     8.6558     8.3456     0.0770    77.4722     8.9076     2.4690
 2800.5000   -27.3322     8.5820     8.1987     0.0683    76.0354     8.9052     2.4794
 2801.0000   -27.4764     8.5081     8.1256     0.0664    73.9814     8.9056     2.4572
 2801.5000   -27.4770     8.4325     8.0093     0.0711    70.3277     8.9059     2.4838
 2802.0000   -27.6213     8.3604     7.8256     0.0902    73.2024     8.9063     2.4985
 2802.5000   -27.4784     8.2633     7.6772     0.0962    75.2146     8.9066     2.4248
 2803.0000   -27.4792     8.1671     7.6026     0.0948    75.2110     8.9069     2.4395
 2803.5000   -27.3364     8.0660     7.4542     0.0865    75.6584     8.9073     2.4676
 2804.0000   -27.1936     8.0366     7.3795     0.0753    80.1720     8.9076     2.4572
 2804.5000   -26.9074     8.0072     7.2311     0.0579    82.5419     8.9079     2.4617
 2805.0000   -26.7647     8.0074     7.0827     0.0539    83.1504     8.9082     2.4779
 2805.5000   -26.6219     7.9927     6.8570     0.0593    82.2976     8.9086     2.4941
 2806.0000   -26.3358     7.9191     6.6380     0.0715    81.9211     8.9089     2.5103
 2806.5000   -26.1928     7.6238     6.4896     0.0850    84.8510     8.9092     2.5280
 2807.0000   -25.9068     7.2570     6.3412     0.1048    89.2646     8.9095     2.5369
