~VERSION INFORMATION
 VERS.                2.0:   CWLS LOG ASCII STANDARD - VERSION 2.0
 WRAP.                 NO:   ONE LINE PER DEPTH STEP
~WELL INFORMATION
#MNEM.UNIT      DATA TYPE    INFORMATION
#----------   ------------   ------------------------------
 STRT.F          740.0000:   START DEPTH
 STOP.F         2749.0000:   STOP DEPTH
 STEP.F            0.5000:   STEP LENGTH
 NULL.          -999.2500:   NO VALUE
 COMP.    FENIX & SCISSON:   COMPANY
 WELL.   FENIX SHX #11-10:   WELL
 FLD .                NPR:   FIELD
 LOC .      S10 T38N R78W:   LOCATION
 CNTY.            NATRONA:   COUNTY
 STAT.            WYOMING:   STATE
 CTRY. UNITED STATES OF AMERICA:   COUNTRY
 SRVC.              WELEX:   SERVICE COMPANY
 DATE.        09-APR-1980:   LOGDATE
 API .     49025108060000:   API NUMBER
~CURVE INFORMATION
#MNEM.UNIT       API CODE    CURVE DESCRIPTION
#----------   ------------   ------------------------------
 DEPT.F                  :   
 GRD .GAPI   45 310 01 00:   GAMMA RAY FROM DENSITY LOG
 CALD.IN     45 280 60 00:   CALIPER FROM DENSITY LOG
 TEND.LBS    45 635 01 00:   TENSION FROM DENSITY LOG
 RHOB.G/C3   45 350 01 00:   BULK DENSITY
 CORR.G/C3   45 356 01 00:   DENSITY CORRECTION
~PARAMETER INFORMATION
#MNEM.UNIT          VALUE    DESCRIPTION
#----------   ------------   ------------------------------
 EKB .F         5287.0000:   Kelly bushing
 EGL .F         5277.0000:   Ground level
 EDF .F            0.0000:   Drilling floor
 EPD .F         5277.0000:   Permanent datum
 TD  .F         2762.0000:   Total depth
 DATE.        09-APR-1980:   Date logged
 CLNT.            A2DTECH:   Client Code
 SL  . 474' FNL & 644' FWL:   Surface Location
 PD  .                 GL:   Permanent Datum
 LMF .                 KB:   Log Measured From
 DMF .                 KB:   Drilling Measured From
 DAPD.F                10:   Feet Above Permanent Datum
 DD  .F              2762:   Depth driller
 DL  .F            2751.5:   Depth logger
 BLI .F              2750:   Bottom log interval
 TLI .F               750:   Top log interval
 CS1 .IN            9.625:   Casing size
 CBD1.      9.625" @ 760':   Casing driller 1
 BS1 .IN             8.75:   Bit size
 BSD1.F              2762:   Depth drilled with bit1
 DFT .                AIR:   Type fluid in hole
 TCS .HRS               3:   Time Circ. stopped
 MRT .F               118:   Maximum recorded temp.
 ENGI.            BENTSEN:   Recorded By
 WITN.           DINSMORE:   Witnessed by
 ORIG.         2.5" PRINT:   Origin of data
 UWI .     49025108060000:   Unique Well ID
 DICO. A2D TECHNOLOGIES, INC.:   Digitizing Company
~OTHER INFORMATION
~A   DEPT       GRD      CALD       TEND       RHOB       CORR   
# ...
 1289.0000    68.6160     8.8370  1147.9250     2.5290     0.0600
 1289.5000    67.9130     8.8370  1147.8230     2.5370     0.0700
 1290.0000    67.7580     8.8370  1147.7209     2.5480     0.0800
 1290.5000    68.5340     8.8370  1147.6180     2.5570     0.0880
 1291.0000    69.2170     8.8370  1147.5160     2.5530     0.0840
 1291.5000    69.9220     8.8370  1147.4139     2.5490     0.0820
 1292.0000    70.6990     8.8370  1147.3120     2.5610     0.0910
 1292.5000    71.1740     8.8370  1147.2090     2.5690     0.0980
 1293.0000    71.1210     8.8370  1147.1071     2.5680     0.1050
 1293.5000    71.1320     8.8370  1147.0050     2.5760     0.1050
 1294.0000    71.1370     8.8370  1146.9020     2.5770     0.1020
 1294.5000    71.1290     8.8370  1146.8000     2.5730     0.0950
 1295.0000    71.1320     8.8370  1146.6980     2.5690     0.0880
 1295.5000    71.1320     8.8370  1146.5950     2.5740     0.0820
 1296.0000    71.1260     8.8370  1146.4930     2.5670     0.0730
 1296.5000    71.1330     8.8370  1146.3910     2.5550     0.0590
 1297.0000    71.1470     8.8370  1146.2889     2.5410     0.0460
 1297.5000    71.4650     8.8370  1146.1860     2.5140     0.0300
 1298.0000    71.7860     8.8370  1146.0840     2.5200     0.0340
 1298.5000    72.1210     8.8370  1145.9821     2.5360     0.0460
 1299.0000    72.4480     8.8370  1145.8790     2.5500     0.0570
 1299.5000    72.7780     8.8370  1145.7770     2.5490     0.0580
 1300.0000    73.1060     8.8370  1145.6750     2.5490     0.0590
 1300.5000    73.4360     8.8380  1145.5720     2.5480     0.0600
 1301.0000    73.7690     8.8420  1145.4700     2.5480     0.0610
 1301.5000    74.0850     8.8460  1145.3680     2.5350     0.0510
 1302.0000    74.4330     8.8500  1145.2660     2.5190     0.0390
 1302.5000    74.7460     8.8540  1145.1630     2.5100     0.0280
 1303.0000    75.4770     8.8580  1145.0610     2.5140     0.0250
 1303.5000    76.1110     8.8620  1144.9590     2.5260     0.0370
 1304.0000    76.7830     8.8660  1144.8560     2.5360     0.0490
 1304.5000    77.4390     8.8700  1144.7540     2.5430     0.0580
 1305.0000    78.0930     8.8740  1144.6520     2.5340     0.0600
 1305.5000    78.7660     8.8810  1144.5490     2.5120     0.0450
 1306.0000    79.4100     8.8930  1144.4470     2.4890     0.0230
 1306.5000    80.0310     8.9050  1144.3450     2.4780     0.0020
 1307.0000    80.0650     8.9170  1144.2430     2.4830     0.0100
 1307.5000    80.0640     8.9290  1144.1400     2.4880     0.0180
 1308.0000    80.0340     8.9410  1144.0380     2.4970     0.0270
 1308.5000    79.3600     8.9530  1143.9360     2.5060     0.0350
 1309.0000    78.5980     8.9480  1143.8330     2.5070     0.0380
 1309.5000    77.8200     8.9370  1143.7310     2.5060     0.0390
 1310.0000    77.0560     8.9250  1143.6290     2.5040     0.0400
 1310.5000    76.2710     8.9140  1143.5260     2.5070     0.0410
 1311.0000    75.6470     8.9020  1143.4240     2.5210     0.0500
 1311.5000    75.2060     8.8910  1143.3220     2.5290     0.0610
 1312.0000    74.7510     8.8800  1143.2200     2.5270     0.0640
 1312.5000    74.2530     8.8750  1143.1169     2.5190     0.0490
 1313.0000    74.2780     8.8730  1143.0150     2.5110     0.0360
 1313.5000    74.6580     8.8710  1142.9130     2.5030     0.0220
 1314.0000    75.0000     8.8680  1142.8130     2.4950     0.0120
 1314.5000    75.3360     8.8660  1142.7100     2.4890     0.0060
 1315.0000    75.6820     8.8640  1142.6071     2.4940     0.0090
 1315.5000    76.0300     8.8620  1142.5120     2.5000     0.0140
 1316.0000    76.3550     8.8590  1142.3979     2.5060     0.0190
 1316.5000    76.6610     8.8570  1142.2729     2.5140     0.0260
 1317.0000    77.0410     8.8550  1141.5120     2.5370     0.0480
 1317.5000    76.6550     8.8520  1140.6040     2.5530     0.0630
 1318.0000    75.8970     8.8500  1139.6899     2.5420     0.0480
 1318.5000    75.2010     8.8480  1138.7860     2.5130     0.0280
 1319.0000    74.4690     8.8460  1137.8770     2.5280     0.0260
 1319.5000    74.1110     8.8430  1136.9700     2.5370     0.0370
 1320.0000    74.2530     8.8410  1136.0620     2.5480     0.0460
 1320.5000    74.3460     8.8380  1135.1550     2.5590     0.0560
 1321.0000    74.4280     8.8390  1134.2469     2.5690     0.0650
 1321.5000    74.5330     8.8470  1133.3400     2.5770     0.0720
 1322.0000    74.6540     8.8540  1132.4330     2.5600     0.0540
 1322.5000    74.3280     8.8620  1131.5260     2.5320     0.0400
 1323.0000    72.7570     8.8690  1130.6190     2.5260     0.0250
 1323.5000    71.7900     8.8760  1129.7120     2.5190     0.0200
 1324.0000    71.9720     8.8840  1128.8051     2.5140     0.0160
 1324.5000    72.1710     8.8910  1127.8979     2.5080     0.0130
 1325.0000    72.3960     8.8980  1126.9910     2.5070     0.0130
 1325.5000    73.5000     8.9050  1126.0840     2.5060     0.0140
 1326.0000    74.4070     8.9140  1125.1770     2.5050     0.0180
 1326.5000    75.2800     8.9130  1124.2700     2.5050     0.0210
 1327.0000    75.4600     8.9040  1123.3630     2.5040     0.0250
 1327.5000    75.6250     8.8960  1122.4550     2.5110     0.0280
 1328.0000    75.7730     8.8880  1121.5480     2.5190     0.0310
 1328.5000    75.9280     8.8800  1120.6410     2.5270     0.0380
 1329.0000    76.0820     8.8720  1119.7340     2.5350     0.0470
 1329.5000    76.2350     8.8640  1118.8270     2.5420     0.0560
 1330.0000    76.3870     8.8550  1117.9200     2.5440     0.0460
 1330.5000    76.5430     8.8470  1117.0129     2.5180     0.0340
 1331.0000    76.6940     8.8390  1116.1060     2.4940     0.0190
 1331.5000    76.8470     8.8370  1115.1990     2.5030     0.0190
 1332.0000    77.0170     8.8370  1114.2920     2.5260     0.0350
 1332.5000    77.0060     8.8370  1113.3850     2.5330     0.0480
 1333.0000    76.7910     8.8370  1112.4780     2.5220     0.0370
 1333.5000    76.5960     8.8370  1111.5710     2.5150     0.0300
 1334.0000    76.3990     8.8370  1110.6630     2.5260     0.0310
 1334.5000    76.1990     8.8370  1109.7560     2.5370     0.0320
 1335.0000    76.0010     8.8370  1108.8490     2.5420     0.0320
 1335.5000    75.8030     8.8370  1107.9390     2.5500     0.0420
 1336.0000    75.6040     8.8370  1107.0270     2.5540     0.0590
 1336.5000    75.4070     8.8360  1106.1290     2.5920     0.0750
 1337.0000    75.2080     8.8480  1105.2000     2.5870     0.0820
 1337.5000    75.0090     8.8690  1104.3030     2.5740     0.0730
 1338.0000    74.8140     8.8890  1103.4330     2.5480     0.0500
 1338.5000    74.5320     8.9100  1102.3630     2.5250     0.0280
 1339.0000    74.1440     8.9180  1103.3500     2.5260     0.0220
 1339.5000    73.7570     8.9200  1105.4900     2.5270     0.0240
 1340.0000    73.3830     8.9210  1107.4540     2.5190     0.0250
 1340.5000    73.0000     8.9230  1109.3831     2.5190     0.0270
 1341.0000    73.0970     8.9250  1111.3700     2.5240     0.0280
 1341.5000    73.3370     8.9260  1113.3240     2.5290     0.0310
 1342.0000    73.5780     8.9280  1115.2870     2.5340     0.0360
 1342.5000    73.8110     8.9300  1117.2510     2.5360     0.0400
 1343.0000    74.0500     8.9310  1119.2120     2.5370     0.0430
 1343.5000    74.2860     8.9330  1121.1720     2.5380     0.0480
 1344.0000    74.5240     8.9350  1123.1331     2.5310     0.0450
 1344.5000    74.7630     8.9370  1125.0930     2.5230     0.0360
 1345.0000    74.9960     8.9380  1127.0540     2.5150     0.0340
 1345.5000    75.2350     8.9400  1129.0150     2.5120     0.0370
 1346.0000    75.1960     8.9420  1130.9750     2.5130     0.0380
 1346.5000    75.0430     8.9430  1132.9360     2.5130     0.0400
 1347.0000    74.8730     8.9450  1134.8960     2.5140     0.0280
 1347.5000    74.6930     8.9470  1136.8571     2.5140     0.0120
 1348.0000    73.8070     8.9490  1138.8180     2.5250    -0.0020
 1348.5000    72.7070     8.9500  1140.7780     2.5400     0.0090
 1349.0000    71.6570     8.9520  1142.7390     2.5440     0.0150
 1349.5000    70.6010     8.9540  1144.6990     2.5360     0.0130
