~VERSION INFORMATION
 VERS.                2.0:   CWLS LOG ASCII STANDARD - VERSION 2.0
 WRAP.                 NO:   ONE LINE PER DEPTH STEP
~WELL INFORMATION
#MNEM.UNIT      DATA TYPE    INFORMATION
#----------   ------------   ------------------------------
 STRT.F         2933.0000:   START DEPTH
 STOP.F         5494.0000:   STOP DEPTH
 STEP.F            0.5000:   STEP LENGTH
 NULL.          -999.2500:   NO VALUE
 COMP.    FENIX & SCISSON:   COMPANY
 WELL. FENIX "TPX" #56-10:   WELL
 FLD .        TEAPOT DOME:   FIELD
 LOC .      S10 T38N R78W:   LOCATION
 CNTY.            NATRONA:   COUNTY
 STAT.            WYOMING:   STATE
 CTRY. UNITED STATES OF AMERICA:   COUNTRY
 SRVC.       SCHLUMBERGER:   SERVICE COMPANY
 DATE.        22-MAY-1978:   LOGDATE
 API .     49025106100000:   API NUMBER
~CURVE INFORMATION
#MNEM.UNIT       API CODE    CURVE DESCRIPTION
#----------   ------------   ------------------------------
 DEPT.F                  :   
 NPHI.DEC    42 890 03 00:   NEUTRON POROSITY SANDSTONE
 GRD .GAPI   45 310 01 00:   GAMMA RAY FROM DENSITY LOG
 CALD.IN     45 280 60 00:   CALIPER FROM DENSITY LOG
 CORR.G/C3   45 356 01 00:   DENSITY CORRECTION
 RHOB.G/C3   45 350 01 00:   BULK DENSITY
 SPR .MV     07 010 01 00:   SPONTANEOUS POTENTIAL
 ILD .OHMM   07 120 46 00:   INDUCTION LOG DEEP RESISTIVITY
 ILM .OHMM   07 120 44 00:   INDUCTION LOG MEDIUM RESISTIVITY
 SFL .OHMM   07 220 01 00:   SHALLOW FOCUSED LOG RESISITIVITY
 DT  .US/F   60 520 00 00:   DELTA TIME
~PARAMETER INFORMATION
#MNEM.UNIT          VALUE    DESCRIPTION
#----------   ------------   ------------------------------
 EKB .F         5212.0000:   Kelly bushing
 EGL .F         5202.0000:   Ground level
 TD  .F         5500.0000:   Total depth
 CLNT.            A2DTECH:   Client Code
 SL  . 1270' FSL & 2130' FEL:   Surface Location
 PD  .                 GL:   Permanent Datum
 EPD .F              5202:   Elevation Permanent Datum
 LMF .                 KB:   Log Measured From
 DMF .                 KB:   Drilling Measured From
 DAPD.F                10:   Feet Above Permanent Datum
 DATE.        22-MAY-1978:   Date Logged [DD-MMM-YYYY]
 DD  .F              5500:   Depth driller
 DL  .F              5499:   Depth logger
 BLI .F              5497:   Bottom log interval
 TLI .F              2971:   Top log interval
 CS1 .IN            8.625:   Casing size
 CBD1.     8.625" @ 2972':   Casing driller 1
 CBL1.F              2971:   Casing logger 1
 BS1 .IN            7.875:   Bit size
 BSD1.F              5500:   Depth drilled with bit1
 DFT .                FGM:   Type fluid in hole
 DFD .                9.3:   Density
 DFV .                 57:   Viscosity
 DFPH.               10.5:   pH
 DFL .                  6:   Fluid loss
 MSS .           MUD TANK:   Source of sample
 RMS .OHMM           0.93:   Rm
 MST .F                58:   Rm Meas. temp.
 RMF .OHMM           0.71:   Rmf
 MFST.F                61:   Rmf Meas. temp.
 MFSS.               MEAS:   Source Rmf.
 RMB .OHMM           0.27:   Rm. at BHT
 BHT .F               198:   BHT.
 TCS .HRS            1500:   Time Circ. stopped
 TLAB.HRS            0100:   Time logger at bottom
 MRT .F               198:   Maximum recorded temp.
 LUN .               8039:   Logging unit number
 LUL .               CSPR:   Logging unit location
 ENGI.          CHALUPSKY:   Recorded By
 WITN.            RHOADES:   Witnessed by
 ORIG.      2.5" 5" PRINT:   Origin of data
 UWI .     49025106100000:   Unique Well ID
 DICO. A2D TECHNOLOGIES, INC.:   Digitizing Company
~OTHER INFORMATION
~A  DEPTH     NPHI        GRD       CALD       CORR       RHOB        SPR        ILD        ILM        SFL         DT
# ...
 4139.0000     0.0855    41.1099    10.2114     0.0057     2.5778   -56.9672    19.0564    21.8099    31.4869    63.0069
 4139.5000     0.1112    42.8023    10.2125     0.0117     2.5778   -57.2763    17.6493    18.8361    24.3583    65.3480
 4140.0000     0.1379    44.6454    10.2135     0.0154     2.5670   -57.1336    16.4598    16.3813    18.5843    67.4599
 4140.5000     0.1454    46.1129    10.2146     0.0168     2.5438   -56.9931    15.5647    15.4858    15.6161    68.5191
 4141.0000     0.1484    49.0803    10.2156     0.0128     2.5201   -57.0040    14.7183    15.0519    15.1884    68.6761
 4141.5000     0.1445    54.6014    10.2167     0.0097     2.5142   -57.6098    13.9179    14.8350    15.3913    68.3068
 4142.0000     0.1399    60.4234    10.2177     0.0085     2.5304   -57.6185    13.3447    14.8260    16.8332    67.3360
 4142.5000     0.1372    64.9902    10.2188     0.0135     2.5497   -57.6272    13.0639    14.6124    17.7836    66.2149
 4143.0000     0.1398    65.8056    10.2198     0.0182     2.5674   -57.1882    12.9675    13.8135    17.6525    65.5431
 4143.5000     0.1440    64.3721    10.2209     0.0167     2.5866   -56.7492    12.8646    13.2410    16.0138    67.8071
 4144.0000     0.1528    62.5850    10.2219     0.0127     2.5822   -56.2902    12.7611    13.1410    13.8398    70.1445
 4144.5000     0.1621    59.5967    10.2230     0.0048     2.5597   -55.5748    12.6812    13.2250    12.2969    71.2790
 4145.0000     0.1681    55.4072    10.2241     0.0047     2.5475   -55.2829    12.8521    13.3071    12.0384    70.3475
 4145.5000     0.1647    53.6201    10.2251     0.0047     2.5348   -54.9931    13.1174    13.4851    13.1662    68.3968
 4146.0000     0.1556    58.4397    10.2262     0.0106     2.5523   -55.0040    13.3851    13.5730    15.0106    65.8870
 4146.5000     0.1482    59.6556    10.2272     0.0135     2.5638   -55.1620    13.4734    13.6593    17.0022    65.8168
 4147.0000     0.1430    59.6703    10.2283     0.0135     2.5722   -55.0193    13.4654    13.6489    16.7192    66.8777
 4147.5000     0.1421    50.0754    10.2293     0.0105     2.5781   -54.7313    13.4731    13.6405    15.9513    67.2603
 4148.0000     0.1463    48.2883    10.2304     0.0075     2.5737   -54.1433    13.3597    13.7274    15.7244    67.2670
 4148.5000     0.1511    50.7811    10.2314     0.0045     2.5496   -54.1570    12.9843    13.7188    15.1820    67.7247
 4149.0000     0.1516    53.2214    10.2325     0.0075     2.5384   -54.6293    12.5277    13.7102    13.6776    70.8893
 4149.5000     0.1540    54.9390    10.2335     0.0252     2.5422   -55.3659    12.0222    13.7956    11.7392    73.6027
 4150.0000     0.1665    50.9533    10.2334     0.0311     2.5377   -55.8223    12.1842    14.0799    10.5760    75.2634
 4150.5000     0.1730    45.4632    10.2320     0.0281     2.5279   -56.4281    13.1431    14.6683    11.1731    75.1949
 4151.0000     0.1695    40.5730    10.2306     0.0235     2.5156   -56.2854    14.3754    15.2837    13.1007    73.2466
 4151.5000     0.1540    37.0550    10.2292     0.0175     2.5022   -56.2963    15.3997    16.8356    15.5673    69.8394
 4152.0000     0.1291    35.5948    10.2278     0.0128     2.4978   -56.6036    16.0459    17.5445    20.6702    68.0391
 4152.5000     0.1179    34.6068    10.2264     0.0097     2.4977   -56.9108    16.4891    17.5311    22.7652    67.7782
 4153.0000     0.1119    36.2274    10.2250     0.0066     2.4977   -57.2181    16.5961    17.5267    22.2404    68.5369
 4153.5000     0.1143    44.4267    10.2236     0.0042     2.4948   -57.5254    16.1337    17.4048    19.8425    69.5962
 4154.0000     0.1197    51.1712    10.2222     0.0027     2.5022   -57.5343    15.4587    17.2760    17.4747    69.6221
 4154.5000     0.1263    56.3918    10.2208     0.0027     2.5110   -57.6920    14.5261    16.5623    15.9638    70.8141
 4155.0000     0.1312    60.3610    10.2194     0.0027     2.5199   -57.2552    13.8316    15.6589    14.8896    71.3471
 4155.5000     0.1380    64.7325    10.2180     0.0041     2.5302   -56.2192    12.8994    14.6004    14.0814    71.5793
 4156.0000     0.1479    67.1496    10.2166     0.0041     2.5421   -55.4794    12.6326    13.2200    13.4096    70.9844
 4156.5000     0.1626    69.5667    10.2151     0.0041     2.5615   -55.0426    12.4711    12.1649    12.9480    69.9384
 4157.0000     0.1712    69.5814    10.2137     0.0055     2.5735   -54.8999    12.2103    12.0006    12.4159    68.8907
 4157.5000     0.1742    69.5961    10.2123     0.0078     2.5809   -54.6123    12.0382    12.0773    12.0718    69.3502
 4158.0000     0.1757    67.2084    10.2109     0.0046     2.5783   -54.3225    11.9509    12.1572    11.9009    69.8063
 4158.5000     0.1762    66.6225    10.2093    -0.0005     2.5728   -54.3313    11.8643    12.4060    11.8139    69.2128
 4159.0000     0.1735    66.0360    10.2096     0.0024     2.5738   -54.0252    11.8537    12.7496    12.0570    68.9189
 4159.5000     0.1686    66.0514    10.2099     0.0068     2.5794   -53.5351    11.6929    12.8340    12.7545    68.0233
 4160.0000     0.1601    67.2673    10.2102     0.0068     2.5839   -53.7016    11.2900    12.5616    14.8226    67.4285
 4160.5000     0.1397    72.7882    10.2105     0.0038     2.5745   -54.1552    10.6774    11.8764    15.6673    67.6073
 4161.0000     0.1376    76.9560    10.2108     0.0038     2.5594   -54.6090    10.2391    11.3858    15.1264    69.4735
 4161.5000     0.1511    79.3986    10.2111     0.0082     2.5560   -54.9134    10.0250    10.9916    12.7166    72.7132
 4162.0000     0.1814    79.9387    10.2114     0.0185     2.5708   -54.9472     9.9523    10.8346     8.9291    76.7800
 4162.5000     0.2117    68.7295    10.2117     0.0510     2.5826   -55.2250     9.9489    10.9050     8.1571    76.3355
 4163.0000     0.2338    58.3490    10.2120     0.0510     2.5755   -55.2309    10.1545    11.0524     9.0463    74.6880
 4163.5000     0.1959    53.5589    10.2123     0.0303     2.5449   -55.5352    10.4363    11.2799    11.0538    72.2886
 4164.0000     0.1762    50.5706    10.2290     0.0153     2.5316   -55.8396    10.9514    11.7572    14.8818    69.1373
 4164.5000     0.1544    51.2617    10.2429     0.0035     2.5360   -56.2933    11.9797    12.4272    17.2043    68.3904
 4165.0000     0.1412    54.9055    10.2733     0.0095     2.5405   -56.7469    13.7561    12.7767    16.9608    69.1506
 4165.5000     0.1427    57.2222    10.3037     0.0076     2.5449   -57.0513    15.3639    13.3006    15.2811    70.3603
 4166.0000     0.1564    50.5253    10.3039     0.0030     2.5493   -57.3557    15.9002    13.8604    14.6532    71.2701
 4166.5000     0.1680    40.6592    10.3343    -0.0025     2.5271   -57.2108    15.8948    14.8510    15.3061    72.0277
 4167.0000     0.1698    37.5958    10.3346    -0.0025     2.5020   -56.7704    15.9999    15.6928    17.5062    71.7215
 4167.5000     0.1630    35.6585    10.3048    -0.0017     2.4798   -56.4776    15.8838    15.7965    18.1399    71.4394
 4168.0000     0.1471    37.6777    10.3051     0.0019     2.4650   -56.0359    15.8783    15.8991    18.0055    71.5981
 4168.5000     0.1402    41.0961    10.3054     0.0019     2.4605   -55.5940    15.7635    16.3376    17.7506    71.7535
 4169.0000     0.1381    41.1111    10.3057     0.0024     2.4714   -55.4401    16.3123    16.6739    17.4993    71.4594
 4169.5000     0.1397    42.5523    10.3060     0.0075     2.4849   -55.3073    16.5358    16.7821    17.2516    71.7684
 4170.0000     0.1432    45.6456    10.3363     0.0113     2.4955   -55.3146    16.8759    17.1276    17.1255    71.9238
 4170.5000     0.1444    44.9863    10.3066     0.0099     2.5043   -55.0220    17.3444    17.4801    17.4779    71.4793
 4171.0000     0.1426    41.0717    10.3069     0.0054     2.5015   -54.4294    17.7027    17.8399    17.9615    70.8861
 4171.5000     0.1391    39.9850    10.3072     0.0159     2.4915   -54.4367    18.0685    18.2071    18.3311    70.2912
 4172.0000     0.1355    42.4049    10.3075     0.0505     2.4979   -54.7411    18.1895    18.5819    18.5793    69.5460
