~VERSION INFORMATION
 VERS.                2.0:   CWLS LOG ASCII STANDARD - VERSION 2.0
 WRAP.                 NO:   ONE LINE PER DEPTH STEP
~WELL INFORMATION
#MNEM.UNIT      DATA TYPE    INFORMATION
#----------   ------------   ------------------------------
 STRT.F          176.0000:   START DEPTH
 STOP.F         3442.0000:   STOP DEPTH
 STEP.F            0.5000:   STEP LENGTH
 NULL.          -999.2500:   NO VALUE
 COMP.  FENIX AND SCISSON:   COMPANY
 WELL.  FENIX "AX" #65-15:   WELL
 FLD . NAVAL PETROLEUM RESERVE #3:   FIELD
 LOC .      S15 T38N R78W:   LOCATION
 CNTY.            NATRONA:   COUNTY
 STAT.            WYOMING:   STATE
 CTRY. UNITED STATES OF AMERICA:   COUNTRY
 SRVC.       SCHLUMBERGER:   SERVICE COMPANY
 DATE.        09-APR-1981:   LOGDATE
 API .     49025108710000:   API NUMBER
~CURVE INFORMATION
#MNEM.UNIT       API CODE    CURVE DESCRIPTION
#----------   ------------   ------------------------------
 DEPT.F                  :   
 TENR.LBS    07 635 01 00:   TENSION
 SPR .MV     07 010 01 00:   SPONTANEOUS POTENTIAL
 ILD .OHMM   07 120 46 00:   INDUCTION LOG DEEP RESISTIVITY
 ILM .OHMM   07 120 44 00:   INDUCTION LOG MEDIUM RESISTIVITY
 SFL .OHMM   07 220 01 00:   SHALLOW FOCUSED LOG RESISTIVITY
 TEND.LBS    45 635 01 00:   TENSION FROM DENSITY LOG
 CALD.IN     45 280 60 00:   CALIPER FROM DENSITY LOG
 GRD .GAPI   45 310 01 00:   GAMMA RAY FROM DENSITY LOG
 RHOB.G/C3   45 350 01 00:   BULK DENSITY
 CORR.G/C3   45 356 01 00:   DENSITY CORRECTION
~PARAMETER INFORMATION
#MNEM.UNIT          VALUE    DESCRIPTION
#----------   ------------   ------------------------------
 EKB .F         5287.0000:   Kelly bushing
 EGL .F         5277.0000:   Ground level
 EDF .F            0.0000:   Drilling floor
 TD  .F         5476.0000:   Total depth
 DATE.        09-APR-1981:   Date logged
 CLNT.            A2DTECH:   Client Code
 SL  . 1945' FSL & 1161' FEL:   Surface Location
 PD  .                 GL:   Permanent Datum
 EPD .F              5277:   Elevation Permanent Datum
 LMF .                 KB:   Log Measured From
 DMF .                 KB:   Drilling Measured From
 DAPD.F                10:   Feet Above Permanent Datum
 DD  .F              5476:   Depth driller
 DL  .F              5436:   Depth logger
 BLI .F              5430:   Bottom log interval
 TLI .F               190:   Top log interval
 CS1 .IN            8.625:   Casing size
 CBD1.      8.625" @ 190':   Casing driller 1
 CBL1.F               190:   Casing logger 1
 BS1 .IN            7.875:   Bit size
 BSD1.F              5476:   Depth drilled with bit1
 DFT .           CHEM GEL:   Type fluid in hole
 DFD .                9.1:   Density
 DFV .                 42:   Viscosity
 DFPH.                9.5:   pH
 DFL .                  8:   Fluid loss
 MSS .            MUDTANK:   Source of sample
 RMS .OHMM           1.62:   Rm
 MST .F                71:   Rm Meas. temp.
 RMF .OHMM           1.45:   Rmf
 MFST.F                71:   Rmf Meas. temp.
 MFSS.               MEAS:   Source Rmf.
 RMB .OHMM           1.02:   Rm. at BHT
 BHT .F               116:   BHT.
 TCS .HRS            1600:   Time Circ. stopped
 TLAB.HRS            1830:   Time logger at bottom
 MRT .F               116:   Maximum recorded temp.
 LUN .               8035:   Logging unit number
 LUL .               CSPR:   Logging unit location
 ENGI.            BEATTIE:   Recorded By
 WITN.              EIVAS:   Witnessed by
 ORIG.           5" PRINT:   Origin of data
 UWI .     49025108710000:   Unique Well ID
 DICO. A2D TECHNOLOGIES, INC.:   Digitizing Company
~OTHER INFORMATION
~A   DEPT     TENR        SPR        ILD        ILM        SFL       TEND       CALD         GRD      RHOB       CORR   
# ...
 1683.5000   482.8430   -19.8060     8.7540     8.1490     9.4050   487.8340     8.2340   117.9010     2.5460     0.0140
 1684.0000   482.9090   -19.9350     8.7390     8.1250     9.2960   487.8790     8.2280   116.0760     2.5510     0.0100
 1684.5000   482.9760   -20.1150     8.7830     8.1510     9.1870   487.9240     8.2220   113.9620     2.5570     0.0130
 1685.0000   483.0430   -20.2950     8.8380     8.2250     9.0610   487.9690     8.2160   112.3080     2.5670     0.0170
 1685.5000   483.1100   -20.4870     8.8940     8.2990     9.4350   488.0140     8.2100   111.4830     2.5770     0.0200
 1686.0000   483.1770   -20.5980     8.9490     8.3710     9.8800   488.0590     8.2040   110.2830     2.5790     0.0240
 1686.5000   483.2440   -20.5860     9.0050     8.4440    10.2920   488.1040     8.1990   108.4740     2.5780     0.0240
 1687.0000   483.3100   -20.5880     9.0600     8.5160    10.1130   488.1490     8.1970   107.8480     2.5720     0.0190
 1687.5000   483.3770   -20.5890     9.1160     8.5890     9.9470   488.1940     8.1950   108.3720     2.5650     0.0140
 1688.0000   483.4440   -20.5880     9.1720     8.6620     9.7810   488.2390     8.1930   109.2260     2.5480     0.0080
 1688.5000   483.5110   -20.5890     9.2270     8.7340     9.5690   488.2840     8.1910   109.9330     2.5380     0.0020
 1689.0000   483.5780   -20.5880     9.2820     8.8070     9.6240   488.3300     8.1890   110.1110     2.5300     0.0010
 1689.5000   483.6450   -20.5890     9.3390     8.8930     9.7910   488.3750     8.1870   111.0940     2.5230     0.0000
 1690.0000   483.7120   -20.5880     9.3970     8.8850     9.9570   488.4200     8.1850   111.7080     2.5230     0.0020
 1690.5000   483.7780   -20.5880     9.3850     8.8680    10.1230   488.4650     8.1830   112.2230     2.5280     0.0060
 1691.0000   483.8450   -20.5920     9.3720     8.8520    10.2920   488.5100     8.1810   112.8690     2.5380     0.0100
 1691.5000   483.9120   -20.5300     9.3600     8.8350    10.1760   488.5550     8.1800   114.4420     2.5440     0.0150
 1692.0000   483.9790   -20.3080     9.3480     8.8180     9.9240   488.6000     8.1810   116.5080     2.5450     0.0170
 1692.5000   484.0460   -20.0950     9.3350     8.8020     9.9240   488.6450     8.1820   116.7030     2.5460     0.0190
 1693.0000   484.1130   -19.8710     9.3230     8.7850     9.9240   488.6900     8.1830   114.9740     2.5590     0.0260
 1693.5000   484.1900   -19.7990     9.3110     8.7690     9.9240   488.7350     8.1840   112.3650     2.5820     0.0450
 1694.0000   484.2920   -19.8050     9.2990     8.7520     9.9240   488.7800     8.1850   110.2320     2.6080     0.0660
 1694.5000   484.4130   -19.7990     9.2860     8.7350     9.9240   488.8250     8.1860   108.2790     2.6020     0.0710
 1695.0000   484.5340   -19.7780     9.2740     8.7190     9.9240   488.8710     8.1870   106.8660     2.5850     0.0650
 1695.5000   484.6550   -19.7610     9.2620     8.7020     9.9240   488.9160     8.1880   106.0140     2.5630     0.0400
 1696.0000   484.7760   -19.7420     9.2490     8.6860    10.0020   488.9610     8.1890   107.8670     2.5490     0.0150
 1696.5000   484.8970   -19.7230     9.2370     8.6690    10.1580   489.0060     8.1900   108.8160     2.5540     0.0110
 1697.0000   485.0180   -19.7050     9.2250     8.6520    10.3150   489.0510     8.1910   109.1120     2.5590     0.0150
 1697.5000   485.1380   -19.6860     9.2120     8.6360    10.4810   489.0960     8.1920   109.6590     2.5510     0.0120
 1698.0000   485.2590   -19.6680     9.2000     8.6190    10.2340   489.1410     8.1930   111.3480     2.5400     0.0060
 1698.5000   485.3800   -19.6490     9.1880     8.6030     9.7810   489.1860     8.1940   113.6020     2.5310     0.0020
 1699.0000   485.5010   -19.6300     9.1760     8.5860     9.2970   489.2310     8.1950   115.2750     2.5240     0.0020
 1699.5000   485.6220   -19.6120     9.1630     8.5690     9.4230   489.2760     8.1960   113.7080     2.5220     0.0050
 1700.0000   485.7430   -19.5930     9.1510     8.5530     9.6740   489.3210     8.1970   110.7450     2.5240     0.0070
 1700.5000   485.8640   -19.5740     9.1390     8.5360     9.9240   489.3660     8.1980   109.5840     2.5280     0.0070
 1701.0000   485.9850   -19.5560     9.1260     8.5200     9.7890   489.4120     8.2020   111.9080     2.5300     0.0040
 1701.5000   486.1060   -19.5370     9.1140     8.5030     9.5670   489.4570     8.2200   114.8490     2.5300     0.0010
 1702.0000   486.2270   -19.5180     9.1020     8.4860     9.3970   489.5020     8.2380   116.0850     2.5300     0.0010
 1702.5000   486.3480   -19.5000     9.0890     8.4700     9.7090   489.5470     8.2440   115.1380     2.5430     0.0110
 1703.0000   486.4690   -19.4810     9.0770     8.4530    10.0840   489.5920     8.2500   112.8410     2.5640     0.0210
 1703.5000   486.5890   -19.4630     9.0640     8.4360    10.4590   489.6370     8.2550   109.3560     2.5720     0.0290
 1704.0000   486.7100   -19.4440     9.0610     8.4240    10.8340   489.6820     8.2580   105.6900     2.5730     0.0330
 1704.5000   486.8310   -19.4240     9.0600     8.4240    11.3960   489.7270     8.2570   102.6360     2.5550     0.0250
 1705.0000   486.9520   -19.4190     9.0600     8.4250    11.2720   489.7720     8.2550   103.8100     2.5470     0.0230
 1705.5000   487.0730   -19.4460     9.0590     8.4260    10.8960   489.8170     8.2540   107.9210     2.5430     0.0210
 1706.0000   487.1940   -19.4720     9.0590     8.4260    10.4680   489.8620     8.2530   111.4310     2.5410     0.0200
 1706.5000   487.3150   -19.4990     9.1440     8.4230     9.7450   489.9080     8.2520   113.3540     2.5430     0.0230
 1707.0000   487.4360   -19.5260     9.3980     8.6000     9.8600   489.9530     8.2500   113.2510     2.5560     0.0290
 1707.5000   487.5570   -19.5530     9.3950     8.7380    10.2300   489.9980     8.2490   110.3680     2.5740     0.0360
 1708.0000   487.6780   -19.5790     9.2770     8.6680    10.6010   490.0430     8.2480   107.0780     2.5810     0.0350
 1708.5000   487.7990   -19.6060     9.1710     8.5710    10.9900   490.0880     8.2460   104.9630     2.5710     0.0250
 1709.0000   487.9200   -19.6330     9.0690     8.4710    10.8230   490.1330     8.2450   106.7470     2.5540     0.0120
 1709.5000   488.0410   -19.6600     8.9650     8.3740    10.4890   490.1780     8.2440   109.5540     2.5390     0.0060
 1710.0000   488.1610   -19.6860     8.8970     8.2720    10.1550   490.2230     8.2420   110.6570     2.5420     0.0050
 1710.5000   488.2820   -19.7130     8.7240     8.1230     9.7860   490.2680     8.2410   110.9800     2.5450     0.0050
 1711.0000   488.4030   -19.7390     8.7020     8.1130     9.8620   490.3130     8.2400   112.4640     2.5460     0.0060
 1711.5000   488.5240   -19.7670     8.6800     8.1050    10.1060   490.3580     8.2390   113.7450     2.5470     0.0070
 1712.0000   488.6450   -19.7930     8.6580     8.0970     9.9240   490.4030     8.2390   112.3140     2.5500     0.0060
 1712.5000   488.7660   -19.8010     8.6360     8.0880     9.6540   490.4490     8.2390   107.9830     2.5470     0.0060
 1713.0000   488.8870   -19.7510     8.6140     8.0800     9.3820   490.4940     8.2390   107.0680     2.5430     0.0050
 1713.5000   489.0080   -19.7100     8.5920     8.0710     9.1100   490.5390     8.2390   109.1270     2.5400     0.0090
 1714.0000   489.1290   -19.6660     8.5700     8.0630     8.7370   490.5840     8.2390   110.4690     2.5460     0.0160
 1714.5000   489.2500   -19.6240     8.5480     8.0550     8.8960   490.6290     8.2390   111.0790     2.5520     0.0190
 1715.0000   489.3710   -19.5810     8.5250     8.0460     9.1500   490.6740     8.2390   112.2510     2.5480     0.0120
 1715.5000   489.4920   -19.5380     8.5030     8.0380     9.4040   490.7190     8.2390   112.2750     2.5380     0.0060
 1716.0000   489.6130   -19.4940     8.4810     8.0290     9.6580   490.7640     8.2390   108.7920     2.5310     0.0070
 1716.5000   489.7330   -19.4520     8.4590     8.0210     9.8670   490.8090     8.2390   104.5290     2.5420     0.0140
