~VERSION INFORMATION
 VERS.                2.0:   CWLS LOG ASCII STANDARD - VERSION 2.0
 WRAP.                 NO:   ONE LINE PER DEPTH STEP
~WELL INFORMATION
#MNEM.UNIT      DATA TYPE    INFORMATION
#----------   ------------   ------------------------------
 STRT.F          200.0000:   START DEPTH
 STOP.F         3248.0000:   STOP DEPTH
 STEP.F            0.5000:   STEP LENGTH
 NULL.          -999.2500:   NO VALUE
 COMP.    FENIX & SCISSON:   COMPANY
 WELL.   FENIX "AX" #28-3:   WELL
 FLD .              NPR-3:   FIELD
 LOC .       S3 T38N R78W:   LOCATION
 CNTY.            NATRONA:   COUNTY
 STAT.            WYOMING:   STATE
 CTRY. UNITED STATES OF AMERICA:   COUNTRY
 SRVC.              WELEX:   SERVICE COMPANY
 DATE.        30-JUN-1977:   LOGDATE
 API .     49025104200000:   API NUMBER
~CURVE INFORMATION
#MNEM.UNIT       API CODE    CURVE DESCRIPTION
#----------   ------------   ------------------------------
 DEPT.F                  :   
 CALD.IN     45 280 60 00:   CALIPER FROM DENSITY LOG
 GRD .GAPI   45 310 01 00:   GAMMA RAY FROM DENSITY LOG
 RHOB.G/C3   45 350 01 00:   BULK DENSITY
 CORR.G/C3   45 356 01 00:   DENSITY CORRECTION
 SPR .MV     07 010 01 00:   SPONTANEOUS POTENTIAL
 ILD .OHMM   07 120 46 00:   DEEP INDUCTION RESISTIVITY
 ILM .OHMM   07 120 44 00:   INDUCTION LOG MEDIUM RESISTIVITY
 SGRD.OHMM   07 220 05 00:   SHALLOW SHORT GUARD RESISTIVITY
~PARAMETER INFORMATION
#MNEM.UNIT          VALUE    DESCRIPTION
#----------   ------------   ------------------------------
 EKB .F         4969.0000:   Kelly bushing
 EGL .F         4959.0000:   Ground level
 TD  .F         3250.0000:   Total depth
 CLNT.            A2DTECH:   Client Code
 SL  . 500' FSL & 800' FWL:   Surface Location
 PD  .                 GL:   Permanent Datum
 EPD .F              4959:   Elevation Permanent Datum
 LMF .                 KB:   Log Measured From
 DMF .                 KB:   Drilling Measured From
 DAPD.F                10:   Feet Above Permanent Datum
 DATE.        30-JUN-1977:   Date Logged [DD-MMM-YYYY]
 DD  .F              3250:   Depth driller
 DL  .F              3250:   Depth logger
 BLI .F              3248:   Bottom log interval
 TLI .F               200:   Top log interval
 CS1 .IN            8.625:   Casing size
 CBD1.      8.625" @ 217':   Casing driller 1
 CBL1.F               225:   Casing logger 1
 BS1 .IN            7.875:   Bit size
 BSD1.F              3250:   Depth drilled with bit1
 DFT .                KCL:   Type fluid in hole
 DFD .                8.9:   Density
 RMS .OHMM           1.76:   Rm
 MST .F                63:   Rm Meas. temp.
 TCS .HRS             2.5:   Time Circ. stopped
 MRT .F                68:   Maximum recorded temp.
 LUN .               8611:   Logging unit number
 ENGI.         G. BENTSEN:   Recorded By
 WITN.         PETTINGILL:   Witnessed by
 ORIG.         2.5" PRINT:   Origin of data
 UWI .     49025104200000:   Unique Well ID
 DICO. A2D TECHNOLOGIES, INC.:   Digitizing Company
 DFV .                 30:   Viscosity
 DFPH.                  7:   pH
 DFL .                 10:   Fluid loss
 MSS .                PIT:   Source of sample
 RMF .OHMM           1.09:   Rmf
 MFST.F                68:   Rmf Meas. temp.
 MFSS.               MEAS:   Source Rmf.
 RMC .OHMM           2.01:   Rmc
 MCST.F                68:   Rmc Meas. temp.
 MCSS.               MEAS:   Source Rmc.
 RMB .OHMM           1.01:   Rm. at BHT
 BHT .F               118:   BHT.
 LUL .             CASPER:   Logging unit location
~OTHER INFORMATION
~A   DEPT       CALD       GRD        RHOB      CORR       SPR        ILD        ILM       SGRD   
# ...
  807.5000     8.4873   102.8313     2.5597     0.0270   -42.4558     8.8560    12.6022    10.9266
  808.0000     8.4875   102.1527     2.5535     0.0286   -42.4543     8.8571    12.8023    10.7702
  808.5000     8.4876   101.0000     2.5473     0.0293   -42.4525     8.7376    12.2135    10.6468
  809.0000     8.4878   100.9880     2.5473     0.0293   -42.4511     8.7387    11.7989    10.6468
  809.5000     8.4880   102.4840     2.5595     0.0308   -42.4496     8.6208    11.2341    10.6468
  810.0000     8.4881   104.7590     2.5671     0.0307   -42.4482     8.6141    10.8393    10.6468
  810.5000     8.4869   105.9809     2.5716     0.0307   -42.4468     8.5055    10.5641    10.6468
  811.0000     8.4856   106.3638     2.5746     0.0322   -42.7404     8.3907    10.2780    10.6468
  811.5000     8.4843   104.8765     2.5715     0.0322   -43.3289     8.3919     9.9997    10.6468
  812.0000     8.4830   103.9357     2.5653     0.0321   -43.3274     8.4256     9.5963    10.6468
  812.5000     8.4525   102.3846     2.5607     0.0321   -43.3382     8.5102     9.3364    10.6468
  813.0000     8.4512   101.3855     2.5652     0.0305   -43.6195     8.5114     9.3364    10.6468
  813.5000     8.4499    99.6726     2.5667     0.0305   -43.5733     8.5126     9.3364    10.7938
  814.0000     8.4485    99.6608     2.5651     0.0290   -43.3215     8.5718     9.4655    10.9427
  814.5000     8.4472   100.8539     2.5603     0.0259   -43.0251     8.6326     9.5963    10.9427
  815.0000     8.4537   103.2517     2.5589     0.0274   -42.9302     8.6340     9.7312    10.7938
  815.5000     8.4740   104.4458     2.5608     0.0289   -42.7271     8.6352     9.8634    10.9427
  816.0000     8.4725   104.4330     2.5722     0.0304   -42.4307     8.6363     9.8634    11.2468
  816.5000     8.4837   105.0241     2.5832     0.0288   -42.8663     8.7569     9.8634    11.2468
  817.0000     8.4991   105.6145     2.5584     0.0288   -43.4710     8.8791     9.8634    11.2608
  817.5000     8.5270   105.0000     2.5475     0.0286   -43.6062     8.8803     9.8634    11.4020
  818.0000     8.5257   104.9438     2.5423     0.0257   -43.6045     9.1286     9.9025    11.4020
  818.5000     8.5242   104.3735     2.5320     0.0254   -43.6030     9.1299    10.0455    11.2468
  819.0000     8.4937   103.0542     2.5206     0.0241   -43.6016     9.1311    10.1379    11.2468
  819.5000     8.5218   101.9398     2.5144     0.0240   -43.6002     9.1324    10.1379    11.2468
  820.0000     8.5203   102.2491     2.5124     0.0240   -43.6578     9.1336     9.9361    11.3089
  820.5000     8.5191   104.5150     2.5228     0.0240   -43.6578     9.1116     9.7946    11.2468
  821.0000     8.5178   105.7369     2.5305     0.0239   -43.6578     8.9821     9.5963    11.0177
  821.5000     8.5165   106.1084     2.5329     0.0239   -43.6578     8.8898     9.5963    10.9427
  822.0000     8.5152   105.8193     2.5367     0.0254   -43.6578     8.8912     9.7289    10.9427
  822.5000     8.5139   105.4819     2.5506     0.0269   -43.6578     9.0153     9.8634    11.0937
  823.0000     8.5126   105.1346     2.5567     0.0284   -43.6578     9.0165     9.7289    11.2468
  823.5000     8.5163   104.8531     2.5653     0.0307   -43.6578     9.0178     9.5963    10.9427
  824.0000     8.5393   104.8413     2.5717     0.0322   -43.3628     9.0190     9.5963    10.9427
  824.5000     8.5379   104.8296     2.5640     0.0290   -43.3628     9.0202     9.8634    11.2468
  825.0000     8.5365   105.4217     2.5425     0.0243   -43.0678     9.0630     9.9259    11.4020
  825.5000     8.5647   106.0120     2.5210     0.0206   -43.0678     9.1474     9.9997    11.5594
  826.0000     8.5632   106.6015     2.5133     0.0175   -43.0678     9.1487    10.1379    11.5594
  826.5000     8.5618   106.5897     2.5148     0.0160   -43.1091     9.1499    10.1379    11.5708
  827.0000     8.5605   107.1804     2.5178     0.0159   -43.3628     9.2777    10.1245    11.7388
  827.5000     8.5590   106.5662     2.5269     0.0159   -43.3628     9.2792     9.9997    11.8806
  828.0000     8.5577   105.9518     2.5376     0.0189   -43.6578     9.2804    10.1379    11.5594
  828.5000     8.5564   105.9398     2.5452     0.0204   -43.6578     9.2817    10.1379    11.5594
  829.0000     8.5551   105.8455     2.5513     0.0219   -43.6578     9.2829    10.1379    11.5594
  829.5000     8.5538   105.3132     2.5543     0.0219   -43.6578     9.1575    10.1379    11.6203
  830.0000     8.5525   105.1605     2.5496     0.0219   -43.6578     9.1588    10.1379    11.7189
  830.5000     8.5513   104.6867     2.5388     0.0218   -43.6578     9.1600    10.1956    11.6367
  831.0000     8.5500   104.6747     2.5373     0.0218   -43.6578     9.0363    10.2780    11.7189
  831.5000     8.5487   104.6626     2.5403     0.0218   -43.6578     8.9144    10.1379    11.7855
  832.0000     8.5474   104.6506     2.5449     0.0233   -43.6578     8.9156    10.1379    11.2468
  832.5000     8.5461   104.3524     2.5495     0.0248   -43.9528     8.9168     9.9997    10.9427
  833.0000     8.5156   103.3935     2.5543     0.0264   -43.9528     8.8954     9.8634    10.9427
  833.5000     8.5436   101.8605     2.5584     0.0278   -44.2478     8.7975     9.9997    10.9427
  834.0000     8.5335   101.5881     2.5428     0.0260   -44.5428     8.6788     9.9997    10.9427
  834.5000     8.5118   100.9740     2.5231     0.0231   -44.5428     8.6801     9.9997    10.9427
  835.0000     8.5397   101.5663     2.5292     0.0231   -44.5428     8.5163     9.8634    10.9427
  835.5000     8.5382   103.9625     2.5322     0.0231   -44.5428     8.3952     9.7289    10.9425
  836.0000     8.5368   107.5652     2.5392     0.0230   -44.5428     8.3334     9.7289    10.6468
  836.5000     8.5063   109.3606     2.5594     0.0235   -44.5428     8.2209     9.8634    10.6468
  837.0000     8.5047   109.9518     2.5788     0.0250   -44.2478     8.2222     9.7289    10.6468
  837.5000     8.5034   111.1443     2.5912     0.0281   -44.2478     8.1112     9.5908    10.4721
  838.0000     8.5022   111.1325     2.5978     0.0306   -44.2478     8.1123     9.3364    10.3223
  838.5000     8.5009   111.1205     2.5913     0.0298   -44.2478     8.0027     9.3197    10.0788
  839.0000     8.4996   111.1084     2.5844     0.0290   -44.2478     8.0039     9.2091    10.0788
  839.5000     8.4983   111.1878     2.5728     0.0282   -44.2478     8.0049     9.2091    10.0788
  840.0000     8.4970   111.6879     2.5607     0.0274   -43.9528     8.0060     9.2091    10.0788
  840.5000     8.4958   111.8244     2.5623     0.0273   -44.3795     8.0071     9.2091    10.0788
  841.0000     8.4944   112.2668     2.5467     0.0273   -44.6883     8.0038     9.0836    10.0788
  841.5000     8.4931   111.6506     2.5290     0.0273   -44.8378     7.9000     9.0836    10.2179
  842.0000     8.4918   111.0361     2.5227     0.0272   -45.1327     7.8854     9.0836    10.2179
  842.5000     8.4905   111.0241     2.5192     0.0272   -45.4277     7.7944     9.0836    10.2179
  843.0000     8.4892   111.0120     2.5268     0.0272   -45.7227     7.7956     9.0836    10.2179
  843.5000     8.4879   111.6024     2.5328     0.0272   -46.0177     7.7967     9.0836    10.2179
  844.0000     8.4865   112.1928     2.5374     0.0271   -46.0177     7.6537     8.8376    10.2179
  844.5000     8.4852   113.3834     2.5435     0.0271   -46.0177     7.5449     8.7171    10.2179
  845.0000     8.4839   113.3716     2.5419     0.0286   -46.3127     7.3362     8.4811    10.0788
  845.5000     8.4826   114.5647     2.5388     0.0286   -46.6077     7.1842     8.0280     9.6573
  846.0000     8.4813   115.7577     2.5433     0.0285   -46.9027     7.0873     7.8106     8.7776
  846.5000     8.4797   116.9508     2.5494     0.0285   -47.1976     6.9916     7.7041     8.5503
  847.0000     8.4784   117.0886     2.5524     0.0285   -47.1976     6.8974     7.7041     8.5503
  847.5000     8.5066   114.5176     2.5493     0.0284   -47.1976     6.7115     7.7041     8.5503
