~VERSION INFORMATION
 VERS.                2.0:   CWLS LOG ASCII STANDARD - VERSION 2.0
 WRAP.                 NO:   ONE LINE PER DEPTH STEP
~WELL INFORMATION
#MNEM.UNIT      DATA TYPE    INFORMATION
#----------   ------------   ------------------------------
 STRT.F          484.0000:   START DEPTH
 STOP.F         4096.0000:   STOP DEPTH
 STEP.F            0.5000:   STEP LENGTH
 NULL.          -999.2500:   NO VALUE
 COMP.    FENIX & SCISSON:   COMPANY
 WELL. FENIX NPR "JX" #58-28:   WELL
 FLD .                NPR:   FIELD
 LOC .      S28 T39N R78W:   LOCATION
 CNTY.            NATRONA:   COUNTY
 STAT.            WYOMING:   STATE
 CTRY. UNITED STATES OF AMERICA:   COUNTRY
 SRVC.              WELEX:   SERVICE COMPANY
 DATE.        02-MAY-1978:   LOGDATE
 API .     49025107810000:   API NUMBER
~CURVE INFORMATION
#MNEM.UNIT       API CODE    CURVE DESCRIPTION
#----------   ------------   ------------------------------
 DEPT.F                  :   
 NPHI.DEC    42 890 03 00:   NEUTRON POROSITY SANDSTONE
 RHOB.G/C3   45 350 01 00:   BULK DENSITY
 CORR.G/C3   45 356 01 00:   DENSITY CORRECTION
 CALD.IN     45 280 60 00:   CALIPER FROM DENSITY LOG
 GRD .GAPI   45 310 01 00:   GAMMA RAY FROM DENSITY LOG
 SPR .MV     07 010 01 00:   SPONTANEOUS POTENTIAL
 ILD .OHMM   07 120 46 00:   DEEP INDUCTION RESISTIVITY
 SGRD.OHMM   07 220 05 00:   SHALLOW SHORT GUARD RESISTIVITY
 ILM .OHMM   07 120 44 00:   INDUCTION LOG MEDIUM RESISTIVITY
~PARAMETER INFORMATION
#MNEM.UNIT          VALUE    DESCRIPTION
#----------   ------------   ------------------------------
 EKB .F         5115.0000:   Kelly bushing
 EGL .F         5101.0000:   Ground level
 EDF .F            0.0000:   Drilling floor
 EPD .F         5101.0000:   Permanent datum
 TD  .F         4100.0000:   Total depth
 DATE.        02-MAY-1978:   Date logged
 CLNT.            A2DTECH:   Client Code
 SL  . 525' FSL & 2406' FEL:   Surface Location
 PD  .                 GL:   Permanent Datum
 DAPD.F                14:   Feet Above Permanent Datum
 DD  .F              4100:   Depth driller
 DL  .F              4098:   Depth logger
 BLI .F              4096:   Bottom log interval
 CS1 .IN            8.625:   Casing size
 CBD1.      8.625" @ 501':   Casing driller 1
 CBL1.F               500:   Casing logger 1
 BS1 .IN            7.875:   Bit size
 BSD1.F              4100:   Depth drilled with bit1
 DFT .            CHM GEL:   Type fluid in hole
 DFD .                9.4:   Density
 DFV .                 48:   Viscosity
 DFPH.                9.3:   pH
 DFL .                8.5:   Fluid loss
 MSS .           FLOWLINE:   Source of sample
 RMS .OHMM           1.24:   Rm
 MST .F                70:   Rm Meas. temp.
 RMF .OHMM            .57:   Rmf
 MFST.F                70:   Rmf Meas. temp.
 RMC .OHMM           1.48:   Rmc
 MCST.F                70:   Rmc Meas. temp.
 MFSS.               MEAS:   Source Rmf.
 MCSS.               MEAS:   Source Rmc.
 RMB .OHMM            .87:   Rm. at BHT
 BHT .F               123:   BHT.
 TCS .HRS               4:   Time Circ. stopped
 MRT .F               123:   Maximum recorded temp.
 LUN .               1892:   Logging unit number
 LUL .             CASPER:   Logging unit location
 ENGI.               REIN:   Recorded By
 WITN.           DINSMORE:   Witnessed by
 ORIG.         2.5" PRINT:   Origin of data
 UWI .     49025107810000:   Unique Well ID
 DICO. A2D TECHNOLOGIES, INC.:   Digitizing Company
 TLI .                500:   Top log interval
~OTHER INFORMATION
~A   DEPT       NPHI     RHOB       CORR       CALD         GRD       SPR        ILD       SGRD        ILM   
# ...
 2163.0000     0.2970     2.4230     0.0480     8.8120   110.5530    -8.0240     7.9660     9.6330     8.4200
 2163.5000     0.2970     2.4110     0.0440     8.7720   110.0320    -7.6620     7.9150     9.2810     8.3670
 2164.0000     0.2960     2.4010     0.0470     8.7770   105.4480    -7.5180     7.8650     8.9370     8.3140
 2164.5000     0.2930     2.3930     0.0520     8.8120   101.4030    -7.6650     7.8150     8.5940     8.2610
 2165.0000     0.2890     2.3860     0.0570     8.8430    93.5700    -7.7740     7.7640     8.2180     8.2070
 2165.5000     0.2890     2.3800     0.0620     8.8990    89.5590    -7.8730     7.7140     8.3540     8.1540
 2166.0000     0.2870     2.3820     0.0620     8.9580    87.6510    -8.0090     7.6630     8.6260     8.1010
 2166.5000     0.2850     2.3980     0.0580     9.0200    85.4850    -8.2540     7.6130     8.8980     8.0470
 2167.0000     0.2800     2.4450     0.0580     9.0790    86.0660    -8.4820     7.5630     9.1060     7.9940
 2167.5000     0.2750     2.5230     0.0680     9.1330    88.3130    -8.7120     7.5120     9.0700     7.9410
 2168.0000     0.2730     2.5540     0.0770     9.2490    89.8540    -8.9440     7.4360     9.0340     7.8600
 2168.5000     0.2740     2.5540     0.0870     9.4090    87.5190    -9.1750     7.4880     8.9990     7.8670
 2169.0000     0.2760     2.5550     0.0970     9.5790    87.0700    -9.4050     7.5970     8.9630     7.8820
 2169.5000     0.2770     2.5330     0.1080     9.8130    89.2780    -9.6340     7.7070     8.9460     7.8970
 2170.0000     0.2790     2.5140     0.1130     9.6150    91.4260    -9.8700     7.8170    10.3730     7.9120
 2170.5000     0.2800     2.4640     0.1110     8.8610    94.0840   -10.0930     7.9260    10.3730     7.9270
 2171.0000     0.2810     2.4570     0.1110     8.8700   105.2360   -10.3090     8.0360    10.1510     7.9420
 2171.5000     0.2830     2.4500     0.1090     8.8570   108.0700   -10.2310     8.1450     9.8700     7.9570
 2172.0000     0.2830     2.4640     0.1070     8.8840   105.7950   -10.1480     8.2550     9.5890     7.9720
 2172.5000     0.2790     2.4990     0.0850     8.8570   101.3570   -10.0520     8.3650     9.3080     7.9870
 2173.0000     0.2750     2.5270     0.0890     8.9430   100.9130    -9.9630     8.4630     9.0270     8.0030
 2173.5000     0.2700     2.5220     0.0840     9.0710   100.4450    -9.8730     8.4040     8.9460     7.9660
 2174.0000     0.2740     2.4820     0.0800     9.0110    99.1160    -9.7830     8.2200     9.4560     7.9070
 2174.5000     0.2830     2.4800     0.0750     8.9330    97.4880    -9.6890     8.0350     9.2420     7.8490
 2175.0000     0.2830     2.4780     0.0700     8.8430    95.7090    -9.6030     7.8500     8.6580     7.7900
 2175.5000     0.2830     2.4630     0.0650     8.8160    92.7720    -9.5230     7.6660     8.0740     7.7320
 2176.0000     0.2810     2.4460     0.0610     8.8650    91.5020    -9.6220     7.4810     7.7160     7.6740
 2176.5000     0.2800     2.4430     0.0560     8.9080    90.0920    -9.7210     7.2970     7.8740     7.6160
 2177.0000     0.2790     2.4730     0.0640     8.9490    90.7520    -9.8280     7.1660     8.0060     7.5740
 2177.5000     0.2780     2.5000     0.0720     8.9910    95.2640    -9.9310     7.1660    10.4440     7.5740
 2178.0000     0.2810     2.5320     0.0810     8.9300    98.2090   -10.0340     7.1660    10.1750     7.5740
 2178.5000     0.2830     2.5320     0.0900     8.8080   100.3850   -10.1380     7.1660     9.6370     7.5740
 2179.0000     0.2840     2.5270     0.0980     8.8350    98.8780   -10.2410     7.1470     9.0980     7.5550
 2179.5000     0.2840     2.5120     0.1070     8.9080   102.5800   -10.3460     7.1310     8.4630     7.5380
 2180.0000     0.2860     2.4950     0.1160     8.9790   101.3170   -10.4490     7.1150     8.6170     7.5210
 2180.5000     0.2880     2.4790     0.1240     8.9410    99.9000   -10.5530     7.0990     8.8040     7.5040
 2181.0000     0.2880     2.4620     0.1330     8.8850    96.4920   -10.6600     7.0840     8.9910     7.4880
 2181.5000     0.2830     2.4400     0.1340     8.8240    99.8080   -10.8110     7.0680     9.1780     7.4710
 2182.0000     0.2780     2.4490     0.1260     8.7950    99.3310   -11.0720     7.0520     9.3650     7.4540
 2182.5000     0.2730     2.4810     0.1170     8.7870    97.2680   -11.3260     7.0360     9.6330     7.4370
 2183.0000     0.2740     2.5100     0.1220     8.7780    95.1880   -11.5240     7.0200     9.4040     7.4210
 2183.5000     0.2760     2.5330     0.1270     8.7650    96.0180   -11.3700     7.0040     9.0020     7.4040
 2184.0000     0.2790     2.5210     0.1330     8.7920    96.7930   -11.2430     6.9890     8.6000     7.3870
 2184.5000     0.2790     2.5100     0.1390     8.8850    97.9840   -11.0990     6.9730     8.1980     7.3710
 2185.0000     0.2790     2.4770     0.1440     8.9700    95.7420   -10.9620     6.9570     7.7970     7.3540
 2185.5000     0.2790     2.4370     0.1370     9.0380    95.2670   -10.8240     6.9420     7.4360     7.3380
 2186.0000     0.2790     2.4270     0.1300     9.0550    96.0800   -10.6850     6.9260     8.0060     7.3220
 2186.5000     0.2790     2.4200     0.1210     9.0860    96.7910   -10.5460     6.9110     7.8110     7.3050
 2187.0000     0.2800     2.4160     0.1270     9.0600    97.0640   -10.4090     6.8230     7.4490     7.2130
 2187.5000     0.2850     2.3820     0.1350     9.0120    92.0630   -10.2690     6.5940     7.2990     6.9700
 2188.0000     0.2900     2.3400     0.1410     8.9620    87.8620   -10.1300     6.3660     7.9780     6.7290
 2188.5000     0.2940     2.2550     0.1550     8.9170    82.1620   -10.0000     6.1380     8.9460     6.4890
 2189.0000     0.2920     2.1750     0.1430     8.8870    84.3870    -9.7620     5.9110     7.9810     6.2480
 2189.5000     0.2910     2.1000     0.1170     9.0050    88.9350    -9.4110     5.6830     6.8470     6.0070
 2190.0000     0.2860     2.0070     0.0810     9.1370    88.2510    -9.1170     5.4550     5.8460     5.7670
 2190.5000     0.2790     1.8160     0.0510     9.2770    85.8090    -9.1130     5.2280     5.1700     5.5260
 2191.0000     0.2730     1.8410     0.0230     9.4050    84.9300    -9.1030     5.0000     4.1910     5.2850
 2191.5000     0.2560     2.0010     0.0360     9.5420    86.2350    -9.1050     4.8590     4.5310     5.1370
 2192.0000     0.2590     2.1270     0.0560     9.7540    85.2230    -9.1930     4.8980     6.0630     5.1780
 2192.5000     0.2660     2.3740     0.0770     9.6410    81.7720    -9.5860     4.9630     8.3080     5.2460
 2193.0000     0.2740     2.5930     0.0960     9.2040    80.7610    -9.9650     5.0270     7.8020     5.3140
 2193.5000     0.2720     2.5880     0.0930     8.7900    84.2130   -10.3110     5.0920     7.3140     5.3820
 2194.0000     0.2690     2.5800     0.0830     8.8360    87.3070   -10.3210     5.1370     7.1660     5.4300
 2194.5000     0.2670     2.5650     0.0720     8.8960    89.7870   -10.3280     5.2830     7.4360     5.5850
 2195.0000     0.2650     2.5520     0.0610     8.9010    91.2180   -10.3240     5.5630     7.1280     5.8810
 2195.5000     0.2620     2.5450     0.0600     8.8480    90.5270   -10.3250     5.8440     6.9050     6.1770
 2196.0000     0.2600     2.5460     0.0720     8.8030    86.6570   -10.3250     6.1240     6.9050     6.4730
 2196.5000     0.2600     2.5430     0.0830     8.7600    83.1660   -10.3240     6.4040     7.7190     6.7700
 2197.0000     0.2600     2.5370     0.0940     8.7140    79.4070   -10.3240     6.6850     9.0380     7.0660
 2197.5000     0.2600     2.5310     0.1060     8.6980    77.2610   -10.3240     6.7920     9.7940     7.1790
 2198.0000     0.2610     2.5250     0.1160     8.7690    77.2730   -10.3240     6.8120     9.0550     7.2000
 2198.5000     0.2610     2.5190     0.1270     8.8360    78.5400   -10.3240     6.8320     8.3160     7.2210
 2199.0000     0.2590     2.4780     0.1130     8.9050    79.7280   -10.3240     6.8520     7.5770     7.2420
