~VERSION INFORMATION
 VERS.                2.0:   CWLS LOG ASCII STANDARD - VERSION 2.0
 WRAP.                 NO:   ONE LINE PER DEPTH STEP
~WELL INFORMATION
#MNEM.UNIT      DATA TYPE    INFORMATION
#----------   ------------   ------------------------------
 STRT.F          629.0000:   START DEPTH
 STOP.F         4090.0000:   STOP DEPTH
 STEP.F            0.5000:   STEP LENGTH
 NULL.          -999.2500:   NO VALUE
 COMP. LAWRENCE ALLISON & ASSOCIATES:   COMPANY
 WELL. LAWRENCE NPR 3 "SHX" #36-10:   WELL
 FLD .      NPR - WILDCAT:   FIELD
 LOC .      S10 T38N R78W:   LOCATION
 CNTY.            NATRONA:   COUNTY
 STAT.            WYOMING:   STATE
 CTRY. UNITED STATES OF AMERICA:   COUNTRY
 SRVC.      DRESSER ATLAS:   SERVICE COMPANY
 DATE.        24-DEC-1981:   LOGDATE
 API .     49025108310000:   API NUMBER
~CURVE INFORMATION
#MNEM.UNIT       API CODE    CURVE DESCRIPTION
#----------   ------------   ------------------------------
 DEPT.F                  :   
 DT  .US/F   60 520 00 00:   DELTA TIME
 TENS.LBS    60 635 01 00:   TENSION FROM SONIC
 GRR .GAPI   07 310 01 00:   GAMMA RAY FROM RESISTIVITY
 SPR .MV     07 010 01 00:   SPONTANEOUS POTENTIAL
 RFOC.OHMM   07 220 04 00:   RESISTIVITY FOCUSED LOG RES.
 RILM.OHMM   07 120 44 00:   INDUCTION LOG MEDIUM RESISTIVITY
 RILD.OHMM   07 120 46 00:   DEEP INDUCTION RESISTIVITY
 TENR.LBS    07 635 01 00:   TENSION FROM RESISTIVITY
 NPHI.DEC    42 890 03 00:   NEUTRON POROSITY SANDSTONE
 RHOB.G/C3   45 350 01 00:   BULK DENSITY
 CORR.G/C3   45 356 01 00:   DENSITY CORRECTION
 TEND.LBS    45 635 01 00:   TENSION FROM DENSITY LOG
 CALD.IN     45 280 60 00:   CALIPER FROM DENSITY LOG
~PARAMETER INFORMATION
#MNEM.UNIT          VALUE    DESCRIPTION
#----------   ------------   ------------------------------
 EKB .F         5234.0000:   Kelly bushing
 EGL .F         5224.0000:   Ground level
 EDF .F         5233.0000:   Drilling floor
 EPD .F            0.0000:   Permanent datum
 TD  .F         4100.0000:   Total depth
 DATE.        24-DEC-1981:   Date logged
 CLNT.            A2DTECH:   Client Code
 SL  . 1798' FSL & 1455' FWL:   Surface Location
 PD  .                 GL:   Permanent Datum
 DAPD.F                10:   Feet Above Permanent Datum
 DD  .F              4100:   Depth driller
 DL  .F              4082:   Depth logger
 BLI .F              4074:   Bottom log interval
 TLI .F              2300:   Top log interval
 CS1 .IN            9.625:   Casing size
 CBD1.      9.625" @ 650':   Casing driller 1
 BS1 .IN            7.875:   Bit size
 BSD1.F              4100:   Depth drilled with bit1
 DFT .            KCL/GEL:   Type fluid in hole
 DFD .                9.1:   Density
 DFV .                 60:   Viscosity
 DFPH.                  8:   pH
 DFL .                 12:   Fluid loss
 MSS .           FLOWLINE:   Source of sample
 RMS .OHMM           .536:   Rm
 RMF .OHMM           .402:   Rmf
 RMC .OHMM            067:   Rmc
 MFSS.               CALC:   Source Rmf.
 MCSS.               CALC:   Source Rmc.
 RMB .OHMM            .35:   Rm. at BHT
 BHT .F               135:   BHT.
 TCS .HRS               6:   Time Circ. stopped
 MRT .F               141:   Maximum recorded temp.
 LUL .               GLT1:   Logging unit location
 UWI .     49025108310000:   Unique Well ID
 DICO. A2D TECHNOLOGIES, INC.:   Digitizing Company
~OTHER INFORMATION
~A   DEPT       DT       TENS         GRR       SPR       RFOC       RILM       RILD       TENR       NPHI       RHOB       CORR       TEND       CALD   
# ...
 2527.0000    86.7380   -95.5020   117.2320   -28.2060     8.2290     8.0280     7.5690   -95.9860     0.2810     2.5170     0.0120   -64.2700     8.4600
 2527.5000    86.1600   -95.4530   119.0940   -28.1830     8.6820     7.8820     7.4480   -96.0410     0.2810     2.5210     0.0320   -64.5700     8.4600
 2528.0000    85.5810   -95.4040   117.3330   -28.1610     9.1340     7.7740     7.3280   -96.0950     0.2660     2.5270     0.0420   -64.8690     8.4600
 2528.5000    84.9950   -95.3550   113.1760   -28.1380     9.2190     7.6410     7.2080   -96.1500     0.2510     2.5300     0.0350   -65.1690     8.4600
 2529.0000    85.2250   -95.3060   114.2720   -28.1150     7.8820     7.5080     7.0880   -96.2040     0.2460     2.5290     0.0230   -65.3470     8.4600
 2529.5000    85.6170   -95.2570   115.2670   -28.0920     7.9060     7.3760     6.9680   -96.2590     0.2560     2.5270     0.0120   -65.1800     8.4600
 2530.0000    86.0100   -95.2080   114.3020   -28.0760     7.9640     7.2430     6.8470   -96.3130     0.2650     2.5260     0.0140   -65.0130     8.4600
 2530.5000    85.5460   -95.1600   111.7050   -27.8340     8.0230     7.1100     6.7270   -96.3680     0.2630     2.5270     0.0290   -64.8470     8.4600
 2531.0000    84.8410   -95.1110   109.0980   -27.5230     8.0810     6.9770     6.6070   -96.4220     0.2600     2.5330     0.0450   -64.6800     8.4600
 2531.5000    84.1360   -95.0620   106.4840   -27.2100     8.1780     6.8440     6.4870   -96.4770     0.2590     2.5380     0.0580   -64.5130     8.4600
 2532.0000    84.0730   -95.0130   103.8980   -26.8950     8.0710     6.7110     6.3660   -96.5310     0.2650     2.5400     0.0580   -64.3460     8.4600
 2532.5000    85.0900   -94.9640   103.4550   -26.5790     7.6030     6.5780     6.2460   -96.5850     0.2690     2.5360     0.0420   -64.1790     8.4580
 2533.0000    86.1080   -94.9150   107.2260   -26.2710     7.1350     6.4460     6.2020   -96.6400     0.2680     2.5320     0.0210   -64.0120     8.4560
 2533.5000    87.1250   -94.8660   110.9190   -26.4140     7.0560     6.3170     6.2020   -96.6940     0.2740     2.5280     0.0050   -63.8450     8.4540
 2534.0000    88.1430   -94.7760   114.6020   -26.5810     7.0560     6.4450     6.2020   -96.7490     0.2820     2.5220    -0.0070   -63.6780     8.4520
 2534.5000    89.1990   -94.5870   117.1950   -26.7460     7.0560     6.5690     6.2020   -96.8030     0.2820     2.5140    -0.0170   -63.5110     8.4490
 2535.0000    89.1670   -94.3980   117.7940   -26.9110     7.3160     6.6920     6.3490   -96.8580     0.2780     2.5160     0.0200   -63.3440     8.4470
 2535.5000    89.1340   -94.2090   118.3930   -27.0760     7.7210     6.8160     6.5240   -96.9120     0.2730     2.5220     0.0620   -63.1770     8.4450
 2536.0000    89.1010   -94.0200   118.3190   -27.2410     8.0280     6.9400     6.6990   -96.9670     0.2730     2.5250     0.0620   -63.0100     8.4430
 2536.5000    89.0670   -93.8310   115.3030   -27.4060     8.0280     7.0630     6.8750   -97.0210     0.2670     2.5200     0.0550   -62.8430     8.4400
 2537.0000    89.0340   -93.6420   115.7340   -27.5700     8.1070     7.1870     7.0500   -97.0760     0.2580     2.5170     0.0480   -62.6760     8.4380
 2537.5000    88.9990   -93.4530   116.1900   -27.7300     8.2830     7.3110     7.2250   -97.1300     0.2490     2.5170     0.0400   -62.5090     8.4360
 2538.0000    87.8010   -93.2640   112.5240   -27.9140     8.4590     7.4340     7.3210   -97.1840     0.2490     2.5200     0.0330   -62.3430     8.4330
 2538.5000    86.2030   -93.0760   108.1420   -27.9310     8.5640     7.5270     7.3890   -97.2390     0.2570     2.5220     0.0260   -62.1760     8.4310
 2539.0000    85.6960   -92.8870   104.8470   -27.7820     8.4770     7.5270     7.2510   -97.2930     0.2640     2.5220     0.0190   -62.0090     8.4290
 2539.5000    85.7450   -92.6980   106.8630   -27.6220     8.3440     7.5270     7.1400   -97.3480     0.2720     2.5210     0.0160   -61.8420     8.4260
 2540.0000    85.8360   -92.5090   108.7610   -27.4620     8.2120     7.5270     7.0300   -97.4020     0.2700     2.5220     0.0160   -61.6750     8.4240
 2540.5000    86.0140   -92.3200   110.6640   -27.3020     8.0790     7.5270     6.9190   -97.4570     0.2660     2.5280     0.0160   -61.5080     8.4220
 2541.0000    86.3610   -92.1310   111.0080   -27.1420     7.9550     7.5270     6.8090   -97.5110     0.2660     2.5340     0.0160   -61.3410     8.4190
 2541.5000    86.7090   -91.9420   110.4900   -26.9820     7.9550     7.4580     6.6980   -97.5660     0.2740     2.5340     0.0270   -61.1740     8.4170
 2542.0000    87.0560   -91.7530   111.7110   -26.8660     7.9550     7.3210     6.5880   -97.6200     0.2850     2.5310     0.0370   -61.0070     8.4150
 2542.5000    87.4030   -91.5640   115.2940   -27.1050     7.9550     7.1540     6.4770   -97.6740     0.2820     2.5290     0.0320   -60.8400     8.4130
 2543.0000    87.6070   -91.3750   118.8620   -27.3450     7.9550     7.0040     6.3660   -97.7290     0.2790     2.5290     0.0250   -60.6730     8.4100
 2543.5000    87.7570   -91.1860   122.6090   -27.5830     7.7800     6.8550     6.2560   -97.7830     0.2780     2.5340     0.0270   -60.5060     8.4080
 2544.0000    88.1050   -90.9970   122.7160   -27.8210     7.5800     6.7050     6.1450   -97.8380     0.2770     2.5390     0.0390   -60.3390     8.4060
 2544.5000    88.7420   -90.8080   121.2990   -28.0590     7.3790     6.5550     6.0350   -97.8920     0.2760     2.5360     0.0330   -60.1720     8.4030
 2545.0000    89.3790   -90.6190   119.7490   -28.2940     7.1790     6.4050     5.8280   -97.9470     0.2750     2.5330     0.0330   -60.0060     8.4010
 2545.5000    90.0170   -90.4310   120.3870   -28.4650     6.9780     6.2560     5.6040   -98.0010     0.2760     2.5320     0.0340   -59.8390     8.3990
 2546.0000    90.6540   -90.2420   121.9420   -28.4130     6.7780     6.1060     5.6040   -98.0560     0.2770     2.5300     0.0390   -59.6720     8.3960
 2546.5000    91.2910   -90.0530   123.5380   -28.3670     6.5780     6.0330     5.6550   -98.1100     0.2830     2.5240     0.0290   -59.5050     8.3940
 2547.0000    91.2430   -89.8640   125.0970   -28.3210     6.3760     6.0330     5.7020   -98.1650     0.2830     2.5180     0.0190   -59.3380     8.3920
 2547.5000    90.5440   -89.6750   123.3040   -28.2750     6.9760     6.1950     5.7490   -98.2190     0.2760     2.5150     0.0160   -59.1710     8.3890
 2548.0000    89.8440   -89.4860   120.3930   -28.2290     7.5280     6.3790     5.7960   -98.2730     0.2700     2.5210     0.0140   -59.0040     8.3870
 2548.5000    89.1450   -89.2970   115.1960   -28.1830     8.0280     6.5620     5.8420   -98.3280     0.2670     2.5290     0.0280   -58.8370     8.3850
 2549.0000    88.7480   -89.1080   113.0110   -28.1370     7.7680     6.7450     5.8890   -98.3820     0.2680     2.5300     0.0310   -58.6700     8.3830
 2549.5000    88.6480   -88.9190   116.4220   -28.0900     7.4770     6.8640     5.9220   -98.4370     0.2640     2.5280     0.0210   -58.5030     8.3810
 2550.0000    88.5480   -88.7300   118.9830   -27.8870     7.3890     6.8640     5.9220   -98.4910     0.2480     2.5270     0.0060   -58.3360     8.3840
 2550.5000    88.5590   -88.5410   121.2840   -27.5270     7.3740     6.8640     5.9220   -98.5460     0.2520     2.5290    -0.0070   -58.1690     8.3880
 2551.0000    88.7600   -88.3520   121.0650   -27.1660     7.3530     6.7680     5.8610   -98.6000     0.2610     2.5310     0.0070   -58.0020     8.3920
 2551.5000    88.9610   -88.1630   121.6840   -26.8070     7.3320     6.6300     5.7920   -98.6550     0.2700     2.5330     0.0250   -57.8350     8.3960
 2552.0000    89.1620   -87.9740   123.2400   -26.4480     7.3040     6.4920     5.7220   -98.7090     0.2780     2.5280     0.0410   -57.6690     8.4000
 2552.5000    89.3630   -87.7850   124.8860   -26.3410     7.2670     6.3540     5.6530   -98.7640     0.2830     2.5230     0.0380   -57.5020     8.4000
