~VERSION INFORMATION
 VERS.                2.0:   CWLS LOG ASCII STANDARD - VERSION 2.0
 WRAP.                 NO:   ONE LINE PER DEPTH STEP
~WELL INFORMATION
#MNEM.UNIT      DATA TYPE    INFORMATION
#----------   ------------   ------------------------------
 STRT.F          195.5000:   START DEPTH
 STOP.F         3197.0000:   STOP DEPTH
 STEP.F            0.5000:   STEP LENGTH
 NULL.          -999.2500:   NO VALUE
 COMP.    FENIX & SCISSON:   COMPANY
 WELL.  FENIX "AX" #17-11:   WELL
 FLD .              NPR-3:   FIELD
 LOC .      S11 T38N R78W:   LOCATION
 CNTY.            NATRONA:   COUNTY
 STAT.            WYOMING:   STATE
 CTRY. UNITED STATES OF AMERICA:   COUNTRY
 SRVC.              WELEX:   SERVICE COMPANY
 DATE.        16-SEP-1977:   LOGDATE
 API .     49025104170000:   API NUMBER
~CURVE INFORMATION
#MNEM.UNIT       API CODE    CURVE DESCRIPTION
#----------   ------------   ------------------------------
 DEPT.F                  :   
 GRD .GAPI   45 310 01 00:   GAMMA RAY FROM DENSITY LOG
 CALD.IN     45 280 60 00:   CALIPER FROM DENSITY LOG
 CORR.G/C3   45 356 01 00:   DENSITY CORRECTION
 TEND.LBS    45 635 01 00:   TENSION FORM DENSITY LOG
 RHOB.G/C3   45 350 01 00:   BULK DENSITY
 SPR .MV     07 010 01 00:   SPONTANEOUS POTENTIAL
 TENR.LBS    07 635 01 00:   TENSION FROM RESISTIVITY
 ILD .OHMM   07 120 46 00:   DEEP INDUCTION RESISTIVITY
 ILM .OHMM   07 120 44 00:   INDUCTION LOG MEDIUM RESISTIVITY
 SGRD.OHMM   07 220 05 00:   SHALLOW SHORT GUARD RESISTIVITY
~PARAMETER INFORMATION
#MNEM.UNIT          VALUE    DESCRIPTION
#----------   ------------   ------------------------------
 EKB .F         5212.0000:   Kelly bushing
 EGL .F         5202.0000:   Ground level
 TD  .F         3195.0000:   Total depth
 CLNT.            A2DTECH:   Client Code
 SL  . 1090' FSL & 330' FWL:   Surface Location
 PD  .                 GL:   Permanent Datum
 EPD .F              5202:   Elevation Permanent Datum
 LMF .                 KB:   Log Measured From
 DMF .                 KB:   Drilling Measured From
 DAPD.F                10:   Feet Above Permanent Datum
 DATE.        16-SEP-1977:   Date Logged [DD-MMM-YYYY]
 DD  .F              3195:   Depth driller
 DL  .F              3195:   Depth logger
 BLI .F              3193:   Bottom log interval
 TLI .F               217:   Top log interval
 CS1 .IN            8.625:   Casing size
 CBD1.      8.625" @ 216':   Casing driller 1
 CBL1.F               217:   Casing logger 1
 BS1 .IN            7.875:   Bit size
 BSD1.F              3195:   Depth drilled with bit1
 DFT .            KCL MUD:   Type fluid in hole
 DFD .                9.2:   Density
 DFV .                 36:   Viscosity
 DFPH.                 11:   pH
 DFL .                8.8:   Fluid loss
 MSS .           FLOWLINE:   Source of sample
 RMS .OHMM           2.76:   Rm
 MST .F                99:   Rm Meas. temp.
 RMF .OHMM           1.54:   Rmf
 MFST.F                99:   Rmf Meas. temp.
 MFSS.               MEAS:   Source Rmf.
 RMC .OHMM           3.01:   Rmc
 MCST.F                99:   Rmc Meas. temp.
 MCSS.               MEAS:   Source Rmc.
 RMB .OHMM           2.40:   Rm. at BHT
 BHT .F               112:   BHT.
 TCS .HRS               6:   Time Circ. stopped
 MRT .F               112:   Maximum recorded temp.
 LUN .               8611:   Logging unit number
 LUL .             CASPER:   Logging unit location
 ENGI.          D. LAWSON:   Recorded By
 WITN.         HARRINGTON:   Witnessed by
 ORIG.           5" PRINT:   Origin of data
 UWI .     49025104170000:   Unique Well ID
 DICO. A2D TECHNOLOGIES, INC.:   Digitizing Company
~OTHER INFORMATION
~A   DEPT       GRD      CALD       CORR       TEND       RHOB        SPR       TENR        ILD        ILM       SGRD   
# ...
 2574.0000   114.3400     8.6039     0.0038  1948.8022     2.5429   -71.5636  1764.1102     6.4931    10.3122    14.2524
 2574.5000   117.0491     8.6029     0.0034  1949.3263     2.5421   -71.5773  1765.2697     6.5830    10.3074    14.5477
 2575.0000   120.0598     8.6018     0.0030  1949.8503     2.5413   -71.5909  1768.9570     6.6742    10.1604    15.0563
 2575.5000   115.5291     8.6008     0.0029  1950.3743     2.5405   -71.6062  1797.8019     6.6733    10.0154    15.6908
 2576.0000   110.6968     8.5997     0.0044  1950.8981     2.5413   -71.6204  1798.9561     6.6724    10.0807    15.9054
 2576.5000   109.4843     8.5986     0.0053  1951.4221     2.5420   -71.6318  1815.0807     6.6716    10.1450    15.6814
 2577.0000   113.7002     8.5976     0.0072  1951.9460     2.5421   -71.6465  1800.9763     6.6706    10.1402    15.0392
 2577.5000   117.9176     8.5964     0.0086  1952.5133     2.5435   -71.6618  1802.4196     6.7220    10.1355    14.6244
 2578.0000   119.1199     8.5955     0.0100  1953.0183     2.5427   -71.6749  1803.5930     6.7622    10.2726    14.6205
 2578.5000   115.1910     8.5942     0.0122  1953.5178     2.5404   -71.6864  1775.0762     6.7611    10.4165    15.8831
 2579.0000   113.9786     8.5783     0.0129  1954.0420     2.5374   -71.7000  1776.2308     6.7601    10.5520    16.3249
 2579.5000   115.7827     8.5772     0.0128  1954.5658     2.5336   -71.7142  1792.3551     6.7592    10.5458    16.0950
 2580.0000   118.7935     8.5611     0.0097  1955.0897     2.5305   -71.7273  1793.5092     6.7583    10.6156    15.2235
 2580.5000   114.8646     8.5598     0.0082  1955.7128     2.5253   -71.7409  1809.6340     6.7574    10.6094    15.0111
 2581.0000   113.0488     8.5590     0.0036  1956.1376     2.5230   -71.6661  1795.8180     6.6631    10.2424    15.6427
 2581.5000   114.2496     8.5731     0.0020  1956.7231     2.5215   -71.4668  1788.6487     6.5703     9.8198    16.4153
 2582.0000   116.9587     8.5719     0.0004  1957.2285     2.5200   -71.4810  1783.2335     6.5694     9.4704    16.9891
 2582.5000   118.4627     8.5709     0.0004  1942.6376     2.5184   -71.4924  1784.5994     6.4779     9.2150    16.2648
 2583.0000   117.5219     8.5698    -0.0012  1930.7104     2.5177   -71.5061  1785.7535     6.2995     9.1469    14.8856
 2583.5000   119.3685     8.5688    -0.0013  1898.9060     2.5169   -71.5197  1786.9082     6.2075     9.1426    12.8675
 2584.0000   116.3306     8.5701    -0.0013  1897.7579     2.5161   -71.5355  1788.0624     6.0406     9.0751    12.0868
 2584.5000   112.0087     8.5817    -0.0022  1885.0308     2.5153   -71.5470  1789.2218     5.9564     9.1977    14.9771
 2585.0000   110.7991     8.5806    -0.0030  1870.4817     2.5153   -71.5606  1790.4192     5.8735     9.7865    16.9608
 2585.5000   112.0028     8.5646    -0.0031  1871.0330     2.5146   -71.5748  1791.8138     5.7917     9.3166    14.7632
 2586.0000   117.1281     8.5635    -0.0032  1871.6184     2.5145   -71.5879  1792.9680     5.6715     8.9943    13.0174
 2586.5000   121.3850     8.5624    -0.0032  1872.0815     2.5145   -71.6015  1794.1227     5.5538     8.7438    12.8460
 2587.0000   124.9647     8.5612    -0.0033  1872.6047     2.5145   -71.6173  1795.2769     5.5107     8.3249    13.2033
 2587.5000   121.9452     8.5602    -0.0049  1864.5559     2.5145   -71.6288  1781.4370     5.4000     7.8713    14.7464
 2588.0000   120.7364     8.5593    -0.0049  1858.6691     2.5137   -71.6435  1767.6455     5.3248     7.7053    13.8517
 2588.5000   124.9560     8.5581    -0.0050  1859.2064     2.5114   -71.6566  1784.0583     5.3241     8.1657    12.1407
 2589.0000   128.8746     8.5572    -0.0051  1859.7305     2.5104   -71.6697  1770.2429     5.3978     8.7831    11.1646
 2589.5000   131.8883     8.5561    -0.0067  1875.2812     2.5091   -71.6828  1771.3971     5.5107     9.2164    10.5641
 2590.0000   127.5614     8.5551    -0.0068  1880.9911     2.5091   -71.3929  1772.5511     5.7047     9.5376    15.4572
 2590.5000   120.4187     8.5692    -0.0083  1891.2618     2.5098   -71.4092  1773.7058     5.8769     9.8018    14.3196
 2591.0000   115.5893     8.5679    -0.0069  1891.7665     2.5211   -71.4223  1774.8600     6.1132    10.0036    13.9247
 2591.5000   112.5698     8.5670    -0.0064  1892.2904     2.5271   -71.4354  1776.0480     6.2846     9.9946    14.5116
 2592.0000   110.1536     8.5659    -0.0055  1892.8617     2.5293   -71.2970  1762.4873     6.4610     9.7191    15.5480
 2592.5000   108.6424     8.5649    -0.0035  1893.3383     2.5300   -71.1585  1748.6713     6.6419     9.9191    16.3253
 2593.0000   107.7345     8.5638    -0.0012  1908.8420     2.5322   -71.1749  1749.8254     6.7809    10.2648    16.6540
 2593.5000   108.5278     8.5778     0.0002  1910.4473     2.5345   -70.8833  1750.9801     6.8771    10.6967    16.1936
 2594.0000   110.5343     8.5768     0.0016  1924.8502     2.5420   -70.5950  1767.1044     6.9218    10.6917    15.1061
 2594.5000   112.1238     8.5757     0.0031  1925.4120     2.5472   -70.6081  1783.2338     6.8253    10.3938    13.7066
 2595.0000   114.3586     8.5746     0.0046  1925.8982     2.5510   -70.6212  1786.9213     6.8242    10.1041    14.4835
 2595.5000   114.9598     8.6037     0.0061  1911.5365     2.5532   -70.6348  1815.7660     6.8233     9.9591    15.7344
 2596.0000   112.8445     8.6027     0.0073  1911.9996     2.5546   -70.4959  1816.9200     6.8224     9.8855    16.1720
 2596.5000   112.2383     8.5864     0.0077  1912.4999     2.5569   -70.3607  1803.1049     6.8215     9.8125    15.2953
 2597.0000   113.2123     8.5534     0.0087  1913.0238     2.5599   -70.3738  1789.0004     6.8206     9.8079    15.5045
 2597.5000   114.8217     8.5391     0.0089  1913.5995     2.5604   -70.3869  1790.4430     6.8194     9.8716    16.1580
 2598.0000   116.7537     8.5382     0.0100  1914.0719     2.5620   -70.4000  1791.6169     6.9141    10.2157    17.0738
 2598.5000   117.9574     8.5370     0.0094  1914.6941     2.5656   -70.4164  1793.0403     6.9130    10.6442    15.0688
 2599.0000   118.8595     8.5408     0.0084  1915.1993     2.5678   -70.4295  1794.1951     7.0090    10.9390    14.0505
 2599.5000   116.7450     8.5502     0.0068  1915.6625     2.5686   -70.4425  1795.3491     7.1059    11.2419    14.8526
 2600.0000   118.2504     8.5490     0.0067  1916.1676     2.5655   -70.4545  1796.5039     7.2043    11.5532    15.9134
 2600.5000   118.0711     8.5629     0.0067  1916.6915     2.5610   -70.4606  1781.9688     7.0957    11.7107    16.8154
 2601.0000   112.8140     8.5703     0.0066  1917.2202     2.5558   -70.4678  1797.6637     7.0515    11.2261    17.1638
 2601.5000   109.7945     8.5910     0.0095  1918.9115     2.5505   -70.4736  1798.2438     7.0496    11.0661    17.1526
 2602.0000   109.1890     8.5900     0.0109  1930.3967     2.5452   -70.4795  1798.8237     7.0477    11.5316    16.9141
 2602.5000   111.5986     8.5890     0.0124  1933.7902     2.5415   -70.4854  1799.4036     6.9970    11.2103    16.9072
 2603.0000   113.1040     8.6031     0.0133  1934.2815     2.5377   -70.4913  1800.0000     6.8986    11.5208    16.4397
 2603.5000   112.7835     8.5867     0.0137  1934.8425     2.5332   -70.4971  1815.6785     6.8016    11.6751    15.1237
 2604.0000   110.6842     8.5857     0.0121  1935.4320     2.5279   -70.5030  1831.2284     6.7056    16.3142    15.0156
 2604.5000   110.3796     8.5951     0.0105  1935.8533     2.5211   -70.5091  1831.8086     6.6113    19.5380    15.7548
 2605.0000   110.3767     8.6139     0.0045  1936.3772     2.5136   -70.5152  1817.4183     6.4284    18.9975    15.8737
 2605.5000   110.9771     8.6278     0.0027  1936.9897     2.5075   -70.3706  1817.9985     6.2506    17.9659    14.9992
 2606.0000   112.7841     8.6419    -0.0002  1937.4252     2.5053   -70.2242  1803.5929     6.0777    16.7558    14.8905
 2606.5000   115.1945     8.6407    -0.0017  1937.9491     2.5083   -69.9273  1804.1918     5.9922    14.7555    15.3037
 2607.0000   117.9542     8.6398    -0.0033  1938.4730     2.5143   -69.4791  1804.7906     5.9906    14.3727    15.0869
