~VERSION INFORMATION
 VERS.                2.0:   CWLS LOG ASCII STANDARD - VERSION 2.0
 WRAP.                 NO:   ONE LINE PER DEPTH STEP
~WELL INFORMATION
#MNEM.UNIT      DATA TYPE    INFORMATION
#----------   ------------   ------------------------------
 STRT.F          200.0000:   START DEPTH
 STOP.F         3038.0000:   STOP DEPTH
 STEP.F            0.5000:   STEP LENGTH
 NULL.          -999.2500:   NO VALUE
 COMP.    FENIX & SCISSON:   COMPANY
 WELL. FENIX NPR 3 "A" #63-28:   WELL
 FLD .            WILDCAT:   FIELD
 LOC .      S28 T39N R78W:   LOCATION
 CNTY.            NATRONA:   COUNTY
 STAT.            WYOMING:   STATE
 CTRY. UNITED STATES OF AMERICA:   COUNTRY
 SRVC.              WELEX:   SERVICE COMPANY
 DATE.        29-MAY-1977:   LOGDATE
 API .     49025103740000:   API NUMBER
~CURVE INFORMATION
#MNEM.UNIT       API CODE    CURVE DESCRIPTION
#----------   ------------   ------------------------------
 DEPT.F                  :   
 SPR .MV     07 010 01 00:   SPONTANEOUS POTENTIAL
 ILM .OHMM   07 120 44 00:   INDUCTION LOG MEDIUM RESISTIVITY
 ILD .OHMM   07 120 46 00:   DEEP INDUCTION RESISTIVITY
 SGRD.OHMM   07 220 05 00:   SHALLOW SHORT GUARD RESISTIVITY
 GRD .GAPI   45 310 01 00:   GAMMA RAY FROM DENSITY LOG
 CALD.IN     45 280 60 00:   CALIPER FROM DENSITY LOG
 RHOB.G/C3   45 350 01 00:   BULK DENSITY
 CORR.G/C3   45 356 01 00:   DENSITY CORRECTION
~PARAMETER INFORMATION
#MNEM.UNIT          VALUE    DESCRIPTION
#----------   ------------   ------------------------------
 EKB .F         5040.0000:   Kelly bushing
 EGL .F         5029.0000:   Ground level
 EDF .F            0.0000:   Drilling floor
 EPD .F         5029.0000:   Permanent datum
 TD  .F         3040.0000:   Total depth
 DATE.        29-MAY-1977:   Date logged
 CLNT.            A2DTECH:   Client Code
 SL  . 1650' FNL & 1650' FEL:   Surface Location
 PD  .                 GL:   Permanent Datum
 LMF .                 KB:   Log Measured From
 DMF .                 KB:   Drilling Measured From
 DD  .F              3040:   Depth driller
 DL  .F              3038:   Depth logger
 BLI .F              3036:   Bottom log interval
 TLI .F               200:   Top log interval
 CS1 .IN            8.625:   Casing size
 BSD1.F              3040:   Depth drilled with bit1
 DFT .            KCL MUD:   Type fluid in hole
 ORIG.     2.5", 5" PRINT:   Origin of data
 UWI .     49025103740000:   Unique Well ID
 DICO. A2D TECHNOLOGIES, INC.:   Digitizing Company
 DAPD.                 11:   Feet Above Permanent Datum
 CBD1.      8.625" @ 220':   Casing driller 1
 BS1 .              7.875:   Bit size
 DFD .                8.7:   Density
 MRT .                108:   Maximum recorded temp.
 ENGI.            C. DOAK:   Recorded By
 WITN.      W. PETTINGILL:   Witnessed by
~OTHER INFORMATION
~A   DEPT      SPR        ILM          ILD     SGRD         GRD        CALD       RHOB      CORR  
# ...
  564.5000   -57.8250    10.3310     9.0750    10.8950    84.8990    11.1250     2.4240     0.0190
  565.0000   -57.7440    10.3660     9.1030    10.9610    84.6820    11.1110     2.4250     0.0190
  565.5000   -57.8580    10.4010     9.1310    11.0260    84.0910    11.0970     2.4230     0.0190
  566.0000   -58.0790    10.4370     9.1590    11.0550    83.5220    11.0830     2.4210     0.0190
  566.5000   -58.3530    10.4720     9.1870    11.0550    82.9480    11.0690     2.4270     0.0190
  567.0000   -58.3670    10.5080     9.2150    11.0550    82.3620    11.0550     2.4320     0.0190
  567.5000   -58.3930    10.5430     9.2430    11.0550    81.7950    11.0410     2.4390     0.0190
  568.0000   -58.4230    10.6670     9.2830    11.0550    81.2230    11.0260     2.4450     0.0190
  568.5000   -58.4520    10.8590     9.2530    11.1660    80.5780    11.0190     2.4510     0.0200
  569.0000   -58.4820    11.0550     9.2000    11.2600    80.3880    11.0200     2.4570     0.0210
  569.5000   -58.5060    11.0200     9.1480    11.2430    81.0850    11.0190     2.4630     0.0230
  570.0000   -58.4120    10.9280     9.0950    11.1510    81.6970    11.0190     2.4690     0.0250
  570.5000   -57.9600    10.8360     9.0310    11.0580    82.3460    11.0190     2.4740     0.0260
  571.0000   -57.9370    10.7430     9.0860    10.9660    82.5630    11.0190     2.4760     0.0280
  571.5000   -57.9400    10.6510     9.1580    10.8530    82.2010    11.0190     2.4770     0.0300
  572.0000   -57.9410    10.5580     9.2290    11.0310    81.7900    11.0190     2.4730     0.0310
  572.5000   -57.9420    10.6350     9.3000    11.2600    81.3810    11.0190     2.4650     0.0300
  573.0000   -57.9450    10.8340     9.3710    11.5030    80.9660    11.0190     2.4570     0.0280
  573.5000   -57.9130    11.0320     9.4430    11.7490    80.5460    11.0190     2.4500     0.0250
  574.0000   -57.3810    11.2300     9.5140    12.0240    80.3160    11.0190     2.4420     0.0220
  574.5000   -57.3250    11.4690     9.5840    12.1190    80.6480    11.0190     2.4350     0.0190
  575.0000   -57.3010    11.4040     9.6530    11.4690    80.9700    11.0190     2.4280     0.0190
  575.5000   -57.2760    11.2420     9.7220    11.5920    81.3100    11.0190     2.4270     0.0210
  576.0000   -57.2500    11.0790     9.7900    11.6200    81.6430    11.0190     2.4280     0.0250
  576.5000   -57.2230    10.8640     9.8590    11.6480    81.9770    11.0190     2.4430     0.0270
  577.0000   -57.1970    10.9120     9.9000    11.6760    82.3120    11.0190     2.4540     0.0270
  577.5000   -57.1690    11.0090     9.9000    11.8240    82.6460    11.0190     2.4530     0.0260
  578.0000   -57.1000    11.1060     9.9000    12.0080    82.9800    11.0190     2.4490     0.0230
  578.5000   -56.8840    11.2030     9.9000    12.0940    83.3320    11.0190     2.4450     0.0200
  579.0000   -56.6750    11.2600     9.9000    12.3440    83.7590    11.0190     2.4410     0.0170
  579.5000   -56.6280    11.2600     9.9000    11.1570    84.2110    11.0190     2.4360     0.0150
  580.0000   -56.7420    10.9980     9.9000    11.2440    84.6700    11.0190     2.4350     0.0160
  580.5000   -56.8560    10.9080     9.9000    11.4540    85.1120    11.0200     2.4430     0.0210
  581.0000   -56.9640    10.8170     9.7840    11.5750    85.5700    11.0140     2.4560     0.0270
  581.5000   -57.0610    10.7260     9.6440    11.3630    86.0430    11.0010     2.4680     0.0330
  582.0000   -57.1540    10.6350     9.5030    11.1060    86.3550    10.9890     2.4800     0.0390
  582.5000   -57.2460    10.5440     9.3620    10.7540    87.0550    10.9770     2.4770     0.0370
  583.0000   -57.3380    10.4530     9.2220    10.8130    88.1770    10.9650     2.4650     0.0300
  583.5000   -57.4300    10.3660     9.1750    10.9500    89.1900    10.9530     2.4540     0.0230
  584.0000   -57.5220    10.2850     9.1470    11.0550    90.2110    10.9410     2.4430     0.0160
  584.5000   -57.6460    10.2080     9.1190    10.9920    91.2250    10.9290     2.4410     0.0110
  585.0000   -57.7470    10.1300     9.0910    10.9420    92.2930    10.9170     2.4410     0.0110
  585.5000   -57.7450    10.0520     9.0640    10.8910    92.4810    10.9040     2.4410     0.0120
  586.0000   -57.7450     9.9740     9.0360    10.8250    92.1010    10.9040     2.4410     0.0130
  586.5000   -57.7450     9.9000     9.0080    10.7100    91.7880    10.9080     2.4410     0.0140
  587.0000   -57.7440     9.8910     8.9800    10.5940    91.4750    10.9130     2.4410     0.0150
  587.5000   -57.7480     9.8760     8.9520    10.4790    91.1470    10.9180     2.4410     0.0160
  588.0000   -58.0120     9.8610     8.7930    10.3870    90.8290    10.9220     2.4490     0.0170
  588.5000   -58.3180     9.8470     8.6810    10.2990    90.5140    10.9270     2.4550     0.0180
  589.0000   -58.4100     9.8320     8.5680    10.2110    90.1790    10.9320     2.4620     0.0190
  589.5000   -58.5120     9.8170     8.4560    10.1230    89.8790    10.9370     2.4620     0.0200
  590.0000   -58.6170     9.7450     8.3430    10.0350    89.5840    10.9420     2.4610     0.0210
  590.5000   -58.7220     9.6030     8.2380     9.9000    90.0980    10.9490     2.4570     0.0210
  591.0000   -58.8260     9.4620     8.2040     9.9270    90.6510    10.9560     2.4530     0.0220
  591.5000   -58.9250     9.3200     8.1540     9.9840    91.2550    10.9640     2.4490     0.0240
  592.0000   -59.0150     9.1790     8.1040    10.0420    91.8690    10.9710     2.4450     0.0250
  592.5000   -59.1010     9.0380     8.0880    10.0840    93.1400    10.9790     2.4520     0.0270
  593.0000   -59.1860     8.8960     7.9480     9.9340    94.5050    10.9860     2.4560     0.0280
  593.5000   -59.2720     8.7550     7.8180     9.7100    95.6890    10.9930     2.4550     0.0290
  594.0000   -59.4230     8.6130     7.6870     9.3470    95.7210    11.0010     2.4550     0.0310
  594.5000   -59.6410     8.4720     7.5570     8.9830    95.7450    11.0080     2.4630     0.0320
  595.0000   -59.8600     8.3310     7.4260     8.7850    95.7360    11.0160     2.4730     0.0340
  595.5000   -60.0880     8.4800     7.2960     8.8050    95.7280    11.0230     2.4810     0.0350
  596.0000   -60.1320     8.5210     7.1770     8.8760    95.7110    11.0320     2.4730     0.0340
  596.5000   -60.1670     8.5630     7.2370     8.9480    95.0170    11.0400     2.4510     0.0290
  597.0000   -60.2030     8.6040     7.3260     9.0190    94.1820    11.0480     2.4420     0.0220
  597.5000   -60.2400     8.6460     7.4150     9.0900    93.3380    11.0560     2.4330     0.0150
  598.0000   -60.2760     8.6870     7.5040     9.1620    92.5070    11.0650     2.4230     0.0150
  598.5000   -60.2940     8.7290     7.5920     9.2330    91.6690    11.0730     2.4180     0.0130
  599.0000   -60.2940     8.7710     7.6810     9.3060    90.8330    11.0810     2.4190     0.0120
  599.5000   -60.2940     8.8120     7.7700     9.3840    89.9960    11.0890     2.4250     0.0110
  600.0000   -60.2940     8.8540     7.8680     9.4630    89.1630    11.0980     2.4330     0.0110
  600.5000   -60.2940     8.9170     7.8940     9.5410    88.3260    11.1060     2.4400     0.0130
  601.0000   -60.2740     8.9890     7.9800     9.6190    87.7410    11.1140     2.4460     0.0140
  601.5000   -60.2350     9.0610     8.0670     9.6970    87.3380    11.1220     2.4470     0.0160
  602.0000   -60.1950     9.1330     8.1530     9.8110    86.9300    11.1310     2.4470     0.0180
  602.5000   -60.1560     9.2050     8.2390     9.9380    86.5240    11.1330     2.4500     0.0190
  603.0000   -60.1170     9.2770     8.3260    10.0660    86.1200    11.1240     2.4540     0.0210
  603.5000   -60.0800     9.3490     8.4120    10.1930    85.7060    11.1170     2.4590     0.0230
  604.0000   -60.0460     9.4990     8.4990    10.3210    85.3140    11.1080     2.4630     0.0240
  604.5000   -60.0120     9.6300     8.5850    10.4480    84.9000    11.1000     2.4640     0.0260
