~VERSION INFORMATION
 VERS.                2.0:   CWLS LOG ASCII STANDARD - VERSION 2.0
 WRAP.                 NO:   ONE LINE PER DEPTH STEP
~WELL INFORMATION
#MNEM.UNIT      DATA TYPE    INFORMATION
#----------   ------------   ------------------------------
 STRT.F          388.0000:   START DEPTH
 STOP.F         3166.0000:   STOP DEPTH
 STEP.F            0.5000:   STEP LENGTH
 NULL.          -999.2500:   NO VALUE
 COMP.    PENIX & SCISSON:   COMPANY
 WELL. PENIX NPR 3 "AX" #34-28:   WELL
 FLD .                NPR:   FIELD
 LOC .      S28 T39N R78W:   LOCATION
 CNTY.            NATRONA:   COUNTY
 STAT.            WYOMING:   STATE
 CTRY. UNITED STATES OF AMERICA:   COUNTRY
 SRVC.              WELEX:   SERVICE COMPANY
 DATE.        15-DEC-1978:   LOGDATE
 API .     49025107950000:   API NUMBER
~CURVE INFORMATION
#MNEM.UNIT       API CODE    CURVE DESCRIPTION
#----------   ------------   ------------------------------
 DEPT.F                  :   
 CALD.IN     45 280 60 00:   CALIPER FROM DENSITY LOG
 GRD .GAPI   45 310 01 00:   GAMMA RAY FROM DENSITY LOG
 RHOB.G/C3   45 350 01 00:   BULK DENSITY
 CORR.G/C3   45 356 01 00:   DENSITY CORRECTION
 NPHI.DEC    42 890 03 00:   NEUTRON POROSITY SANDSTONE
 SPR .MV     07 010 01 00:   SPONTANEOUS POTENTIAL
 SGRD.OHMM   07 220 05 00:   SHALLOW GUARD
 ILD .OHMM   07 120 46 00:   DEEP INDUCTION RESISTIVITY
 ILM .OHMM   07 120 44 00:   INDUCTION LOG MEDIUM RESISTIVITY
 TENR.LBS    07 635 01 00:   TENSION FROM RESISTIVITY
~PARAMETER INFORMATION
#MNEM.UNIT          VALUE    DESCRIPTION
#----------   ------------   ------------------------------
 EKB .F         5039.0000:   Kelly bushing
 EGL .F         5029.0000:   Ground level
 EDF .F            0.0000:   Drilling floor
 TD  .F         3159.0000:   Total depth
 DATE.        15-DEC-1978:   Date logged
 CLNT.            A2DTECH:   Client Code
 SL  . 2434' FNL & 1651' FWL:   Surface Location
 PD  .                 GL:   Permanent Datum
 EPD .F              5029:   Elevation Permanent Datum
 LMF .                 KB:   Log Measured From
 DMF .                 KB:   Drilling Measured From
 DAPD.F                10:   Feet Above Permanent Datum
 DD  .F              3155:   Depth driller
 DL  .F              3159:   Depth logger
 BLI .F              3157:   Bottom log interval
 TLI .F               350:   Top log interval
 CS1 .IN            8.625:   Casing size
 CBD1.      8.625" @ 383':   Casing driller 1
 CBL1.F               398:   Casing logger 1
 BS1 .IN            7.875:   Bit size
 BSD1.F              3155:   Depth drilled with bit1
 DFT .           CHEM/GEL:   Type fluid in hole
 DFD .                8.5:   Density
 DFV .                 55:   Viscosity
 DFPH.                 10:   pH
 DFL .               10.8:   Fluid loss
 MSS .           FLOWLINE:   Source of sample
 RMS .OHMM           1.65:   Rm
 MST .F                65:   Rm Meas. temp.
 RMF .OHMM           1.32:   Rmf
 MFST.F                65:   Rmf Meas. temp.
 RMC .OHMM           1.98:   Rmc
 MCST.F                65:   Rmc Meas. temp.
 MFSS.               CALC:   Source Rmf.
 RMB .OHMM              1:   Rm. at BHT
 BHT .F               107:   BHT.
 TCS .HRS               8:   Time Circ. stopped
 MRT .F               107:   Maximum recorded temp.
 LUN .               1892:   Logging unit number
 LUL .             CASPER:   Logging unit location
 ENGI.               REIN:   Recorded By
 WITN.              AMEND:   Witnessed by
 ORIG.           5" PRINT:   Origin of data
 UWI .     49025107950000:   Unique Well ID
 DICO. A2D TECHNOLOGIES, INC.:   Digitizing Company
~OTHER INFORMATION
~A   DEPT     CALD         GRD      RHOB       CORR       NPHI        SPR       SGRD        ILD        ILM       TENR   
# ...
  924.0000     9.1738   107.2494     2.5527     0.0002     0.2811    -3.6357    10.0540     9.1744     9.5445  1126.9178
  924.5000     9.1692   104.0259     2.5366     0.0022     0.2847    -3.6337    10.0563     9.2288     9.5214  1126.6102
  925.0000     9.1690   109.6542     2.5123     0.0083     0.2899    -3.6317     9.9651     9.2315     9.4983  1126.3024
  925.5000     9.1687   112.4688     2.5103     0.0144     0.2919    -3.6297     9.9664     9.1467     9.4752  1125.9943
  926.0000     9.1888   114.4769     2.5073     0.0144     0.2903    -3.6277     9.9680     9.1479     9.4522  1125.6865
  926.5000     9.2891   114.8752     2.4962     0.0043     0.2855    -3.8277     9.9700     9.0644     9.4293  1125.3787
  927.0000     9.3367   111.6517     2.4972    -0.0039     0.2802    -3.7714     9.9717     8.9817     9.4105  1104.8759
  927.5000     9.3843   107.6234     2.5053    -0.0018     0.2794    -3.7151     9.9736     8.6560     9.4117  1144.9583
  928.0000     9.3891   106.4129     2.4992    -0.0059     0.2741    -3.6588     9.7912     8.4979     9.0698  1124.4554
  928.5000     9.4291   108.4202     2.4992    -0.0100     0.2733    -3.6025     9.7931     8.6601     9.0701  1124.1477
  929.0000     9.4691   109.2218     2.4982    -0.0059     0.2737    -3.5462     9.9786     8.6609     9.0716  1123.8398
  929.5000     9.4689   107.2039     2.4972    -0.0019     0.2737    -3.4899    10.1672     8.8250     9.0899  1103.1530
  930.0000     9.4888   103.1764     2.5012     0.0042     0.2781    -3.4336    10.1682     8.8259     9.1082  1163.6135
  930.5000     9.4886   106.3926     2.5143     0.0184     0.2793    -3.3773    10.3614     8.8276     9.1266  1122.9167
  931.0000     9.4886   110.8128     2.5406     0.0327     0.2793    -3.3210    10.4583     8.8291     9.1450  1122.6089
  931.5000     9.4882   108.3966     2.5456     0.0456     0.2777    -3.2647    10.5586     8.8305     9.1634  1142.4954
  932.0000     9.4880   105.1731     2.5527     0.0326     0.2749    -3.2084    10.5597     8.8320     9.1819  1142.1876
  932.5000     9.4880   106.7788     2.5264     0.0204     0.2708    -3.1521    10.5621     8.8335     9.2004  1141.8798
  933.0000     9.5078   108.3845     2.5173     0.0184     0.2680    -3.0958    10.4659     8.7532     9.2189  1141.5719
  933.5000     9.4874   112.4047     2.5173     0.0245     0.2668    -3.0395    10.3713     8.8367     9.2375  1121.0703
  934.0000     9.4874   114.8152     2.5314     0.0387     0.2632    -2.9832    10.2769     8.8379     9.2561  1120.7625
  934.5000     9.4670   114.4103     2.5294     0.0346     0.2615    -2.9269    10.1840     8.9219     9.2747  1120.4548
  935.0000     9.4667   111.1852     2.5193     0.0225     0.2611    -2.8706    10.1853     9.0068     9.2934  1120.1471
  935.5000     9.4665   109.9739     2.5122     0.0184     0.2611    -3.1859    10.2827     9.0080     9.3122  1140.0325
  936.0000     9.4664   111.5795     2.5062     0.0163     0.2603    -3.3859    10.3795     9.0095     9.3309  1139.7247
  936.5000     9.4460   111.1755     2.5062     0.0184     0.2595    -3.5851    10.4780     9.0952     9.3497  1139.4169
  937.0000     9.4459   110.3666     2.5102     0.0245     0.2607    -3.5831    10.4794     9.1817     9.3686  1139.1091
  937.5000     9.4255   106.7423     2.5102     0.0245     0.2623    -3.7827    10.4818     9.1832     9.3874  1138.8013
  938.0000     9.4253   101.9050     2.4981     0.0143     0.2619    -3.9823    10.4829     9.1853     9.4064  1138.4935
  938.5000     9.4252   100.6945     2.4940     0.0062     0.2619    -3.9803    10.4846     9.1015     9.4253  1138.1857
  939.0000     9.4249   100.6905     2.5031     0.0102     0.2623    -4.1799    10.4870     9.1030     9.4443  1137.8779
  939.5000     9.4448   101.4913     2.5092     0.0123     0.2627    -4.3795    10.4887     9.1048     9.4633  1137.5701
  940.0000     9.4647   102.6945     2.5092     0.0163     0.2623    -4.5791    10.3929     9.1064     9.4824  1137.2623
  940.5000     9.4846   102.6904     2.4960     0.0061     0.2618    -4.7786    10.2993     9.1069     9.5015  1136.9545
  941.0000     9.4844   109.9293     2.4900     0.0041     0.2635    -4.7766    10.1116     9.1945     9.5206  1136.6467
  941.5000     9.4844   113.5470     2.4900     0.0041     0.2634    -4.7746    10.2072     9.1961     9.5451  1136.3389
  942.0000     9.4840   101.0685     2.4799    -0.0061     0.2642    -4.7726    10.2092     9.1966     9.5454  1115.8390
  942.5000     9.4838   103.4791     2.4799    -0.0040     0.2646    -4.7706    10.2106     9.1990     9.5426  1135.6617
  943.0000     9.4635   111.1187     2.4879     0.0000     0.2658    -4.7686    10.2123     9.1996     9.5398  1155.5460
  943.5000     9.4633   109.5074     2.4970     0.0081     0.2658    -4.7666    10.2143     9.2019     9.5370  1155.2382
  944.0000     9.4631   111.9179     2.5071     0.0061     0.2658    -4.7646    10.1209     9.2030     9.5342  1154.9302
  944.5000     9.4227   109.0968     2.5132     0.0102     0.2743    -4.7626    10.1226     9.0364     9.5314  1154.6224
  945.0000     9.3822   114.3227     2.5071     0.0061     0.2787    -4.7606    10.1243     9.1042     9.5286  1134.1230
  945.5000     9.3821   108.6863     2.5132     0.0061     0.2839    -5.1618    10.1266     9.1221     9.5258  1154.0063
  946.0000     9.3616   107.8774     2.5071     0.0061     0.2860    -4.7566    10.1280     9.2097     9.5229  1133.5072
  946.5000     9.3615   106.2628     2.4950    -0.0041     0.2839    -4.7546    10.1290     9.2109     9.5201  1133.1993
  947.0000     9.3814   108.2717     2.4899    -0.0061     0.2799    -4.5509    10.1316     9.2119     9.5173  1153.0828
  947.5000     9.4013   113.4992     2.4980    -0.0021     0.2771    -4.5489    10.1333     9.2140     9.5145  1132.5839
  948.0000     9.4011   115.9121     2.5010    -0.0041     0.2750    -4.5469    10.1353     9.2158     9.5117  1132.2762
  948.5000     9.4211   113.4911     2.4990     0.0020     0.2754    -4.5449    10.1363     9.2171     9.5089  1131.9685
  949.0000     9.4208   119.9258     2.5000     0.0020     0.2774    -4.3413    10.1383     9.1330     9.5061  1151.8514
  949.5000     9.4206   120.7266     2.5050     0.0061     0.2778    -4.3393    10.1403     9.0496     9.5033  1151.5436
  950.0000     9.4204   117.9056     2.5252     0.0243     0.2774    -4.1353    10.1420     8.8853     9.5005  1171.4263
  950.5000     9.4202   119.2647     2.5282     0.0225     0.2802    -4.1333    10.1437     8.8867     9.4977  1150.9280
  951.0000     9.3997   119.1058     2.5151     0.0182     0.2818    -4.1314    10.1454     8.9712     9.4949  1150.6201
  951.5000     9.3794   115.0779     2.5020     0.0039     0.2847    -4.3313    10.1470     9.0565     9.4921  1150.3123
  952.0000     9.4194   115.0745     2.5029     0.0039     0.2851    -4.3293    10.1484     9.1430     9.4891  1129.8145
  952.5000     9.4191   117.0837     2.5029     0.0059     0.2846    -4.3273    10.1504     9.2293     9.4910  1149.6967
  953.0000     9.4390   117.0805     2.5060     0.0160     0.2858    -4.3252    10.1521     9.2311     9.4922  1149.3889
  953.5000     9.4389   114.6620     2.5080     0.0160     0.2875    -4.3232    10.1534     9.0892     9.4938  1149.0811
  954.0000     9.4385   121.0988     2.5069     0.0180     0.2939    -4.3212     9.9687     9.0632     9.4072  1148.7733
  954.5000     9.4583   126.3291     2.5150     0.0200     0.2939    -4.3192     9.8780     8.9808     9.3220  1128.2759
  955.0000     9.4580   127.1320     2.5170     0.0199     0.2939    -4.3172     9.6976     8.7361     9.1518  1148.1577
  955.5000     9.4578   119.4791     2.5140     0.0228     0.2955    -4.3152     9.6100     8.6567     9.1524  1127.5986
  956.0000     9.4575   115.8537     2.5028    -0.0025     0.2955    -4.3132     9.4352     8.3941     9.0132  1147.5417
  956.5000     9.4572   119.0702     2.4927    -0.0066     0.2902    -4.5128     9.3496     8.2662     8.8761  1147.2340
  957.0000     9.4571   119.0670     2.4907    -0.0066     0.2874    -4.5108     9.2648     8.1908     8.7411  1126.7371
