~VERSION INFORMATION
 VERS.                2.0:   CWLS LOG ASCII STANDARD - VERSION 2.0
 WRAP.                 NO:   ONE LINE PER DEPTH STEP
~WELL INFORMATION
#MNEM.UNIT      DATA TYPE    INFORMATION
#----------   ------------   ------------------------------
 STRT.F         2496.0000:   START DEPTH
 STOP.F         4120.0000:   STOP DEPTH
 STEP.F            0.5000:   STEP LENGTH
 NULL.          -999.2500:   NO VALUE
 COMP. LAWRENCE ALLISON AND ASSOCIATES:   COMPANY
 WELL. LAWRENCE "X" #85-10:   WELL
 FLD .              N P R:   FIELD
 LOC .      S10 T38N R78W:   LOCATION
 CNTY.            NATRONA:   COUNTY
 STAT.            WYOMING:   STATE
 CTRY. UNITED STATES OF AMERICA:   COUNTRY
 SRVC.      DRESSER ATLAS:   SERVICE COMPANY
 DATE.        20-JAN-1984:   LOGDATE
 API .     49025109580000:   API NUMBER
~CURVE INFORMATION
#MNEM.UNIT       API CODE    CURVE DESCRIPTION
#----------   ------------   ------------------------------
 DEPT.F                  :   
 SPR .MV     07 010 01 00:   SPONTANEOUS POTENTIAL
 TENR.LBS    07 635 01 00:   TENSION FROM RESISTIVITY
 ILD .OHMM   07 120 46 00:   DEEP INDUCTION RESISTIVITY
 ILM .OHMM   07 120 44 00:   INDUCTION LOG MEDIUM RESISTIVITY
 RFOC.OHMM   07 220 04 00:   RESISTIVITY FOCUSED LOG RES.
 GRD .GAPI   45 310 01 00:   GAMMA RAY FROM DENSITY LOG
 CALD.IN     45 280 60 00:   CALIPER FROM DENSITY LOG
 TEND.LBS    45 635 01 00:   TENSION FROM DENSITY LOG
 RHOB.G/C3   45 350 01 00:   BULK DENSITY
 CORR.G/C3   45 356 01 00:   DENSITY CORRECTION
 CN  .DEC    42 890 03 00:   NEUTRON POROSITY SANDSTONE
~PARAMETER INFORMATION
#MNEM.UNIT          VALUE    DESCRIPTION
#----------   ------------   ------------------------------
 EKB .F         5231.0000:   Kelly bushing
 EGL .F         5221.0000:   Ground level
 EDF .F            0.0000:   Drilling floor
 TD  .F         4115.0000:   Total depth
 DATE.        20-JAN-1984:   Date logged
 CLNT.            A2DTECH:   Client Code
 SL  . 2159' FSL & 292' FEL:   Surface Location
 PD  .                 GL:   Permanent Datum
 EPD .F              5221:   Elevation Permanent Datum
 LMF .                 KB:   Log Measured From
 DMF .                 KB:   Drilling Measured From
 DD  .F              4115:   Depth driller
 DL  .F              4111:   Depth logger
 BLI .F              4109:   Bottom log interval
 TLI .F              2496:   Top log interval
 CS1 .IN            8.625:   Casing size
 CBD1.       8.625 @ 537':   Casing driller 1
 BS1 .IN            7.875:   Bit size
 DFT .            GEL KCL:   Type fluid in hole
 DFD .                8.8:   Density
 DFV .                 40:   Viscosity
 DFPH.                  9:   pH
 DFL .                9.8:   Fluid loss
 MSS .           FLOWLINE:   Source of sample
 RMS .OHMM           0.61:   Rm
 MST .F                77:   Rm Meas. temp.
 RMF .OHMM           0.51:   Rmf
 MFST.F                69:   Rmf Meas. temp.
 RMC .OHMM           0.76:   Rmc
 MCST.F                77:   Rmc Meas. temp.
 MFSS.               MEAS:   Source Rmf.
 RMB .OHMM           0.38:   Rm. at BHT
 BHT .F               122:   BHT.
 TCS .HRS               4:   Time Circ. stopped
 MRT .F               122:   Maximum recorded temp.
 LUN .               6307:   Logging unit number
 LUL .               GLTE:   Logging unit location
 ENGI.            DEYOUNG:   Recorded By
 WITN.           R. SCOTT:   Witnessed by
 ORIG.           5" PRINT:   Origin of data
 UWI .     49025109580000:   Unique Well ID
 DICO. A2D TECHNOLOGIES, INC.:   Digitizing Company
 DAPD.                 10:   Feet Above Permanent Datum
 MCSS.               CALC:   Source Rmc.
~OTHER INFORMATION
~A  DEPT       SPR       TENR        ILD        ILM       RFOC        GRD       CALD       TEND       RHOB       CORR         CN   
# ...
 3990.5000   -91.1190   -29.1200     4.1370     4.1210     4.3560   100.4620     7.9460   -24.0800     2.5580     0.0870     0.2430
 3991.0000   -91.2960   -29.1990     4.1590     4.1060     4.3560   101.7170     7.9530   -24.1980     2.5520     0.0920     0.2420
 3991.5000   -91.4710   -29.2780     4.0710     4.0830     4.3370   102.9080     7.9580   -24.3170     2.5450     0.1030     0.2420
 3992.0000   -91.6450   -29.3580     3.9310     3.9420     4.2580   104.0950     7.9510   -24.4350     2.5390     0.1090     0.2520
 3992.5000   -91.8290   -29.4370     3.7920     3.8060     4.1590   105.1080     7.9450   -24.5540     2.5330     0.0960     0.2640
 3993.0000   -91.4570   -29.5160     3.6520     3.6690     3.9970   105.5650     7.9390   -24.6720     2.5340     0.0830     0.2750
 3993.5000   -90.8030   -29.5950     3.5120     3.5330     3.8360   106.0250     7.9330   -24.7900     2.5380     0.0710     0.2730
 3994.0000   -90.1460   -29.6740     3.3720     3.3960     3.6740   106.5660     7.9270   -24.9090     2.5430     0.0630     0.2710
 3994.5000   -89.4900   -29.7540     3.2330     3.2600     3.5220   108.8430     7.9210   -25.0270     2.5480     0.0560     0.2720
 3995.0000   -88.8340   -29.8330     3.0930     3.1230     3.4520   111.0800     7.9150   -25.1450     2.5520     0.0480     0.2740
 3995.5000   -88.3260   -29.7610     2.9530     2.9870     3.3710   113.3520     7.9090   -25.2640     2.5480     0.0590     0.2750
 3996.0000   -88.3250   -29.6110     2.8140     2.8500     3.2910   113.9810     7.9030   -25.3820     2.5440     0.0720     0.2770
 3996.5000   -88.3750   -29.4620     2.6740     2.6690     3.2100   112.6930     7.8970   -25.5000     2.5400     0.0850     0.2810
 3997.0000   -88.4280   -29.3120     2.5730     2.7110     3.1290   111.4390     7.8910   -25.6190     2.5380     0.0970     0.2760
 3997.5000   -88.4810   -29.1630     2.5020     2.7730     3.0480   110.8220     7.8850   -25.7410     2.5390     0.1110     0.2640
 3998.0000   -88.5340   -29.0130     2.5430     2.8350     3.1610   110.2960     7.8790   -25.8710     2.5400     0.1060     0.2520
 3998.5000   -88.5880   -28.8640     2.6270     2.8960     3.3000   109.7680     7.8730   -26.0020     2.5450     0.0950     0.2400
 3999.0000   -88.6360   -28.7140     2.7110     2.9580     3.4390   110.2460     7.8670   -26.1320     2.5500     0.0990     0.2330
 3999.5000   -88.5660   -28.5650     2.7950     3.0200     3.5790   111.7560     7.8610   -26.2620     2.5540     0.1160     0.2370
 4000.0000   -88.1330   -28.4150     2.8800     3.0820     3.6210   114.0330     7.8550   -26.3930     2.5580     0.1170     0.2430
 4000.5000   -87.7120   -28.2660     2.9640     3.1440     3.5220   116.6710     7.8490   -26.5230     2.5610     0.1170     0.2480
 4001.0000   -87.2940   -28.1160     3.0410     3.2060     3.6450   117.8680     7.8430   -26.6540     2.5610     0.1180     0.2530
 4001.5000   -86.8730   -27.9670     3.0700     3.2670     3.7800   115.5370     7.8370   -26.7840     2.5610     0.1090     0.2570
 4002.0000   -86.7340   -27.8170     3.0990     3.3290     3.9150   112.9960     7.8310   -26.9150     2.5560     0.0980     0.2470
 4002.5000   -86.8410   -27.6670     3.1280     3.3940     4.1210   110.4830     7.8250   -27.0450     2.5530     0.0880     0.2380
 4003.0000   -86.9480   -27.5180     3.1570     3.3350     4.0190   112.7850     7.8180   -27.1760     2.5570     0.0820     0.2330
 4003.5000   -87.0570   -27.3680     3.1820     3.2730     3.8350   121.0080     7.8170   -27.3060     2.5610     0.0820     0.2370
 4004.0000   -87.1660   -27.2190     3.1060     3.2110     3.5190   129.0570     7.8170   -27.4370     2.5630     0.0830     0.2410
 4004.5000   -87.2750   -27.0690     3.0660     3.1490     3.1820   134.4560     7.8170   -27.5670     2.5580     0.0830     0.2420
 4005.0000   -87.3830   -26.9200     2.9870     3.0870     3.3440   138.1370     7.8170   -27.6980     2.5590     0.0800     0.2430
 4005.5000   -87.4920   -26.7700     2.9060     3.0250     3.4800   134.7660     7.8170   -27.8280     2.5610     0.0710     0.2450
 4006.0000   -87.6010   -26.6210     2.8260     2.9630     3.6170   131.5830     7.8170   -27.9590     2.5640     0.0650     0.2480
 4006.5000   -87.7100   -26.4710     2.7460     2.9010     3.7570   128.9630     7.8170   -28.0890     2.5670     0.0720     0.2710
 4007.0000   -87.8180   -26.3220     2.6650     2.8390     3.3780   130.4450     7.8170   -28.2190     2.5520     0.0780     0.2870
 4007.5000   -87.9270   -26.1720     2.5850     2.7770     2.9550   131.9930     7.8170   -28.3500     2.5340     0.0840     0.2890
 4008.0000   -88.0380   -26.0230     2.5050     2.7150     2.9810   132.9300     7.8170   -28.4800     2.5150     0.0910     0.2840
 4008.5000   -88.0240   -25.8730     2.4240     2.6530     3.0110   129.8070     7.8170   -28.6110     2.5120     0.0910     0.2800
 4009.0000   -87.9440   -25.7240     2.3440     2.5960     3.0410   126.4760     7.8170   -28.7410     2.5170     0.0900     0.2750
 4009.5000   -87.8640   -25.5740     2.3030     2.6070     3.0710   123.1080     7.8170   -28.8720     2.5230     0.0890     0.2730
 4010.0000   -87.7830   -25.4250     2.3500     2.6160     3.1010   122.4600     7.8170   -29.0020     2.5270     0.0810     0.2720
 4010.5000   -87.7020   -25.2750     2.3870     2.6250     3.1320   123.4360     7.8170   -29.1330     2.5260     0.0720     0.2710
 4011.0000   -87.6210   -25.1260     2.4240     2.6350     3.1520   124.4030     7.8170   -29.2630     2.5250     0.0640     0.2700
 4011.5000   -87.5400   -24.9760     2.4750     2.6450     3.1020   122.0110     7.8170   -29.3940     2.5240     0.0670     0.2680
 4012.0000   -87.4600   -24.8260     2.6160     2.7760     3.0630   119.0550     7.8160   -29.5240     2.5260     0.0700     0.2640
 4012.5000   -87.3800   -24.6770     2.7580     2.9180     3.0380   116.0370     7.8130   -29.6550     2.5340     0.0730     0.2590
 4013.0000   -87.2980   -24.5270     2.8990     3.0590     3.3230   113.0430     7.8100   -29.6520     2.5410     0.0720     0.2550
 4013.5000   -87.4580   -24.3780     3.0410     3.2010     3.5720   108.8270     7.8060   -29.5220     2.5490     0.0690     0.2500
 4014.0000   -87.8100   -24.2280     3.1830     3.3420     3.8200   103.5890     7.8030   -29.3910     2.5570     0.0660     0.2460
 4014.5000   -88.1620   -24.0790     3.3240     3.4840     4.1210    98.3160     7.8000   -29.2600     2.5750     0.0730     0.2400
 4015.0000   -88.5150   -23.9290     3.4660     3.6250     4.0970    95.1110     7.7970   -29.1290     2.5930     0.0810     0.2350
 4015.5000   -88.5850   -23.7800     3.6130     3.7670     4.0680    94.2650     7.7930   -28.9990     2.6110     0.0740     0.2290
 4016.0000   -87.9700   -23.6300     3.7640     3.9080     4.0450    92.8580     7.7900   -28.8680     2.6180     0.0680     0.2260
 4016.5000   -87.3540   -23.4810     3.9150     4.0450     4.1960    90.4330     7.7870   -28.7370     2.6220     0.0710     0.2240
 4017.0000   -86.7340   -23.3310     4.0660     4.1300     4.3160    88.0200     7.7830   -28.6060     2.6310     0.0750     0.2210
 4017.5000   -86.5160   -23.1820     4.2170     4.2130     4.6500    85.6130     7.7800   -28.4750     2.6400     0.0800     0.2150
 4018.0000   -86.5810   -23.0320     4.3670     4.2950     4.9720    83.1990     7.7770   -28.3450     2.6460     0.0880     0.2100
 4018.5000   -86.6460   -22.8830     4.4780     4.3630     5.2930    80.9790     7.7740   -28.2140     2.6500     0.1050     0.2050
 4019.0000   -86.7140   -22.7330     4.4870     4.3900     5.6150    81.0690     7.7700   -28.0830     2.6530     0.1200     0.2000
 4019.5000   -86.7810   -22.5840     4.5010     4.4180     5.9080    82.2760     7.7670   -27.9520     2.6530     0.1250     0.2020
 4020.0000   -86.8480   -22.4340     4.5140     4.4520     4.9960    85.1400     7.7640   -27.8220     2.6490     0.1180     0.2070
 4020.5000   -86.9150   -22.2850     4.5280     4.5050     4.5020    87.8950     7.7600   -27.6910     2.6340     0.1090     0.2120
