~VERSION INFORMATION
 VERS.                2.0:   CWLS LOG ASCII STANDARD - VERSION 2.0
 WRAP.                 NO:   ONE LINE PER DEPTH STEP
~WELL INFORMATION
#MNEM.UNIT      DATA TYPE    INFORMATION
#----------   ------------   ------------------------------
 STRT.F          514.0000:   START DEPTH
 STOP.F         4154.0000:   STOP DEPTH
 STEP.F            0.5000:   STEP LENGTH
 NULL.          -999.2500:   NO VALUE
 COMP.    FENIX & SCISSON:   COMPANY
 WELL.  FENIX "MX" #86-10:   WELL
 FLD .        TEAPOT DOME:   FIELD
 LOC .      S10 T38N R78W:   LOCATION
 CNTY.            NATRONA:   COUNTY
 STAT.            WYOMING:   STATE
 CTRY. UNITED STATES OF AMERICA:   COUNTRY
 SRVC.       SCHLUMBERGER:   SERVICE COMPANY
 DATE.        30-SEP-1978:   LOGDATE
 API .     49025107290000:   API NUMBER
~CURVE INFORMATION
#MNEM.UNIT       API CODE    CURVE DESCRIPTION
#----------   ------------   ------------------------------
 DEPT.F                  :   
 SPR .MV     07 010 01 00:   SPONTANEOUS POTENTIAL
 TENR.LBS    07 635 01 00:   TENSION FROM RESISTIVITY
 SFL .OHMM   07 220 01 00:   SHALLOW FOCUSED LOG RESISTIVITY
 ILM .OHMM   07 120 44 00:   INDUCTION LOG MEDIUM RESISTIVITY
 ILD .OHMM   07 120 46 00:   INDUCTION LOG DEEP RESISTIVITY
 CALD.IN     45 280 60 00:   CALIPER FROM DENSITY LOG
 GRD .GAPI   45 310 01 00:   GAMMA RAY FROM DENSITY LOG
 TEND.LBS    45 635 01 00:   TENSION FROM DENSITY LOG
 CORR.G/C3   45 356 01 00:   DENSITY CORRECTION
 RHOB.G/C3   45 350 01 00:   BULK DENSITY
 NPHI.DEC    42 890 03 00:   NEUTRON POROSITY SANDSTONE
~PARAMETER INFORMATION
#MNEM.UNIT          VALUE    DESCRIPTION
#----------   ------------   ------------------------------
 EKB .F         5233.0000:   Kelly bushing
 EGL .F         5222.0000:   Ground level
 EDF .F            0.0000:   Drilling floor
 TD  .F         4150.0000:   Total depth
 DATE.        30-SEP-1978:   Date logged
 CLNT.            A2DTECH:   Client Code
 SL  . 1450' FSL & 600' FEL:   Surface Location
 PD  .                 GL:   Permanent Datum
 LMF .                 KB:   Log Measured From
 DMF .                 KB:   Drilling Measured From
 DAPD.F                11:   Feet Above Permanent Datum
 DD  .F              4150:   Depth driller
 DL  .F              4141:   Depth logger
 BLI .F              4135:   Bottom log interval
 TLI .F               520:   Top log interval
 CS1 .IN            9.625:   Casing size
 CBD1.      9.625" @ 529':   Casing driller 1
 CBL1.F               529:   Casing logger 1
 BS1 .IN             8.75:   Bit size
 BSD1.F              4150:   Depth drilled with bit1
 DFT .                FGM:   Type fluid in hole
 DFD .                9.5:   Density
 DFV .                 36:   Viscosity
 DFPH.                 11:   pH
 DFL .                 60:   Fluid loss
 MSS .           MUD TANK:   Source of sample
 RMS .OHMM            .57:   Rm
 MST .F                68:   Rm Meas. temp.
 RMF .OHMM           .449:   Rmf
 MFST.F                68:   Rmf Meas. temp.
 MFSS.               MEAS:   Source Rmf.
 RMB .OHMM            .27:   Rm. at BHT
 BHT .F               142:   BHT.
 TCS .HRS            1500:   Time Circ. stopped
 TLAB.HRS            0700:   Time logger at bottom
 MRT .F               142:   Maximum recorded temp.
 LUN .               8043:   Logging unit number
 LUL .               CSPR:   Logging unit location
 ENGI.             LARSON:   Recorded By
 WITN.           DINSMORE:   Witnessed by
 ORIG.           5" PRINT:   Origin of data
 UWI .     49025107290000:   Unique Well ID
 DICO. A2D TECHNOLOGIES, INC.:   Digitizing Company
 EPD .               5222:   Elevation Permanent Datum
~OTHER INFORMATION
~A   DEPT      SPR       TENR        SFL        ILM        ILD       CALD         GRD      TEND       CORR       RHOB         NPHI 
# ...
 1947.5000   -36.8770   656.0640     8.8940     7.8270     7.8320    10.0520   131.5510   876.6670    -0.0040     2.4580     0.3490
 1948.0000   -37.4800   656.0640     9.0110     7.6890     7.8310    10.0520   133.2610   877.1690     0.0070     2.4690     0.3560
 1948.5000   -37.5740   656.0640     9.1280     7.6520     7.8310    10.0520   133.0500   877.6700     0.0170     2.4870     0.3500
 1949.0000   -37.4070   656.0640     9.2450     7.6150     7.8310    10.0520   130.6010   878.1710     0.0200     2.4810     0.3360
 1949.5000   -37.2580   656.0640     9.4120     7.5790     7.8310    10.0520   127.4130   878.6730     0.0140     2.4700     0.3310
 1950.0000   -37.1100   656.0640     9.2980     7.5490     7.8310    10.0520   125.0740   879.1740     0.0080     2.4550     0.3430
 1950.5000   -36.9570   656.0640     9.0990     7.4740     7.7450    10.0520   126.8740   879.6760     0.0140     2.4590     0.3560
 1951.0000   -36.8520   656.0640     8.9000     7.4120     7.6390    10.0520   128.2790   880.1770     0.0170     2.4690     0.3680
 1951.5000   -36.8530   656.0640     8.7010     7.3490     7.5320    10.0520   129.6640   880.6790     0.0210     2.4740     0.3810
 1952.0000   -36.8530   656.0640     8.5020     7.2860     7.4260    10.0520   129.3650   881.1800     0.0190     2.4740     0.3770
 1952.5000   -36.8490   656.0640     8.3030     7.2230     7.3200    10.0520   129.0330   881.6810     0.0210     2.4780     0.3680
 1953.0000   -36.8380   656.0640     8.1250     7.1610     7.2130    10.0520   129.3450   882.1830     0.0280     2.4840     0.3590
 1953.5000   -36.5390   656.0640     8.2350     7.1330     7.1440    10.0520   130.4370   882.6840     0.0270     2.4800     0.3520
 1954.0000   -36.5520   656.0640     8.3360     7.1190     7.1440    10.0520   131.4740   883.1860     0.0220     2.4630     0.3570
 1954.5000   -36.7550   656.0640     8.4290     7.1040     7.1440    10.0520   132.5850   883.6870     0.0140     2.4550     0.3630
 1955.0000   -36.9480   656.0640     8.3140     7.0900     7.1440    10.0580   132.4530   884.1890     0.0070     2.4550     0.3660
 1955.5000   -37.1490   656.0640     8.2060     7.0760     7.1440    10.0690   131.4020   884.6900     0.0000     2.4510     0.3610
 1956.0000   -37.2370   656.0640     8.0980     7.0610     7.1440    10.0800   130.3700   885.1910    -0.0020     2.4470     0.3510
 1956.5000   -37.1610   656.0640     7.9770     7.0470     7.1440    10.0900   129.6200   885.6930    -0.0020     2.4430     0.3420
 1957.0000   -37.0980   656.0640     8.1730     7.0320     7.1440    10.0950   128.2690   886.1940    -0.0010     2.4390     0.3320
 1957.5000   -37.0370   656.0640     8.3950     7.0180     7.1440    10.0990   131.1840   886.6960     0.0000     2.4340     0.3250
 1958.0000   -36.9720   656.0640     8.6180     7.0030     7.1440    10.1020   130.8510   887.1970     0.0010     2.4360     0.3240
 1958.5000   -36.9090   656.0640     8.8400     6.9890     7.1440    10.1060   130.5320   887.6980     0.0020     2.4430     0.3300
 1959.0000   -36.8450   656.0640     8.9070     6.9740     7.1440    10.1090   128.8300   888.2000     0.0060     2.4500     0.3370
 1959.5000   -36.7810   656.0640     8.9070     6.9600     7.1440    10.1120   127.1450   888.7010     0.0090     2.4570     0.3440
 1960.0000   -36.7180   656.0640     8.9070     6.9460     7.1440    10.1160   125.7720   889.2030     0.0220     2.4630     0.3430
 1960.5000   -36.6540   656.0640     8.9070     6.9310     7.1440    10.1190   124.4190   889.7040     0.0350     2.4700     0.3400
 1961.0000   -36.5910   656.0640     8.5900     6.9170     7.1440    10.1230   126.2190   890.2060     0.0320     2.4730     0.3370
 1961.5000   -36.5260   656.0640     8.2360     6.9030     7.1440    10.1260   129.3000   890.7070     0.0280     2.4710     0.3350
 1962.0000   -36.4510   656.0640     7.8310     6.8870     7.1440    10.1290   132.0810   891.2080     0.0250     2.4700     0.3400
 1962.5000   -36.2580   656.0640     8.0180     6.9050     7.1440    10.1320   133.1100   891.7100     0.0220     2.4690     0.3480
 1963.0000   -36.0230   656.0640     8.2350     6.9260     7.1440    10.1190   131.4280   892.2110     0.0200     2.4700     0.3560
 1963.5000   -35.7690   656.0640     8.4530     6.9480     7.1440    10.1040   129.4780   892.7130     0.0180     2.4710     0.3590
 1964.0000   -35.7220   656.0640     8.6700     6.9700     7.1440    10.0930   130.2780   893.2140     0.0150     2.4650     0.3590
 1964.5000   -35.9320   656.0640     8.9070     6.9920     7.1420    10.0950   134.9060   893.7160     0.0100     2.4600     0.3570
 1965.0000   -36.1210   656.0640     8.9070     7.0140     7.1550    10.0970   140.1230   894.2170     0.0090     2.4550     0.3520
 1965.5000   -36.3100   656.0640     8.8090     7.0360     7.1790    10.0990   145.3480   894.7180     0.0110     2.4610     0.3450
 1966.0000   -36.5030   656.0640     8.7590     7.0580     7.2020    10.1010   146.3960   895.2200     0.0130     2.4670     0.3470
 1966.5000   -36.6920   656.0640     8.8160     7.0800     7.2250    10.1030   145.9180   895.7210     0.0110     2.4580     0.3510
 1967.0000   -36.8910   656.0640     8.8720     7.1020     7.2490    10.1050   146.5020   896.2230     0.0080     2.4440     0.3550
 1967.5000   -37.0700   656.0640     8.9290     7.1230     7.2760    10.1070   148.3120   896.7240     0.0070     2.4310     0.3590
 1968.0000   -37.2260   656.0640     8.9860     7.1440     7.3660    10.1090   149.9450   897.2250     0.0080     2.4310     0.3610
 1968.5000   -36.8990   656.0640     9.0420     7.2290     7.4740    10.1110   151.6460   897.7270     0.0060     2.4330     0.3620
 1969.0000   -36.5920   656.0640     9.0990     7.3080     7.5830    10.1130   152.3390   898.2280     0.0030     2.4370     0.3630
 1969.5000   -36.2580   656.0640     9.1560     7.3880     7.6910    10.1150   151.5530   898.7300    -0.0020     2.4400     0.3640
 1970.0000   -35.9400   656.0640     9.2130     7.4680     7.7990    10.1170   149.6980   899.2310    -0.0010     2.4430     0.3650
 1970.5000   -35.6660   656.0640     9.3720     7.5470     7.9070    10.1190   147.2290   899.7330     0.0000     2.4420     0.3650
 1971.0000   -35.8010   656.0640     9.6320     7.6270     8.0160    10.1210   144.7190   900.2340     0.0020     2.4330     0.3660
 1971.5000   -35.9840   656.0640     9.8920     7.6890     8.1240    10.1220   142.2450   900.7350     0.0040     2.4290     0.3590
 1972.0000   -36.1770   656.0640    10.1300     7.8310     8.2320    10.1230   139.2110   901.2370     0.0060     2.4350     0.3520
 1972.5000   -36.3850   656.0640    10.1300     7.8310     8.3410    10.1260   135.6430   901.7380     0.0090     2.4410     0.3430
 1973.0000   -36.3700   656.0640    10.1300     7.7970     8.4290    10.1290   132.5800   902.2400     0.0120     2.4430     0.3340
 1973.5000   -36.1760   656.0640     9.9620     7.7350     8.2690    10.1250   130.9340   902.7410     0.0120     2.4420     0.3320
 1974.0000   -36.0900   656.0640     9.7520     7.6730     8.1340    10.1380   129.3060   903.2430     0.0120     2.4380     0.3350
 1974.5000   -36.2300   656.0640     9.5420     7.6110     7.9990    10.1950   127.7050   903.7440     0.0160     2.4390     0.3410
 1975.0000   -36.3580   656.0640     9.1620     7.5490     7.8640    10.5500   127.8470   904.2450     0.0280     2.4460     0.3420
 1975.5000   -36.3900   656.0640     8.5040     7.4110     7.7280    11.0230   128.8920   904.7470     0.0420     2.4530     0.3430
 1976.0000   -36.1240   656.0640     7.4110     7.2900     7.5930    11.3630   129.9020   905.2480     0.0360     2.4430     0.3430
 1976.5000   -35.8650   656.0640     7.5300     7.1440     7.4580    11.5520   133.5490   905.7500     0.0280     2.4280     0.3370
 1977.0000   -35.6820   656.0640     7.8810     7.1300     7.3230    11.7280   136.9620   906.2510     0.0260     2.4200     0.3230
 1977.5000   -35.7860   656.0640     8.2310     7.1160     7.1870    12.1640   139.4730   906.7520     0.0230     2.4210     0.3130
