~VERSION INFORMATION
 VERS.                2.0:   CWLS LOG ASCII STANDARD - VERSION 2.0
 WRAP.                 NO:   ONE LINE PER DEPTH STEP
~WELL INFORMATION
#MNEM.UNIT      DATA TYPE    INFORMATION
#----------   ------------   ------------------------------
 STRT.F          200.0000:   START DEPTH
 STOP.F         3248.0000:   STOP DEPTH
 STEP.F            0.5000:   STEP LENGTH
 NULL.          -999.2500:   NO VALUE
 COMP.    FENIX & SCISSON:   COMPANY
 WELL.   FENIX "AX" #28-3:   WELL
 FLD .              NPR-3:   FIELD
 LOC .       S3 T38N R78W:   LOCATION
 CNTY.            NATRONA:   COUNTY
 STAT.            WYOMING:   STATE
 CTRY. UNITED STATES OF AMERICA:   COUNTRY
 SRVC.              WELEX:   SERVICE COMPANY
 DATE.        30-JUN-1977:   LOGDATE
 API .     49025104200000:   API NUMBER
~CURVE INFORMATION
#MNEM.UNIT       API CODE    CURVE DESCRIPTION
#----------   ------------   ------------------------------
 DEPT.F                  :   
 CALD.IN     45 280 60 00:   CALIPER FROM DENSITY LOG
 GRD .GAPI   45 310 01 00:   GAMMA RAY FROM DENSITY LOG
 RHOB.G/C3   45 350 01 00:   BULK DENSITY
 CORR.G/C3   45 356 01 00:   DENSITY CORRECTION
 SPR .MV     07 010 01 00:   SPONTANEOUS POTENTIAL
 ILD .OHMM   07 120 46 00:   DEEP INDUCTION RESISTIVITY
 ILM .OHMM   07 120 44 00:   INDUCTION LOG MEDIUM RESISTIVITY
 SGRD.OHMM   07 220 05 00:   SHALLOW SHORT GUARD RESISTIVITY
~PARAMETER INFORMATION
#MNEM.UNIT          VALUE    DESCRIPTION
#----------   ------------   ------------------------------
 EKB .F         4969.0000:   Kelly bushing
 EGL .F         4959.0000:   Ground level
 TD  .F         3250.0000:   Total depth
 CLNT.            A2DTECH:   Client Code
 SL  . 500' FSL & 800' FWL:   Surface Location
 PD  .                 GL:   Permanent Datum
 EPD .F              4959:   Elevation Permanent Datum
 LMF .                 KB:   Log Measured From
 DMF .                 KB:   Drilling Measured From
 DAPD.F                10:   Feet Above Permanent Datum
 DATE.        30-JUN-1977:   Date Logged [DD-MMM-YYYY]
 DD  .F              3250:   Depth driller
 DL  .F              3250:   Depth logger
 BLI .F              3248:   Bottom log interval
 TLI .F               200:   Top log interval
 CS1 .IN            8.625:   Casing size
 CBD1.      8.625" @ 217':   Casing driller 1
 CBL1.F               225:   Casing logger 1
 BS1 .IN            7.875:   Bit size
 BSD1.F              3250:   Depth drilled with bit1
 DFT .                KCL:   Type fluid in hole
 DFD .                8.9:   Density
 RMS .OHMM           1.76:   Rm
 MST .F                63:   Rm Meas. temp.
 TCS .HRS             2.5:   Time Circ. stopped
 MRT .F                68:   Maximum recorded temp.
 LUN .               8611:   Logging unit number
 ENGI.         G. BENTSEN:   Recorded By
 WITN.         PETTINGILL:   Witnessed by
 ORIG.         2.5" PRINT:   Origin of data
 UWI .     49025104200000:   Unique Well ID
 DICO. A2D TECHNOLOGIES, INC.:   Digitizing Company
 DFV .                 30:   Viscosity
 DFPH.                  7:   pH
 DFL .                 10:   Fluid loss
 MSS .                PIT:   Source of sample
 RMF .OHMM           1.09:   Rmf
 MFST.F                68:   Rmf Meas. temp.
 MFSS.               MEAS:   Source Rmf.
 RMC .OHMM           2.01:   Rmc
 MCST.F                68:   Rmc Meas. temp.
 MCSS.               MEAS:   Source Rmc.
 RMB .OHMM           1.01:   Rm. at BHT
 BHT .F               118:   BHT.
 LUL .             CASPER:   Logging unit location
~OTHER INFORMATION
~A   DEPT       CALD       GRD        RHOB      CORR       SPR        ILD        ILM       SGRD   
# ...
 1212.5000     8.4048   111.5953     2.5189     0.0164   -51.3602     8.2656     9.1150    10.3945
 1213.0000     8.4040   112.1807     2.5220     0.0164   -51.6500     8.2129     9.1162    10.3962
 1213.5000     8.4325   112.1622     2.5266     0.0179   -51.9398     8.0429     8.8705    10.3976
 1214.0000     8.4315   112.7468     2.5302     0.0186   -52.2297     8.0434     8.5138    10.1178
 1214.5000     8.4306   113.3403     2.5385     0.0194   -52.2735     7.9344     8.3988    10.1191
 1215.0000     8.4298   113.9161     2.5490     0.0202   -52.5152     7.9349     8.5259     9.9826
 1215.5000     8.4582   114.5512     2.5530     0.0207   -52.5103     7.9355     8.7715     9.8481
 1216.0000     8.4573   115.0854     2.5514     0.0207   -52.5059     7.9360     8.8765     9.8494
 1216.5000     8.4564   115.7620     2.5498     0.0206   -52.5015     7.9365     8.6069     9.8508
 1217.0000     8.4556   116.2547     2.5475     0.0191   -52.4971     7.8289     8.3326     9.9881
 1217.5000     8.4547   116.9727     2.5466     0.0175   -52.4926     7.8294     8.1779    10.0113
 1218.0000     8.4587   118.6288     2.5367     0.0144   -52.3334     7.8256     8.1793     9.9907
 1218.5000     8.4823   119.2135     2.5214     0.0113   -52.1897     7.7237     8.1804     9.9637
 1219.0000     8.4813   117.3912     2.5045     0.0097   -52.1845     7.7242     8.1815     9.7236
 1219.5000     8.4804   115.1203     2.4769     0.0066   -52.1802     7.7248     8.1828     9.7248
 1220.0000     8.4795   113.7349     2.4662     0.0020   -52.1759     7.8321     8.1839     9.7261
 1220.5000     8.4758   113.7169     2.4830     0.0050   -52.1716     7.7981     8.4128     9.7274
 1221.0000     8.4706   113.6988     2.4937     0.0080   -52.1673     7.7263     8.6481     9.8630
 1221.5000     8.4655   113.6807     2.5028     0.0095   -52.4571     7.7269     8.8900     9.8643
 1222.0000     8.4604   113.6627     2.5135     0.0110   -52.4528     7.7274     8.6505     9.7313
 1222.5000     8.4552   113.6446     2.5105     0.0109   -52.4485     7.7279     8.3026     9.7472
 1223.0000     8.4501   113.6230     2.5043     0.0109   -52.4441     7.7286     8.3037     9.8683
 1223.5000     8.4440   114.2108     2.5042     0.0124   -52.4397     7.8359     8.3048     9.8697
 1224.0000     8.4431   114.1899     2.5134     0.0123   -52.4353     7.8364     8.4208     9.8710
 1224.5000     8.4715   114.7771     2.5133     0.0138   -52.4309     7.9453     8.4442     9.8724
 1225.0000     8.4707   115.3592     2.5070     0.0138   -52.4265     8.0556     8.6875     9.9306
 1225.5000     8.4698   115.9458     2.5042     0.0153   -52.4221     8.0562     8.9761    10.1495
 1226.0000     8.4397   115.9261     2.5121     0.0152   -52.4176     8.0567     9.1487    10.0763
 1226.5000     8.4096   116.5108     2.5133     0.0152   -52.4132     8.0572     9.1499    10.0141
 1227.0000     8.4380   117.0954     2.5140     0.0157   -52.4088     7.9479     9.2123    10.1539
 1227.5000     8.4371   117.6801     2.5194     0.0173   -52.4044     7.9359     9.3484    10.1553
 1228.0000     8.4363   117.6623     2.5233     0.0188   -52.6941     7.8406     9.8042    10.1566
 1228.5000     8.4646   117.6445     2.5296     0.0211   -52.6889     7.8412    10.2178    10.1580
 1229.0000     8.4637   117.6268     2.5347     0.0195   -52.3905     7.8418    10.5036    10.0210
 1229.5000     8.4629   118.2114     2.5383     0.0195   -52.3862     7.8423    10.7973     9.8859
 1230.0000     8.4620   118.1928     2.5407     0.0194   -52.3819     7.8428    10.9480     9.8873
 1230.5000     8.4611   118.0936     2.5407     0.0194   -52.0834     7.8434    11.1008     9.7540
 1231.0000     8.4602   116.8494     2.5407     0.0178   -51.7850     7.8439    11.1023     9.7554
 1231.5000     8.4594   115.7289     2.5398     0.0162   -51.7807     7.8444    10.6547     9.7567
 1232.0000     8.4585   114.9639     2.5391     0.0177   -51.7764     7.8451    10.5024     9.7581
 1232.5000     8.4576   113.8855     2.5376     0.0174   -51.7721     7.8456    10.2287     9.8941
 1233.0000     8.4567   114.6566     2.5375     0.0191   -52.0843     7.9546    10.0406     9.9505
 1233.5000     8.4558   115.6597     2.5314     0.0176   -52.3517     7.8466     9.6215    10.1718
 1234.0000     8.4404   117.0723     2.5084     0.0145   -52.6416     7.8472     9.2575    10.1732
 1234.5000     8.4249   118.0301     2.5038     0.0129   -52.6368     7.8477     9.1698    10.1749
 1235.0000     8.4240   118.0120     2.5191     0.0113   -52.9271     7.8482     9.0463    10.1762
 1235.5000     8.4229   117.1177     2.5313     0.0129   -52.9221     7.7417     9.0475    10.1776
 1236.0000     8.4221   115.2531     2.5405     0.0143   -52.6235     7.7423     9.0488    10.1790
 1236.5000     8.4212   113.4067     2.5527     0.0144   -52.4902     7.7428     8.9266    10.1803
 1237.0000     8.4204   112.4094     2.5496     0.0160   -52.1765     7.7433     8.9281    10.3222
 1237.5000     8.4195   111.2919     2.5435     0.0172   -51.8627     7.7439     9.0527    10.3235
 1238.0000     8.4186   113.0843     2.5373     0.0172   -51.4285     7.7444     8.9304    10.3221
 1238.5000     8.4178   113.0636     2.5342     0.0171   -51.4242     7.7449     8.9316    10.1857
 1239.0000     8.4169   113.0458     2.5326     0.0166   -51.3314     7.6399     8.9328    10.1872
 1239.5000     8.4161   113.6304     2.5256     0.0149   -51.7098     7.6404     8.9340    10.0497
 1240.0000     8.4152   113.6127     2.5054     0.0139   -52.2937     7.6409     9.1839    10.0513
 1240.5000     8.4143   114.1988     2.4958     0.0139   -52.5835     7.5373     9.1926    10.0526
 1241.0000     8.4135   115.3844     2.5032     0.0138   -52.8735     7.4350     9.4421    10.0540
 1241.5000     8.4126   116.5714     2.5145     0.0138   -53.1632     7.2343     9.4434    10.0554
 1242.0000     8.4117   117.7585     2.5192     0.0137   -53.1588     7.2348     9.4147    10.0568
 1242.5000     8.4108   118.9456     2.5207     0.0146   -53.1544     7.2352     9.3170    10.0581
 1243.0000     8.4099   118.9277     2.5238     0.0182   -53.1500     7.1371     9.1912     9.9226
 1243.5000     8.4091   118.2803     2.5269     0.0197   -53.1456     7.1376     9.1927     9.9242
 1244.0000     8.4082   117.6867     2.5300     0.0197   -53.1412     7.2367     9.1940     9.9255
 1244.5000     8.4073   117.0663     2.5280     0.0166   -53.1368     7.2372     9.1295     9.9268
 1245.0000     8.4064   117.0482     2.5210     0.0135   -53.1324     7.2377     8.9475     9.7929
 1245.5000     8.4056   117.0301     2.5109     0.0088   -53.1279     7.2382     8.5879     9.7943
 1246.0000     8.4047   117.0120     2.5063     0.0088   -53.2470     7.2177     8.2425     9.9308
 1246.5000     8.4038   116.9940     2.5081     0.0103   -53.5520     7.1404     8.2436     9.9321
 1247.0000     8.4029   117.1507     2.5124     0.0102   -54.1510     7.1092     8.2447     9.9335
 1247.5000     8.4019   117.5631     2.5154     0.0117   -54.4558     7.0440     8.2458     9.7995
 1248.0000     8.4010   117.5422     2.5185     0.0132   -54.5765     7.0446     8.2469     9.8009
 1248.5000     8.4002   117.5241     2.5261     0.0131   -54.5714     7.0451     8.2480     9.6687
 1249.0000     8.4287   116.3856     2.5383     0.0148   -54.2729     7.0456     8.1367     9.7205
 1249.5000     8.4277   115.0783     2.5475     0.0178   -53.9745     7.0461     8.1258     9.8050
 1250.0000     8.4268   114.7590     2.5490     0.0191   -53.3820     7.0466     8.0279     9.8063
 1250.5000     8.4260   116.0091     2.5582     0.0191   -53.3777     7.0471     8.0045     9.8077
 1251.0000     8.4251   117.4337     2.5673     0.0190   -53.0793     7.1449     7.9206     9.6757
 1251.5000     8.4243   115.6049     2.5688     0.0190   -52.7809     7.2442     7.9218     9.6770
 1252.0000     8.3942   114.3823     2.5688     0.0189   -52.7883     7.2447     7.9229     9.6783
 1252.5000     8.3933   113.1598     2.5657     0.0189   -53.0664     7.3453     7.9240     9.8132
