~VERSION INFORMATION
 VERS.                2.0:   CWLS LOG ASCII STANDARD - VERSION 2.0
 WRAP.                 NO:   ONE LINE PER DEPTH STEP
~WELL INFORMATION
#MNEM.UNIT      DATA TYPE    INFORMATION
#----------   ------------   ------------------------------
 STRT.F          494.0000:   START DEPTH
 STOP.F         4999.5000:   STOP DEPTH
 STEP.F            0.5000:   STEP LENGTH
 NULL.          -999.2500:   NO VALUE
 COMP.    FENIX & SCISSON:   COMPANY
 WELL.  FENIX "LX" #26-23:   WELL
 FLD . MPR #3 (TEAPOT DOME):   FIELD
 LOC .      S23 T38N R78W:   LOCATION
 CNTY.            NATRONA:   COUNTY
 STAT.            WYOMING:   STATE
 CTRY. UNITED STATES OF AMERICA:   COUNTRY
 SRVC.       SCHLUMBERGER:   SERVICE COMPANY
 DATE.        11-AUG-1978:   LOGDATE
 API .     49025107340000:   API NUMBER
~CURVE INFORMATION
#MNEM.UNIT       API CODE    CURVE DESCRIPTION
#----------   ------------   ------------------------------
 DEPT.F                  :   
 NPHI.DEC    42 890 03 00:   NEUTRON POROSITY SANDSTONE
 TEND.LBS    45 635 01 00:   TENSION FORM DENSITY LOG
 GRD .GAPI   45 310 01 00:   GAMMA RAY FROM DENSITY LOG
 CALD.IN     45 280 60 00:   CALIPER FROM DENSITY LOG
 DRHO.G/C3   45 356 01 00:   DENSITY CORRECTION
 RHOB.G/C3   45 350 01 00:   BULK DENSITY
 SPR .MV     07 010 01 00:   SPONTANEOUS POTENTIAL
 TENR.LBS    07 635 01 00:   TENSION FROM RESISTIVITY LOG
 ILD .OHMM   07 120 46 00:   INDUCTION LOG DEEP RESISTIVITY
 ILM .OHMM   07 120 44 00:   INDUCTION LOG MEDIUM RESISTIVITY
 SFL .OHMM   07 220 01 00:   SPHERICALLY FOCUSED LOG RESISITIVITY
~PARAMETER INFORMATION
#MNEM.UNIT          VALUE    DESCRIPTION
#----------   ------------   ------------------------------
 EKB .F         5335.0000:   Kelly bushing
 EGL .F         5325.0000:   Ground level
 EDF .F            0.0000:   Drilling floor
 EPD .F         5325.0000:   Permanent datum
 TD  .F         5000.0000:   Total depth
 CLNT.            A2DTECH:   Client Code
 SL  . 1600' FSL & 903' FWL:   Surface Location
 PD  .                 GL:   Permanent Datum
 LMF .                 KB:   Log Measured From
 DMF .                 KB:   Drilling Measured From
 DAPD.F                10:   Feet Above Permanent Datum
 DATE.        11-AUG-1978:   Date Logged [DD-MMM-YYYY]
 DD  .F              5000:   Depth driller
 DL  .F              4998:   Depth logger
 BLI .F              4992:   Bottom log interval
 TLI .F               525:   Top log interval
 CS1 .IN            9.625:   Casing size
 CBD1.      9.625" @ 521':   Casing driller 1
 CBL1.F               521:   Casing logger 1
 BS1 .IN             8.75:   Bit size
 BSD1.F              5000:   Depth drilled with bit1
 DFD .                9.1:   Density
 MSS .            MUD PIT:   Source of sample
 RMS .OHMM          0.897:   Rm
 MST .F                64:   Rm Meas. temp.
 RMF .OHMM          0.821:   Rmf
 MFST.F                64:   Rmf Meas. temp.
 MFSS.               MEAS:   Source Rmf.
 BHT .F               135:   BHT.
 TCS .HRS              03:   00:   Time Circ. stopped
 TLAB.HRS              09:   00:   Time logger at bottom
 MRT .F               135:   Maximum recorded temp.
 LUL .               CSPR:   Logging unit location
 ENGI.              CRAIG:   Recorded By
 ORIG.           5" PRINT:   Origin of data
 UWI .     49025107340000:   Unique Well ID
 DICO. A2D TECHNOLOGIES, INC.:   Digitizing Company
 DFV .                 40:   Viscosity
 DFPH.                 12:   pH
 DFL .                  4:   Fluid loss
~OTHER INFORMATION
~A  DEPTH     NPHI       TEND        GRD       CALD       DRHO       RHOB        SPR       TENR        ILD        ILM        SFL
# ...
 4093.0000     0.2855  2234.8250   133.0904    10.4436     0.0365     2.4649   -13.3048  1935.6890     3.2568     3.1053     3.5353
 4093.5000     0.2933  2250.2385   133.6958    10.4585     0.0402     2.4453   -13.1000  1935.9742     3.1676     3.0411     3.2626
 4094.0000     0.2924  2250.5295   129.1813    10.4733     0.0394     2.4310   -12.7355  1930.7273     3.1239     2.9782     3.1075
 4094.5000     0.2708  2235.6804   129.7866    10.4730     0.0128     2.4362   -11.9101  1921.5037     3.0595     2.9574     3.5450
 4095.0000     0.2641  2236.0371   136.4160    10.4425     0.0105     2.4505   -10.6333  1921.8639     2.9145     2.8763     4.0162
 4095.5000     0.2656  2236.3223   147.8647    10.4118     0.0105     2.4565    -9.9357  1907.1117     2.7940     2.8164     3.8518
 4096.0000     0.2668  2236.6113   159.0122    10.3963     0.0105     2.4512    -9.5540  1892.2881     2.6630     2.7205     3.2830
 4096.5000     0.2994  2236.9639   162.3283    10.3961     0.0158     2.4407    -9.1466  1892.6447     2.5544     2.5913     2.8374
 4097.0000     0.3111  2237.2493   161.9996    10.4261     0.0326     2.4489    -9.2582  1892.9324     2.4672     2.5028     2.7786
 4097.5000     0.3114  2237.5344   162.6361    10.4561     0.0817     2.4414    -9.5081  1908.3242     2.3666     2.4005     2.8366
 4098.0000     0.3078  2237.8215   167.7595    10.4861     0.1075     2.4218    -9.7164  1908.6095     2.2343     2.3006     2.9161
 4098.5000     0.2995  2238.1760   174.9913    10.5388     0.0976     2.3916    -9.6880  1893.8573     2.1326     2.1779     2.9156
 4099.0000     0.2973  2238.4612   183.4279    10.6066     0.1067     2.3939    -9.8995  1909.1729     2.1475     2.1329     2.8354
 4099.5000     0.2982  2253.8752   189.4549    10.6973     0.1651     2.4059   -10.0873  1909.4738     2.1775     2.1776     2.6085
 4100.0000     0.3819  2254.2551   188.2530    10.8182     0.1908     2.3750   -10.9208  1909.7743     2.3178     2.3018     2.4164
 4100.5000     0.3822  2254.9617   180.6194    10.9543     0.1669     2.2608   -11.6917  1910.0752     2.5367     2.6444     2.7951
 4101.0000     0.3744  2255.7776   153.0186    11.0146     0.1164     2.2394   -12.0987  1910.3925     2.7570     2.9140     3.1447
 4101.5000     0.3473  2256.4961   129.2263    10.7718     0.1073     2.3019   -12.5075  1910.6766     3.2342     3.2112     3.5381
 4102.0000     0.3006  2257.2148   102.4220    10.3169     0.1133     2.3922   -12.4555  1926.0720     3.6646     3.9269     5.2753
 4102.5000     0.2211  2257.9333    86.4610    10.1803     0.1224     2.4570   -12.1036  1926.3573     4.0143     4.5211    11.8299
 4103.0000     0.1819  2243.5232    89.1748    10.3467     0.1499     2.4991   -11.9229  1926.6427     4.4199     4.7357    15.0933
 4103.5000     0.1824  2244.4219   103.8250    10.5130     0.1794     2.5174   -11.9095  1926.9280     4.6723     4.8686    15.4175
 4104.0000     0.2133  2260.2690   118.0970    10.6491     0.1892     2.5081   -12.0543  1912.1757     4.8023     4.9364    11.5680
 4104.5000     0.2479  2260.9878   125.9312    10.7852     0.1438     2.4787   -12.3013  1927.5699     4.8679     5.0398     6.8016
 4105.0000     0.2657  2276.8533   130.1510    10.8757     0.1649     2.4930   -12.5135  1943.4104     5.0394     5.1455     6.6550
 4105.5000     0.2813  2277.7336   129.2503    10.9057     0.1883     2.5118   -12.4935  1944.6447     5.1810     5.2251     7.3556
 4106.0000     0.2925  2278.3660   120.2170    10.8448     0.1837     2.4945   -12.3512  1945.8789     5.2531     5.4476    10.1551
 4106.5000     0.2645  2279.1714   103.3524    10.6324     0.1345     2.4640   -12.0641  1947.1130     5.4006     5.8411    13.5263
 4107.0000     0.2054  2264.7502    89.2866    10.3897     0.1277     2.4876   -11.5509  1948.3473     5.5522     6.1308    14.7814
 4107.5000     0.1849  2250.3513    87.3944    10.2985     0.1443     2.5064   -11.0412  1949.5815     5.8282     6.1739    13.9116
 4108.0000     0.2187  2251.2498   103.0607    10.4194     0.1503     2.4951   -10.9276  1950.8158     6.3340     6.2606    10.6659
 4108.5000     0.2404  2236.6597   115.7142    10.5100     0.0572     2.4642   -10.3336  1952.0499     6.6951     6.5273     7.7769
 4109.0000     0.2358  2222.2500   116.9219    10.5476     0.0148     2.4770   -10.2977  1953.2842     6.8355     6.7115     7.2367
 4109.5000     0.2151  2238.2769   116.9248    10.5700     0.0125     2.5036   -10.2942  1954.5184     6.7878     6.7120     7.7722
 4110.0000     0.1991  2254.3042   116.9277    10.5849     0.0216     2.5628   -10.2997  1965.9203     6.7404     6.7124     8.1119
 4110.5000     0.1906  2270.1514   111.5727    10.5997     0.0162     2.5620   -10.3985  1982.0156     6.7399     6.5746     8.5887
 4111.0000     0.1861  2301.1272   109.7711    10.6069     0.0154     2.5560   -10.5594  1967.0817     6.6465     6.5295     9.6299
 4111.5000     0.1858  2301.8457   112.7903    10.6294     0.0208     2.5514   -10.7217  1983.3110     6.6001     6.4399    10.0514
 4112.0000     0.1895  2302.5642   114.9044    10.6594     0.0290     2.5529   -10.8840  1983.8911     6.5929     6.3958     9.6248
 4112.5000     0.1916  2288.1553   115.2099    10.6894     0.0335     2.5636   -11.0469  1968.9680     6.5992     6.3082     8.7028
 4113.0000     0.1922  2273.7451   112.8074    10.7194     0.0365     2.5717   -11.2167  1954.1898     6.5531     6.1786     7.8124
 4113.5000     0.1925  2274.6431   111.9094    10.7494     0.0410     2.5637   -11.3635  1954.7705     6.4176     6.0517     7.3747
 4114.0000     0.1985  2275.3623   114.0250    10.7996     0.0477     2.5501   -10.7995  1955.3506     6.3230     5.9273     7.1130
 4114.5000     0.2111  2276.0972   116.7415    10.8447     0.0401     2.5358   -10.2039  1971.5802     6.1978     5.8868     6.8573
 4115.0000     0.2130  2276.9788   118.5544    10.8848     0.0355     2.5320   -10.0908  1972.1608     6.1120     5.8464     6.7122
 4115.5000     0.2117  2277.6980   119.4639    10.9300     0.0332     2.5553   -10.0941  1972.7415     6.0273     5.8696     6.6148
 4116.0000     0.2078  2278.3660   118.8684    10.9600     0.0334     2.5733   -10.1530  1973.3336     5.9852     5.8881     6.5189
 4116.5000     0.2057  2279.1353   115.8620    10.9749     0.0543     2.5786   -10.2733  1974.0472     5.9434     5.8884     6.4705
 4117.0000     0.2123  2279.8789   114.6629    10.9972     0.0490     2.5687   -10.7315  1990.1317     5.9430     5.8888     6.5154
 4117.5000     0.2133  2280.7524   114.6687    11.0197     0.0323     2.5484   -10.6626  1975.1940     5.9425     5.8893     6.6549
 4118.0000     0.2079  2281.4709   113.7721    11.0834     0.0187     2.5340   -10.3250  1975.9342     5.9421     5.8489     6.8960
 4118.5000     0.1883  2282.1895   109.2597    11.1324     0.0179     2.5380    -9.8449  1976.5143     5.9418     5.8493     7.3009
 4119.0000     0.1867  2282.9082   106.2533    11.1555     0.0360     2.5573    -9.2926  1977.0950     5.9414     5.8092     7.3519
 4119.5000     0.1982  2298.9353   106.8789    11.1937     0.0466     2.5595    -9.2844  1977.6757     5.8590     5.8097     6.6951
 4120.0000     0.2175  2284.3459   111.0854    11.2091     0.0503     2.5550    -9.6388  1962.7518     5.8181     5.8101     6.1413
 4120.5000     0.2193  2285.2439   113.1995    11.2397     0.0503     2.5610    -9.9526  1963.4775     5.7375     5.8509     6.6911
 4121.0000     0.2114  2270.8337   112.3016    11.2779     0.0517     2.5797   -10.0941  1964.0581     5.6974     5.7707     6.8844
 4121.5000     0.2057  2271.5583   108.6928    11.3009     0.0517     2.5842   -10.1057  1964.6509     5.6185     5.6522     6.4983
 4122.0000     0.2024  2272.4509   106.8912    11.3315     0.0532     2.5804    -9.9682  1965.3645     5.5023     5.4978     6.2169
 4122.5000     0.2012  2273.1697   109.6092    11.3621     0.0584     2.5676   -10.1182  1965.9446     5.3082     5.3106     5.9587
 4123.0000     0.2096  2273.8889   114.1329    11.3927     0.0941     2.5653   -10.9198  1966.5253     5.0972     5.0944     5.7886
