~VERSION INFORMATION
 VERS.                2.0:   CWLS LOG ASCII STANDARD - VERSION 2.0
 WRAP.                 NO:   ONE LINE PER DEPTH STEP
~WELL INFORMATION
#MNEM.UNIT      DATA TYPE    INFORMATION
#----------   ------------   ------------------------------
 STRT.F           70.0000:   START DEPTH
 STOP.F         2751.5000:   STOP DEPTH
 STEP.F            0.5000:   STEP LENGTH
 NULL.          -999.2500:   NO VALUE
 COMP.          INTEX OIL:   COMPANY
 WELL. INTEX N.P.R. "AX" #75-20:   WELL
 FLD .             TEAPOT:   FIELD
 LOC .      S20 T39N R78W:   LOCATION
 CNTY.            NATRONA:   COUNTY
 STAT.            WYOMING:   STATE
 CTRY. UNITED STATES OF AMERICA:   COUNTRY
 SRVC.       SCHLUMBERGER:   SERVICE COMPANY
 DATE.        06-MAY-1966:   LOGDATE
 API .     49025095120000:   API NUMBER
~CURVE INFORMATION
#MNEM.UNIT       API CODE    CURVE DESCRIPTION
#----------   ------------   ------------------------------
 DEPT.F                  :   
 CALD.IN     45 280 60 00:   CALIPER FROM DENSITY LOG
 GRD .GAPI   45 310 01 00:   GAMMA RAY FROM DENSITY LOG
 RHOB.G/C3   45 350 01 00:   BULK DENSITY
 CORR.G/C3   45 356 01 00:   DENSITY CORRECTION
 SPR .MV     05 010 01 00:   SPONTANEOUS POTENTIAL
 ILD .OHMM   05 120 46 00:   DEEP INDUCTION RESISTIVITY
 ASN .OHMM   05 041 16 00:   AMPLIFIED SHORT NORMAL 16"
~PARAMETER INFORMATION
#MNEM.UNIT          VALUE    DESCRIPTION
#----------   ------------   ------------------------------
 EKB .F         5016.3000:   Kelly bushing
 EGL .F         5006.0000:   Ground level
 EDF .F            0.0000:   Drilling floor
 TD  .F         2750.0000:   Total depth
 DATE.        06-MAY-1966:   Date logged
 CLNT.            A2DTECH:   Client Code
 PD  .                 GL:   Permanent Datum
 DD  .F              2750:   Depth driller
 DL  .F              2746:   Depth logger
 BLI .F              2745:   Bottom log interval
 CS1 .IN            10.75:   Casing size
 CBD1.       10.75" @ 30':   Casing driller 1
 BS1 .IN            7.875:   Bit size
 DFT .           OIL/EMUL:   Type fluid in hole
 DFD .                9.8:   Density
 DFV .                 43:   Viscosity
 DFPH.                  8:   pH
 DFL .               11.8:   Fluid loss
 MSS .         CIRCULATED:   Source of sample
 RMS .OHMM           1.84:   Rm
 MST .F                73:   Rm Meas. temp.
 RMF .OHMM           1.21:   Rmf
 MFST.F                74:   Rmf Meas. temp.
 MFSS.                 FP:   Source Rmf.
 RMB .OHMM           1.27:   Rm. at BHT
 BHT .F               106:   BHT.
 TCS .HRS             1.5:   Time Circ. stopped
 MRT .F               106:   Maximum recorded temp.
 LUN .               3527:   Logging unit number
 LUL .               CSPR:   Logging unit location
 ENGI.               HAUG:   Recorded By
 WITN.      TUTTLE/HUDSON:   Witnessed by
 ORIG.           5" PRINT:   Origin of data
 UWI .     49025095120000:   Unique Well ID
 DICO. A2D TECHNOLOGIES, INC.:   Digitizing Company
 DAPD.F              10.3:   Feet Above Permanent Datum
 BSD1.F              2750:   Depth drilled with bit1
 MCSS.                 FP:   Source Rmc.
 EPD .F              5006:   Elevation Permanent Datum
 LMF .                 KB:   Log Measured From
 DMF .                 KB:   Drilling Measured From
 TLI .F                88:   Top log interval
~OTHER INFORMATION
~A   DEPT     CALD        GRD       RHOB       CORR        SPR        ILD          ASN 
# ...
 2208.5000     9.2520   125.9240     2.5110     0.0180   -45.8370     6.0490     8.9970
 2209.0000     9.2510   122.1000     2.4980     0.0100   -45.9300     6.2470     9.2700
 2209.5000     9.2490   119.7160     2.4980     0.0060   -45.6390     6.4440     9.6020
 2210.0000     9.2480   119.4280     2.5060     0.0020   -45.3500     6.6420     9.9340
 2210.5000     9.2470   120.7840     2.5180     0.0070   -45.0970     6.8400    10.3260
 2211.0000     9.2460   124.4010     2.5250     0.0150   -45.6120     7.0370    10.7220
 2211.5000     9.2450   126.0520     2.5150     0.0090   -46.1560     7.2330    11.0480
 2212.0000     9.2440   125.0460     2.5070    -0.0030   -46.1220     7.3870    11.1720
 2212.5000     9.2430   120.7270     2.4960    -0.0030   -45.9710     7.3710    11.2420
 2213.0000     9.2420   119.7910     2.5100     0.0050   -45.8160     7.3520    11.2490
 2213.5000     9.2410   122.9760     2.5290     0.0110   -45.6700     7.3330    11.2570
 2214.0000     9.2400   125.6990     2.5360     0.0180   -45.7770     7.3140    11.1390
 2214.5000     9.2390   126.8720     2.5220     0.0220   -45.8950     7.2950    11.1050
 2215.0000     9.2370   127.5190     2.5140     0.0190   -46.0140     7.2840    11.0670
 2215.5000     9.2360   128.7230     2.5170     0.0100   -46.1320     7.2840    11.0290
 2216.0000     9.2360   130.9370     2.5220     0.0190   -46.2440     7.2840    10.9920
 2216.5000     9.2460   131.0260     2.5260     0.0250   -46.1170     7.2850    10.9550
 2217.0000     9.2550   128.0930     2.5210     0.0170   -45.9770     7.2320    10.9180
 2217.5000     9.2650   122.5610     2.5050     0.0050   -45.8350     7.1490    10.8810
 2218.0000     9.2750   119.0810     2.5100     0.0070   -45.6860     7.0670    10.8440
 2218.5000     9.2850   115.7460     2.5440     0.0230   -45.8880     6.9850    10.8070
 2219.0000     9.2950   117.5410     2.5380     0.0250   -46.1950     6.9030    10.7700
 2219.5000     9.3040   121.7070     2.5240     0.0130   -45.8240     6.8200    10.7330
 2220.0000     9.3140   125.9180     2.5110     0.0050   -45.2670     6.7380    10.6950
 2220.5000     9.3240   128.8740     2.5030     0.0110   -44.7080     6.6550    10.6580
 2221.0000     9.3340   128.8230     2.5070     0.0180   -44.9600     6.5730    10.6210
 2221.5000     9.3430   128.4000     2.5130     0.0250   -45.2690     6.4940    10.5860
 2222.0000     9.3530   128.6300     2.5190     0.0310   -45.5840     6.4910    10.5590
 2222.5000     9.3630   128.8310     2.5220     0.0370   -45.6130     6.5080    10.6310
 2223.0000     9.3730   129.0740     2.5130     0.0340   -45.5570     6.5350    10.6460
 2223.5000     9.3820   128.1040     2.5180     0.0280   -45.4980     6.5620    10.7570
 2224.0000     9.3910   126.7850     2.5280     0.0280   -45.4390     6.5890    10.7530
 2224.5000     9.3920   123.6580     2.5370     0.0320   -45.3790     6.6160    10.7500
 2225.0000     9.3920   122.7170     2.5420     0.0220   -45.3190     6.6420    10.8610
 2225.5000     9.3920   122.7340     2.5180     0.0130   -45.2810     6.6690    10.8550
 2226.0000     9.3920   122.1930     2.5090     0.0090   -45.5590     6.6960    10.8520
 2226.5000     9.3920   120.9840     2.5070     0.0060   -45.8210     6.7230    10.8520
 2227.0000     9.3920   121.0630     2.5050     0.0030   -45.5660     6.7500    10.8520
 2227.5000     9.3920   121.9280     2.5020    -0.0010   -45.2790     6.7770    10.8520
 2228.0000     9.3920   123.9140     2.5000    -0.0010   -45.4090     6.8040    10.8520
 2228.5000     9.3930   126.4790     2.4990     0.0000   -45.5450     6.8310    10.8510
 2229.0000     9.3870   127.1370     2.5000     0.0030   -45.6790     6.8570    10.8470
 2229.5000     9.3710   128.0150     2.5080     0.0070   -45.8180     6.8840    10.7740
 2230.0000     9.3570   127.1810     2.5210     0.0150   -45.8160     6.9110    10.7530
 2230.5000     9.3410   125.5750     2.5350     0.0210   -45.7580     6.9380    10.7310
 2231.0000     9.3260   125.1610     2.5430     0.0190   -45.6990     6.9630    10.7040
 2231.5000     9.3120   125.2140     2.5340     0.0150   -45.6400     6.9860    10.6760
 2232.0000     9.2960   126.4580     2.5190     0.0090   -45.5810     7.0080    10.6300
 2232.5000     9.2820   128.3280     2.5090     0.0040   -45.5210     7.0010    10.4960
 2233.0000     9.2660   130.1470     2.5060     0.0010   -45.4670     6.8680    10.3610
 2233.5000     9.2520   132.7360     2.5130     0.0100   -45.5250     6.7330    10.2260
 2234.0000     9.2370   135.4100     2.5170     0.0190   -45.8160     6.5960    10.0940
 2234.5000     9.2340   137.1930     2.5090     0.0180   -45.6600     6.4580     9.8670
 2235.0000     9.2320   133.8360     2.4960     0.0100   -45.4310     6.3210     9.6200
 2235.5000     9.2300   130.0600     2.5000     0.0000   -45.1980     6.1840     9.3960
 2236.0000     9.2270   127.5840     2.5040     0.0040   -44.9590     6.0460     9.3690
 2236.5000     9.2250   130.5240     2.5050    -0.0010   -45.0910     5.9090     9.3930
 2237.0000     9.2230   134.8110     2.4940    -0.0050   -45.4430     5.7710     9.3700
 2237.5000     9.2210   138.8130     2.4940    -0.0040   -45.5930     5.6340     9.1830
 2238.0000     9.2190   141.7960     2.4990     0.0040   -45.4200     5.4960     8.9910
 2238.5000     9.2160   144.6120     2.5040     0.0090   -45.2530     5.3580     8.7990
 2239.0000     9.2140   144.1850     2.4990     0.0110   -45.0870     5.2190     8.6080
 2239.5000     9.2120   142.9190     2.4910     0.0110   -44.9200     5.0260     8.4170
 2240.0000     9.2100   138.3600     2.4880     0.0110   -44.7440     4.8760     8.2260
 2240.5000     9.2070   131.9620     2.4880     0.0090   -45.1500     4.9520     8.0840
 2241.0000     9.2050   125.5820     2.4860     0.0060   -45.5530     5.2100     8.1100
 2241.5000     9.2030   124.3010     2.4980     0.0050   -45.2130     5.4680     8.4800
 2242.0000     9.2010   123.1730     2.5110     0.0080   -44.8870     5.7280     8.8540
 2242.5000     9.1990   120.7760     2.5210     0.0180   -44.7950     5.9880     9.2330
 2243.0000     9.1960   119.1370     2.5130     0.0200   -45.1520     6.2490     9.4480
 2243.5000     9.1950   117.6430     2.5070     0.0160   -45.5040     6.5110     9.6480
 2244.0000     9.1790   115.9240     2.5090     0.0110   -45.5960     6.7800     9.8450
 2244.5000     9.1630   115.0930     2.5160     0.0070   -45.4840     6.8670    10.0430
 2245.0000     9.1460   115.4610     2.5230     0.0030   -45.3740     6.8850    10.1370
 2245.5000     9.1300   116.2500     2.5240     0.0040   -45.2620     6.8700    10.1270
 2246.0000     9.1140   117.3520     2.5150     0.0070   -45.1510     6.8550    10.0890
 2246.5000     9.0980   119.2930     2.5180     0.0110   -45.0410     6.8410    10.0790
 2247.0000     9.0810   120.9930     2.5260     0.0130   -44.9270     6.8270    10.1000
 2247.5000     9.0650   123.9060     2.5210     0.0110   -45.0940     6.8130    10.1280
 2248.0000     9.0480   125.2170     2.5140     0.0070   -45.5150     6.7990    10.1570
 2248.5000     9.0400   126.5150     2.5160     0.0060   -45.9520     6.7890    10.1360
 2249.0000     9.0450   127.5390     2.5190     0.0110   -45.7410     6.7980    10.1050
 2249.5000     9.0480   126.9440     2.5230     0.0190   -45.3210     6.8330    10.0750
 2250.0000     9.0520   124.2610     2.5270     0.0240   -44.8920     6.8680    10.0430
 2250.5000     9.0560   121.6230     2.5300     0.0130   -44.7850     6.9020    10.0350
 2251.0000     9.0600   118.5550     2.5380     0.0200   -45.0000     6.9360    10.0100
 2251.5000     9.0630   117.1090     2.5490     0.0350   -45.2120     6.9750    11.2410
 2252.0000     9.0670   117.1990     2.5520     0.0300   -45.4270     7.0650    11.1450
 2252.5000     9.0710   117.6890     2.5530     0.0340   -45.6470     7.0870    11.2250
 2253.0000     9.0750   117.4150     2.5490     0.0360   -45.5290     7.0870    11.4240
 2253.5000     9.0780   114.7680     2.5400     0.0220   -45.3830     7.0660    11.4480
