~VERSION INFORMATION
 VERS.                2.0:   CWLS LOG ASCII STANDARD - VERSION 2.0
 WRAP.                 NO:   ONE LINE PER DEPTH STEP
~WELL INFORMATION
#MNEM.UNIT      DATA TYPE    INFORMATION
#----------   ------------   ------------------------------
 STRT.F           60.0000:   START DEPTH
 STOP.F         5768.0000:   STOP DEPTH
 STEP.F            0.5000:   STEP LENGTH
 NULL.          -999.2500:   NO VALUE
 COMP.              RMOTC:   COMPANY
 WELL. RMOTC NPR-3 61 "X" #2-15:   WELL
 FLD .            N P R-3:   FIELD
 LOC .      S15 T38N R78W:   LOCATION
 CNTY.            NATRONA:   COUNTY
 STAT.            WYOMING:   STATE
 CTRY. UNITED STATES OF AMERICA:   COUNTRY
 SRVC.       SCHLUMBERGER:   SERVICE COMPANY
 DATE.        07-JAN-2002:   LOGDATE
 API .     49025230310000:   API NUMBER
~CURVE INFORMATION
#MNEM.UNIT       API CODE    CURVE DESCRIPTION
#----------   ------------   ------------------------------
 DEPT.F                  :   
 CALD.IN     45 280 60 00:   CALIPER FROM DENSITY LOG
 TEND.LBS    45 635 01 00:   TENSION FROM DENSITY LOG
 PEFZ.B/E    45 358 01 00:   HILT PHOTOELECTRIC FACTOR
 RHOZ.G/C3   45 350 01 00:   HILT BULK DENSITY
 NPOR.DEC    42 890 03 00:   ALPHA PROCESSED NEUTRON POROSITY
 HDRA.G/C3   45 356 01 00:   DELTA RHO HIP TOOL
 GRS .GAPI   60 310 01 00:   GAMMA RAY FROM SONIC LOG
 DTSM.US/F   61 523 00 00:   SHEAR-WAVE INTERVAL TRANSIT TIME DELTA-T
 GRR .GAPI   07 310 01 00:   GAMMA RAY FROM RESISTIVITY
 TENR.LBS    01 635 01 00:   TENSION FROM RES.
 SPR .MV     07 010 01 00:   SPONTANEOUS POTENTIAL
 HLLD.OHMM   11 220 10 00:   LATEROLOG DEEP RES.
 HLLS.OHMM   11 220 09 00:   LATEROLOG SHALLOW RES.
 HRLD.OHMM   11 220 10 00:   HIGH RESOLUTION DEEP RESISTIVITY
~PARAMETER INFORMATION
#MNEM.UNIT          VALUE    DESCRIPTION
#----------   ------------   ------------------------------
 EKB .F         5244.0000:   Kelly bushing
 EGL .F         5227.0000:   Ground level
 EDF .F         5243.0000:   Drilling floor
 EPD .F            0.0000:   Permanent datum
 TD  .F         5756.0000:   Total depth
 DATE.        07-JAN-2002:   Date logged
 CLNT.            A2DTECH:   Client Code
 SL  . 189' FNL & 1895' FEL:   Surface Location
 PD  .                 GL:   Permanent Datum
 DD  .F              5750:   Depth driller
 DL  .F              5756:   Depth logger
 BLI .F              5748:   Bottom log interval
 CS1 .IN             3054:   Casing size
 CBD1.     9.625" @ 3052':   Casing driller 1
 CBL1.F              3054:   Casing logger 1
 BS1 .IN            8.750:   Bit size
 DFT .             3% KCL:   Type fluid in hole
 DFD .                9.3:   Density
 DFV .                 42:   Viscosity
 DFPH.                  8:   pH
 DFL .                 28:   Fluid loss
 MSS .           FLOWLINE:   Source of sample
 RMS .OHMM          0.413:   Rm
 MST .F                74:   Rm Meas. temp.
 RMF .OHMM          0.305:   Rmf
 MFST.F                74:   Rmf Meas. temp.
 RMC .OHMM          0.637:   Rmc
 MCST.F                74:   Rmc Meas. temp.
 MFSS.               CALC:   Source Rmf.
 RMB .OHMM          0.187:   Rm. at BHT
 BHT .F               172:   BHT.
 TCS .HRS            0800:   Time Circ. stopped
 MRT .F               172:   Maximum recorded temp.
 LUN .               2211:   Logging unit number
 LUL .             CASPER:   Logging unit location
 ENGI.        J.L. FLORES:   Recorded By
 WITN.      MARK MILLIKEN:   Witnessed by
 ORIG.           5" PRINT:   Origin of data
 UWI .     49025230310000:   Unique Well ID
 DICO. A2D TECHNOLOGIES, INC.:   Digitizing Company
 DAPD.                 17:   Feet Above Permanent Datum
 BSD1.               5750:   Depth drilled with bit1
 MCSS.               CALC:   Source Rmc.
 LMF .                 KB:   Log Measured From
 DMF .                 KB:   Drilling Measured From
 TLI .               3054:   Top log interval
~OTHER INFORMATION
~A   DEPT     CALD       TEND       PEFZ       RHOZ       NPOR       HDRA        GRS       DTSM         GRR      TENR        SPR       HLLD       HLLS       HRLD   
# ...
 4837.5000    10.8530  2615.9709     3.2700     2.7030     0.1000     0.0000    70.9250   108.8740    77.3790  2611.7180   -33.2000    31.8870    29.3670    32.1800
 4838.0000    10.8490  2624.2881     3.1950     2.6960     0.0990    -0.0020    72.1540   110.3680    80.2890  2626.7129   -31.3590    31.8870    32.4760    30.2930
 4838.5000    10.8450  2632.6040     3.2100     2.6800     0.1050    -0.0040    76.3780   111.8620    84.1240  2651.4399   -29.9000    28.6770    29.9220    26.5560
 4839.0000    10.8410  2622.6641     3.2400     2.6640     0.1210    -0.0070    78.6670   113.3550    87.7080  2644.2620   -30.0730    26.0090    27.7990    25.3690
 4839.5000    10.8400  2608.4070     3.2700     2.6570     0.1330    -0.0060    78.3570   114.8730    87.8150  2637.1399   -30.2170    23.3410    26.0750    23.5890
 4840.0000    10.8420  2594.4331     3.2750     2.6650     0.1430    -0.0050    79.8740   115.4950    87.6810  2631.5791   -30.3610    22.0690    24.0630    21.3220
 4840.5000    10.8440  2607.3660     3.2860     2.6730     0.1530    -0.0030    83.6740   115.8880    89.0150  2641.7480   -30.5050    21.9160    22.4080    20.3600
 4841.0000    10.8460  2623.1240     3.2930     2.6770     0.1650    -0.0020    89.3770   115.8880    94.2230  2651.7180   -30.6490    20.1840    20.9360    19.8180
 4841.5000    10.8480  2638.8821     3.3090     2.6770     0.1770    -0.0010    91.7080   115.7090   100.6460  2661.6880   -30.7930    20.1840    20.3690    19.8180
 4842.0000    10.8490  2654.0759     3.2630     2.6770     0.1830     0.0000    92.8170   114.6440   103.7080  2671.3010   -30.9040    20.0420    20.3690    19.7460
 4842.5000    10.8510  2654.0759     3.2080     2.6920     0.1700     0.0000    91.3690   113.5800   100.5300  2660.9729   -30.9040    20.0000    22.1400    19.6760
 4843.0000    10.8530  2645.6860     3.1500     2.7040     0.1560     0.0010    86.1470   112.5160    98.4780  2651.0029   -30.7030    20.6580    23.7960    20.0000
 4843.5000    10.8550  2635.7061     3.1640     2.7010     0.1430     0.0000    80.2490   111.8270    95.6830  2641.0330     3.4220    22.2930    24.4860    21.8870
 4844.0000    10.8570  2634.1951     3.1930     2.6870     0.1290    -0.0020    76.1740   111.0420    93.2820  2631.5791    23.9160    24.3950    25.6620    23.6960
 4844.5000    10.8580  2634.1951     3.2430     2.6690     0.1190    -0.0040    73.3250   110.5360    87.7640  2637.9341    36.9680    26.4970    27.3340    25.6980
 4845.0000    10.8600  2634.1951     3.2680     2.6760     0.1190    -0.0040    72.7600   110.0300    83.6750  2643.9771    29.6890    28.3120    28.8350    27.7990
 4845.5000    10.8600  2640.7839     3.2220     2.6910     0.1270    -0.0020    73.7790   109.5250    84.2960  2650.0200   -10.0200    27.9960    28.1540    27.2980
 4846.0000    10.8600  2654.0759     3.1760     2.7080     0.1360     0.0010    74.7790   109.0190    86.2510  2656.0620   -22.4170    27.1240    27.3640    26.5410
 4846.5000    10.8600  2627.3560     3.1510     2.7130     0.1420     0.0030    74.7480   108.5140    88.1750  2662.1050   -30.1000    26.3150    26.5730    25.8380
 4847.0000    10.8600  2614.3140     3.1860     2.7030     0.1400     0.0010    74.6100   108.0080    86.9400  2668.1470   -31.1040    26.8030    27.4220    26.6220
 4847.5000    10.8600  2614.3140     3.1730     2.6900     0.1300     0.0000    73.7170   107.5030    82.5190  2662.8889   -31.9080    27.8330    29.0680    27.2950
 4848.0000    10.8600  2614.3140     3.1350     2.6810     0.1210    -0.0020    73.0870   106.9970    79.5770  2645.2949   -31.8880    29.8680    30.7130    29.2560
 4848.5000    10.8590  2598.7371     3.0980     2.6740     0.1160    -0.0030    70.7810   106.4910    80.3080  2627.7000   -31.4290    30.5210    31.7480    30.2250
 4849.0000    10.8440  2581.1250     3.0750     2.6720     0.1130    -0.0050    70.1400   106.2910    81.2790  2611.7180   -31.2380    29.4650    31.3090    27.2950
 4849.5000    10.7790  2563.5129     3.1650     2.6700     0.1060    -0.0060    66.1900   106.3850    80.5990  2614.0559   -31.6960    32.5360    33.3120    31.7490
 4850.0000    10.7400  2562.1270     3.2480     2.6640     0.0980    -0.0080    67.6290   106.4790    78.3040  2616.6760   -32.1080    35.9130    35.9130    36.2430
 4850.5000    10.7330  2587.0779     3.2870     2.6590     0.0940    -0.0060    70.6160   106.5730    75.7280  2619.2959   -32.1080    35.9130    34.7530    34.6000
 4851.0000    10.7260  2614.3140     3.2600     2.6610     0.0980    -0.0030    73.5910   106.6660    75.3450  2621.9150   -32.2000    32.4890    32.4370    31.3210
 4851.5000    10.7200  2614.3140     3.2320     2.6700     0.1070     0.0000    76.1460   106.7510    79.7480  2624.5349   -32.3830    29.3820    30.1210    28.0410
 4852.0000    10.7260  2599.1389     3.2610     2.6750     0.1110     0.0030    74.1430   107.1680    80.5400  2627.1550   -32.5660    26.2750    28.0540    24.7620
 4852.5000    10.7330  2582.5049     3.2940     2.6910     0.1100     0.0030    72.6390   107.7660    79.7770  2629.7749   -32.7490    33.3400    33.1810    33.2230
 4853.0000    10.7390  2574.5530     3.3110     2.7060     0.1050     0.0020    73.0370   110.5280    79.7150  2631.5791   -32.9320    50.3760    38.8250    53.7550
 4853.5000    10.7450  2580.7019     3.3160     2.7040     0.1130     0.0010    80.2660   113.0610    83.7860  2624.2041   -33.1150    40.6910    36.3510    43.2040
 4854.0000    10.7510  2587.3560     3.3210     2.6990     0.1380     0.0000    87.3140   115.5940    93.1270  2617.5701   -33.2980    30.0750    28.3670    26.4920
 4854.5000    10.7580  2594.4331     3.3260     2.6770     0.1640    -0.0010    92.9650   117.4110    99.0600  2611.7180   -33.4810    18.5890    21.3220    17.9210
 4855.0000    10.7640  2594.4331     3.3310     2.6830     0.1690     0.0010    96.2890   117.6550   104.7760  2611.7180   -33.6640    18.1650    21.1280    17.6250
 4855.5000    10.7700  2594.4331     3.3460     2.6970     0.1760     0.0020    96.9790   117.9190   110.7410  2611.7180   -33.8470    17.9210    20.6460    17.2770
 4856.0000    10.7760  2594.4331     3.3570     2.7090     0.1920     0.0040    96.9240   116.1630   114.8760  2611.7180   -34.0300    16.5950    19.7210    16.4640
 4856.5000    10.7830  2600.0991     3.3640     2.7000     0.2060     0.0040    94.3210   114.3210   115.9140  2611.7180   -34.0120    15.7670    19.1060    15.5820
 4857.0000    10.7890  2637.5249     3.3700     2.6780     0.2030     0.0000    91.2140   113.3500   112.1450  2611.7180   -33.6920    16.8160    19.7450    15.2010
 4857.5000    10.7950  2647.1169     3.3230     2.6730     0.1850    -0.0030    88.1060   113.5450   102.9220  2611.7180   -33.3720    19.5770    21.2880    18.5470
 4858.0000    10.8010  2634.6421     3.2550     2.6890     0.1640    -0.0010    88.7190   113.7690   100.5090  2611.7180   -33.0520    22.5250    22.5250    21.7160
 4858.5000    10.8080  2622.1670     3.2130     2.7030     0.1690     0.0010    89.8760   113.9920   101.5670  2611.7180   -32.7110    20.7670    21.9740    20.4980
 4859.0000    10.8140  2610.9519     3.2720     2.7040     0.1780     0.0020    90.9380   114.2160   103.7160  2611.7180   -32.9040    18.7600    20.7450    18.2520
 4859.5000    10.8200  2601.8799     3.3250     2.6960     0.1840     0.0020    90.8340   114.4390   104.0890  2611.7180   -33.1110    19.8930    21.7510    18.6700
 4860.0000    10.8200  2601.1431     3.3720     2.6960     0.1730     0.0030    90.7040   114.6630   104.1160  2611.7180   -33.3100    22.0030    23.1150    21.0830
 4860.5000    10.8290  2638.5691     3.3420     2.7030     0.1680     0.0030    90.5850   114.8730   105.0730  2611.7180   -33.5330    24.2350    24.0150    24.6830
 4861.0000    10.8590  2634.1951     3.3250     2.7170     0.1800     0.0040    90.4000   115.6700   104.1130  2631.5791   -33.7230    21.8450    23.1700    21.3350
 4861.5000    10.8490  2634.1951     3.3500     2.7190     0.1900     0.0040    88.7090   116.0080   102.2380  2631.5791   -33.9480    19.8180    22.0330    19.7550
