~VERSION INFORMATION
 VERS.                2.0:   CWLS LOG ASCII STANDARD - VERSION 2.0
 WRAP.                 NO:   ONE LINE PER DEPTH STEP
~WELL INFORMATION
#MNEM.UNIT      DATA TYPE    INFORMATION
#----------   ------------   ------------------------------
 STRT.F           57.0000:   START DEPTH
 STOP.F         5817.0000:   STOP DEPTH
 STEP.F            0.5000:   STEP LENGTH
 NULL.          -999.2500:   NO VALUE
 COMP. DEPARTMENT OF ENERGY:   COMPANY
 WELL. DEPARTMENT NPR 371 "X" #1-4:   WELL
 FLD .              NPR-3:   FIELD
 LOC .       S4 T38N R78W:   LOCATION
 CNTY.            NATRONA:   COUNTY
 STAT.            WYOMING:   STATE
 CTRY. UNITED STATES OF AMERICA:   COUNTRY
 SRVC.       SCHLUMBERGER:   SERVICE COMPANY
 DATE.        25-AUG-2002:   LOGDATE
 API .     49025230480000:   API NUMBER
~CURVE INFORMATION
#MNEM.UNIT       API CODE    CURVE DESCRIPTION
#----------   ------------   ------------------------------
 DEPT.F                  :   
 HCAL.IN     07 280 01 00:   HRLT CALIPER
 RLA1.OHMM   06 120 01 00:   HRLT RESISTIVITY 1
 RLA2.OHMM   06 120 02 00:   HRLT RESISTIVITY 2
 RLA3.OHMM   06 120 03 00:   HRLT RESISTIVITY 3
 RXOZ.OHMM   06 270 04 00:   STAN RES. MICROCFL RESISTIVITY
 TENR.LBS    06 635 01 00:   TENSION FROM RESITIVITY
 GRR .GAPI   07 310 01 00:   GAMMA RAY FROM RESISTIVITY
 SPHI.DEC    60 890 22 00:   SONIC POROSITY SANDSTONE
 DT  .US/F   60 520 00 00:   DELTA TIME
 TENS.LBS    60 635 01 00:   TENSION FROM SONIC
 RT  .OHMM   06 120 00 00:   HRLT TRUE RESISTIVITY
~PARAMETER INFORMATION
#MNEM.UNIT          VALUE    DESCRIPTION
#----------   ------------   ------------------------------
 EKB .F         5196.0000:   Kelly bushing
 EGL .F         5186.0000:   Ground level
 EDF .F         5194.0000:   Drilling floor
 TD  .F         5803.0000:   Total depth
 CLNT.            A2DTECH:   Client Code
 SL  . 794' FEL & 333' FNL:   Surface Location
 PD  .                 GL:   Permanent Datum
 EPD .F              5186:   Elevation Permanent Datum
 LMF .                 KB:   Log Measured From
 DMF .                 KB:   Drilling Measured From
 DAPD.F                10:   Feet Above Permanent Datum
 DATE.        25-AUG-2002:   Date Logged [DD-MMM-YYYY]
 DD  .F              5800:   Depth driller
 DL  .F              5803:   Depth logger
 BLI .F              5803:   Bottom log interval
 TLI .F               656:   Top log interval
 CS1 .IN            9.625:   Casing size
 CBD1.      9.625" @ 660':   Casing driller 1
 CBL1.F               656:   Casing logger 1
 BS1 .IN            8.750:   Bit size
 BSD1.F              5800:   Depth drilled with bit1
 DFT .           GEL CHEM:   Type fluid in hole
 DFD .                  9:   Density
 DFV .                 36:   Viscosity
 DFPH.                8.5:   pH
 DFL .                7.6:   Fluid loss
 MSS .           FLOWLINE:   Source of sample
 RMS .OHMM          0.846:   Rm
 MST .F                90:   Rm Meas. temp.
 RMF .OHMM          0.670:   Rmf
 MFST.F                90:   Rmf Meas. temp.
 MFSS.               MEAS:   Source Rmf.
 RMC .OHMM          1.075:   Rmc
 MCST.F                90:   Rmc Meas. temp.
 MCSS.               CALC:   Source Rmc.
 TCS .HRS            0300:   Time Circ. stopped
 TLAB.HRS            0915:   Time logger at bottom
 MRT .F               156:   Maximum recorded temp.
 LUN .               2211:   Logging unit number
 LUL .             CASPER:   Logging unit location
 ENGI.        J.L. FLORES:   Recorded By
 WITN.        STEVE HARDY:   Witnessed by
 ORIG.        2" 5" PRINT:   Origin of data
 UWI .     49025230480000:   Unique Well ID
 DICO. A2D TECHNOLOGIES, INC.:   Digitizing Company
~OTHER INFORMATION
~A   DEPT     HCAL       RLA1       RLA2       RLA3       RXOZ       TENR         GRR      SPHI         DT       TENS         RT   
# ...
 3717.0000     9.0169     9.4043     9.8413     8.6086     9.7737  2173.2126  -999.2500  -999.2500    93.6825  1720.4738     9.4291
 3717.5000     9.0316    10.8085    10.9197    10.3787    10.6220  2174.1333  -999.2500  -999.2500    93.9812  1711.5964    10.3180
 3718.0000     9.0012     7.9096     5.7787     6.4839     7.8357  2175.2842  -999.2500  -999.2500    94.0535  1711.4458     6.9992
 3718.5000     9.0009     6.2470     6.9194     6.5393     5.6219  2176.2046  -999.2500  -999.2500    90.5771  1711.2950     5.9267
 3719.0000     9.1813     5.6928     6.0262     5.8060     6.0680  2177.1252  -999.2500     0.2831    90.1203  1711.1445     4.9839
 3719.5000     9.4371     3.6792     3.6878     2.9067     4.2646  2178.2761  -999.2500     0.2906    94.0409  1710.9817     3.2884
 3720.0000     9.6701     2.2837     2.4862     2.4117     1.7349  2179.1963  -999.2500  -999.2500    95.3962  1710.8434     2.4579
 3720.5000    10.6410     5.9163     6.6532     4.3736     0.9838  2180.1172  -999.2500  -999.2500    98.5675  1710.6869     5.7249
 3721.0000     9.9934     8.7320     8.4654     7.4012     1.4905  2181.2678  -999.2500  -999.2500   105.9649  1710.5167     7.5536
 3721.5000     9.2250     9.8968     8.8876     9.2366     2.8770  2182.1887  -999.2500  -999.2500   106.5698  1710.3806     9.2351
 3722.0000     9.1494     8.0377     7.5813     7.3013     8.0131  2183.1091  -999.2500  -999.2500   104.9109  1710.2410     7.4497
 3722.5000     8.9985     8.8608     8.2969     8.3285     8.7086  2283.7622  -999.2500  -999.2500   100.0064  1710.0745     8.9205
 3723.0000     8.9831     8.8465     8.5910     8.3945     8.2987  2284.6831  -999.2500  -999.2500    92.3849  1709.9384     8.7977
 3723.5000     8.9828     9.9085     8.9569     9.3062     8.0180  2235.6221  -999.2500     0.2719    88.1599  1711.7313     9.1713
 3724.0000     8.9524     6.9546     9.9389     9.7693     8.4760  2187.0217  -999.2500     0.2710    90.5007  1724.6989     9.6941
 3724.5000     8.9371     3.8016     3.5206     9.5697     3.5207  2188.1724  -999.2500     0.2871    91.0302  1724.5223     9.3639
 3725.0000     9.4036     5.0204     4.9772    10.4725     2.9619  2189.0933  -999.2500     0.2868    90.5788  1724.3864    10.3898
 3725.5000     9.7045     4.8466     4.7757     5.0647     4.2752  2190.2439  -999.2500     0.2834    89.9007  1724.2471     5.4538
 3726.0000     9.2976     5.1290     4.8434     5.1142     4.9791  2141.1831  -999.2500     0.2819    90.1283  1724.0964     4.9153
 3726.5000     9.1015     7.2103     5.9619     6.7748     4.8777  2142.3340  -999.2500     0.3001    93.9788  1723.9458     6.4855
 3727.0000     9.0108     9.9278     9.1246     8.5729     8.0297  2143.2832  -999.2500  -999.2500    96.3196  1723.7952     9.5607
 3727.5000     9.0407     9.2639     9.6142     9.3163     8.7264  2144.4050  -999.2500  -999.2500    97.3019  1723.6447    10.1057
 3728.0000     9.1081     8.3499     8.0330     8.3412     7.8094  2195.0769  -999.2500  -999.2500    97.0769  1723.4940     8.1520
 3728.5000     9.1154     8.1232     7.9241     7.8930     7.6018  2146.2466  -999.2500  -999.2500    94.3611  1723.3434     7.9291
 3729.0000     9.1603     8.3546     8.3771     8.1721     7.4959  2147.3972  -999.2500  -999.2500    92.5509  1723.1929     8.1070
 3729.5000     9.1900     9.4041     9.1045     9.1303     8.2638  2198.0688  -999.2500  -999.2500    93.2316  1723.0254     8.9826
 3730.0000     9.2199     9.4720     9.4922     9.5847     9.2331  2199.0054  -999.2500  -999.2500    95.1951  1722.8893     9.4946
 3730.5000     9.2346     7.5866     7.5040     8.3001     8.7986  2200.1404  -999.2500  -999.2500    95.7245  1722.7192     8.4394
 3731.0000     9.2645     6.3347     6.0984     5.9888     6.0984  2151.0796  -999.2500  -999.2500    95.8015  1722.5831     6.5306
 3731.5000     9.2792     5.8705     5.8921     5.9867     6.0157  2152.2390  -999.2500  -999.2500    95.8026  1722.4398     5.9267
 3732.0000     9.2789     7.0833     6.4930     6.9755     6.4034  2153.3811  -999.2500  -999.2500    95.8792  1722.2892     6.0933
 3732.5000     9.2636     9.6854     7.9925     8.5860     5.0273  2154.3018  -999.2500  -999.2500    97.2392  1722.1385     9.1713
 3733.0000     9.2482    10.9021    10.5438    10.4233     5.8149  2155.2241  -999.2500  -999.2500    98.7498  1721.9879    10.2467
 3733.5000     9.2178     9.6238     9.7054     9.3968     9.0565  2156.3728  -999.2500  -999.2500    99.2038  1721.8346     9.4946
 3734.0000     9.1120     8.5541     7.3605     8.1836     8.9341  2157.2937  -999.2500  -999.2500    95.6581  1706.6042     8.5572
 3734.5000     9.0365     7.8105     5.1370     7.9062     7.2106  2207.9658  -999.2500  -999.2500    92.8668  1706.4760     7.3178
 3735.0000     9.2168     4.5760     2.6443     6.4531     2.4951  2209.1165  -999.2500     0.2977    90.6792  1706.2981     3.3575
 3735.5000     9.6684     1.2676     1.8842     1.3828     1.4386  2210.0369  -999.2500     0.2802    88.5672  1706.1747     1.6218
 3736.0000    10.3157     2.3691     2.1694     2.4057     1.1216  2260.7087  -999.2500     0.2766    90.9837  1706.0242     2.1547
 3736.5000    11.5441     5.2678     4.0076     3.7467     1.4096  2261.6914  -999.2500  -999.2500   102.1753  1707.2017     3.7773
 3737.0000    10.2699    11.7940     8.3470     7.4340     3.3484  2262.7798  -999.2500  -999.2500   116.2163  1720.7832     9.8898
 3737.5000     9.0347    11.8792     9.7888    11.1837     8.1770  2263.7007  -999.2500  -999.2500   124.9766  1720.6099     9.6251
 3738.0000     9.0946     7.3583     7.2210     7.2833     6.6457  2264.8516  -999.2500  -999.2500   124.3472  1720.4821     7.1462
 3738.5000     9.1545     7.6733     7.7940     7.5409     6.5911  2215.7905  -999.2500  -999.2500   109.6316  1720.3313     7.6062
 3739.0000     9.1391     6.0612     7.5826     6.7982     3.3281  2216.9414  -999.2500  -999.2500    97.6328  1720.1808     6.0512
 3739.5000     9.1087     5.0256     5.2194     5.2624     1.8743  2267.8433  -999.2500  -999.2500    91.6717  1720.0302     5.2680
 3740.0000     9.6656     6.4558     7.5858     7.0884     1.9274  2218.9055  -999.2500  -999.2500    94.7675  1719.8615     8.0398
 3740.5000     9.1081     9.2025     9.3377     9.2215     2.8599  2219.9336  -999.2500  -999.2500   100.3536  1719.7252     9.4946
 3741.0000     9.1079     8.3156     8.4775     8.3136     6.2957  2221.0845  -999.2500  -999.2500   102.4679  1719.5552     7.9842
 3741.5000     9.1979     6.9258     6.7015     6.7094     6.5183  2222.0049  -999.2500  -999.2500   102.6955  1719.4192     7.1462
 3742.0000     9.2880     6.6428     6.5650     6.9949     5.3717  2272.6768  -999.2500  -999.2500   100.2819  1719.2772     6.6678
 3742.5000     9.8298     7.3767     7.5936     7.3428     5.2258  2273.8276  -999.2500  -999.2500    96.8113  1719.1129     7.1959
 3743.0000    10.0103     7.1764     6.9902     6.6660     5.3366  2324.4990  -999.2500  -999.2500    94.9260  1718.9760     7.1411
 3743.5000    10.1605     6.7902     6.6606     6.7131     5.6417  2325.4199  -999.2500  -999.2500    95.5309  1718.8253     6.6678
 3744.0000    10.1452     6.9837     6.8569     6.9999     5.9639  2326.3679  -999.2500  -999.2500    96.5887  1718.6747     6.9509
 3744.5000     9.9039     7.2327     7.1907     6.9035     6.6175  2327.4915  -999.2500  -999.2500    96.9675  1718.5240     7.1462
 3745.0000     9.7229     6.2094     6.6649     6.1807     6.1339  2328.4119  -999.2500  -999.2500    96.7422  1718.3644     6.0094
 3745.5000     9.8130     4.6639     4.7824     4.5276     4.5563  2329.3530  -999.2500  -999.2500    96.1396  1718.2229     4.7479
 3746.0000     9.9934     4.1237     4.2818     4.2546     2.9880  2330.4834  -999.2500  -999.2500    96.2920  1718.0582     4.3994
 3746.5000    10.1437     5.1161     5.1628     5.6907     2.5665  2281.4224   139.7876  -999.2500    96.0668  1717.9218     5.8048
 3747.0000    10.4747     5.9626     5.8084     6.8606     2.3953  2229.8906   134.8053  -999.2500    95.7660  1717.7711     6.3097
