~VERSION INFORMATION
 VERS.                2.0:   CWLS LOG ASCII STANDARD - VERSION 2.0
 WRAP.                 NO:   ONE LINE PER DEPTH STEP
~WELL INFORMATION
#MNEM.UNIT      DATA TYPE    INFORMATION
#----------   ------------   ------------------------------
 STRT.F          220.0000:   START DEPTH
 STOP.F         3284.5000:   STOP DEPTH
 STEP.F            0.5000:   STEP LENGTH
 NULL.          -999.2500:   NO VALUE
 COMP.    FENIX & SCISSON:   COMPANY
 WELL. FENIX HARPEL "A" #85-28:   WELL
 FLD .              NPR-3:   FIELD
 LOC .      S28 T39N R78W:   LOCATION
 CNTY.            NATRONA:   COUNTY
 STAT.            WYOMING:   STATE
 CTRY. UNITED STATES OF AMERICA:   COUNTRY
 SRVC.      DRESSER ATLAS:   SERVICE COMPANY
 DATE.        07-AUG-1977:   LOGDATE
 API .     49025104040000:   API NUMBER
~CURVE INFORMATION
#MNEM.UNIT       API CODE    CURVE DESCRIPTION
#----------   ------------   ------------------------------
 DEPT.F                  :   
 GRD .GAPI   45 310 01 00:   GAMMA RAY FROM DENSITY LOG
 CALD.IN     45 280 60 00:   CALIPER FROM DENSITY LOG
 CORR.G/C3   45 356 01 00:   DENSITY CORRECTION
 RHOB.G/C3   45 350 01 00:   BULK DENSITY
 TEND.LBS    45 635 01 00:   TENSION FORM DENSITY LOG
 NPHI.DEC    42 890 03 00:   NEUTRON POROSITY SANDSTONE
 SPR .MV     11 010 01 00:   SPONTANEOUS POTENTIAL FROM RES.
 TENR.LBS    11 635 01 00:   TENSION FROM RES.
 LLD .OHMM   11 220 10 00:   LATEROLOG LOG DEEP
 LLS .OHMM   11 220 09 00:   LATEROLOG SHALLOW
 RXO .OHMM   11 270 04 00:   FLUSHED ZONE RESISTIVITY
~PARAMETER INFORMATION
#MNEM.UNIT          VALUE    DESCRIPTION
#----------   ------------   ------------------------------
 EKB .F         5059.0000:   Kelly bushing
 EGL .F         5049.0000:   Ground level
 EDF .F            0.0000:   Drilling floor
 EPD .F            0.0000:   Permanent datum
 TD  .F         3240.0000:   Total depth
 CLNT.            A2DTECH:   Client Code
 SL  . 2310' FSL & 330' FEL:   Surface Location
 PD  .                 GL:   Permanent Datum
 DAPD.F                10:   Feet Above Permanent Datum
 DATE.        07-AUG-1977:   Date Logged [DD-MMM-YYYY]
 DD  .F              3240:   Depth driller
 DL  .F              3267:   Depth logger
 BLI .F              3265:   Bottom log interval
 TLI .F               224:   Top log interval
 CS1 .IN            8.625:   Casing size
 CBD1.      8.625" @ 254':   Casing driller 1
 CBL1.F               224:   Casing logger 1
 BS1 .IN            7.875:   Bit size
 BSD1.F              3240:   Depth drilled with bit1
 DFT .                KCL:   Type fluid in hole
 DFD .                8.8:   Density
 DFV .                 36:   Viscosity
 DFPH.               10.5:   pH
 DFL .                9.6:   Fluid loss
 MSS .         CIRCULATED:   Source of sample
 RMS .OHMM           0.22:   Rm
 MST .F                78:   Rm Meas. temp.
 RMF .OHMM           0.16:   Rmf
 MFST.F                78:   Rmf Meas. temp.
 MFSS.               MEAS:   Source Rmf.
 RMC .OHMM           0.28:   Rmc
 MCST.F                78:   Rmc Meas. temp.
 MCSS.               MEAS:   Source Rmc.
 RMB .OHMM           0.14:   Rm. at BHT
 BHT .F               125:   BHT.
 TCS .HRS               7:   Time Circ. stopped
 MRT .F               125:   Maximum recorded temp.
 LUN .               6134:   Logging unit number
 LUL .              GLTTE:   Logging unit location
 ENGI.              GOULD:   Recorded By
 WITN.         HARRINGTON:   Witnessed by
 ORIG.      2.5" 5" PRINT:   Origin of data
 UWI .     49025104040000:   Unique Well ID
 DICO. A2D TECHNOLOGIES, INC.:   Digitizing Company
~OTHER INFORMATION
~A   DEPT      GRD       CALD       CORR       RHOB       TEND         NPHI      SPR       TENR        LLD        LLS        RXO   
# ...
 2843.0000    62.1987     9.1412     0.0360     2.5213   975.0991     0.3002   -69.5826   732.0230     8.8647     7.5576     4.9337
 2843.5000    62.3821     9.1521     0.0347     2.5169  1018.0986     0.3020   -69.5925   706.7797     8.7369     7.3783     4.7916
 2844.0000    61.0304     9.1678     0.0350     2.5193  1091.1272     0.3151   -69.6024   707.7844     7.7575     6.9348     4.6385
 2844.5000    60.0089     9.1699     0.0322     2.5142  1089.0818     0.3208   -69.3111   708.6826     5.5396     6.1224     4.1588
 2845.0000    59.3096     9.1884     0.0293     2.5060  1072.0212     0.3087   -69.3223   709.7430     6.1157     5.7121     4.1207
 2845.5000    61.1388     9.2050     0.0281     2.5204  1024.7742     0.2994   -69.3328   710.5897     6.8179     5.4754     4.2943
 2846.0000    59.9675     9.2199     0.0253     2.5235   977.8392     0.2907   -69.3434   711.4365     7.0894     5.5151     4.6007
 2846.5000    58.4967     9.2291     0.0286     2.5244  1020.8387     0.2807   -69.3558   712.2833     7.0856     6.0209     4.5370
 2847.0000    57.9242     9.2383     0.0349     2.5262  1078.3409     0.2738   -69.3657   743.1136     7.2805     6.2836     4.3523
 2847.5000    57.6510     9.2550     0.0367     2.5276  1076.2954     0.2690   -69.3756   744.0120     8.2581     6.1489     4.4122
 2848.0000    56.4753     9.2594     0.0384     2.5292   984.1588     0.2698   -69.3855   744.9102     8.9451     6.3658     4.5589
 2848.5000    55.5988     9.2733     0.0351     2.5300   952.5947     0.2791   -69.3586   745.8083     8.6631     7.0096     4.8332
 2849.0000    53.6900     9.2901     0.0253     2.5212  1115.2030     0.2812   -68.8030   730.8371     8.1559     7.2036     4.8967
 2849.5000    54.9139     9.2769     0.0180     2.4950  1068.1115     0.2850   -67.9865   717.6647     7.6181     6.9089     4.7907
 2850.0000    58.9849     9.2638     0.0121     2.4726   960.9608     0.2934   -67.0181   718.5627     8.6840     6.8118     4.6595
 2850.5000    57.2057     9.2651     0.0124     2.4849  1017.3250     0.2928   -66.4262   705.1661     9.4287     6.9045     4.5320
 2851.0000    56.0253     9.2816     0.0187     2.5049  1048.3047     0.2817   -66.4380   690.3865     9.0426     7.2354     4.5314
 2851.5000    56.9407     9.2829     0.0220     2.5206  1077.0271     0.2742   -67.0503   691.3174     8.0644     7.1912     4.6612
 2852.0000    57.5691     9.2991     0.0268     2.5249  1030.6309     0.2729   -67.6627   662.1400     7.2458     6.8966     5.0104
 2852.5000    59.6740     9.3004     0.0270     2.5257   999.2491     0.2747   -68.0119   663.1736     9.3448     6.7066     5.1290
 2853.0000    57.5954     9.3016     0.0246     2.5258  1087.7462     0.2789   -68.2861   664.0720    10.1580     6.8922     5.1011
 2853.5000    58.5108     9.3030     0.0242     2.5282  1146.8176     0.2854   -68.5979   695.0437    10.0729     7.4982     4.8516
 2854.0000    61.0729     9.2894     0.0247     2.5313  1115.1393     0.2956   -68.6084   725.8302     9.0159     8.0175     4.4042
 2854.5000    63.1860     9.2907     0.0234     2.5089  1023.7310     0.3123   -68.3178   726.6769     6.7463     6.6082     4.2837
 2855.0000    68.0385     9.2771     0.0222     2.4917  1067.7874     0.3141   -68.0284   727.5447     6.5598     5.7657     4.2244
 2855.5000    71.7576     9.2785     0.0224     2.4933   991.0640     0.3092   -67.7364   758.3834     6.4617     5.5516     4.2238
 2856.0000    76.1161     9.2648     0.0211     2.4171  1171.9822     0.2996   -67.7470   759.2815     5.9155     5.4386     4.1593
 2856.5000    74.1872     9.2663     0.0183     2.4008  1063.5027     0.2879   -67.4557   760.1796     4.6231     4.3591     3.8045
 2857.0000    70.4633     9.2677     0.0140     2.3334  1065.1410     0.2714   -67.4669   791.0178     3.5900     3.5424     2.8936
 2857.5000    65.6901     9.2690     0.0082     2.2877  1150.9558     0.2642   -67.4774   792.0607     3.0555     3.3013     2.5352
 2858.0000    58.3720     9.2554     0.0084     2.2849   999.1580     0.2657   -67.4880   792.9075     2.9805     3.1625     2.5180
 2858.5000    56.8922     9.2567     0.0617     2.4492   997.8392     0.2743   -67.5004   793.7126     4.4437     3.2078     3.1579
 2859.0000    55.1173     9.2431     0.0402     2.5335  1056.5811     0.2602   -67.5103   786.9494     4.5068     3.8198     3.8842
 2859.5000    54.2363     9.2296     0.0289     2.5350  1145.3523     0.2521   -67.8214   771.9663     4.3789     4.1474     4.0480
 2860.0000    53.3510     9.2162     0.0200     2.5149  1129.0192     0.2467   -67.8313   766.3540    12.7794     6.1413     4.1766
 2860.5000    53.9713     9.2174     0.0142     2.5031  1052.6259     0.2419   -67.8419   767.3652    43.1503    25.8113     4.5943
 2861.0000    55.4855     9.2188     0.0099     2.5069  1006.2620     0.2344   -67.8524   768.2634    25.1391    22.1667     4.6455
 2861.5000    57.0189     9.2052     0.0101     2.5101   944.8839     0.2331   -68.1642   769.3177    10.5612    10.2834     4.5183
 2862.0000    59.4121     9.2066     0.0104     2.5276  1108.7308     0.2388   -68.1747   770.1644     9.4539     7.6322     4.4223
 2862.5000    55.5371     9.2081     0.0106     2.5298  1062.3123     0.2457   -68.1871   771.0112     8.9426     7.5421     4.3336
 2863.0000    57.0556     9.2092     0.0124     2.5090  1000.6592     0.2603   -68.4982   771.8575     8.3431     7.5395     4.2150
 2863.5000    56.7691     9.2106     0.0142     2.5181   999.3411     0.2712   -68.5082   772.7543     7.4337     6.8248     4.0997
 2864.0000    57.6889     9.2120     0.0144     2.5287   937.9622     0.2773   -68.5181   773.6527     5.8243     5.8759     3.9328
 2864.5000    58.6420     9.1984     0.0146     2.5228  1086.7942     0.2797   -68.5286   774.5509     6.0122     6.4701     3.9323
 2865.0000    61.0210     9.1997     0.0149     2.5140  1175.8956     0.2760   -68.5392   775.4490     6.1034     5.4803     4.0011
 2865.5000    57.7448     9.1861     0.0135     2.5126  1114.1871     0.2715   -68.2466   776.3475     6.4043     4.8301     4.1195
 2866.0000    52.3727     9.1877     0.0138     2.5097  1020.8365     0.2661   -68.2590   777.3610     6.9534     4.5036     4.2702
 2866.5000    56.1325     9.1741     0.0156     2.5106  1066.5059     0.2699   -67.9684   778.2078     7.7608     4.6704     4.3891
 2867.0000    59.1446     9.1753     0.0175     2.5242  1095.2170     0.2861   -67.9802   779.0546     7.9742     5.5256     4.3885
 2867.5000    61.8598     9.1767     0.0222     2.5379  1043.8041     0.2930   -67.9901   779.9400     7.4735     6.2500     4.3879
 2868.0000    65.1704     9.1780     0.0254     2.5320   867.0253     0.2971   -68.0000   780.8384     6.5684     6.0238     4.3272
 2868.5000    68.0319     9.1793     0.0287     2.5193  1120.9624     0.3103   -68.0105   751.6547     7.1383     5.6982     4.2025
 2869.0000    75.0851     9.1809     0.0305     2.5202  1420.2740     0.3133   -68.0211   752.6946     7.5318     5.5412     4.0124
 2869.5000    83.6352     9.1670     0.0307     2.5046  1163.3705     0.3144   -68.0316   753.7712     6.4682     4.3614     3.6466
 2870.0000    91.1881     9.1537     0.0264     2.4697  1102.3218     0.3150   -68.1928   754.6180     3.5735     3.3881     3.2884
 2870.5000    93.9989     9.1399     0.0206     2.4351  1206.1088     0.3170   -68.6570   755.4648     3.1119     2.7698     2.5942
 2871.0000    89.7878     9.1261     0.0147     2.4157  1069.3252     0.3334   -68.6669   756.3115     3.0259     2.5894     2.3226
 2871.5000    78.9193     9.1278     0.0089     2.4189  1037.4778     0.3268   -69.2792   727.2181     3.2164     2.8291     2.5935
 2872.0000    61.5713     9.1291     0.0304     2.4902  1112.7305     0.2980   -69.2892   728.1439     3.9172     3.6541     3.3249
 2872.5000    60.9897     9.1155     0.0291     2.5129  1095.3453     0.2591   -69.9021   729.0420     5.0078     4.4319     4.1622
 2873.0000    59.2105     9.1168     0.0233     2.5213  1078.7374     0.2479   -69.9880   729.9401     6.3878     6.0867     4.5040
