~VERSION INFORMATION
 VERS.                2.0:   CWLS LOG ASCII STANDARD - VERSION 2.0
 WRAP.                 NO:   ONE LINE PER DEPTH STEP
~WELL INFORMATION
#MNEM.UNIT      DATA TYPE    INFORMATION
#----------   ------------   ------------------------------
 STRT.F          195.5000:   START DEPTH
 STOP.F         3197.0000:   STOP DEPTH
 STEP.F            0.5000:   STEP LENGTH
 NULL.          -999.2500:   NO VALUE
 COMP.    FENIX & SCISSON:   COMPANY
 WELL.  FENIX "AX" #17-11:   WELL
 FLD .              NPR-3:   FIELD
 LOC .      S11 T38N R78W:   LOCATION
 CNTY.            NATRONA:   COUNTY
 STAT.            WYOMING:   STATE
 CTRY. UNITED STATES OF AMERICA:   COUNTRY
 SRVC.              WELEX:   SERVICE COMPANY
 DATE.        16-SEP-1977:   LOGDATE
 API .     49025104170000:   API NUMBER
~CURVE INFORMATION
#MNEM.UNIT       API CODE    CURVE DESCRIPTION
#----------   ------------   ------------------------------
 DEPT.F                  :   
 GRD .GAPI   45 310 01 00:   GAMMA RAY FROM DENSITY LOG
 CALD.IN     45 280 60 00:   CALIPER FROM DENSITY LOG
 CORR.G/C3   45 356 01 00:   DENSITY CORRECTION
 TEND.LBS    45 635 01 00:   TENSION FORM DENSITY LOG
 RHOB.G/C3   45 350 01 00:   BULK DENSITY
 SPR .MV     07 010 01 00:   SPONTANEOUS POTENTIAL
 TENR.LBS    07 635 01 00:   TENSION FROM RESISTIVITY
 ILD .OHMM   07 120 46 00:   DEEP INDUCTION RESISTIVITY
 ILM .OHMM   07 120 44 00:   INDUCTION LOG MEDIUM RESISTIVITY
 SGRD.OHMM   07 220 05 00:   SHALLOW SHORT GUARD RESISTIVITY
~PARAMETER INFORMATION
#MNEM.UNIT          VALUE    DESCRIPTION
#----------   ------------   ------------------------------
 EKB .F         5212.0000:   Kelly bushing
 EGL .F         5202.0000:   Ground level
 TD  .F         3195.0000:   Total depth
 CLNT.            A2DTECH:   Client Code
 SL  . 1090' FSL & 330' FWL:   Surface Location
 PD  .                 GL:   Permanent Datum
 EPD .F              5202:   Elevation Permanent Datum
 LMF .                 KB:   Log Measured From
 DMF .                 KB:   Drilling Measured From
 DAPD.F                10:   Feet Above Permanent Datum
 DATE.        16-SEP-1977:   Date Logged [DD-MMM-YYYY]
 DD  .F              3195:   Depth driller
 DL  .F              3195:   Depth logger
 BLI .F              3193:   Bottom log interval
 TLI .F               217:   Top log interval
 CS1 .IN            8.625:   Casing size
 CBD1.      8.625" @ 216':   Casing driller 1
 CBL1.F               217:   Casing logger 1
 BS1 .IN            7.875:   Bit size
 BSD1.F              3195:   Depth drilled with bit1
 DFT .            KCL MUD:   Type fluid in hole
 DFD .                9.2:   Density
 DFV .                 36:   Viscosity
 DFPH.                 11:   pH
 DFL .                8.8:   Fluid loss
 MSS .           FLOWLINE:   Source of sample
 RMS .OHMM           2.76:   Rm
 MST .F                99:   Rm Meas. temp.
 RMF .OHMM           1.54:   Rmf
 MFST.F                99:   Rmf Meas. temp.
 MFSS.               MEAS:   Source Rmf.
 RMC .OHMM           3.01:   Rmc
 MCST.F                99:   Rmc Meas. temp.
 MCSS.               MEAS:   Source Rmc.
 RMB .OHMM           2.40:   Rm. at BHT
 BHT .F               112:   BHT.
 TCS .HRS               6:   Time Circ. stopped
 MRT .F               112:   Maximum recorded temp.
 LUN .               8611:   Logging unit number
 LUL .             CASPER:   Logging unit location
 ENGI.          D. LAWSON:   Recorded By
 WITN.         HARRINGTON:   Witnessed by
 ORIG.           5" PRINT:   Origin of data
 UWI .     49025104170000:   Unique Well ID
 DICO. A2D TECHNOLOGIES, INC.:   Digitizing Company
~OTHER INFORMATION
~A   DEPT       GRD      CALD       CORR       TEND       RHOB        SPR       TENR        ILD        ILM       SGRD   
# ...
  229.0000    87.2561    12.0561     0.0145  1078.3163     2.4585   -63.7320   932.9341     5.9464     6.1387     7.2161
  229.5000    87.2473    12.0552     0.0130  1093.7947     2.4547   -63.7393   933.5329     5.8605     6.0535     7.2143
  230.0000    86.7860    12.0543     0.0084  1094.3114     2.4419   -63.5955   934.1317     5.6130     6.0528     7.4148
  230.5000    85.4197    12.0534     0.0038  1094.8353     2.4284   -63.6027   934.7305     5.3110     5.8457     7.6291
  231.0000    83.7518    12.0525     0.0023  1095.4465     2.4103   -63.6103   935.3293     5.1627     5.6068     7.8865
  231.5000    85.1004    12.0514     0.0022  1095.8833     2.4050   -63.4662   935.9281     5.1600     5.5674     8.1056
  232.0000    86.0754    12.0505     0.0022  1096.4072     2.4080   -63.3224   936.5269     5.1572     5.5668     8.2735
  232.5000    83.8762    12.0346     0.0021  1096.9714     2.4125   -63.6337   937.1257     5.1545     5.7626     8.4448
  233.0000    83.2579    12.0337     0.0020  1097.4551     2.4095   -63.9430   937.7245     5.1517     6.1815     8.5602
  233.5000    82.9714    12.0481     0.0027  1097.9790     2.3982   -64.2524   938.3233     5.1547     7.1430     8.5580
  234.0000    78.7193    12.0471     0.0027  1098.5031     2.3884   -64.8641   938.9221     5.2182     8.7334     8.6153
  234.5000    78.2602    12.0461     0.0011  1099.0045     2.3824   -65.3262   939.5209     5.2883     9.2306     8.6126
  235.0000    79.4558    12.0608    -0.0005  1084.5427     2.3861   -65.9377   940.1198     5.4716     8.9771     8.5512
  235.5000    81.7095    12.0896    -0.0050  1075.9728     2.4064   -66.3981   940.7185     5.7014     7.6526     8.4901
  236.0000    83.9631    12.0885    -0.0021  1055.6191     2.4215   -67.0096   941.3173     5.9408     7.3399     8.4880
  236.5000    85.1609    11.9821     0.0039  1071.2245     2.4436   -67.6211   941.9161     6.1947     7.2379     8.4240
  237.0000    86.6604    11.5589     0.0100  1086.7029     2.4566   -68.0816   942.5150     6.5397     7.3891     8.3667
  237.5000    88.3107    11.3619     0.0172  1087.2112     2.4731   -68.3912   943.1137     6.8144     7.4915     8.3650
  238.0000    87.4993    11.2601     0.0232  1102.6947     2.4866   -68.5511   943.7125     7.1500     7.5430     8.4206
  238.5000    86.3301    11.1641     0.0261  1103.2186     2.4881   -68.2563   944.3113     7.3475     7.5419     8.5357
  239.0000    86.7738    11.1028     0.0231  1103.7426     2.4828   -67.9614   944.9102     7.4983     7.8072     8.7124
  239.5000    88.1224    11.0718     0.0215  1104.2665     2.4805   -67.5155   944.9124     7.7077     8.3208     9.0803
  240.0000    89.6241    11.0558     0.0184  1104.7904     2.4867   -67.0696   944.1192     7.8080     9.3476     9.6934
  240.5000    87.9540    11.0397     0.0169  1105.3145     2.4955   -66.7642   943.3260     7.9692     9.7440    10.3482
  241.0000    85.0794    11.0388     0.0168  1105.8663     2.4993   -66.4800   942.5328     8.1315    10.0169    10.7095
  241.5000    83.5623    11.0379     0.0183  1106.3745     2.4978   -66.4890   941.7396     8.1849    10.2976    11.2378
  242.0000    78.5761    11.0220     0.0212  1106.8862     2.4857   -66.3434   940.9464     8.2950     7.4320    12.2070
  242.5000    76.7573    11.0060     0.0211  1107.4102     2.4759   -66.3520   940.1533     8.3472     6.4240    13.3518
  243.0000    78.3087    11.0051     0.0196  1108.0265     2.4721   -66.3598   939.3600     8.3426     6.0701    13.1129
  243.5000    79.4524    10.9891     0.0179  1096.7236     2.4729   -66.2160   938.5668     8.1653     6.0340    11.1486
  244.0000    79.2928    10.9882     0.0165  1093.9459     2.4694   -66.0499   937.7737     7.9373     6.5567     9.8414
  244.5000    79.4348    10.9855     0.0164  1086.0563     2.4570   -65.6263   936.9805     7.7156     6.9782     9.2453
  245.0000    79.5790    10.9561     0.0163  1080.0897     2.4540   -65.4844   936.1873     7.4483     7.3755     9.3071
  245.5000    79.1155    10.9552     0.0178  1065.6437     2.4585   -65.4916   935.3941     7.1902     7.8497     9.4344
  246.0000    78.2039    10.9543     0.0147  1066.1676     2.4547   -65.4989   934.6009     7.0381     8.4869     9.5634
  246.5000    79.7012    10.9723     0.0102  1066.6915     2.4457   -65.5062   933.8077     7.2316     9.0154     9.4945
  247.0000    81.2007    10.9830     0.0086  1067.3096     2.4419   -65.5135   933.0145     7.4314     9.2042     9.2332
  247.5000    79.7939    10.9819     0.0055  1067.8179     2.4396   -65.2186   932.2213     7.4802     8.2363     9.0414
  248.0000    78.9184    10.9810     0.0040  1068.2634     2.4380   -64.9256   931.4281     7.4752     7.7909     8.9150
  248.5000    79.6637    10.9914     0.0039  1068.8345     2.4382   -64.4797   930.6349     7.4712     7.6296     8.8514
  249.0000    81.0124    10.9943     0.0039  1084.3127     2.4390   -64.3341   929.8417     7.3642     7.7365     8.7882
  249.5000    80.2494    11.0083     0.0068  1096.4945     2.4397   -64.1918   929.0485     7.2577     7.8425     8.4869
  250.0000    79.1485    11.0376     0.0092  1085.3293     2.4442   -64.1994   928.1917     7.1538     7.6802     8.3590
  250.5000    78.1268    11.0520     0.0129  1070.8676     2.4511   -64.0556   930.1396     7.0562     7.8828     8.5413
  251.0000    79.6315    11.0509     0.0156  1071.5029     2.4591   -63.6485   932.2574     7.0078     7.7203     8.7186
  251.5000    79.0252    11.0652     0.0158  1071.9310     2.4659   -63.4929   934.3752     6.9597     7.7193     8.7767
  252.0000    77.3632    11.0795     0.0200  1072.4551     2.4711   -63.3573   936.4930     7.0577     7.7180     8.5937
  252.5000    78.4161    11.0784     0.0199  1073.0277     2.4741   -63.3646   938.6108     7.0582     7.7708     8.4734
  253.0000    80.2232    11.0775     0.0199  1073.5029     2.4748   -63.3705   940.7285     7.0588     7.8241     8.5377
  253.5000    80.8236    11.0766     0.0198  1074.0867     2.4741   -63.3763   942.8463     7.0102     7.9325     8.8270
  254.0000    81.1216    11.0605     0.0213  1074.5509     2.4740   -63.3822   944.9641     7.0597     7.6074     9.0102
  254.5000    82.0237    11.0596     0.0257  1075.0748     2.4785   -63.3881   947.0819     7.0602     7.4496     9.0072
  255.0000    80.9649    11.0587     0.0286  1075.6962     2.4822   -63.3939   949.1997     7.0118     7.1943     8.7591
  255.5000    77.7946    11.0880     0.0226  1076.1227     2.4770   -63.4000   951.3175     7.0122     7.0939     8.5179
  256.0000    75.0768    11.1022     0.0210  1076.7128     2.4710   -63.4071   953.4353     6.9642     7.0929     8.5156
  256.5000    73.5656    11.1071     0.0195  1077.1707     2.4665   -63.4121   955.5531     6.8686     7.0920     8.3385
  257.0000    73.8944    11.1155     0.0194  1062.6746     2.4642   -63.3643   957.6708     6.7743     6.9932     8.2783
  257.5000    75.9723    11.1297     0.0208  1063.2676     2.4619   -63.1212   959.7886     6.5892     6.9923     8.3914
  258.0000    78.0810    11.1439     0.0223  1063.7759     2.4612   -62.9455   961.9064     6.4986     6.8949     8.5065
  258.5000    79.8881    11.1581     0.0222  1079.2665     2.4634   -62.6789   964.0242     6.4094     6.7988     8.5037
  259.0000    79.7343    11.1570     0.0230  1094.8595     2.4649   -62.5232   966.1420     6.3215     6.7039     8.2695
  259.5000    78.8264    11.1563     0.0251  1110.2544     2.4649   -62.2361   968.2598     6.3194     6.7030     8.0975
  260.0000    77.6169    11.1554     0.0250  1110.7784     2.4679   -62.2434   969.8296     6.0224     6.6557     7.9842
  260.5000    77.4632    11.1544     0.0265  1105.3517     2.4701   -62.0970   969.3273     5.8578     6.6088     7.8724
  261.0000    79.2695    11.1686     0.0294  1096.8563     2.4655   -61.9506   968.8251     5.8990     6.5621     7.9321
  261.5000    80.1723    11.1677     0.0278  1097.4009     2.4633   -61.9576   968.3228     5.9405     6.4707     8.0331
  262.0000    78.3587    11.1668     0.0278  1112.8793     2.4656   -61.9638   967.8206     5.9823     6.3364     8.0867
