~VERSION INFORMATION
 VERS.                2.0:   CWLS LOG ASCII STANDARD - VERSION 2.0
 WRAP.                 NO:   ONE LINE PER DEPTH STEP
~WELL INFORMATION
#MNEM.UNIT      DATA TYPE    INFORMATION
#----------   ------------   ------------------------------
 STRT.F          176.0000:   START DEPTH
 STOP.F         3400.0000:   STOP DEPTH
 STEP.F            0.5000:   STEP LENGTH
 NULL.          -999.2500:   NO VALUE
 COMP.    PENIX & SCISSON:   COMPANY
 WELL. FENIX NPR 3 "AX" #64-4:   WELL
 FLD .                NPR:   FIELD
 LOC .       S4 T38N R78W:   LOCATION
 CNTY.            NATRONA:   COUNTY
 STAT.            WYOMING:   STATE
 CTRY. UNITED STATES OF AMERICA:   COUNTRY
 SRVC.       SCHLUMBERGER:   SERVICE COMPANY
 DATE.        25-JAN-1981:   LOGDATE
 API .     49025108640000:   API NUMBER
~CURVE INFORMATION
#MNEM.UNIT       API CODE    CURVE DESCRIPTION
#----------   ------------   ------------------------------
 DEPT.F                  :   
 SPR .MV     07 010 01 00:   SPONTANEOUS POTENTIAL
 RFOC.OHMM   07 220 01 00:   RESISTIVITY FOCUSED LOG RES.
 ILD .OHMM   07 120 46 00:   DEEP INDUCTION RESISTIVITY
 TENR.LBS    07 635 01 00:   TENSION
 ILM .OHMM   07 120 44 00:   INDUCTION LOG MEDIUM RESISTIVITY
 GRD .GAPI   45 310 01 00:   GAMMA RAY FROM DENSITY LOG
 CALD.IN     45 280 60 00:   CALIPER FROM DENSITY LOG
 RHOB.G/C3   45 350 01 00:   BULK DENSITY
 TEND.LBS    45 635 01 00:   TENSION FROM DENSITY LOG
 CORR.G/C3   45 356 01 00:   DENSITY CORRECTION
~PARAMETER INFORMATION
#MNEM.UNIT          VALUE    DESCRIPTION
#----------   ------------   ------------------------------
 EKB .F         5257.0000:   Kelly bushing
 EGL .F         5247.0000:   Ground level
 EDF .F            0.0000:   Drilling floor
 TD  .F         3388.0000:   Total depth
 DATE.        25-JAN-1981:   Date logged
 CLNT.            A2DTECH:   Client Code
 SL  . 2289' FNL & 1495' FEL:   Surface Location
 PD  .                 GL:   Permanent Datum
 EPD .F              5247:   Elevation Permanent Datum
 LMF .                 KB:   Log Measured From
 DMF .                 KB:   Drilling Measured From
 DAPD.F                10:   Feet Above Permanent Datum
 DD  .F              3388:   Depth driller
 DL  .F              3386:   Depth logger
 BLI .F              3380:   Bottom log interval
 TLI .F               192:   Top log interval
 CS1 .IN            8.625:   Casing size
 CBD1.      8.625" @ 191':   Casing driller 1
 CBL1.F               192:   Casing logger 1
 BS1 .IN            7.875:   Bit size
 BSD1.F              3388:   Depth drilled with bit1
 DFT .                FGM:   Type fluid in hole
 DFD .                8.7:   Density
 DFV .                 32:   Viscosity
 DFPH.                9.5:   pH
 DFL .                 18:   Fluid loss
 MSS .           FLOWLINE:   Source of sample
 RMS .OHMM           1.60:   Rm
 MST .F                60:   Rm Meas. temp.
 RMF .OHMM           1.33:   Rmf
 MFST.F                60:   Rmf Meas. temp.
 MFSS.               MEAS:   Source Rmf.
 RMB .OHMM            .83:   Rm. at BHT
 BHT .F               115:   BHT.
 TCS .HRS            1700:   Time Circ. stopped
 TLAB.HRS            2200:   Time logger at bottom
 MRT .F               115:   Maximum recorded temp.
 LUN .               8039:   Logging unit number
 LUL .               CSPR:   Logging unit location
 ENGI.           C. PFARR:   Recorded By
 WITN.           L. FIVAS:   Witnessed by
 ORIG.           5" PRINT:   Origin of data
 UWI .     49025108640000:   Unique Well ID
 DICO. A2D TECHNOLOGIES, INC.:   Digitizing Company
~OTHER INFORMATION
~A   DEPT      SPR       RFOC        ILD       TENR        ILM         GRD      CALD         RHOB      TEND      CORR   
# ...
 1013.5000   -12.0080     8.8140     8.6580   426.3970     7.8760   106.7770     9.6770     2.4420   688.6350     0.0590
 1014.0000   -12.0080     8.7410     8.6700   426.8010     7.9320   109.8400     9.6810     2.4980   688.9920     0.1260
 1014.5000   -12.0080     8.6640     8.6830   427.2040     7.9870   112.9900     9.6860     2.5740   689.3490     0.1810
 1015.0000   -12.0080     8.6880     8.6950   427.6080     8.0430   113.7400     9.6910     2.5680   689.7060     0.2400
 1015.5000   -12.0080     8.7380     8.7070   428.0120     8.0980   112.1360     9.6950     2.5510   690.0640     0.2430
 1016.0000   -12.0080     8.7880     8.7200   428.4150     8.1540   108.4320     9.7000     2.5570   690.4210     0.2450
 1016.5000   -12.0080     8.8370     8.7320   428.8190     8.2090   104.1700     9.7040     2.3750   690.7780     0.2460
 1017.0000   -12.0080     8.8870     8.7450   429.2220     8.2650   100.8030     9.7090     2.3360   691.1350     0.1920
 1017.5000   -12.0080     8.9370     8.7570   429.6260     8.3200    97.8350     9.6770     2.3420   691.4920     0.1150
 1018.0000   -12.0080     8.9870     8.7700   430.0300     8.3760    96.4150     9.6320     2.4000   691.8500     0.0340
 1018.5000   -12.0080     9.0360     8.7820   430.4330     8.4310    96.6200     9.5880     2.4740   692.2070    -0.0030
 1019.0000   -12.0190     9.0860     8.7940   430.8370     8.4920    98.0660     9.5530     2.4980   692.5640     0.0000
 1019.5000   -12.0330     9.1360     8.8040   431.2410     8.5460   103.3300     9.5540     2.5070   692.9210     0.0000
 1020.0000   -12.0460     9.1850     8.8500   431.6440     8.6050   105.5940     9.5550     2.5190   693.2790     0.0000
 1020.5000   -12.0600     9.2350     8.9140   432.0480     8.6650   105.9570     9.5570     2.5290   693.6360     0.0150
 1021.0000   -12.0730     9.2850     8.9770   432.4510     8.7250   104.2420     9.5580     2.5340   693.9930     0.0170
 1021.5000   -12.0870     9.3120     9.0390   432.8550     8.7840   102.9650     9.5600     2.5370   694.3500     0.0170
 1022.0000   -12.1000     9.6290     9.1010   433.2590     8.8440   103.0660     9.5620     2.5470   694.7080     0.0250
 1022.5000   -12.1140     9.9280     9.1630   433.6620     8.9040   103.2710     9.5630     2.5730   695.0650     0.0370
 1023.0000   -12.1270    10.4000     9.2250   434.0660     8.9630   102.8110     9.5650     2.5810   695.4220     0.0460
 1023.5000   -12.1410    10.3600     9.2870   434.4690     9.0230   101.6160     9.5670     2.5850   695.7790     0.0450
 1024.0000   -12.1540    10.2650     9.3490   434.8730     9.0830   100.6070     9.5680     2.5730   696.1370     0.0410
 1024.5000   -12.1680    10.1700     9.4100   435.2770     9.1420   100.9760     9.5700     2.5620   696.4940     0.0350
 1025.0000   -12.1810    10.0760     9.4850   435.6800     9.1100   103.2150     9.5710     2.5570   696.8510     0.0300
 1025.5000   -12.1950     9.9810     9.4590   436.0840     9.0780   106.1820     9.5730     2.5530   697.2110     0.0250
 1026.0000   -12.2080     9.8870     9.4260   436.4870     9.0470   106.4660     9.5750     2.5490   696.1690     0.0200
 1026.5000   -12.2210     9.7920     9.3930   436.8910     9.0150   104.4380     9.5760     2.5300   695.1170     0.0150
 1027.0000   -12.2350     9.6980     9.3600   437.2950     8.9830   102.8350     9.5780     2.5240   694.0660     0.0090
 1027.5000   -12.2480     9.6030     9.3270   437.6980     8.9520   102.1740     9.5800     2.5240   693.0150     0.0070
 1028.0000   -12.2620     9.5090     9.2940   438.1020     8.9200   102.1090     9.5810     2.5180   691.9640     0.0120
 1028.5000   -12.2750     9.4140     9.2610   438.5050     8.8880   101.9370     9.5830     2.5160   690.9130     0.0120
 1029.0000   -12.2890     9.3190     9.2290   438.9090     8.8570   100.8340     9.5840     2.5150   689.8620     0.0130
 1029.5000   -12.3020     9.2250     9.1960   439.3130     8.8250   100.3740     9.5860     2.5140   688.8110     0.0130
 1030.0000   -12.3160     9.1420     9.1630   439.7160     8.7930    99.7280     9.5880     2.5130   687.7600     0.0130
 1030.5000   -12.3290    10.0580     9.1300   440.1200     8.7620    99.1910     9.5890     2.5210   686.7080     0.0140
 1031.0000   -12.3430    10.7900     9.0970   440.5230     8.7300    98.6260     9.5910     2.5270   685.6570     0.0140
 1031.5000   -12.3560    10.4320     9.0640   440.9270     8.6980    98.0970     9.5960     2.5340   684.6060     0.0140
 1032.0000   -12.3700     9.9210     9.0320   441.3310     8.6670    99.7900     9.6010     2.5300   683.5550     0.0140
 1032.5000   -12.3830     9.4100     8.9990   441.7340     8.6350   103.0050     9.6060     2.5260   682.5040     0.0140
 1033.0000   -12.3970     9.1420     8.9660   442.1380     8.6030   105.9210     9.6110     2.5200   681.4530     0.0140
 1033.5000   -12.4100     9.1420     8.9330   442.5410     8.5720   108.5950     9.6160     2.5200   680.4020     0.0140
 1034.0000   -12.4240     9.1420     8.9000   442.9450     8.5400   108.1480     9.6210     2.5230   679.3510     0.0140
 1034.5000   -12.4370     9.1420     8.8670   443.3490     8.5080   104.2850     9.6270     2.5270   678.3000     0.0140
 1035.0000   -12.4510     9.1420     8.8340   443.7520     8.4770   101.0310     9.6310     2.5230   677.2480     0.0140
 1035.5000   -12.4640     9.1420     8.8020   444.1560     8.4450    97.5840     9.6310     2.5190   676.1970     0.0140
 1036.0000   -12.4770     9.1420     8.7690   444.5590     8.4130    97.9220     9.6310     2.5170   675.1460     0.0140
 1036.5000   -12.4910     9.1420     8.7360   444.9630     8.3820    99.8410     9.6310     2.5190   674.0950     0.0160
 1037.0000   -12.5040     9.1420     8.7030   445.3670     8.3510   101.6690     9.6310     2.5210   673.0440     0.0180
 1037.5000   -12.5180     9.1420     8.6700   445.7700     8.3130   103.6250     9.6310     2.5230   671.9930     0.0200
 1038.0000   -12.5310     9.1420     8.6340   446.1740     8.2720   104.7620     9.6310     2.5240   670.9420     0.0180
 1038.5000   -12.5450     9.1420     8.5910   446.5770     8.2310   105.2090     9.6310     2.5270   669.8910     0.0170
 1039.0000   -12.5580     9.1420     8.5490   446.9810     8.1900   105.0260     9.6310     2.5310   668.8400     0.0150
 1039.5000   -12.5720     9.1420     8.5070   447.3850     8.1500   104.3790     9.6310     2.5340   667.7880     0.0160
 1040.0000   -12.5850     9.1400     8.4640   447.7880     8.1090   103.4770     9.6310     2.5260   666.7370     0.0200
 1040.5000   -12.5990     9.1440     8.4220   448.1920     8.0680   102.4790     9.6310     2.5190   665.6860     0.0160
 1041.0000   -12.6120     9.1400     8.3800   448.5960     8.0270   102.7500     9.6310     2.5130   664.6350     0.0130
 1041.5000   -12.6260     9.1420     8.3370   448.9990     7.9860   103.6620     9.6310     2.5080   663.5840     0.0080
 1042.0000   -12.6390     8.9490     8.2950   449.4030     7.9460   104.3880     9.6310     2.5040   662.5330     0.0010
 1042.5000   -12.6530     8.7800     8.2530   449.8060     7.9050   105.0920     9.6310     2.5170   661.4820     0.0060
 1043.0000   -12.6660     8.6100     8.2100   450.2100     7.8640   105.2390     9.6310     2.5340   660.4310     0.0270
 1043.5000   -12.6800     8.4410     8.1680   450.6140     7.8230   104.3000     9.6310     2.5400   659.3800     0.0280
 1044.0000   -12.6930     8.1850     8.1260   451.0170     7.7820   102.6430     9.6310     2.5440   658.3280     0.0320
 1044.5000   -12.7070     8.2260     8.0840   451.4210     7.7450   101.8580     9.6310     2.5440   657.3710     0.0310
 1045.0000   -12.7200     8.3090     8.0360   451.8240     7.8130   103.1940     9.6310     2.5450   657.6020     0.0310
 1045.5000   -12.7340     8.3920     8.0930   452.2280     7.8760   103.2430     9.6310     2.5490   657.8140     0.0300
 1046.0000   -12.7470     8.4750     8.1580   452.6320     7.9380   101.3620     9.6310     2.5390   658.0260     0.0300
 1046.5000   -12.7600     8.5580     8.2230   453.0350     8.0010    98.2110     9.6310     2.5210   658.2390     0.0250
