~VERSION INFORMATION
 VERS.                2.0:   CWLS LOG ASCII STANDARD - VERSION 2.0
 WRAP.                 NO:   ONE LINE PER DEPTH STEP
~WELL INFORMATION
#MNEM.UNIT      DATA TYPE    INFORMATION
#----------   ------------   ------------------------------
 STRT.F          200.0000:   START DEPTH
 STOP.F         3120.0000:   STOP DEPTH
 STEP.F            0.5000:   STEP LENGTH
 NULL.          -999.2500:   NO VALUE
 COMP.    FENIX & SCISSON:   COMPANY
 WELL. FENIX NPR 3 "AX" #83-28:   WELL
 FLD .                NPR:   FIELD
 LOC .      S28 T39N R78W:   LOCATION
 CNTY.            NATRONA:   COUNTY
 STAT.            WYOMING:   STATE
 CTRY. UNITED STATES OF AMERICA:   COUNTRY
 SRVC.              WELEX:   SERVICE COMPANY
 DATE.        29-SEP-1977:   LOGDATE
 API .     49025104240000:   API NUMBER
~CURVE INFORMATION
#MNEM.UNIT       API CODE    CURVE DESCRIPTION
#----------   ------------   ------------------------------
 DEPT.F                  :   
 CALD.IN     45 280 60 00:   CALIPER FROM DENSITY LOG
 GRD .GAPI   45 310 01 00:   GAMMA RAY FROM DENSITY LOG
 RHOB.G/C3   45 350 01 00:   BULK DENSITY
 CORR.G/C3   45 356 01 00:   DENSITY CORRECTION
 SPR .MV     07 010 01 00:   SPONTANEOUS POTENTIAL
 SGRD.MV     07 220 05 00:   SHLLOW GUARD
 ILD .OHMM   07 120 46 00:   DEEP INDUCTION RESISTIVITY
 ILM .OHMM   07 120 44 00:   INDUCTION LOG MEDIUM RESISTIVITY
~PARAMETER INFORMATION
#MNEM.UNIT          VALUE    DESCRIPTION
#----------   ------------   ------------------------------
 EKB .F         5034.0000:   Kelly bushing
 EGL .F         5024.0000:   Ground level
 TD  .F         3110.0000:   Total depth
 DATE.        29-SEP-1977:   Date logged
 CLNT.            A2DTECH:   Client Code
 SL  . 1650' FNL & 330' FEL:   Surface Location
 PD  .                 GL:   Permanent Datum
 EPD .F              5024:   Elevation Permanent Datum
 LMF .                 KB:   Log Measured From
 DMF .                 KB:   Drilling Measured From
 DAPD.F                10:   Feet Above Permanent Datum
 DD  .F              3110:   Depth driller
 DL  .F              3110:   Depth logger
 BLI .F              3108:   Bottom log interval
 TLI .F               210:   Top log interval
 CS1 .IN            8.625:   Casing size
 CBD1.      8.625" @ 201':   Casing driller 1
 CBL1.F               210:   Casing logger 1
 BS1 .IN            7.875:   Bit size
 BSD1.F              3110:   Depth drilled with bit1
 DFT .          KCL/WATER:   Type fluid in hole
 DFD .                  9:   Density
 DFV .                 40:   Viscosity
 DFPH.                 11:   pH
 DFL .                6.4:   Fluid loss
 MSS .            MUD/PIT:   Source of sample
 RMS .OHMM            .56:   Rm
 MST .F                60:   Rm Meas. temp.
 RMF .OHMM            .34:   Rmf
 MFST.F                60:   Rmf Meas. temp.
 RMC .OHMM            .61:   Rmc
 MCST.F                60:   Rmc Meas. temp.
 MFSS.               MEAS:   Source Rmf.
 MCSS.               MEAS:   Source Rmc.
 RMB .OHMM            .28:   Rm. at BHT
 BHT .F               120:   BHT.
 TCS .HRS               3:   Time Circ. stopped
 MRT .F               120:   Maximum recorded temp.
 LUN .               9685:   Logging unit number
 LUL .             CASPER:   Logging unit location
 ENGI. G. BENTSEN/T. JOYNER:   Recorded By
 WITN.         PETTINGILL:   Witnessed by
 ORIG.   1" 2.5" 5" PRINT:   Origin of data
 UWI .     49025104240000:   Unique Well ID
 DICO. A2D TECHNOLOGIES, INC.:   Digitizing Company
~OTHER INFORMATION
~A   DEPT     CALD         GRD      RHOB       CORR        SPR       SGRD        ILD        ILM   
# ...
  402.5000    12.7813    69.7892     2.3979     0.0710   -66.2094     9.7396     8.8873    12.4927
  403.0000    12.7820    70.5858     2.3919     0.0671   -66.2279     9.7368     8.8810    12.4839
  403.5000    12.7429    70.5899     2.3900     0.0672   -66.2401     9.7299     8.8747    12.4750
  404.0000    12.5064    72.1765     2.3900     0.0673   -66.2616     9.7230     8.8672    12.4662
  404.5000    12.3883    72.9708     2.3921     0.0674   -66.2739     9.5375     8.8621    12.4573
  405.0000    12.0334    73.3719     2.3921     0.0675   -66.2923     9.4435     8.7735    12.4468
  405.5000    11.7178    73.3760     2.3961     0.0675   -66.3015     9.4368     8.7673    12.4379
  406.0000    11.3232    73.7770     2.3962     0.0637   -66.3169     9.3424     8.7610    12.4291
  406.5000    11.2842    73.3860     2.3982     0.0637   -66.5437     9.3357     8.6746    12.4203
  407.0000    11.2849    73.3920     2.3983     0.0638   -66.1546     9.2437     8.5878    12.2943
  407.5000    11.2856    73.3961     2.4003     0.0679   -65.7747     9.2397     8.5842    12.1765
  408.0000    11.3655    72.6121     2.3964     0.0640   -65.7869     9.2345     8.5769    12.0547
  408.5000    11.3025    72.2212     2.3944     0.0601   -65.6031     9.2266     8.5684    12.0495
  409.0000    11.2872    71.8323     2.3825     0.0602   -65.4255     9.2162     8.5623    12.2612
  409.5000    11.3274    71.8364     2.3766     0.0563   -65.2416     9.2109     8.7115    12.3658
  410.0000    11.3279    70.2628     2.3747     0.0603   -65.0548     9.2057     8.7102    12.5866
  410.5000    11.3680    70.2669     2.3747     0.0644   -65.0732     9.2829     8.7028    12.8113
  411.0000    11.3685    70.2731     2.3748     0.0645   -64.6902     9.2763     8.7783    12.8004
  411.5000    11.3692    70.2772     2.3768     0.0685   -64.9047     9.2684     8.8507    12.7950
  412.0000    11.3694    70.6782     2.3709     0.0647   -64.9231     9.3449     8.8469    12.7823
  412.5000    11.4096    70.6824     2.3689     0.0608   -64.9385     9.4272     9.0010    12.7768
  413.0000    11.4105    70.6885     2.3670     0.0608   -64.9538     9.4192     8.9959    12.7623
  413.5000    11.4110    70.2978     2.3670     0.0569   -64.9692     9.4152     8.9895    12.7569
  414.0000    11.4115    70.6988     2.3651     0.0530   -64.9845     9.4045     8.9819    12.6275
  414.5000    11.4122    70.7029     2.3632     0.0492   -65.0030     9.3992     8.9806    12.6185
  415.0000    11.4126    70.7091     2.3672     0.0532   -65.0183     9.3925     8.9743    12.6096
  415.5000    11.3739    70.7132     2.3672     0.0533   -65.0337     9.3845     8.9628    12.5989
  416.0000    11.4138    72.2983     2.3713     0.0534   -65.0490     9.3779     8.9577    12.3586
  416.5000    11.4145    73.4865     2.3733     0.0535   -64.4669     9.3712     8.9488    12.3515
  417.0000    11.4147    74.2820     2.3714     0.0496   -64.0839     9.2775     8.8606    11.8984
  417.5000    11.4551    74.2860     2.3674     0.0457   -63.9032     9.1860     8.8555    11.6698
  418.0000    11.4556    74.2920     2.3695     0.0458   -63.9124     8.9308     8.8505    11.6615
  418.5000    11.4957    75.0853     2.3695     0.0419   -63.3333     8.8414     8.7632    11.6565
  419.0000    11.4962    75.0912     2.3696     0.0420   -63.1526     8.7505     8.5961    11.6483
  419.5000    11.4969    75.0952     2.3696     0.0381   -62.5704     8.7492     8.5101    11.6367
  420.0000    11.4973    75.1011     2.3716     0.0381   -61.7891     8.7418     8.3489    11.6284
  420.5000    11.4978    75.1051     2.3717     0.0422   -61.2070     8.7356     8.3418    11.6202
  421.0000    11.4985    74.3219     2.3737     0.0463   -60.2296     8.7282     8.2596    11.6120
  421.5000    11.4992    73.5367     2.3757     0.0583   -59.6444     8.7207     8.2537    11.8176
  422.0000    11.4996    72.7536     2.3798     0.0663   -59.0654     8.7146     8.4787    11.8092
  422.5000    11.5003    71.9686     2.3838     0.0703   -58.6824     8.7914     8.7087    11.8009
  423.0000    11.5008    70.7891     2.3918     0.0784   -57.8980     8.8651     8.7855    11.7908
  423.5000    11.5015    70.4007     2.3978     0.0825   -57.3190     9.0234     9.1914    11.7825
  424.0000    11.5414    70.4048     2.3958     0.0905   -55.9433     9.1004     9.8852    11.9945
  424.5000    11.5421    69.2276     2.3916     0.0866   -54.9628     9.1767    10.4390    12.6647
  425.0000    11.5820    68.8372     2.3873     0.0867   -53.9824     9.3392    10.5296    13.7487
  425.5000    11.5432    68.0546     2.3752     0.0868   -53.0019     9.5073    11.0145    14.9232
  426.0000    11.5042    66.8755     2.3623     0.0908   -52.0215     9.9466    11.1116    14.5086
  426.5000    11.5049    65.3041     2.3524     0.0790   -51.0410    10.3137    11.6233    12.6270
  427.0000    11.5052    64.5196     2.3385     0.0751   -50.6550    10.6913    11.8325    11.6134
  427.5000    11.5455    63.3429     2.3288     0.0752   -50.0759     9.4777    12.0438    11.6068
  428.0000    11.5854    63.3472     2.3028     0.0673   -49.6929     9.0450    12.0352    11.5986
  428.5000    11.6650    62.9594     2.2909     0.0674   -49.1108     8.8738    12.0233    11.5904
  429.0000    11.6654    63.3581     2.2850     0.0635   -48.9301     8.6260    11.7956    11.4744
  429.5000    11.6267    63.3646     2.2891     0.0636   -48.7432     8.6187    11.4614    11.2571
  430.0000    11.6666    63.3689     2.2970     0.0717   -48.5624     8.6138    11.5641    11.0456
  430.5000    11.6670    63.3754     2.3050     0.0717   -48.3786     8.6064    11.1366    10.4418
  431.0000    11.6283    62.1969     2.3091     0.0758   -48.1979     8.6028    10.9273    10.1517
  431.5000    11.6682    62.2035     2.3150     0.0798   -48.2132     8.5955    10.6222    10.0515
  432.0000    11.6294    62.6021     2.3191     0.0879   -48.2255     8.5881    10.5174     9.8598
  432.5000    11.6693    63.0028     2.3251     0.0879   -48.2439     8.5821    10.2223     9.7612
  433.0000    11.6700    63.4014     2.3271     0.0920   -48.2562     8.4962    10.2151     9.7543
  433.5000    11.6704    63.4079     2.3272     0.0921   -48.2777     8.2590    10.1143     9.6581
  434.0000    11.7105    63.8064     2.3252     0.0922   -48.6883     8.1787     9.9228     9.3897
  434.5000    11.7112    64.2071     2.3253     0.0923   -49.1050     8.0238     9.5533     9.1275
  435.0000    11.6722    64.2114     2.3253     0.0924   -49.3196     8.0170     9.4631     8.7889
  435.5000    11.6727    65.0061     2.3313     0.0884   -49.5279     8.0102     9.1976     8.6225
  436.0000    11.6340    65.7986     2.3334     0.0886   -49.7486     7.6445     8.7777     8.4604
  436.5000    11.6344    66.5932     2.3314     0.0846   -50.3737     7.3619     8.3758     8.2242
  437.0000    11.6351    66.5974     2.3301     0.0807   -50.1776     7.2903     8.0662     7.9191
  437.5000    11.6358    66.2097     2.3275     0.0769   -50.5913     7.2852     7.7691     7.6274
  438.0000    11.5968    65.4258     2.3296     0.0769   -51.4094     7.2790     7.7636     7.5533
  438.5000    11.5973    66.6143     2.3376     0.0770   -51.8261     7.3411     7.6870     7.5468
  439.0000    11.5980    67.0126     2.3396     0.0731   -52.2429     7.4037     7.6816     7.5415
  439.5000    11.5984    67.4129     2.3456     0.0732   -52.4482     7.6759     7.8176     7.8176
  440.0000    11.5991    68.2051     2.3496     0.0733   -52.4666     7.8129     8.2556     8.1811
  440.5000    11.5996    67.8174     2.3556     0.0734   -52.6811     7.9524     8.3284     8.4042
  441.0000    11.6003    67.4276     2.3616     0.0735   -52.6965     8.2436     8.7925     8.6333
  441.5000    11.6007    68.2218     2.3656     0.0736   -52.7118     8.5479     8.9495     9.1131
  442.0000    11.5620    68.6200     2.3657     0.0736   -52.7302     8.8609     9.2785     9.1093
  442.5000    11.5625    67.8384     2.3618     0.0698   -52.7456     8.8546     9.5315     9.1883
