~VERSION INFORMATION
 VERS.                2.0:   CWLS LOG ASCII STANDARD - VERSION 2.0
 WRAP.                 NO:   ONE LINE PER DEPTH STEP
~WELL INFORMATION
#MNEM.UNIT      DATA TYPE    INFORMATION
#----------   ------------   ------------------------------
 STRT.F           61.5000:   START DEPTH
 STOP.F         4220.0000:   STOP DEPTH
 STEP.F            0.5000:   STEP LENGTH
 NULL.          -999.2500:   NO VALUE
 COMP.   LAWRENCE ALLISON:   COMPANY
 WELL. ALLISON NPR 3 "LX" #28-34:   WELL
 FLD .                NPR:   FIELD
 LOC .      S34 T39N R78W:   LOCATION
 CNTY.            NATRONA:   COUNTY
 STAT.            WYOMING:   STATE
 CTRY. UNITED STATES OF AMERICA:   COUNTRY
 SRVC.       DRESER ATLAS:   SERVICE COMPANY
 DATE.        23-MAR-1983:   LOGDATE
 API .     49025109190000:   API NUMBER
~CURVE INFORMATION
#MNEM.UNIT       API CODE    CURVE DESCRIPTION
#----------   ------------   ------------------------------
 DEPT.F                  :   
 TEND.LBS    45 635 01 00:   TENSION FROM DENSITY LOG
 CORR.G/C3   45 356 01 00:   DENSITY CORRECTION
 RHOB.G/C3   45 350 01 00:   BULK DENSITY
 CN  .DEC    42 890 00 00:   Neutron Porosity
 SPR .MV     07 010 01 00:   SPONTANEOUS POTENTIAL
 GRR .GAPI   07 310 01 00:   GAMMA RAY FROM RESISTIVITY
 TENR.LBS    07 635 01 00:   TENSION FROM RESISTIVITY
 RILD.OHMM   07 120 46 00:   DEEP INDUCTION RESISTIVITY
 RILM.OHMM   07 120 44 00:   INDUCTION LOG MEDIUM RESISTIVITY
 RFOC.OHMM   07 220 01 00:   RESISTIVITY FOCUSED LOG RES.
 TENS.LBS    60 635 01 00:   TENSION FROM SONIC LOG
 DT  .US/F   60 520 00 00:   DELTA TIME
 CALS.IN     60 280 50 00:   CALIPER FROM SONIC LOG
~PARAMETER INFORMATION
#MNEM.UNIT          VALUE    DESCRIPTION
#----------   ------------   ------------------------------
 EKB .F         5184.0000:   Kelly bushing
 EGL .F         5174.0000:   Ground level
 EDF .F            0.0000:   Drilling floor
 TD  .F         4397.0000:   Total depth
 DATE.        23-MAR-1983:   Date logged
 CLNT.            A2DTECH:   Client Code
 SL  . 942' FWL & 645' FSL:   Surface Location
 PD  .                 GL:   Permanent Datum
 EPD .F              5174:   Elevation Permanent Datum
 LMF .                 KB:   Log Measured From
 DMF .                 KB:   Drilling Measured From
 DAPD.F                10:   Feet Above Permanent Datum
 DD  .F              4397:   Depth driller
 DL  .F              4203:   Depth logger
 BLI .F              4201:   Bottom log interval
 CS1 .IN            9.625:   Casing size
 CBD1.      9.625" @ 659':   Casing driller 1
 CBL1.F               658:   Casing logger 1
 BS1 .IN             8.75:   Bit size
 BSD1.F              4397:   Depth drilled with bit1
 DFT .   GEL/DRISPACK/KCL:   Type fluid in hole
 DFD .                8.6:   Density
 DFV .                 36:   Viscosity
 DFPH.                8.5:   pH
 DFL .                 18:   Fluid loss
 MSS .               TANK:   Source of sample
 RMS .OHMM           0.55:   Rm
 MST .F                74:   Rm Meas. temp.
 RMF .OHMM           0.43:   Rmf
 MFST.F                66:   Rmf Meas. temp.
 RMC .OHMM           0.69:   Rmc
 MCST.F                74:   Rmc Meas. temp.
 MFSS.               MEAS:   Source Rmf.
 MCSS.               CALC:   Source Rmc.
 RMB .OHMM           0.33:   Rm. at BHT
 BHT .F               122:   BHT.
 TCS .HRS             5.5:   Time Circ. stopped
 MRT .F               122:   Maximum recorded temp.
 LUN .               6270:   Logging unit number
 LUL .              WLSTN:   Logging unit location
 ENGI.             REEVES:   Recorded By
 WITN.             STRONG:   Witnessed by
 ORIG.           5" PRINT:   Origin of data
 UWI .     49025109190000:   Unique Well ID
 DICO. A2D TECHNOLOGIES, INC.:   Digitizing Company
~OTHER INFORMATION
~A   DEPT     TEND       CORR       RHOB         CN        SPR         GRR      TENR       RILD       RILM       RFOC       TENS         DT       CALS   
# ...
 2063.5000   -48.1710     0.0250     2.4810     0.3200   -48.2410   136.0330   -48.6470     7.8240     7.6770     7.7120   -44.9800    92.5670    14.5090
 2064.0000   -47.6000     0.0290     2.4820     0.3170   -48.3080   135.5970   -61.3230     7.7140     7.5770     7.6590   -70.4820    92.7180    14.5060
 2064.5000   -47.0280     0.0320     2.4880     0.3090   -48.3720   136.0470   -74.6490     7.6030     7.4770     7.4860   -83.0430    92.8690    14.5020
 2065.0000   -46.4570     0.0290     2.4930     0.3000   -48.4340   136.3380   -71.6430     7.4920     7.3760     7.3320   -80.2100    93.0200    14.4990
 2065.5000   -45.8850     0.0250     2.4960     0.3020   -48.4980   139.0900   -68.4740     7.3810     7.2760     7.1140   -77.3760    93.1710    14.4950
 2066.0000   -45.3130     0.0210     2.4950     0.3210   -48.5610   141.9960   -65.3060     7.2470     7.1140     7.1500   -74.2970    93.3220    14.4920
 2066.5000   -44.7420     0.0090     2.4940     0.3280   -48.6250   143.0000   -66.0460     7.2560     7.1240     7.2130   -82.0620    93.4740    14.4880
 2067.0000   -44.7000    -0.0060     2.4940     0.3200   -48.6880   143.1290   -69.6680     7.2810     7.1500     7.2760   -90.5620    93.5140    14.4850
 2067.5000   -45.0310    -0.0180     2.4950     0.3180   -48.7510   141.1060   -73.2890     7.3050     7.1750     7.3390   -83.1330    93.5140    14.4820
 2068.0000   -45.3620    -0.0240     2.4950     0.3170   -48.8150   139.6820   -74.6490     7.3290     7.2010     7.4010   -62.7310    93.0920    14.4780
 2068.5000   -45.6930     0.0090     2.4950     0.3080   -48.8780   139.4540   -58.7930     7.3530     7.2260     7.4640   -42.3290    92.7280    14.4750
 2069.0000   -46.0240     0.0310     2.4960     0.2990   -48.9410   141.6060   -39.7800     7.3770     7.2520     7.5270   -21.9280    92.4660    14.4720
 2069.5000   -46.3550     0.0210     2.4950     0.2910   -49.0040   145.1500   -20.7670     7.4020     7.2780     7.5890   -14.8590    92.3570    14.4680
 2070.0000   -46.6850    -0.0060     2.4930     0.2960   -49.0680   144.5440   -14.5290     7.4260     7.3030     7.6590   -18.5030    92.2480    14.4640
 2070.5000   -47.0160    -0.0330     2.4910     0.3040   -49.1310   141.8500   -14.5290     7.4500     7.3290     7.6590   -22.1460    92.1380    14.4630
 2071.0000   -47.3470    -0.0470     2.4890     0.3140   -49.1940   140.7200   -19.8600     7.4740     7.3540     7.6590   -24.0960    92.0290    14.4390
 2071.5000   -47.6780    -0.0350     2.4880     0.3100   -49.2580   142.7190   -37.6050     7.4990     7.3800     7.6590   -37.7510    91.9080    14.4030
 2072.0000   -48.0090    -0.0170     2.4940     0.3040   -49.3190   143.3220   -55.3510     7.5230     7.4050     7.6590   -50.5020    91.9490    14.3690
 2072.5000   -48.3400     0.0030     2.4970     0.2980   -49.3830   142.0140   -73.0960     7.5470     7.4310     7.6600   -63.2530    91.9950    14.3350
 2073.0000   -48.6710     0.0140     2.5000     0.2900   -49.3510   140.9730   -84.6690     7.5710     7.4560     7.6590   -74.2970    92.0420    14.3020
 2073.5000   -49.0020     0.0130     2.5030     0.2880   -49.2790   139.8390   -67.1070     7.5950     7.4820     7.6590   -56.2250    92.0880    14.2680
 2074.0000   -49.3330     0.0130     2.5060     0.2920   -49.2080   140.5710   -48.6700     7.6200     7.5070     7.6590   -40.2860    92.0540    14.2590
 2074.5000   -49.6640     0.0120     2.5090     0.2960   -49.1390   141.6580   -30.2330     7.6440     7.5330     7.6590   -24.0960    91.9570    14.2600
 2075.0000   -49.9950     0.0010     2.5090     0.3000   -49.0690   142.4380   -11.7960     7.6680     7.5580     7.6590   -24.0960    91.8600    14.2600
 2075.5000   -50.3260    -0.0100     2.5040     0.3060   -48.9990   136.4950    -6.8680     7.6920     7.5840     7.6590   -24.0960    91.7630    14.2600
 2076.0000   -50.6570    -0.0070     2.5000     0.3120   -48.9290   132.7460   -10.7680     7.7160     7.6100     7.6590   -24.0960    91.6660    14.2600
 2076.5000   -50.9880    -0.0020     2.5000     0.3150   -48.8590   131.0890   -14.6680     7.7410     7.6350     7.6590   -24.0960    91.5680    14.2600
 2077.0000   -51.3180     0.0010     2.5000     0.3150   -48.7900   131.9470   -18.5680     7.7660     7.6590     7.6590   -24.0960    91.4710    14.2600
 2077.5000   -51.6490    -0.0010     2.5000     0.3110   -48.7200   132.5440   -22.4680     7.7980     7.6030     7.6580   -24.0960    91.3740    14.2600
 2078.0000   -51.9800    -0.0030     2.5000     0.2950   -48.6490   133.3130   -24.5490     7.7420     7.5170     7.6580   -24.0960    91.3170    14.2600
 2078.5000   -52.3110     0.0040     2.5000     0.2860   -48.6000   135.3890   -22.9910     7.6070     7.4310     7.6580   -23.0680    91.3560    14.2600
 2079.0000   -52.6420     0.0150     2.4960     0.2840   -48.6010   137.3860   -20.6870     7.4740     7.3450     7.5640   -21.0280    91.3950    14.2600
 2079.5000   -52.9730     0.0280     2.4870     0.2880   -48.6000   139.3910   -18.3820     7.3410     7.2580     7.4590   -18.9880    91.4340    14.2600
 2080.0000   -53.3040     0.0340     2.4770     0.2980   -48.6000   141.1390   -16.0780     7.2080     7.1720     7.3510   -16.9480    91.4740    14.2600
 2080.5000   -53.6350     0.0300     2.4720     0.3100   -48.6000   145.2800   -13.7730     7.0760     6.9840     7.2450   -14.9080    91.5060    14.2600
 2081.0000   -53.9660     0.0040     2.4720     0.3180   -48.6000   155.9920   -11.4680     6.9430     6.9840     7.1380   -12.8670    92.1040    14.2600
 2081.5000   -54.2970    -0.0240     2.4760     0.3190   -48.6000   158.7920    -9.1640     6.8560     7.0440     6.9840   -10.8270    92.5020    14.2610
 2082.0000   -54.6090    -0.0250     2.4810     0.3210   -48.6000   150.3940    -6.8590     6.9320     7.1230     7.1000    -8.7870    92.4630    14.2870
 2082.5000   -54.6090    -0.0100     2.4880     0.3440   -48.6000   139.2200    -4.5090     7.0680     7.2030     7.3070    -6.7470    92.4240    14.3140
 2083.0000   -54.6090     0.0160     2.4940     0.3470   -48.6000   141.7330   -18.7660     7.2030     7.2830     7.5140    -4.7070    92.3840    14.3410
 2083.5000   -54.6090     0.0370     2.4930     0.3390   -48.6000   143.7270   -26.0090     7.3390     7.3620     7.8020   -12.4500    92.3450    14.3720
 2084.0000   -54.6090     0.0340     2.4920     0.3320   -48.6000   144.3130   -33.2520     7.4740     7.4420     7.7910   -25.2010    92.3090    14.3620
 2084.5000   -54.6090     0.0140     2.4900     0.3230   -48.6000   141.4260   -40.4950     7.6590     7.5190     7.7730   -37.9520    92.5100    14.3250
 2085.0000   -54.6090    -0.0030     2.4910     0.3120   -48.6000   141.6480   -47.7380     7.6250     7.5010     7.7550   -50.7030    92.3950    14.2980
 2085.5000   -54.6090    -0.0210     2.4930     0.2970   -48.6000   141.7630   -54.9810     7.5690     7.4820     7.7370   -63.4540    92.1650    14.2920
 2086.0000   -54.6090    -0.0320     2.4950     0.2830   -48.6000   139.4160   -62.2240     7.5140     7.4640     7.7190   -76.2050    91.7270    14.2840
 2086.5000   -54.7810    -0.0170     2.4970     0.2870   -48.6000   137.2600   -69.4680     7.4590     7.4460     7.7010   -88.9560    91.2900    14.2770
 2087.0000   -55.0300     0.0060     2.4980     0.2890   -48.6000   136.1180   -76.7110     7.4040     7.4270     7.6830   -92.9810    90.8530    14.2690
 2087.5000   -55.2790     0.0260     2.4990     0.3030   -48.6000   135.0570   -83.9540     7.3490     7.4090     7.6650   -90.5530    90.4160    14.2620
 2088.0000   -55.5280     0.0210     2.5000     0.3150   -48.6000   134.1130   -91.1970     7.2940     7.3910     7.5620   -88.1240    89.9000    14.2600
 2088.5000   -55.7770     0.0170     2.5000     0.3230   -48.6010   133.3570   -91.4080     7.2380     7.3710     7.4240   -85.6950    90.3170    14.2600
 2089.0000   -56.0260     0.0130     2.5010     0.3140   -48.5910   135.0990   -85.0700     7.1830     7.2380     7.2870   -83.2660    90.8270    14.2600
