~VERSION INFORMATION
 VERS.                2.0:   CWLS LOG ASCII STANDARD - VERSION 2.0
 WRAP.                 NO:   ONE LINE PER DEPTH STEP
~WELL INFORMATION
#MNEM.UNIT      DATA TYPE    INFORMATION
#----------   ------------   ------------------------------
 STRT.F          290.0000:   START DEPTH
 STOP.F         2884.0000:   STOP DEPTH
 STEP.F            0.5000:   STEP LENGTH
 NULL.          -999.2500:   NO VALUE
 COMP.   FENNIX & SCISSON:   COMPANY
 WELL. FENIX & SCISSON AX #22-28:   WELL
 FLD .             NPR #3:   FIELD
 LOC .      S28 T39N R78W:   LOCATION
 CNTY.            NATRONA:   COUNTY
 STAT.            WYOMING:   STATE
 CTRY. UNITED STATES OF AMERICA:   COUNTRY
 SRVC.              WELEX:   SERVICE COMPANY
 DATE.        29-DEC-1979:   LOGDATE
 API .     49025107930000:   API NUMBER
~CURVE INFORMATION
#MNEM.UNIT       API CODE    CURVE DESCRIPTION
#----------   ------------   ------------------------------
 DEPT.F                  :   
 GRD .GAPI   45 310 01 00:   GAMMA RAY FROM DENSITY LOG
 CALD.IN     45 280 60 00:   CALIPER FROM DENSITY LOG
 CORR.G/C3   45 356 01 00:   DENSITY CORRECTION
 RHOB.G/C3   45 350 01 00:   BULK DENSITY
 NPHI.DEC    42 890 03 00:   NEUTRON POROSITY SANDSTONE
 SPR .MV     07 010 01 00:   SPONTANEOUS POTENTIAL
 TENR.LBS    07 635 01 00:   TENSION FROM RESISTIVITY
 ILD .OHMM   07 120 46 00:   DEEP INDUCTION RESISTIVITY
 ILM .OHMM   07 120 44 00:   INDUCTION LOG MEDIUM RESISTIVITY
 SGRD.OHMM   07 220 08 00:   LATEROLOG-8 RES.
~PARAMETER INFORMATION
#MNEM.UNIT          VALUE    DESCRIPTION
#----------   ------------   ------------------------------
 EKB .F         4988.0000:   Kelly bushing
 EGL .F         4978.0000:   Ground level
 EPD .F         4978.0000:   Permanent datum
 TD  .F         2872.0000:   Total depth
 CLNT.            A2DTECH:   Client Code
 SL  . 803' FNL & 938' FWL:   Surface Location
 DATE.        29-DEC-1979:   Date Logged [DD-MMM-YYYY]
 DD  .F              2868:   Depth driller
 DL  .F              2872:   Depth logger
 BLI .F              2870:   Bottom log interval
 TLI .F               300:   Top log interval
 CS1 .              8.625:   Casing size
 CBD1.      8.625" @ 318':   Casing driller 1
 CBL1.IN              318:   Casing logger 1
 BS1 .IN            7.875:   Bit size
 BSD1.F              2868:   Depth drilled with bit1
 DFT .          GEL-BENEX:   Type fluid in hole
 DFD .                8.8:   Density
 TCS .HRS              10:   Time Circ. stopped
 MRT .F               109:   Maximum recorded temp.
 ENGI.               REIN:   Recorded By
 WITN.          MR. AMEND:   Witnessed by
 ORIG.      2.5" 5" PRINT:   Origin of data
 UWI .     49025107930000:   Unique Well ID
 DICO. A2D TECHNOLOGIES, INC.:   Digitizing Company
 PD  .                 GL:   Permanent Datum
 LMF .                 KB:   Log Measured From
 DMF .                 KB:   Drilling Measured From
~OTHER INFORMATION
~A   DEPT       GRD        CALD     CORR         RHOB       NPHI      SPR       TENR        ILD        ILM       SGRD   
# ...
 1831.0000   130.5722     8.4223    -0.0292     2.4892     0.3092   -64.1856  1597.9115    10.6017    12.8193    12.3875
 1831.5000   129.9990     8.4235    -0.0275     2.4877     0.3061   -64.1803  1599.1681    10.6010    12.6451    12.1190
 1832.0000   130.6431     8.4247    -0.0273     2.4931     0.3076   -64.1840  1600.4702    10.6002    11.6482    11.5025
 1832.5000   133.3772     8.4260    -0.0302     2.4872     0.3100   -64.1877  1601.7723    10.5995    12.8193    11.8241
 1833.0000   136.4111     8.4272    -0.0315     2.4813     0.3118   -64.1914  1603.0743    10.5988    12.4732    12.1543
 1833.5000   139.7449     8.4284    -0.0313     2.4814     0.3118   -64.1951  1604.3765    10.5981    12.1364    12.1560
 1834.0000   138.2811     8.4296    -0.0264     2.4882     0.3133   -64.1988  1605.6785    10.5973    12.3071    12.1576
 1834.5000   136.5175     8.4308    -0.0199     2.4899     0.3163   -64.2025  1606.9806    10.5966    12.4732    11.9938
 1835.0000   136.4720     8.4321    -0.0201     2.4832     0.3093   -64.2062  1608.2827    10.5214    11.9473    11.5122
 1835.5000   138.6873     8.4336    -0.0275     2.4788     0.3057   -64.2100  1609.5847    10.4509    11.3337    11.3568
 1836.0000   140.8217     8.4502    -0.0302     2.4728     0.3041   -64.2137  1610.8868    10.4502    11.5155    11.3585
 1836.5000   139.6303     8.4514    -0.0268     2.4654     0.2994   -64.2174  1612.1890    10.4495    12.1523    11.6758
 1837.0000   137.5311     8.4681    -0.0406     2.4588     0.2981   -64.2211  1613.4910    10.4486    12.4921    11.8385
 1837.5000   137.7809     8.4693    -0.0497     2.4475     0.2981   -64.2248  1614.7931    10.3057    12.6451    11.8401
 1838.0000   139.7641     8.4705    -0.0573     2.4532     0.2986   -64.2285  1616.0952    10.3050    12.8193    11.8417
 1838.5000   137.1098     8.4718    -0.0618     2.4614     0.2989   -64.2322  1617.3972    10.1640    12.8193    11.8433
 1839.0000   134.4466     8.4730    -0.0553     2.4668     0.2988   -64.2359  1618.6993    10.1634    12.8112    11.8449
 1839.5000   132.9828     8.4896    -0.0489     2.4683     0.2988   -64.2396  1620.0015    10.1627    12.7155    11.8466
 1840.0000   131.2191     8.5063    -0.0424     2.4699     0.2991   -64.2433  1621.3035    10.0237    12.6451    11.8482
 1840.5000   135.1526     8.5229    -0.0360     2.4737     0.2996   -64.2471  1622.6056    10.0230    12.7406    11.8498
 1841.0000   139.6858     8.5241    -0.0327     2.4814     0.3005   -64.2508  1623.9077    10.0223    12.9189    11.8514
 1841.5000   143.3195     8.5408    -0.0278     2.4882     0.3023   -64.2545  1625.2097    10.0216    13.3566    10.9173
 1842.0000   148.1525     8.5574    -0.0229     2.4943     0.3035   -64.2582  1626.5118    10.0209    13.2489    10.6235
 1842.5000   151.4863     8.5432    -0.0164     2.5004     0.3050   -64.2619  1627.8140    10.0203    13.1750    11.5462
 1843.0000   153.9206     8.5445    -0.0099     2.5073     0.3065   -64.2660  1629.1160    10.0196    12.8193    12.2055
 1843.5000   154.8556     8.5302    -0.0021     2.5089     0.3080   -64.2697  1630.4181    10.0189    12.6451    12.7007
 1844.0000   155.7906     8.5315     0.0013     2.4940     0.3089   -64.5701  1631.7201    10.1565    12.4732    13.0554
 1844.5000   157.3295     8.5172    -0.0047     2.4843     0.3086   -64.8706  1633.0222    10.1558    12.1364    12.3228
 1845.0000   159.1598     8.5185    -0.0091     2.4784     0.3054   -64.8742  1634.3243    10.4373    12.1364    12.0280
 1845.5000   156.3836     8.5200    -0.0151     2.4777     0.3026   -64.8779  1635.6263    10.5806    11.8087    12.2215
 1846.0000   152.1124     8.5212    -0.0181     2.4726     0.2988   -64.8816  1636.9285    10.5799    11.6482    13.3066
 1846.5000   146.9812     8.5224    -0.0178     2.4757     0.2972   -64.8853  1638.2306    10.7275    12.1364    13.6126
 1847.0000   144.3180     8.5079    -0.0176     2.4788     0.2969   -64.8890  1639.5326    10.8780    12.9960    13.3518
 1847.5000   144.0447     8.5249    -0.0158     2.4804     0.2968   -64.8927  1640.8347    11.0218    12.6451    12.5416
 1848.0000   147.3874     8.5261    -0.0141     2.4744     0.2977   -64.8964  1642.1368    11.1731    11.8087    11.7125
 1848.5000   148.9132     8.5273    -0.0154     2.4685     0.2970   -64.9001  1643.4388    11.0203    11.4569    11.7045
 1849.0000   144.7596     8.5285    -0.0136     2.4776     0.2954   -64.6070  1644.7410    11.0195    12.9960    12.2075
 1849.5000   139.9975     8.5297    -0.0088     2.4875     0.2945   -64.6107  1646.0431    11.0187    13.5406    12.7216
 1850.0000   137.0256     8.5310     0.0023     2.4959     0.2944   -64.3177  1647.3451    10.9929    13.5406    13.0769
 1850.5000   137.9695     8.5322     0.0120     2.4997     0.2941   -64.3214  1648.6472    10.8672    13.3566    13.2592
 1851.0000   136.5056     8.5334     0.0201     2.4938     0.2925   -64.3250  1649.9493    10.7185    13.3566    13.2610
 1851.5000   132.9429     8.5192     0.0248     2.4909     0.2912   -64.3287  1651.3302    10.5719    13.5406    13.0823
 1852.0000   129.0597     8.5363     0.0250     2.4872     0.2900   -64.3324  1650.3817    10.5712    12.9960    13.0841
 1852.5000   125.5005     8.5069     0.0268     2.4851     0.2878   -64.3361  1649.3721    10.4266    11.4899    13.1040
 1853.0000   129.4393     8.4928     0.0301     2.4897     0.2856   -64.3398  1648.3624    10.2840    11.9715    13.2903
 1853.5000   130.9712     8.4945     0.0350     2.4943     0.2846   -64.9370  1647.3528    10.0052    12.1364    13.4531
 1854.0000   130.4041     8.4959     0.0445     2.4982     0.2874   -64.9406  1646.3431    10.0045    12.1364    11.6046
 1854.5000   128.9375     8.4972     0.0478     2.5005     0.2858   -65.2411  1645.3335    10.0039    11.8087     8.9201
 1855.0000   127.4627     8.5140     0.0403     2.4965     0.2836   -65.2448  1644.3239    10.1554    11.3337    10.6964
 1855.5000   129.6025     8.5309     0.0296     2.4899     0.2773   -65.2486  1643.3143    10.5766    10.7300    12.2123
 1856.0000   132.6336     8.5322     0.0236     2.4828     0.2720   -65.2522  1642.3047    11.1898    10.8798    13.6444
 1856.5000   138.0635     8.5645     0.0254     2.4859     0.2720   -65.2559  1641.2950    11.8266    11.5034    14.7240
 1857.0000   142.8938     8.5658     0.0240     2.4897     0.2701   -65.5564  1640.2854    12.4998    12.3260    15.5040
 1857.5000   146.5246     8.5826     0.0212     2.4831     0.2651   -65.5601  1639.2758    13.2111    13.1964    16.1615
 1858.0000   146.2574     8.5840     0.0136     2.4749     0.2623   -65.5638  1638.2661    13.7386    13.9447    16.7727
 1858.5000   147.4894     8.5699     0.0059     2.4652     0.2679   -65.5974  1637.2565    13.8928    14.3374    17.0861
 1859.0000   153.5190     8.5713    -0.0019     2.4533     0.2722   -65.8680  1636.2468    13.6610    14.9232    17.3292
 1859.5000   158.3493     8.5572    -0.0137     2.4504     0.2756   -65.8716  1635.2372    13.2867    15.1320    17.4839
 1860.0000   157.7822     8.5432    -0.0213     2.4467     0.2783   -65.9346  1634.2275    12.9700    15.5550    16.9208
 1860.5000   152.7174     8.5137    -0.0288     2.4371     0.2796   -66.1758  1633.2180    13.2533    15.7405    16.1448
 1861.0000   144.6541     8.4970    -0.0333     2.4327     0.2805   -66.1795  1632.2084    13.7575    15.9574    15.3687
 1861.5000   135.0915     8.4856    -0.0362     2.4297     0.2797   -66.1832  1631.1987    13.9505    15.9574    15.2529
 1862.0000   129.7034     8.4715    -0.0313     2.4374     0.2745   -66.1869  1630.1891    14.3415    15.9574    15.9947
 1862.5000   127.6360     8.4574    -0.0249     2.4450     0.2726   -66.1906  1629.1794    14.4681    15.9574    17.4999
 1863.0000   124.6946     8.4434    -0.0122     2.4541     0.2751   -66.1944  1628.1698    14.4669    15.9574    17.9870
 1863.5000   130.3296     8.4451    -0.0027     2.4564     0.2791   -66.1981  1627.1602    14.1878    15.9574    17.8572
 1864.0000   135.8625     8.4307    -0.0009     2.4430     0.2781   -66.2018  1626.1505    13.5565    15.9025    16.2789
