~VERSION INFORMATION
 VERS.                2.0:   CWLS LOG ASCII STANDARD - VERSION 2.0
 WRAP.                 NO:   ONE LINE PER DEPTH STEP
~WELL INFORMATION
#MNEM.UNIT      DATA TYPE    INFORMATION
#----------   ------------   ------------------------------
 STRT.F           48.0000:   START DEPTH
 STOP.F         3235.5000:   STOP DEPTH
 STEP.F            0.5000:   STEP LENGTH
 NULL.          -999.2500:   NO VALUE
 COMP.    TESORO PEROLEUM:   COMPANY
 WELL. TESORO P46 T 28 N.P.R. #3-28:   WELL
 FLD .        TEAPOT DOME:   FIELD
 LOC .      S28 T39N R78W:   LOCATION
 CNTY.            NATRONA:   COUNTY
 STAT.            WYOMING:   STATE
 CTRY. UNITED STATES OF AMERICA:   COUNTRY
 SRVC.      DRESSER ATLAS:   SERVICE COMPANY
 DATE.        17-SEP-1975:   LOGDATE
 API .     49025102530000:   API NUMBER
~CURVE INFORMATION
#MNEM.UNIT       API CODE    CURVE DESCRIPTION
#----------   ------------   ------------------------------
 DEPT.F                  :   
 CALD.IN     45 280 60 00:   CALIPER FROM DENSITY LOG
 RHOB.G/C3   45 350 01 00:   BULK DENSITY
 CORR.G/C3   45 356 01 00:   DENSITY CORRECTION
 TEND.LBS    45 635 01 00:   TENSION FORM DENSITY LOG
 NPHI.DEC    42 890 03 00:   NEUTRON POROSITY SANDSTONE
 SPR .MV     07 010 01 00:   SPONTANEOUS POTENTIAL
 ILD .OHMM   07 120 46 00:   DEEP INDUCTION RESISTIVITY
 ILM .OHMM   07 120 44 00:   INDUCTION LOG MEDIUM RESISTIVITY
 SFL .OHMM   07 220 01 00:   SHALLOW FOCUSED LOG RESISTIVITY
 GRD .GAPI   45 310 01 00:   GAMMA RAY FROM DENSITY LOG
~PARAMETER INFORMATION
#MNEM.UNIT          VALUE    DESCRIPTION
#----------   ------------   ------------------------------
 EKB .F         5088.0000:   Kelly bushing
 EGL .F         5075.0000:   Ground level
 TD  .F         3218.0000:   Total depth
 CLNT.            A2DTECH:   Client Code
 SL  . 2310' FWL & 1650' FSL:   Surface Location
 PD  .                 GL:   Permanent Datum
 EPD .F              5075:   Elevation Permanent Datum
 LMF .                 KB:   Log Measured From
 DMF .                 KB:   Drilling Measured From
 DAPD.F                13:   Feet Above Permanent Datum
 DATE.        17-SEP-1975:   Date Logged [DD-MMM-YYYY]
 DD  .F              3218:   Depth driller
 DL  .F              3217:   Depth logger
 BLI .F              3215:   Bottom log interval
 TLI .F               395:   Top log interval
 CS1 .IN            8.625:   Casing size
 CBD1.      8.625" @ 393':   Casing driller 1
 CBL1.F               395:   Casing logger 1
 BS1 .IN            7.875:   Bit size
 BSD1.F              3218:   Depth drilled with bit1
 DFT .           CHEM GEL:   Type fluid in hole
 DFD .                9.5:   Density
 DFV .                 60:   Viscosity
 DFPH.                9.5:   pH
 DFL .                 11:   Fluid loss
 MSS .           FLOWLINE:   Source of sample
 RMS .OHMM           0.55:   Rm
 MST .F                60:   Rm Meas. temp.
 RMF .OHMM           0.48:   Rmf
 MFST.F                62:   Rmf Meas. temp.
 MFSS.               MEAS:   Source Rmf.
 RMC .OHMM            1.6:   Rmc
 MCST.F                62:   Rmc Meas. temp.
 MCSS.               MEAS:   Source Rmc.
 RMB .OHMM            0.3:   Rm. at BHT
 BHT .F               112:   BHT.
 TCS .HRS               5:   Time Circ. stopped
 MRT .F               112:   Maximum recorded temp.
 LUN .               6008:   Logging unit number
 LUL .              GLTTE:   Logging unit location
 ENGI.            MILHOAN:   Recorded By
 WITN.               WOLF:   Witnessed by
 ORIG.           5" PRINT:   Origin of data
 UWI .     49025102530000:   Unique Well ID
 DICO. A2DTECHNOLOGIES,INC.:   Digitizing Company
~OTHER INFORMATION
~A   DEPT     CALD       RHOB       CORR       TEND       NPHI         SPR         ILD        ILM        SFL      GRD   
# ...
 1924.0000     8.5164     2.4874     0.0113  2276.1328     0.3104   -31.2621    10.9908    11.6129    12.5653   102.2851
 1924.5000     8.5326     2.4898     0.0127  2274.7732     0.3119   -31.2548    10.9982    11.6192    13.2954    98.9281
 1925.0000     8.5337     2.4951     0.0128  2273.3584     0.3113   -31.2490    11.0056    11.5433    13.3053    97.7112
 1925.5000     8.5349     2.4997     0.0144  2287.1599     0.3049   -31.3935    11.0131    11.4695    13.1082    95.3664
 1926.0000     8.5364     2.4990     0.0145  2285.8003     0.3080   -31.5357    10.7873    11.3171    12.3444    91.5399
 1926.5000     8.5225     2.4946     0.0146  2284.4409     0.3100   -31.6781    10.5778    11.0138    11.6027    88.1933
 1927.0000     8.5237     2.4916     0.0147  2282.8225     0.3120   -31.8226    10.3684    10.7176    10.6801    85.5662
 1927.5000     8.5249     2.4872     0.0133  2281.7219     0.3144   -31.9643    10.1597    10.4220    10.2485    85.8177
 1928.0000     8.4960     2.4835     0.0119  2280.1677     0.3099   -31.9583     9.8896    10.1484    11.3090    87.5085
 1928.5000     8.4972     2.4798     0.0104  2263.7346     0.3107   -31.8036     9.7581    10.1553    11.4851    88.2469
 1929.0000     8.4984     2.4822     0.0090  2262.5376     0.3107   -31.7965     9.9029    10.3031    10.7080    87.9018
 1929.5000     8.4845     2.4846     0.0076  2261.0798     0.3089   -31.7907    10.0482    10.6736    10.4252    86.3440
 1930.0000     8.4860     2.4861     0.0077  2266.6162     0.3155   -31.4873    10.3384    10.9807    11.1101    87.0782
 1930.5000     8.4870     2.4862     0.0078  2273.5649     0.3142   -31.3327    10.3470    11.1406    10.4426    88.2892
 1931.0000     8.4883     2.4847     0.0079  2272.2053     0.3163   -31.1781    10.3540    11.2244    11.0494    89.9800
 1931.5000     8.5043     2.4856     0.0080  2270.8457     0.3111   -30.8747    10.2892    11.0752    12.5350    92.1506
 1932.0000     8.5055     2.4879     0.0081  2269.4863     0.3126   -30.7201    10.0821    10.7773    12.8988    93.8414
 1932.5000     8.5068     2.4895     0.0084  2268.1267     0.3117   -30.5655     9.8125    10.4765    12.2086    95.2962
 1933.0000     8.5081     2.4857     0.0104  2266.5615     0.3083   -30.2619     9.4855    10.2049    11.7133    96.0576
 1933.5000     8.5091     2.4851     0.0113  2265.4077     0.3068   -29.9573     9.2318     9.9302    11.0673    96.5179
 1934.0000     8.5103     2.4927     0.0114  2263.9067     0.3104   -29.9515     9.1073     9.6630    10.2105    93.4111
 1934.5000     8.5118     2.5041     0.0130  2262.6887     0.3049   -29.7969     9.0537     9.4042     9.2685    89.3447
 1935.0000     8.5129     2.5139     0.0131  2261.3291     0.3007   -29.7911     9.0613     9.2780     9.4055    86.9576
 1935.5000     8.5141     2.5200     0.0117  2259.9697     0.3025   -29.9356     9.1942     9.2843    10.8198    87.4490
 1936.0000     8.5152     2.5111     0.0118  2258.5969     0.3093   -29.9283     9.3291     9.4195    11.6903    89.6195
 1936.5000     8.5164     2.5036     0.0119  2272.3755     0.3192   -29.9225     9.5984     9.6946    11.9461    89.3913
 1937.0000     8.5175     2.4992     0.0120  2270.9968     0.3195   -29.9167     9.8755     9.9890    11.3765    89.4033
 1937.5000     8.5187     2.4947     0.0105  2269.6377     0.3243   -30.0843    10.0204    10.3292    10.6774    88.9348
 1938.0000     8.5349     2.5076     0.0107  2268.2781     0.3152   -30.2976    10.1675    10.5527    10.4155    88.4696
 1938.5000     8.5364     2.5111     0.0153  2266.7339     0.3113   -30.4946    10.1746    10.5584    10.7197    87.9986
 1939.0000     8.5222     2.5145     0.0184  2265.4062     0.3119   -30.7864    10.1829    10.5641    10.8782    87.0536
 1939.5000     8.5237     2.5180     0.0215  2264.1997     0.3166   -31.0768    10.1897    10.5694    10.8863    86.1057
 1940.0000     8.5099     2.5214     0.0216  2262.7515     0.3106   -31.0710    10.1966    10.5756    10.7417    83.2388
 1940.5000     8.4957     2.5255     0.0232  2261.4241     0.3057   -31.0653    10.2035    10.5813    10.7516    80.6093
 1941.0000     8.4972     2.5299     0.0233  2260.0967     0.3009   -31.0595    10.0678    10.5871    11.0638    82.0902
 1941.5000     8.4984     2.5307     0.0234  2263.6809     0.3042   -30.7560     9.9371    10.5930    11.5467    82.7968
 1942.0000     8.4995     2.5308     0.0235  2257.4019     0.3093   -30.7488     9.9440    10.6000    11.7174    83.2882
 1942.5000     8.4710     2.5294     0.0220  2256.0422     0.3044   -30.4454    10.0901    10.5308    11.7261    83.7796
 1943.0000     8.4722     2.5279     0.0191  2254.6829     0.3086   -30.1420    10.0984    10.4634    11.5725    84.2710
 1943.5000     8.4580     2.5235     0.0157  2253.1277     0.3049   -30.1362    10.1052    10.4705    11.2628    85.2422
 1944.0000     8.4595     2.5153     0.0132  2251.8003     0.3134   -29.8328    10.1120    10.4762    10.6601    88.1324
 1944.5000     8.4607     2.5071     0.0118  2265.9104     0.3196   -29.8270    10.1188    10.3356    10.2313    89.8232
 1945.0000     8.4618     2.5019     0.0104  2264.3508     0.3205   -29.6724     9.9859    10.0588    10.0972    88.6115
 1945.5000     8.4630     2.5004     0.0105  2262.9912     0.3183   -29.6666     9.8546     9.7881    10.6859    88.4072
 1946.0000     8.4642     2.5036     0.0106  2261.5962     0.3153   -29.6746     9.5240     9.6422    11.3858    88.1818
 1946.5000     8.4654     2.5081     0.0122  2275.3779     0.3132   -29.8039     9.2059     9.3994    11.3152    86.2744
 1947.0000     8.4668     2.5120     0.0123  2274.0183     0.3149   -30.0943     8.9612     9.2733    11.1648    84.1271
 1947.5000     8.4527     2.5158     0.0124  2272.3877     0.3191   -30.0893     8.9672     9.1514    11.2533    83.4162
 1948.0000     8.4541     2.5174     0.0125  2271.0601     0.3131   -30.2315     8.9112     9.1563    11.0288    83.9105
 1948.5000     8.4553     2.5145     0.0110  2269.7327     0.3145   -30.3760     8.9172     9.1613    10.4386    84.4019
 1949.0000     8.4564     2.5100     0.0111  2268.4053     0.3142   -30.3687     8.8599     9.1662     9.0777    84.8936
 1949.5000     8.4576     2.5063     0.0082  2267.0779     0.3100   -30.6607     8.8674     9.2997     9.4844    84.1882
 1950.0000     8.4588     2.5124     0.0083  2265.7505     0.3000   -30.9524     8.9975     9.3047    10.3191    81.8010
 1950.5000     8.4600     2.5147     0.0069  2264.4231     0.2991   -30.9464     9.1375     9.4403    10.7676    81.3300
 1951.0000     8.4614     2.5066     0.0055  2263.0957     0.2990   -30.9394     9.3946     9.6458    10.9268    81.1018
 1951.5000     8.4626     2.5089     0.0025  2263.7954     0.3036   -30.6360     9.5325     9.8546    10.9349    80.8764
 1952.0000     8.4640     2.5150     0.0026  2266.6509     0.2978   -30.6302     9.6723     9.9980    10.8667    80.6477
 1952.5000     8.4690     2.5173     0.0027  2269.5066     0.2962   -30.6244     9.8143    10.0035    10.8751    80.4199
 1953.0000     8.4740     2.5181     0.0028  2272.3621     0.2968   -30.4698    10.0846    10.0089    11.0906    76.2032
 1953.5000     8.4789     2.5197     0.0029  2275.2178     0.2950   -30.3152    10.0196    10.0143    10.9416    74.7894
 1954.0000     8.4839     2.5175     0.0030  2278.0732     0.2928   -30.3094     9.9550     9.8128    10.7197    73.6154
 1954.5000     8.4889     2.5156     0.0031  2280.9290     0.3012   -30.0060     9.9480     9.6825    10.2136    78.4385
 1955.0000     8.4939     2.5138     0.0032  2283.7844     0.3081   -29.7024     9.8270     9.6205     9.7995    80.7198
 1955.5000     8.4989     2.5176     0.0033  2286.2322     0.3129   -29.6953     9.7636     9.6271     9.8035    84.7326
 1956.0000     8.5032     2.5184     0.0034  2285.1223     0.3155   -29.3919     9.7017     9.7672    10.0847    87.1569
 1956.5000     8.5044     2.5147     0.0034  2284.2344     0.3176   -29.6845     9.7064     9.7725    10.2305    89.5811
 1957.0000     8.5055     2.5072     0.0050  2283.3467     0.3101   -29.6786     9.7110    10.0436    10.3792    91.7655
