~VERSION INFORMATION
 VERS.                2.0:   CWLS LOG ASCII STANDARD - VERSION 2.0
 WRAP.                 NO:   ONE LINE PER DEPTH STEP
~WELL INFORMATION
#MNEM.UNIT      DATA TYPE    INFORMATION
#----------   ------------   ------------------------------
 STRT.F          500.0000:   START DEPTH
 STOP.F         2517.0000:   STOP DEPTH
 STEP.F            0.5000:   STEP LENGTH
 NULL.          -999.2500:   NO VALUE
 COMP.    FENIX & SCISSON:   COMPANY
 WELL. FENIX & SCISSON SHX #46-33:   WELL
 FLD .  TEAPOT DOME NPR-3:   FIELD
 LOC .      S33 T39N R78W:   LOCATION
 CNTY.            NATRONA:   COUNTY
 STAT.            WYOMING:   STATE
 CTRY. UNITED STATES OF AMERICA:   COUNTRY
 SRVC.           BIRDWELL:   SERVICE COMPANY
 DATE.        04-APR-1979:   LOGDATE
 API .     49025107670000:   API NUMBER
~CURVE INFORMATION
#MNEM.UNIT       API CODE    CURVE DESCRIPTION
#----------   ------------   ------------------------------
 DEPT.F                  :   
 GRD .GAPI   45 310 01 00:   GAMMA RAY FROM DENSITY LOG
 CALD.IN     45 280 60 00:   CALIPER FROM DENSITY LOG
 CORR.G/C3   45 356 01 00:   DENSITY CORRECTION
 RHOB.G/C3   45 350 01 00:   BULK DENSITY
~PARAMETER INFORMATION
#MNEM.UNIT          VALUE    DESCRIPTION
#----------   ------------   ------------------------------
 EKB .F         5217.0000:   Kelly bushing
 EGL .F         5207.0000:   Ground level
 EDF .F            0.0000:   Drilling floor
 TD  .F         2630.0000:   Total depth
 CLNT.            A2DTECH:   Client Code
 SL  . 1955' FSL & 1970' FWL:   Surface Location
 PD  .                 GL:   Permanent Datum
 EPD .F              5207:   Elevation Permanent Datum
 LMF .                 KB:   Log Measured From
 DMF .                 KB:   Drilling Measured From
 DAPD.                 10:   Feet Above Permanent Datum
 DATE.        04-APR-1979:   Date Logged [DD-MMM-YYYY]
 DD  .F              2630:   Depth driller
 DL  .F              2517:   Depth logger
 BLI .F              2517:   Bottom log interval
 TLI .F               504:   Top log interval
 CS1 .              9.625:   Casing size
 CBD1.      9.625" @ 300':   Casing driller 1
 CBL1.IN              306:   Casing logger 1
 BS1 .IN            7.875:   Bit size
 BSD1.F              2630:   Depth drilled with bit1
 DFT .                OIL:   Type fluid in hole
 LUL .             CASPER:   Logging unit location
 ENGI.            ROLLINS:   Recorded By
 ORIG.           5" PRINT:   Origin of data
 UWI .     49025107670000:   Unique Well ID
 DICO. A2D TECHNOLOGIES ,INC.:   Digitizing Company
 WITN.              AMUND:   Witnessed by
~OTHER INFORMATION
~A   DEPT      GRD       CALD       CORR       RHOB   
  500.0000   150.0209  -999.2500  -999.2500  -999.2500
  500.5000   149.8774  -999.2500  -999.2500  -999.2500
  501.0000   149.1459  -999.2500    -0.1140     2.3610
  501.5000   148.2655  -999.2500    -0.1152     2.3441
  502.0000   147.0879  -999.2500    -0.1134     2.3391
  502.5000   147.0989  -999.2500    -0.1116     2.3485
  503.0000   148.7445  -999.2500    -0.1082     2.3540
  503.5000   149.7969  -999.2500    -0.1034     2.3566
  504.0000   148.8957  -999.2500    -0.1016     2.3569
  504.5000   147.1346  -999.2500    -0.1044     2.3556
  505.0000   146.8571  -999.2500    -0.1086     2.3530
  505.5000   148.1056  -999.2500    -0.1158     2.3412
  506.0000   149.7426     9.4884    -0.1201     2.3317
  506.5000   148.5017     9.4884    -0.1197     2.3222
  507.0000   148.3873     9.4884    -0.1194     2.3112
  507.5000   148.6983     9.4884    -0.1176     2.3047
  508.0000   149.5982     9.4884    -0.1189     2.2975
  508.5000   146.4917     9.4884    -0.1216     2.2969
  509.0000   144.5711     9.4884    -0.1228     2.2973
  509.5000   143.0963     9.4887    -0.1224     2.2976
  510.0000   142.6616     9.4891    -0.1206     2.2949
  510.5000   143.7128     9.4895    -0.1203     2.2862
  511.0000   145.9527     9.4899    -0.1200     2.2797
  511.5000   147.8954     9.4903    -0.1197     2.2717
  512.0000   149.0952     9.4907    -0.1210     2.2682
  512.5000   149.9978     9.4911    -0.1206     2.2692
  513.0000   148.5230     9.4916    -0.1203     2.2786
  513.5000   147.6425     9.4920    -0.1216     2.2880
  514.0000   147.2051     9.4924    -0.1212     2.2860
  514.5000   147.0676     9.4928    -0.1225     2.2847
  515.0000   146.7842     9.4932    -0.1237     2.2881
  515.5000   146.4953     9.4936    -0.1218     2.2892
  516.0000   147.9951     9.4940    -0.1200     2.2886
  516.5000   148.3033     9.4895    -0.1197     2.2898
  517.0000   148.4630     9.4850    -0.1194     2.2900
  517.5000   148.0255     9.4806    -0.1191     2.2912
  518.0000   147.5936     9.4762    -0.1207     2.2914
  518.5000   148.4962     9.4716    -0.1231     2.2895
  519.0000   149.5474     9.4581    -0.1227     2.2875
  519.5000   149.8557     9.4446    -0.1224     2.2862
  520.0000   147.3407     9.4461    -0.1221     2.2874
  520.5000   146.4603     9.4476    -0.1198     2.2930
  521.0000   146.4714     9.4640    -0.1171     2.2982
  521.5000   148.1169     9.4655    -0.1146     2.3270
  522.0000   148.1474     9.4671    -0.1211     2.3662
  522.5000   146.3560     9.4686    -0.1269     2.4140
  523.0000   143.3953     9.4853    -0.1523     2.4543
  523.5000   141.7708     9.4868    -0.1686     2.4725
  524.0000   141.0200     9.4883    -0.1744     2.4385
  524.5000   141.4001     9.4898    -0.1425     2.3919
  525.0000   144.8516     9.4913    -0.1212     2.3601
  525.5000   147.9731     9.4928    -0.1135     2.2746
  526.0000   149.8711     9.4942    -0.1133     2.2343
  526.5000   147.2966     9.4957    -0.1130     2.2329
  527.0000   145.3887     9.4822    -0.1128     2.2473
  527.5000   145.2780     9.4837    -0.1111     2.2677
  528.0000   147.8179     9.4699    -0.1108     2.2814
  528.5000   146.7888     9.4717    -0.1106     2.2875
  529.0000   147.5428     9.4732    -0.1119     2.2786
  529.5000   150.6743     9.4747    -0.1100     2.2501
  530.0000   152.9142     9.4612    -0.1039     2.2005
  530.5000   152.4795     9.4473    -0.0992     2.1976
  531.0000   150.2617     9.4339    -0.1004     2.2406
  531.5000   149.2327     9.4357    -0.1092     2.2881
  532.0000   148.9438     9.4372    -0.1106     2.3071
  532.5000   146.8774     9.4387    -0.1103     2.3177
  533.0000   145.6998     9.4402    -0.1116     2.3193
  533.5000   145.5595     9.4417    -0.1129     2.3141
  534.0000   145.4220     9.4431    -0.1126     2.3075
  534.5000   145.5844     9.4446    -0.1140     2.3023
  535.0000   147.3786     9.4453    -0.1122     2.2994
  535.5000   148.8755     9.4457    -0.1119     2.2972
  536.0000   150.2239     9.4461    -0.1102     2.2958
  536.5000   151.2751     9.4465    -0.1085     2.3012
  537.0000   151.8805     9.4469    -0.1083     2.3051
  537.5000   151.2972     9.4473    -0.1065     2.3067
  538.0000   147.5936     9.4478    -0.1079     2.3045
  538.5000   144.9301     9.4482    -0.1106     2.2979
  539.0000   145.3869     9.4486    -0.1134     2.2912
  539.5000   146.1409     9.4490    -0.1132     2.2890
  540.0000   146.7464     9.4494    -0.1129     2.2884
  540.5000   146.1631     9.4498    -0.1127     2.2877
  541.0000   146.0253     9.4502    -0.1125     2.2886
  541.5000   147.0768     9.4506    -0.1153     2.2925
  542.0000   148.2766     9.4514    -0.1150     2.3031
  542.5000   149.3278     9.4522    -0.1164     2.3024
  543.0000   149.1902     9.4531    -0.1161     2.2995
  543.5000   148.0126     9.4539    -0.1159     2.2996
  544.0000   148.0238     9.4547    -0.1172     2.2937
  544.5000   148.0350     9.4555    -0.1169     2.2780
  545.0000   147.8972     9.4563    -0.1183     2.2631
  545.5000   147.9570     9.4571    -0.1195     2.2195
  546.0000   150.1880     9.4579    -0.1208     2.1685
  546.5000   151.2234     9.4587    -0.1221     2.1415
  547.0000   150.6833     9.4595    -0.1173     2.1439
  547.5000   148.1040     9.4604    -0.1156     2.2222
  548.0000   146.0348     9.4612    -0.1154     2.2750
  548.5000   147.3832     9.4620    -0.1166     2.2916
  549.0000   147.6887     9.4628    -0.1164     2.3000
  549.5000   146.9596     9.4636    -0.1147     2.2986
  550.0000   147.5650     9.4644    -0.1145     2.2935
  550.5000   149.8049     9.4652    -0.1142     2.2905
  551.0000   150.2617     9.4660    -0.1141     2.2891
  551.5000   149.2327     9.4668    -0.1139     2.2892
  552.0000   148.2118     9.4677    -0.1153     2.2863
  552.5000   147.7760     9.4681    -0.1181     2.2840
  553.0000   147.6408     9.4669    -0.1194     2.2752
  553.5000   147.8060     9.4658    -0.1192     2.2685
  554.0000   148.1165     9.4646    -0.1190     2.2671
  554.5000   147.5354     9.4635    -0.1188     2.2695
  555.0000   145.9143     9.4623    -0.1172     2.2695
  555.5000   144.7389     9.4612    -0.1155     2.2696
  556.0000   144.7522     9.4600    -0.1153     2.2720
  556.5000   145.5084     9.4589    -0.1151     2.2660
  557.0000   146.2647     9.4578    -0.1134     2.2616
  557.5000   146.8723     9.4566    -0.1148     2.2647
  558.0000   147.7772     9.4555    -0.1146     2.2693
  558.5000   148.3848     9.4542    -0.1144     2.2672
  559.0000   148.2495     9.4554    -0.1142     2.2627
  559.5000   148.2699     9.4567    -0.1140     2.2620
  560.0000   152.0704     9.4581    -0.1139     2.2637
  560.5000   154.3948     9.4594    -0.1122     2.2645
  561.0000   154.3952     9.4608    -0.1120     2.2646
  561.5000   153.7392     9.4621    -0.1103     2.2669
  562.0000   148.9205     9.4635    -0.1101     2.2700
  562.5000   147.8969     9.4648    -0.1114     2.2784
  563.0000   148.5052     9.4662    -0.1142     2.3274
  563.5000   147.0353     9.4675    -0.1171     2.3711
  564.0000   142.4424     9.4689    -0.1470     2.4262
  564.5000   139.9297     9.4702    -0.1709     2.4511
  565.0000   139.2001     9.4716    -0.1873     2.4241
  565.5000   139.5105     9.4729    -0.1751     2.4008
  566.0000   139.8210     9.4293    -0.1463     2.4062
  566.5000   140.1315     9.3992    -0.1356     2.3599
  567.0000   141.7793     9.3721    -0.1309     2.3507
  567.5000   143.2785     9.3735    -0.1307     2.3509
  568.0000   145.0748     9.3744    -0.1305     2.3554
  568.5000   145.9797     9.3752    -0.1319     2.3615
  569.0000   146.1383     9.3760    -0.1332     2.3654
  569.5000   144.8176     9.3768    -0.1360     2.3692
  570.0000   143.0478     9.3776    -0.1389     2.3708
  570.5000   142.4668     9.3784    -0.1417     2.3679
  571.0000   141.4400     9.3792    -0.1430     2.3590
  571.5000   139.9674     9.3800    -0.1413     2.3485
  572.0000   141.3180     9.3808    -0.1395     2.3366
  572.5000   144.0059     9.3816    -0.1365     2.3269
