~VERSION INFORMATION
 VERS.                2.0:   CWLS LOG ASCII STANDARD - VERSION 2.0
 WRAP.                 NO:   ONE LINE PER DEPTH STEP
~WELL INFORMATION
#MNEM.UNIT      DATA TYPE    INFORMATION
#----------   ------------   ------------------------------
 STRT.F          200.0000:   START DEPTH
 STOP.F         3038.0000:   STOP DEPTH
 STEP.F            0.5000:   STEP LENGTH
 NULL.          -999.2500:   NO VALUE
 COMP.    FENIX & SCISSON:   COMPANY
 WELL. FENIX NPR 3 "A" #63-28:   WELL
 FLD .            WILDCAT:   FIELD
 LOC .      S28 T39N R78W:   LOCATION
 CNTY.            NATRONA:   COUNTY
 STAT.            WYOMING:   STATE
 CTRY. UNITED STATES OF AMERICA:   COUNTRY
 SRVC.              WELEX:   SERVICE COMPANY
 DATE.        29-MAY-1977:   LOGDATE
 API .     49025103740000:   API NUMBER
~CURVE INFORMATION
#MNEM.UNIT       API CODE    CURVE DESCRIPTION
#----------   ------------   ------------------------------
 DEPT.F                  :   
 SPR .MV     07 010 01 00:   SPONTANEOUS POTENTIAL
 ILM .OHMM   07 120 44 00:   INDUCTION LOG MEDIUM RESISTIVITY
 ILD .OHMM   07 120 46 00:   DEEP INDUCTION RESISTIVITY
 SGRD.OHMM   07 220 05 00:   SHALLOW SHORT GUARD RESISTIVITY
 GRD .GAPI   45 310 01 00:   GAMMA RAY FROM DENSITY LOG
 CALD.IN     45 280 60 00:   CALIPER FROM DENSITY LOG
 RHOB.G/C3   45 350 01 00:   BULK DENSITY
 CORR.G/C3   45 356 01 00:   DENSITY CORRECTION
~PARAMETER INFORMATION
#MNEM.UNIT          VALUE    DESCRIPTION
#----------   ------------   ------------------------------
 EKB .F         5040.0000:   Kelly bushing
 EGL .F         5029.0000:   Ground level
 EDF .F            0.0000:   Drilling floor
 EPD .F         5029.0000:   Permanent datum
 TD  .F         3040.0000:   Total depth
 DATE.        29-MAY-1977:   Date logged
 CLNT.            A2DTECH:   Client Code
 SL  . 1650' FNL & 1650' FEL:   Surface Location
 PD  .                 GL:   Permanent Datum
 LMF .                 KB:   Log Measured From
 DMF .                 KB:   Drilling Measured From
 DD  .F              3040:   Depth driller
 DL  .F              3038:   Depth logger
 BLI .F              3036:   Bottom log interval
 TLI .F               200:   Top log interval
 CS1 .IN            8.625:   Casing size
 BSD1.F              3040:   Depth drilled with bit1
 DFT .            KCL MUD:   Type fluid in hole
 ORIG.     2.5", 5" PRINT:   Origin of data
 UWI .     49025103740000:   Unique Well ID
 DICO. A2D TECHNOLOGIES, INC.:   Digitizing Company
 DAPD.                 11:   Feet Above Permanent Datum
 CBD1.      8.625" @ 220':   Casing driller 1
 BS1 .              7.875:   Bit size
 DFD .                8.7:   Density
 MRT .                108:   Maximum recorded temp.
 ENGI.            C. DOAK:   Recorded By
 WITN.      W. PETTINGILL:   Witnessed by
~OTHER INFORMATION
~A   DEPT      SPR        ILM          ILD     SGRD         GRD        CALD       RHOB      CORR  
# ...
 2630.0000   -59.5070    11.4650     8.4680    15.9670    94.3770     9.0500     2.5090     0.0180
 2630.5000   -59.6640    10.9490     8.3280    14.0420    92.7050     9.0470     2.5100     0.0260
 2631.0000   -59.8220    10.6670     8.1920    12.2560    93.2970     9.0450     2.5060     0.0270
 2631.5000   -59.8380    10.5580     8.0550    11.2320    94.6870     9.0430     2.4910     0.0230
 2632.0000   -59.7110    10.7840     7.9180    10.8530    96.0940     9.0420     2.4790     0.0160
 2632.5000   -59.6770    11.0550     7.8680    11.2220    96.4940     9.0390     2.4650     0.0100
 2633.0000   -59.6480    11.0010     7.8680    11.6480    95.5760     9.0370     2.4560     0.0070
 2633.5000   -59.6170    10.8760     7.7960    12.0750    94.5170     9.0340     2.4510     0.0050
 2634.0000   -59.5860    10.7510     7.8280    12.3440    93.4000     9.0320     2.4460     0.0030
 2634.5000   -59.5560    10.6560     7.9670    12.2510    92.6650     9.0300     2.4440     0.0010
 2635.0000   -59.5260    10.7450     8.1050    12.1760    92.7360     9.0270     2.4450    -0.0010
 2635.5000   -59.5760    10.8320     8.2440    12.1190    94.4430     9.0250     2.4460     0.0010
 2636.0000   -59.7060    10.9190     8.3820    12.7950    95.9970     9.0220     2.4540     0.0040
 2636.5000   -59.8370    11.0050     8.5210    12.7590    97.8720     9.0200     2.4570     0.0060
 2637.0000   -59.9670    11.0920     8.6250    12.6890    97.1560     9.0180     2.4540     0.0090
 2637.5000   -60.0980    11.1570     8.7050    13.1330    95.8570     9.0150     2.4520     0.0120
 2638.0000   -60.2290    11.1570     8.7050    13.6570    95.7570     9.0130     2.4680     0.0150
 2638.5000   -60.4120    11.1570     8.7050    13.6570    95.6910     9.0110     2.4840     0.0150
 2639.0000   -60.6470    11.1570     8.7050    12.3440    96.2380     9.0080     2.4890     0.0140
 2639.5000   -60.8820    11.0000     8.5460    12.9150    97.8470     9.0060     2.4760     0.0140
 2640.0000   -61.1180    10.8160     8.3660    13.4080   100.5970     9.0030     2.4740     0.0130
 2640.5000   -61.3530    10.6330     8.1960    12.5870   102.6670     9.0010     2.4870     0.0130
 2641.0000   -61.6180    10.4610     8.0260    11.5300   102.2220     8.9990     2.4900     0.0120
 2641.5000   -61.9120    10.2060     7.8680    10.6560   100.7450     8.9960     2.4880     0.0120
 2642.0000   -62.2060     9.9100     7.5990    10.3660   100.9250     8.9940     2.4820     0.0120
 2642.5000   -62.5000     9.6140     7.3480    10.5580   102.7580     8.9920     2.4850     0.0110
 2643.0000   -62.7930     9.3180     7.0960    10.6560   104.4830     8.9890     2.4890     0.0110
 2643.5000   -63.0860     9.0220     6.8450     9.9920   106.2700     8.9870     2.4940     0.0110
 2644.0000   -63.2370     8.6760     6.5930    10.6560   108.0070     8.9850     2.4940     0.0090
 2644.5000   -63.5280     8.2770     6.3420    10.1970   109.6460     8.9820     2.4920     0.0080
 2645.0000   -63.8210     7.8770     6.0900     9.4400   109.2470     8.9800     2.4840     0.0060
 2645.5000   -63.8780     7.4770     5.8390     8.3190   108.4660     8.9770     2.4560     0.0010
 2646.0000   -63.9360     7.1110     5.6690     7.9400   107.7280     8.9750     2.4510    -0.0030
 2646.5000   -63.9960     6.8370     5.5100     8.4680   107.4450     8.9730     2.4550    -0.0070
 2647.0000   -64.0550     6.6070     5.3970     8.4680   109.0690     8.9700     2.4590    -0.0090
 2647.5000   -64.1150     6.6240     5.3450     7.5140   110.6960     8.9680     2.4590    -0.0090
 2648.0000   -64.1740     6.6400     5.2700     7.7950   110.8680     8.9650     2.4570    -0.0090
 2648.5000   -64.2210     6.6550     5.2020     8.3140   109.2880     8.9650     2.4550    -0.0080
 2649.0000   -64.2380     6.6710     5.2440     8.3910   107.5100     8.9650     2.4540    -0.0080
 2649.5000   -64.2550     6.6870     5.2900     8.4610   107.3860     8.9650     2.4530    -0.0070
 2650.0000   -64.2720     6.7030     5.3370     8.5020   107.3940     8.9650     2.4510    -0.0070
 2650.5000   -64.2890     6.7180     5.3970     8.5390   108.1180     8.9650     2.4490    -0.0060
 2651.0000   -64.3060     6.7290     5.3630     8.3690   108.6550     8.9650     2.4500    -0.0060
 2651.5000   -64.3230     6.6540     5.2950     8.2080   109.2860     8.9650     2.4510    -0.0050
 2652.0000   -64.3400     6.5950     5.2280     8.1620   109.8620     8.9650     2.4540    -0.0050
 2652.5000   -64.3570     6.5370     5.1600     9.0310   110.4240     8.9650     2.4570    -0.0020
 2653.0000   -64.3740     6.4860     5.0930     8.5150   110.7700     8.9650     2.4660     0.0000
 2653.5000   -64.3910     6.4020     5.0610     7.5140   111.9050     8.9650     2.4710     0.0030
 2654.0000   -64.4080     6.3110     5.0610     7.5140   112.0140     8.9650     2.4700     0.0020
 2654.5000   -64.4120     6.2190     5.0610     8.2380   112.0230     8.9650     2.4700     0.0010
 2655.0000   -64.4120     6.1950     5.0610     7.5840   111.9950     8.9650     2.4700     0.0000
 2655.5000   -64.4110     6.3100     5.0610     7.5840   112.0920     8.9650     2.4720    -0.0010
 2656.0000   -64.3450     6.3680     5.1090     7.8980   111.1910     8.9650     2.4790    -0.0020
 2656.5000   -64.1580     6.5300     5.1980     8.6030   108.8510     8.9650     2.4860    -0.0050
 2657.0000   -63.9740     6.7000     5.2870     9.2830   107.4520     8.9650     2.4930    -0.0050
 2657.5000   -63.8220     6.8700     5.3760     8.4680   108.7210     8.9660     2.4990    -0.0010
 2658.0000   -63.9530     7.0460     5.3970     9.1200   110.3980     8.9550     2.5060     0.0110
 2658.5000   -64.0860     6.8300     5.3970     9.9000   112.1290     8.9340     2.5110     0.0220
 2659.0000   -64.2120     6.6860     5.3970     8.5460   113.8020     8.9150     2.5140     0.0270
 2659.5000   -64.2160     6.5430     5.3580     9.3690   115.5070     8.8950     2.5090     0.0270
 2660.0000   -64.2160     6.3990     5.2520     8.6430   117.2000     8.8760     2.5000     0.0260
 2660.5000   -64.2160     6.2550     5.1470     7.8680   118.8880     8.8570     2.4860     0.0120
 2661.0000   -64.2160     6.1270     5.0410     7.6740   120.6030     8.8370     2.4720     0.0030
 2661.5000   -64.2160     6.0660     4.9360     7.5140   122.2680     8.8180     2.4730     0.0030
 2662.0000   -64.2160     6.0040     4.8300     7.6770   123.9820     8.7990     2.4740     0.0040
 2662.5000   -64.2120     5.9430     4.7450     7.8680   124.4740     8.7790     2.4790     0.0060
 2663.0000   -64.1020     5.8820     4.7300     7.7970   124.3840     8.7710     2.4860     0.0070
 2663.5000   -63.9910     5.8090     4.7050     7.6210   124.3190     8.7710     2.4930     0.0100
 2664.0000   -63.8810     5.8530     4.6790     7.4450   123.0250     8.7710     2.4990     0.0120
 2664.5000   -63.6910     5.9070     4.6590     7.3770   121.8920     8.7710     2.5060     0.0140
 2665.0000   -63.4090     5.9710     4.7020     7.5710   119.1010     8.7710     2.5060     0.0160
 2665.5000   -63.1250     6.2350     5.0380     7.8850   116.5170     8.7710     2.5060     0.0190
 2666.0000   -62.6850     6.5460     5.3940     7.5840   113.8540     8.7710     2.5060     0.0230
 2666.5000   -62.1700     7.1810     5.7510     7.9400   111.2040     8.7710     2.5080     0.0230
 2667.0000   -61.6550     7.7980     6.1070    10.0340   108.5130     8.7710     2.5100     0.0260
 2667.5000   -61.1410     8.3900     6.4640    13.1540   105.9830     8.7710     2.5110     0.0270
 2668.0000   -60.6900     8.8350     6.8200    14.8350   102.8070     8.7710     2.5070     0.0220
 2668.5000   -60.6470     9.2620     7.1760    13.4080   101.8220     8.7710     2.4920     0.0180
 2669.0000   -60.5970     9.6890     7.5330    13.4080   100.2630     8.7720     2.4830     0.0150
 2669.5000   -60.5450    10.1160     7.8890    12.1830    99.7030     8.7710     2.4810     0.0170
 2670.0000   -60.4930    10.2450     8.0880    11.1830    98.5900     8.7690     2.4820     0.0180
