~VERSION INFORMATION
 VERS.                2.0:   CWLS LOG ASCII STANDARD - VERSION 2.0
 WRAP.                 NO:   ONE LINE PER DEPTH STEP
~WELL INFORMATION
#MNEM.UNIT      DATA TYPE    INFORMATION
#----------   ------------   ------------------------------
 STRT.F            0.5000:   START DEPTH
 STOP.F         4256.0000:   STOP DEPTH
 STEP.F            0.5000:   STEP LENGTH
 NULL.          -999.2500:   NO VALUE
 COMP. LAWRENCE-ALLISON & ASSOC:   COMPANY
 WELL. LAWRENCE "X" #64-15:   WELL
 FLD .        N.P.R. NO.3:   FIELD
 LOC .      S15 T38N R78W:   LOCATION
 CNTY.            NATRONA:   COUNTY
 STAT.            WYOMING:   STATE
 CTRY. UNITED STATES OF AMERICA:   COUNTRY
 SRVC.      DRESSER ATLAS:   SERVICE COMPANY
 DATE.        13-SEP-1984:   LOGDATE
 API .     49025111610000:   API NUMBER
~CURVE INFORMATION
#MNEM.UNIT       API CODE    CURVE DESCRIPTION
#----------   ------------   ------------------------------
 DEPT.F                  :   
 TENR.LBS    07 635 01 00:   TENSION FROM RESISTIVITY
 GRR .GAPI   07 310 01 00:   GAMMA RAY FROM RESISTIVITY
 RFOC.OHMM   07 220 04 00:   RESISTIVITY FOCUSED LOG RES.
 RILD.OHMM   07 120 46 00:   DEEP INDUCTION RESISTIVITY
 RILM.OHMM   07 120 44 00:   INDUCTION LOG MEDIUM RESISTIVITY
 SPR .MV     07 010 01 00:   SPONTANEOUS POTENTIAL
 DT  .US/F   60 520 00 00:   DELTA TIME
 TENS.LBS    60 635 01 00:   TENSION FROM SONIC
 CALD.IN     45 280 60 00:   CALIPER FROM DENSITY LOG
 TEND.LBS    45 635 01 00:   TENSION FORM DENSITY LOG
 CORR.G/C3   45 356 01 00:   DENSITY CORRECTION
 DEN .G/C3   45 350 01 00:   BULK DENSITY
 CNC .DEC    42 890 03 00:   NEUTRON POROSITY SANDSTONE
~PARAMETER INFORMATION
#MNEM.UNIT          VALUE    DESCRIPTION
#----------   ------------   ------------------------------
 EKB .F         5294.0000:   Kelly bushing
 EGL .F         5282.0000:   Ground level
 TD  .F         4256.0000:   Total depth
 CLNT.            A2DTECH:   Client Code
 SL  . 2299' FNL & 1785' FEL:   Surface Location
 PD  .                 GL:   Permanent Datum
 EPD .F              5282:   Elevation Permanent Datum
 LMF .                 KB:   Log Measured From
 DMF .                 KB:   Drilling Measured From
 DAPD.F                12:   Feet Above Permanent Datum
 DATE.        13-SEP-1984:   Date Logged [DD-MMM-YYYY]
 DD  .F              4256:   Depth driller
 DL  .F              4248:   Depth logger
 BLI .F              4246:   Bottom log interval
 TLI .F                 0:   Top log interval
 CS1 .IN            8.625:   Casing size
 CBD1.      8.625" @ 817':   Casing driller 1
 CBL1.F               814:   Casing logger 1
 BS1 .IN            7.875:   Bit size
 BSD1.F              4256:   Depth drilled with bit1
 DFT .            KCL-GEL:   Type fluid in hole
 DFD .                  9:   Density
 DFV .                 40:   Viscosity
 DFPH.                8.6:   pH
 DFL .               11.8:   Fluid loss
 MSS .            MUDTANK:   Source of sample
 RMS .OHMM           0.38:   Rm
 MST .F                74:   Rm Meas. temp.
 RMF .OHMM           0.31:   Rmf
 MFST.F                72:   Rmf Meas. temp.
 MFSS.               MEAS:   Source Rmf.
 RMC .OHMM           0.48:   Rmc
 MCST.F                74:   Rmc Meas. temp.
 MCSS.               CALC:   Source Rmc.
 RMB .OHMM           0.22:   Rm. at BHT
 BHT .F               134:   BHT.
 TCS .HRS               4:   Time Circ. stopped
 MRT .F               134:   Maximum recorded temp.
 LUN .            HL-6274:   Logging unit number
 LUL .           GILLETTE:   Logging unit location
 ENGI.             RAUTIO:   Recorded By
 WITN.            JOHNSON:   Witnessed by
 ORIG.        2" 5" PRINT:   Origin of data
 UWI .     49025111610000:   Unique Well ID
 DICO. A2D TECHNOLOGIES, INC.:   Digitizing Company
~OTHER INFORMATION
~A    DEPT    TENR         GRR      RFOC       RILD       RILM        SPR         DT       TENS       CALD       TEND       CORR        DEN        CNC   
# ...
 1950.5000   -67.6312    98.9547     4.9147     4.3586     5.2182   -27.4775    96.5470   -75.6972     8.8417   -35.8566     0.0042     2.4408     0.3051
 1951.0000   -67.8351   100.1687     4.4197     4.3583     5.3632   -28.2282    98.1848   -65.7371     8.8398   -45.8167     0.0434     2.3412     0.3030
 1951.5000   -68.0391   102.2127     4.2398     4.5115     5.4349   -28.6896    98.4856   -76.7536     8.8379   -45.8167     0.0931     2.2944     0.2904
 1952.0000   -68.2431   103.7916     5.7104     4.8483     5.7425   -29.0327    94.3574   -78.2627     8.8360   -45.8167     0.1037     2.3042     0.2718
 1952.5000   -68.4470   103.7740     7.7446     5.7084     6.0675   -30.0300    89.4783   -79.7718     8.8340   -45.8167     0.0962     2.3991     0.2622
 1953.0000   -68.6510   102.2739     8.4742     6.2891     6.4108   -30.6306    86.6261   -81.2809     8.8322   -45.8167     0.0766     2.5193     0.2562
 1953.5000   -68.8550   101.3746     8.7727     6.9771     6.8683   -30.9309    85.2005   -82.7901     8.8300   -45.8167     0.0494     2.5722     0.2544
 1954.0000   -69.0589   101.9790     8.6521     7.3740     7.3102   -31.2312    84.3754   -84.2992     8.8434   -45.8167     0.0402     2.5873     0.2652
 1954.5000   -69.2629   106.5900     8.6521     7.6865     7.5739   -31.2312    86.0669   -85.6574     8.8623   -45.8167     0.0239     2.5798     0.2709
 1955.0000   -69.4669   111.9104     8.6521     7.9018     7.6641   -31.2312    86.4791   -85.6574     8.8815   -45.8167     0.0028     2.5715     0.2700
 1955.5000   -69.6708   114.0185     8.6521     7.3669     7.4415   -30.9309    86.8552   -85.6574     8.9007   -45.8167    -0.0062     2.5707     0.2676
 1956.0000   -69.8748   110.1117     8.6521     6.9689     7.2293   -30.6306    87.5316   -85.6574     8.9199   -31.9057    -0.0032     2.5768     0.2658
 1956.5000   -70.0788   104.7011     8.6521     6.6833     7.0171   -30.1802    88.1330   -85.6574     8.9300   -25.8227     0.0194     2.5843     0.2640
 1957.0000   -70.2827   100.4935     8.6521     6.5915     6.8049   -30.0300    88.6592   -82.8907     8.9300   -25.8608     0.0330     2.5896     0.2631
 1957.5000   -70.4867    98.9919     8.4742     6.5904     6.5969   -29.8799    89.2606   -77.3572     8.9300   -25.1259     0.0285     2.5866     0.2670
 1958.0000   -70.6907   101.4016     7.2767     6.5896     6.5958   -29.7297    92.0391   -72.1328     8.9301   -39.0813     0.0210     2.5489     0.2712
 1958.5000   -70.8946   109.8498     6.7429     6.6347     6.6871   -29.5796    92.8656   -65.7257     8.9250   -15.8260     0.0195     2.5059     0.2772
 1959.0000   -71.0986   112.6316     6.4221     6.6799     6.7799   -29.5796    92.8664   -65.7245     8.9177   -25.5926     0.0459     2.4570     0.2808
 1959.5000   -71.3026   114.9449     6.4729     6.8192     6.9214   -29.4294    92.1432   -65.7371     8.9103   -25.8964     0.0617     2.4501     0.2811
 1960.0000   -71.5065   115.5486     7.7446     6.9612     7.0661   -29.5796    89.8650   -65.7371     8.9029   -35.8566     0.0647     2.4728     0.2751
 1960.5000   -71.7105   110.7402     8.4157     7.0636     7.1641   -30.1802    88.2892   -65.7371     8.8955   -35.8566     0.0587     2.5196     0.2664
 1961.0000   -71.9145   108.0364     8.7727     7.3047     7.3137   -30.7988    87.5392   -65.7371     8.8899   -36.3341     0.0376     2.5566     0.2670
 1961.5000   -72.1184   106.8355     8.6940     7.5089     7.5194   -31.5315    88.3657   -65.7371     8.8900   -25.5310     0.0226     2.5807     0.2663
 1962.0000   -72.3224   110.4482     8.5331     7.6129     7.6828   -31.8318    89.1172   -67.0476     8.8900   -25.9244     0.0166     2.5891     0.2627
 1962.5000   -72.5264   109.8496     8.4157     7.7177     7.8904   -32.2823    89.4182   -69.6687     8.8900   -25.8964     0.0106     2.5853     0.2582
 1963.0000   -72.7303   108.6495     8.4157     7.7706     7.9999   -32.2823    89.3437   -72.2898     8.8900   -25.8964     0.0166     2.5800     0.2573
 1963.5000   -72.9343   109.8562     8.4813     7.7157     7.9432   -32.2823    89.0443   -74.9109     8.8900   -25.8964     0.0302     2.5740     0.2579
 1964.0000   -73.1383   111.0621     8.7227     7.6357     7.8327   -32.2823    88.8198   -75.7033     8.8900   -18.6659     0.0177     2.5574     0.2615
 1964.5000   -73.3422   107.7568     8.8337     7.5550     7.7237   -31.8318    88.6704   -75.6944     8.8900    -5.7396    -0.0070     2.5423     0.2639
 1965.0000   -73.5462   105.0529     8.6521     7.5016     7.6162   -31.8318    88.6712   -75.6636     8.8900    -5.0324    -0.0251     2.5393     0.2579
 1965.5000   -73.7502   105.6573     8.4157     7.4488     7.5102   -31.6817    88.8222   -75.7185     8.8900    -5.9761    -0.0326     2.5439     0.2525
 1966.0000   -73.9541   110.4723     8.1858     7.4478     7.5091   -31.6817    89.1232   -85.6752     8.8900   -26.7928    -0.0371     2.5514     0.2495
 1966.5000   -74.1581   111.9790     8.0732     7.3954     7.5079   -31.6817    89.2741   -80.6760     8.8900   -45.8167    -0.0039     2.5575     0.2561
 1967.0000   -74.3621   111.0318     8.0175     7.3945     7.5591   -31.8318    89.5752   -75.1414     8.8900   -45.8167     0.0052     2.5575     0.2567
 1967.5000   -74.5660   108.3765     7.9621     7.4448     7.5581   -31.9820    89.8011   -73.1076     8.8900   -35.8566     0.0052     2.5560     0.2494
 1968.0000   -74.7700   107.4765     7.9621     7.4962     7.6100   -32.2823    90.0271   -71.1155     8.8900   -53.5060     0.0082     2.5560     0.2428
 1968.5000   -74.9740   107.1786     7.9621     7.5991     7.7153   -32.2823    90.1029   -69.1235     8.8900   -45.8167     0.0113     2.5545     0.2443
 1969.0000   -75.1779   107.1823     8.0175     7.7038     7.8219   -32.2602    90.1036   -67.1315     8.8900   -35.8566     0.0083     2.5545     0.2526
 1969.5000   -75.3819   111.6965     8.0732     7.8102     7.9854   -31.8318    89.8426   -66.1701     8.8900   -35.8566     0.0008     2.5508     0.2614
 1970.0000   -75.5859   119.5189     8.1293     7.9180     8.0959   -31.2312    89.3493   -70.5006     8.8900   -35.8566    -0.0022     2.5470     0.2566
 1970.5000   -75.7898   119.8943     8.2427     8.0277     8.2079   -31.2312    88.8056   -74.8311     8.8900   -36.0776    -0.0067     2.5440     0.2437
 1971.0000   -75.9938   116.4931     8.4742     8.1948     8.3216   -31.0811    88.1548   -79.1616     8.8900   -26.6602    -0.0049     2.5439     0.2407
 1971.5000   -76.1978   113.3344     8.7727     8.2507     8.4367   -30.9309    87.7051   -83.4921     8.8900   -34.6383     0.0039     2.5449     0.2446
 1972.0000   -76.4017   108.4301     8.9569     8.4227     8.4944   -31.2312    87.1803   -83.6653     8.8900   -35.8566     0.0055     2.5456     0.2597
 1972.5000   -76.6057   103.5141     9.0882     8.4213     8.5524   -31.3814    86.6555   -79.6813     8.8900   -35.8566     0.0025     2.5441     0.2704
 1973.0000   -76.8097   100.2886     9.1449     8.3044     8.4330   -31.5315    86.3559   -75.6972     8.8900   -25.8964     0.0085     2.5441     0.2596
 1973.5000   -77.0136    99.6900     9.2725     8.1890     8.3736   -31.3814    86.2065   -71.7132     8.8900   -25.8964     0.0191     2.5532     0.2508
 1974.0000   -77.2176   100.8967     9.1449     8.0196     8.2570   -31.3814    86.2823   -67.7291     8.8900   -30.9097     0.0161     2.5668     0.2478
 1974.5000   -77.4216   109.6214     8.5924     7.9082     8.1960   -31.3814    87.0338   -66.7331     8.8900   -35.8566     0.0101     2.5721     0.2493
 1975.0000   -77.6255   114.7371     8.1858     7.7984     8.0753   -31.3814    87.7853   -68.7251     8.8900   -35.8566     0.0057     2.5721     0.2526
 1975.5000   -77.8295   116.8453     7.9621     7.6901     7.8620   -31.5315    88.3866   -70.7171     8.8900   -35.8566     0.0040     2.5713     0.2542
 1976.0000   -78.0335   116.5474     7.7984     7.5833     7.7526   -31.6817    88.7629   -72.7092     8.8900   -30.9097     0.0027     2.5698     0.2562
