~VERSION INFORMATION
 VERS.                2.0:   CWLS LOG ASCII STANDARD - VERSION 2.0
 WRAP.                 NO:   ONE LINE PER DEPTH STEP
~WELL INFORMATION
#MNEM.UNIT      DATA TYPE    INFORMATION
#----------   ------------   ------------------------------
 STRT.F            0.0000:   START DEPTH
 STOP.F          678.0000:   STOP DEPTH
 STEP.F            0.5000:   STEP LENGTH
 NULL.          -999.2500:   NO VALUE
 COMP.       FLUOR DANIEL:   COMPANY
 WELL. FLUOR DANIEL "X" #23-2:   WELL
 FLD .          N.P.R. #3:   FIELD
 LOC .       S2 T38N R78W:   LOCATION
 CNTY.            NATRONA:   COUNTY
 STAT.            WYOMING:   STATE
 CTRY. UNITED STATES OF AMERICA:   COUNTRY
 SRVC.      WESTERN ATLAS:   SERVICE COMPANY
 DATE.        12-AUG-1994:   LOGDATE
 API .     49025226420000:   API NUMBER
~CURVE INFORMATION
#MNEM.UNIT       API CODE    CURVE DESCRIPTION
#----------   ------------   ------------------------------
 DEPT.F                  :   
 GR  .GAPI   07 310 01 00:   GAMMA RAY
 ILD .OHMM   07 120 46 00:   DEEP INDUCTION RESISTIVITY
 ILM .OHMM   07 120 44 00:   INDUCTION LOG MEDIUM RESISTIVITY
 TENR.LBS    07 635 01 00:   TENSION FROM RESISTIVITY
~PARAMETER INFORMATION
#MNEM.UNIT          VALUE    DESCRIPTION
#----------   ------------   ------------------------------
 EKB .F         5110.0000:   Kelly bushing
 EGL .F         5100.0000:   Ground level
 EDF .F         5109.0000:   Drilling floor
 EPD .F         5100.0000:   Permanent datum
 TD  .F          677.0000:   Total depth
 CLNT.            A2DTECH:   Client Code
 SL  . 1896' FNL & 744' FWL:   Surface Location
 PD  .                 GL:   Permanent Datum
 DAPD.F                10:   Feet Above Permanent Datum
 DATE.        12-AUG-1994:   Date Logged [DD-MMM-YYYY]
 DD  .F               670:   Depth driller
 DL  .F               677:   Depth logger
 BLI .F               664:   Bottom log interval
 TLI .F                 0:   Top log interval
 CS1 .              9.625:   Casing size
 CBD1.       9.625" @ 72':   Casing driller 1
 CBL1.IN               79:   Casing logger 1
 BS1 .IN             8.75:   Bit size
 BSD1.F               670:   Depth drilled with bit1
 DFT .                AIR:   Type fluid in hole
 LUN .            HL 6530:   Logging unit number
 LUL .             CASPER:   Logging unit location
 ENGI.      PAT RASMUSSEN:   Recorded By
 WITN.        GARY STRONG:   Witnessed by
 ORIG.         2.5" PRINT:   Origin of data
 UWI .     49025226420000:   Unique Well ID
 DICO. A2D TECHNOLOGIES, INC.:   Digitizing Company
~OTHER INFORMATION
~A    DEPT       GR       ILD        ILM       TENR   
# ...
  365.0000   132.1569     6.2926     6.3883   -48.3323
  365.5000   131.6839     5.9626     6.1348   -48.5143
  366.0000   132.3725     5.5002     5.8130   -48.6964
  366.5000   134.2231     5.0060     5.4837   -48.8785
  367.0000   135.7800     4.7434     5.1544   -63.5954
  367.5000   134.2523     4.5554     4.8147   -49.2426
  368.0000   128.9022     4.5546     4.6859   -49.4247
  368.5000   123.8505     4.5539     4.6220   -49.6067
  369.0000   121.5685     4.5531     4.6828   -49.7888
  369.5000   120.4489     4.7394     4.7443   -49.9709
  370.0000   124.2651     4.8676     4.8066   -50.1529
  370.5000   128.7108     5.1353     4.9354   -50.3350
  371.0000   129.8385     5.6404     5.5654   -50.5171
  371.5000   129.7771     6.0310     6.2760   -50.6991
  372.0000   128.0392     6.5359     6.7986   -50.8812
  372.5000   128.0636     6.8034     6.9807   -51.0633
  373.0000   129.8236     7.0818     7.0724   -51.2453
  373.5000   133.3309     7.2733     7.2619   -51.4274
  374.0000   136.8529     7.3704     7.3573   -51.6095
  374.5000   137.4679     7.3691     7.4540   -51.7915
  375.0000   135.6616     7.4677     7.5519   -51.9736
  375.5000   135.6226     7.5674     7.6511   -52.1557
  376.0000   140.9409     7.6684     7.6485   -52.3377
  376.5000   143.8747     7.7705     7.7492   -52.5198
  377.0000   142.6908     7.7692     7.7464   -67.2367
  377.5000   140.3305     7.7679     7.7438   -67.4188
  378.0000   135.6172     7.8718     7.8458   -67.6009
  378.5000   132.0804     7.8703     7.8429   -67.7689
  379.0000   130.3083     7.9755     7.9462   -67.9505
  379.5000   130.8891     8.0817     8.0503   -53.5974
  380.0000   132.0582     8.0804     8.0476   -53.7791
  380.5000   134.4037     8.0790     8.0450   -53.9608
  381.0000   134.9853     8.0777     8.0423   -54.1425
  381.5000   134.3890     8.0763     8.0396   -54.3242
  382.0000   132.0286     8.0750     8.0369   -54.5058
  382.5000   131.8874     8.0736     8.0342   -54.6875
  383.0000   134.3668     8.0722     8.0315   -54.8692
  383.5000   134.5098     8.0711     8.0288   -55.0508
  384.0000   133.7637     8.0698     8.0261   -55.2326
  384.5000   131.9916     8.0684     8.0234   -55.4142
  385.0000   131.9842     8.0671     8.0207   -55.5959
  385.5000   132.5650     8.0298     7.9114   -55.7776
  386.0000   134.3224     7.9214     7.8036   -55.9593
  386.5000   131.7474     7.8145     7.8010   -56.1410
  387.0000   123.7193     7.7090     7.6946   -56.3227
  387.5000   123.1237     7.5035     7.6476   -56.5044
  388.0000   131.9398     7.3034     7.4009   -56.6860
  388.5000   136.6383     6.9830     7.2038   -56.8678
  389.0000   137.2191     6.6168     6.8652   -57.0494
  389.5000   136.5123     6.2135     6.4693   -57.2311
  390.0000   132.9901     5.8617     6.0971   -57.4128
  390.5000   131.9044     5.2888     5.6257   -57.5945
  391.0000   135.8923     4.6659     5.0676   -57.7762
  391.5000   140.2326     4.0253     4.4324   -57.9579
  392.0000   141.8823     3.4946     3.5532   -58.1395
  392.5000   138.5538     2.9966     3.0213   -58.3212
  393.0000   130.9705     2.5023     2.6425   -58.5029
  393.5000   129.2156     2.3082     2.4506   -58.6846
  394.0000   126.5784     2.2164     2.3460   -58.8663
  394.5000   123.9559     2.2663     2.2644   -59.0480
  395.0000   119.8531     2.4243     2.2867   -73.7645
  395.5000   117.7132     2.8097     2.4487   -73.9463
  396.0000   117.9607     3.3158     3.0137   -74.1279
  396.5000   127.3879     3.9289     3.7416   -74.3096
  397.0000   139.0245     4.4927     4.3248   -74.4913
  397.5000   143.5676     4.9325     4.8109   -74.6730
  398.0000   143.3333     5.3454     5.2301   -74.8547
  398.5000   140.9804     5.6394     5.5635   -75.0364
  399.0000   140.6043     5.9226     5.8407   -75.2180
  399.5000   144.3503     6.1376     6.0240   -75.3997
  400.0000   148.4314     6.2195     6.1578   -75.5511
  400.5000   149.4056     6.2182     6.1827   -75.1627
  401.0000   149.9864     6.2452     6.2366   -74.8298
  401.5000   149.3896     6.3004     6.2342   -74.4913
  402.0000   145.2333     6.2151     6.1401   -74.1279
  402.5000   142.8658     5.8258     5.8810   -73.7645
  403.0000   144.6159     5.3858     5.6164   -73.4012
  403.5000   147.5424     4.8329     5.2503   -73.0378
  404.0000   149.2926     4.3617     4.8502   -72.6744
  404.5000   152.2191     4.1805     4.4670   -72.3111
  405.0000   153.9693     4.0681     4.2026   -71.9476
  405.5000   154.6430     4.0382     4.0361   -71.5843
  406.0000   145.1165     4.0374     4.0087   -64.0500
  406.5000   139.2196     4.0923     4.0084   -56.3227
  407.0000   136.8520     4.2884     4.0673   -55.9593
  407.5000   136.8374     4.4969     4.2035   -55.5960
  408.0000   136.8228     4.8459     4.4354   -55.2325
  408.5000   137.9847     5.1150     4.8192   -54.8692
  409.0000   140.9113     5.4720     5.2373   -54.5058
  409.5000   145.6026     5.7758     5.5995   -54.1424
  410.0000   147.9411     6.2778     6.0674   -68.2418
  410.5000   145.5734     6.6228     6.4007   -67.8808
  411.0000   144.3823     6.8936     6.6626   -67.5198
  411.5000   144.3676     7.1755     6.8430   -67.1589
  412.0000   144.3373     7.2713     7.1228   -81.3954
  412.5000   142.5246     7.2696     7.2184   -80.9718
  413.0000   140.7609     7.1712     7.2179   -80.6108
  413.5000   140.1912     7.0742     7.1214   -80.2499
  414.0000   140.1765     6.9784     6.9328   -79.8889
  414.5000   140.1618     6.8840     6.8402   -79.5279
  415.0000   140.2158     6.7908     6.7488   -79.1670
  415.5000   142.7954     6.6096     6.4827   -78.8060
  416.0000   147.2628     6.5201     6.3960   -78.4451
  416.5000   148.5284     6.2615     6.1438   -78.0841
  417.0000   150.1923     6.0131     5.9016   -77.7231
  417.5000   151.8396     5.6975     5.6689   -77.3622
  418.0000   149.6940     5.3265     5.4454   -62.4663
  418.5000   146.2539     5.0470     5.2307   -62.1054
  419.0000   143.8688     4.7822     4.9576   -61.7444
  419.5000   142.0717     4.7174     4.7621   -61.3834
  420.0000   140.5902     4.6536     4.6985   -61.0224
  420.5000   147.0271     4.5294     4.5741   -60.6615
  421.0000   151.9099     4.5285     4.5129   -60.3005
  421.5000   152.8993     4.6508     4.5735   -59.9395
  422.0000   147.9960     4.7764     4.6348   -59.5786
  422.5000   143.8283     5.1761     4.9570   -59.2176
  423.0000   140.8784     5.5344     5.3745   -58.8566
  423.5000   140.4853     6.0785     5.8303   -58.4957
  424.0000   141.8744     6.3271     6.3938   -58.1347
  424.5000   144.1059     6.5858     6.6567   -57.7738
  425.0000   147.4020     6.8551     6.8306   -57.4128
  425.5000   149.2500     7.0416     6.9314   -57.0494
  426.0000   149.5608     7.1365     7.0258   -56.6861
  426.5000   149.2206     7.2290     7.1091   -56.3227
  427.0000   150.0744     7.2276     7.0951   -55.9593
  427.5000   151.8334     7.2261     7.0137   -55.5960
  428.0000   152.4157     7.1282     6.9199   -55.2325
  428.5000   152.1019     7.1268     6.9194   -54.8692
  429.0000   147.9696     7.1254     6.9190   -54.5059
  429.5000   145.6021     7.1125     6.9185   -54.1424
  430.0000   144.4110     7.0275     6.8966   -53.7790
  430.5000   144.9847     7.0261     6.8256   -53.4157
  431.0000   149.0877     7.0097     6.8251   -53.0523
  431.5000   152.6026     6.9296     6.8246   -52.6890
  432.0000   154.3526     6.9283     6.8242   -52.3256
  432.5000   153.7498     6.9269     6.8238   -51.9622
  433.0000   151.9705     6.9255     6.8233   -51.5988
  433.5000   151.3583     6.8316     6.8229   -51.2355
  434.0000   148.9768     6.8303     6.8224   -50.8721
  434.5000   147.2208     6.8289     6.8219   -50.5087
  435.0000   149.0293     6.8275     6.7219   -50.1454
  435.5000   151.8975     6.5567     6.4598   -49.7820
  436.0000   151.8354     6.1297     6.1149   -49.4186
  436.5000   148.8146     5.5044     5.7093   -49.0552
  437.0000   148.3243     5.0096     5.4081   -48.6918
  437.5000   151.7215     4.8759     5.1394   -48.3285
