~VERSION INFORMATION
 VERS.                2.0:   CWLS LOG ASCII STANDARD - VERSION 2.0
 WRAP.                 NO:   ONE LINE PER DEPTH STEP
~WELL INFORMATION
#MNEM.UNIT      DATA TYPE    INFORMATION
#----------   ------------   ------------------------------
 STRT.F           16.0000:   START DEPTH
 STOP.F         2860.0000:   STOP DEPTH
 STEP.F            0.5000:   STEP LENGTH
 NULL.          -999.2500:   NO VALUE
 COMP.    FENIX & SCISSON:   COMPANY
 WELL. FENIX NPR 3 "AX" #22-21:   WELL
 FLD .  TEAPOT DOME - NPR:   FIELD
 LOC .      S21 T39N R78W:   LOCATION
 CNTY.            NATRONA:   COUNTY
 STAT.            WYOMING:   STATE
 CTRY. UNITED STATES OF AMERICA:   COUNTRY
 SRVC.      DRESSER ATLAS:   SERVICE COMPANY
 DATE.        07-AUG-1978:   LOGDATE
 API .     49025106790000:   API NUMBER
~CURVE INFORMATION
#MNEM.UNIT       API CODE    CURVE DESCRIPTION
#----------   ------------   ------------------------------
 DEPT.F                  :   
 CALD.IN     45 280 60 00:   CALIPER FROM DENSITY LOG
 GRD .GAPI   45 310 01 00:   GAMMA RAY FROM DENSITY LOG
 CORR.G/C3   45 356 01 00:   DENSITY CORRECTION
 RHOB.G/C3   45 350 01 00:   BULK DENSITY
 SPR .MV     05 010 01 00:   SPONTANEOUS POTENTIAL
 ILD .OHMM   05 120 46 00:   DEEP INDUCTION RESISTIVITY
 SN  .OHMM   05 040 00 00:   SHORT NORMAL
~PARAMETER INFORMATION
#MNEM.UNIT          VALUE    DESCRIPTION
#----------   ------------   ------------------------------
 EKB .F         4989.0000:   Kelly bushing
 EGL .F         4979.0000:   Ground level
 EDF .F            0.0000:   Drilling floor
 TD  .F         2847.0000:   Total depth
 DATE.        07-AUG-1978:   Date logged
 CLNT.            A2DTECH:   Client Code
 SL  . 880' FNL & 660' FWL:   Surface Location
 PD  .                 GL:   Permanent Datum
 DD  .F              2845:   Depth driller
 DL  .F              2847:   Depth logger
 BLI .F              2841:   Bottom log interval
 CS1 .IN            8.625:   Casing size
 CBD1.      8.625" @ 240':   Casing driller 1
 CBL1.F               240:   Casing logger 1
 BS1 .IN            7.875:   Bit size
 DFT .                KCL:   Type fluid in hole
 DFD .                9.2:   Density
 DFV .                 31:   Viscosity
 DFPH.               10.5:   pH
 MSS .           FLOWLINE:   Source of sample
 RMS .OHMM           1.25:   Rm
 MST .F                74:   Rm Meas. temp.
 RMF .OHMM            1.8:   Rmf
 MFST.F                76:   Rmf Meas. temp.
 RMC .OHMM              3:   Rmc
 MCST.F                78:   Rmc Meas. temp.
 MFSS.               MEAS:   Source Rmf.
 TCS .HRS               4:   Time Circ. stopped
 LUN .               3006:   Logging unit number
 LUL .               CASP:   Logging unit location
 ENGI.             MILLER:   Recorded By
 WITN.           MCGINLEY:   Witnessed by
 ORIG.           5" PRINT:   Origin of data
 UWI .     49025106790000:   Unique Well ID
 DICO. A2D TECHNOLOGIES, INC.:   Digitizing Company
 DAPD.                 10:   Feet Above Permanent Datum
 BSD1.F              2845:   Depth drilled with bit1
 EPD .F              4970:   Elevation Permanent Datum
 LMF .                 KB:   Log Measured From
 DMF .                 KB:   Drilling Measured From
 TLI .                240:   Top log interval
~OTHER INFORMATION
~A   DEPT     CALD         GRD      CORR       RHOB        SPR        ILD         SN   
# ...
  744.0000     9.3520   101.4800     0.1560     2.4270   -10.3630     8.2720    11.4720
  744.5000     9.2440   102.8820     0.1500     2.4490   -10.3690     8.2430    11.4660
  745.0000     9.2070   104.3140     0.1470     2.4370   -10.3740     8.2140    11.4600
  745.5000     9.3010   105.6250     0.1470     2.4150   -10.3790     8.1840    11.4420
  746.0000     9.3830   103.4400     0.1470     2.4200   -10.3850     8.1540    11.3920
  746.5000     9.4430    99.7550     0.1470     2.4160   -10.3900     8.1260    11.3430
  747.0000     9.4720    96.3820     0.1470     2.4160   -10.3950     8.0960    11.2920
  747.5000     9.5040    97.8960     0.1470     2.4270   -10.4010     8.0950    11.2420
  748.0000     9.4850   100.1220     0.1470     2.4230   -10.4060     8.0940    11.1920
  748.5000     9.4480   101.9390     0.1470     2.4170   -10.4110     8.0940    11.1420
  749.0000     9.4440   101.0220     0.1430     2.4200   -10.4170     8.0940    11.0920
  749.5000     9.5230    99.9010     0.1360     2.4260   -10.4220     8.0940    11.0430
  750.0000     9.5810   100.2940     0.1300     2.4290   -10.4270     8.0940    11.0010
  750.5000     9.5760   100.7860     0.1240     2.4070   -10.4330     8.0940    10.9610
  751.0000     9.5680    99.4430     0.1290     2.4000   -10.4380     8.0940    10.9200
  751.5000     9.5560    98.0360     0.1360     2.3920   -10.4430     8.0940    10.8790
  752.0000     9.5530    96.5300     0.1450     2.3970   -10.4490     8.0940    10.8430
  752.5000     9.5110    96.8630     0.1470     2.4020   -10.4540     8.0940    10.8440
  753.0000     9.5040    97.8780     0.1490     2.4070   -10.4590     8.0920    10.8430
  753.5000     9.5030    99.5500     0.1530     2.3940   -10.4650     8.0640    10.8440
  754.0000     9.5060   101.4950     0.1620     2.3940   -10.4700     8.0370    10.8430
  754.5000     9.4910   103.5530     0.1670     2.4050   -10.4740     8.0090    10.8430
  755.0000     9.4690   104.7490     0.1680     2.4090   -10.4740     7.9820    10.8500
  755.5000     9.4480   105.0180     0.1690     2.4070   -10.4740     7.9540    10.8670
  756.0000     9.4280   105.7200     0.1700     2.4060   -10.4740     7.9360    10.8840
  756.5000     9.4070   106.8470     0.1710     2.4190   -10.4740     7.9230    10.9010
  757.0000     9.3860   108.5650     0.1660     2.4320   -10.4740     7.9080    10.9180
  757.5000     9.3660   110.9680     0.1520     2.4370   -10.4740     7.8950    10.9350
  758.0000     9.3460   111.6050     0.1490     2.4350   -10.4740     7.8810    10.9520
  758.5000     9.3340   110.1830     0.1470     2.4360   -10.4740     7.8660    10.9690
  759.0000     9.3220   108.6570     0.1450     2.4480   -10.4740     7.8520    10.9850
  759.5000     9.3110   107.1670     0.1430     2.4550   -10.4740     7.8390    11.0050
  760.0000     9.3000   107.4270     0.1410     2.4530   -10.4740     7.8270    11.0190
  760.5000     9.2890   107.3660     0.1380     2.4660   -10.4740     7.8100    11.0360
  761.0000     9.2770   106.5050     0.1270     2.4790   -10.4740     7.8040    11.0430
  761.5000     9.2660   105.5620     0.1210     2.4800   -10.4740     8.0420    11.2940
  762.0000     9.2550   101.8590     0.1170     2.4790   -10.4750     8.2470    11.5100
  762.5000     9.2440    97.1620     0.1120     2.4780   -10.4740     8.4520    11.7260
  763.0000     9.2320    92.1720     0.1080     2.4800   -10.4750     8.6570    11.9410
  763.5000     9.2260    90.8700     0.1060     2.4810   -10.4750     8.8630    12.2070
  764.0000     9.2260    91.5990     0.1050     2.4830   -10.5180     9.0680    12.6120
  764.5000     9.2260    93.4890     0.1040     2.4840   -10.5800     9.2730    13.0180
  765.0000     9.2260    95.6300     0.1040     2.4830   -10.6400     9.4780    13.2570
  765.5000     9.2260    97.3550     0.1040     2.4820   -10.7000     9.6830    13.2570
  766.0000     9.2260    97.9480     0.1040     2.4810   -10.7610     9.8960    13.2570
  766.5000     9.2260    98.6780     0.1040     2.4790   -10.8210    10.0790    13.2570
  767.0000     9.2260    99.3670     0.1040     2.4770   -10.8810    10.0720    13.2570
  767.5000     9.2260   100.1370     0.1040     2.4750   -10.9410    10.0510    13.2570
  768.0000     9.2260    99.2290     0.1040     2.4780   -11.0010    10.0290    13.2580
  768.5000     9.2260    97.3390     0.1040     2.4810   -11.0620    10.0080    13.2570
  769.0000     9.2260    94.8500     0.1040     2.4830   -11.1220     9.9870    13.2570
  769.5000     9.2260    93.2200     0.1040     2.4840   -11.1810     9.9650    13.2570
  770.0000     9.2260    94.7640     0.1040     2.4750   -11.2430     9.9440    13.2570
  770.5000     9.2260    94.8960     0.1030     2.4710   -11.2660     9.9230    13.2580
  771.0000     9.2260    94.2750     0.1050     2.4700   -11.2640     9.9020    13.2580
  771.5000     9.2260    95.2130     0.1090     2.4670   -11.2650     9.8860    13.2570
  772.0000     9.2260    96.3560     0.1130     2.4630   -11.2650     9.8560    13.2570
  772.5000     9.2260    95.3760     0.1160     2.4600   -11.2650     9.8260    13.2570
  773.0000     9.2260    93.2950     0.1200     2.4590   -11.2650     9.7960    13.2570
  773.5000     9.2260    91.1910     0.1230     2.4630   -11.2650     9.7660    13.2260
  774.0000     9.2260    91.4980     0.1270     2.4650   -11.2650     9.7360    13.1100
  774.5000     9.2260    92.1030     0.1310     2.4670   -11.2650     9.7060    12.9930
  775.0000     9.2260    92.6520     0.1310     2.4700   -11.2650     9.6760    12.8780
  775.5000     9.2260    93.1970     0.1300     2.4700   -11.2650     9.6460    12.7850
  776.0000     9.2260    93.7780     0.1300     2.4700   -11.2650     9.6160    12.7940
  776.5000     9.2260    94.6150     0.1290     2.4700   -11.2650     9.5860    12.8000
  777.0000     9.2260    95.4460     0.1290     2.4700   -11.2650     9.5550    12.8090
  777.5000     9.2260    96.3180     0.1280     2.4680   -11.2650     9.5400    12.8180
  778.0000     9.2260    96.5600     0.1280     2.4660   -11.2650     9.5410    12.8260
  778.5000     9.2260    96.5210     0.1270     2.4680   -11.2650     9.5410    12.8350
  779.0000     9.2260    96.6040     0.1270     2.4700   -11.2650     9.5410    12.8440
  779.5000     9.2260    95.8640     0.1260     2.4720   -11.2650     9.5410    12.8520
  780.0000     9.2260    94.3370     0.1250     2.4730   -11.2650     9.5410    12.8610
  780.5000     9.2250    93.0060     0.1240     2.4750   -11.2650     9.5120    12.8690
  781.0000     9.2160    93.0930     0.1230     2.4750   -11.2650     9.4750    12.8780
  781.5000     9.2060    91.8570     0.1250     2.4760   -11.2650     9.4390    12.8870
  782.0000     9.1960    88.8110     0.1270     2.4770   -11.2650     9.4030    12.8950
  782.5000     9.1890    87.3190     0.1280     2.4770   -11.2650     9.3660    12.9040
  783.0000     9.2070    87.5020     0.1300     2.4780   -11.2650     9.3300    12.9120
  783.5000     9.2190    88.9870     0.1300     2.4830   -11.2650     9.2940    12.9210
  784.0000     9.1490    90.9400     0.1270     2.4890   -11.2650     9.2570    12.9300
  784.5000     9.0740    92.8820     0.1240     2.4960   -11.2650     9.2190    12.9380
  785.0000     9.0810    93.2600     0.1210     2.4930   -11.2650     9.1970    12.9470
  785.5000     9.0930    93.6910     0.1180     2.4810   -11.2650     9.1990    12.9560
  786.0000     9.1080    93.2340     0.1150     2.4830   -11.2650     9.1990    12.9640
  786.5000     9.1210    92.0750     0.1150     2.4830   -11.2650     9.1990    12.9730
  787.0000     9.1350    90.8290     0.1150     2.4790   -11.2650     9.1990    12.9810
  787.5000     9.1480    90.8570     0.1150     2.4760   -11.2650     9.1990    12.9900
  788.0000     9.1620    93.3200     0.1150     2.4730   -11.2650     9.2140    12.9990
  788.5000     9.1750    95.7590     0.1150     2.4790   -11.2650     9.2660    13.0070
  789.0000     9.1890    97.1070     0.1150     2.4840   -11.2650     9.3190    13.0160
