~VERSION INFORMATION
 VERS.                2.0:   CWLS LOG ASCII STANDARD - VERSION 2.0
 WRAP.                 NO:   ONE LINE PER DEPTH STEP
~WELL INFORMATION
#MNEM.UNIT      DATA TYPE    INFORMATION
#----------   ------------   ------------------------------
 STRT.F           58.0000:   START DEPTH
 STOP.F         5662.0000:   STOP DEPTH
 STEP.F            0.5000:   STEP LENGTH
 NULL.          -999.2500:   NO VALUE
 COMP. DEPARTMENT OF ENERGY:   COMPANY
 WELL. DEPARTMENT NPR 3 67 "X" #1-10:   WELL
 FLD .              NPR 3:   FIELD
 LOC .      S10 T38N R78W:   LOCATION
 CNTY.            NATRONA:   COUNTY
 STAT.            WYOMING:   STATE
 CTRY. UNITED STATES OF AMERICA:   COUNTRY
 SRVC.       SCHLUMBERGER:   SERVICE COMPANY
 DATE.        05-FEB-2002:   LOGDATE
 API .     49025230400000:   API NUMBER
~CURVE INFORMATION
#MNEM.UNIT       API CODE    CURVE DESCRIPTION
#----------   ------------   ------------------------------
 DEPT.F                  :   
 TEND.LBS    45 635 01 00:   TENSION FROM DENSITY LOG
 PEFZ.B/E    45 358 01 00:   HILT PHOTOELECTRIC FACTOR
 HDRA.G/C3   45 356 01 00:   DELTA RHO HIP TOOL
 NPHI.DEC    42 890 03 00:   NEUTRON POROSITY SANDSTONE
 TENS.LBS    60 635 01 00:   TENSION
 DT  .US/F   60 520 00 00:   DELTA TIME
 TENR.LBS    07 635 01 00:   TENSION FROM RESISTIVITY
 CALR.IN     07 280 01 00:   CALIPER FROM RESISTIVITY
 GRR .GAPI   07 310 01 00:   GAMMA RAY FROM RESISTIVITY
 RXOZ.OHMM   11 270 04 00:   STD. RES. INVADED ZONE RESISTIVITY
 HLLD.OHMM   11 220 10 00:   LATEROLOG DEEP RES.
 HLLS.OHMM   11 220 09 00:   LATEROLOG SHALLOW RES.
 HRLD.OHMM   11 120 46 00:   HIGH RESOULATION DEEP RESISTIVITY
 RHOZ.G/C3   45 350 01 00:   HILT BULK DENSITY
~PARAMETER INFORMATION
#MNEM.UNIT          VALUE    DESCRIPTION
#----------   ------------   ------------------------------
 EKB .F         5205.7000:   Kelly bushing
 EGL .F         5195.7000:   Ground level
 EDF .F            0.0000:   Drilling floor
 EPD .F         5195.7000:   Permanent datum
 TD  .F         5654.0000:   Total depth
 DATE.        05-FEB-2002:   Date logged
 CLNT.            A2DTECH:   Client Code
 SL  . 1503' FEL & 721' FSL:   Surface Location
 PD  .                 GL:   Permanent Datum
 DAPD.F                10:   Feet Above Permanent Datum
 DD  .F              5650:   Depth driller
 DL  .F              5654:   Depth logger
 BLI .F              5646:   Bottom log interval
 TLI .F               499:   Top log interval
 CS1 .IN            9.625:   Casing size
 CBD1.      9.625" @ 505':   Casing driller 1
 CBL1.F               499:   Casing logger 1
 BS1 .IN            8.875:   Bit size
 BSD1.F              5650:   Depth drilled with bit1
 DFT .           GEL/CHEM:   Type fluid in hole
 DFD .                9.2:   Density
 DFV .                 52:   Viscosity
 DFPH.                8.5:   pH
 DFL .                6.8:   Fluid loss
 MSS .           FLOWLINE:   Source of sample
 RMS .OHMM           .954:   Rm
 MST .F                57:   Rm Meas. temp.
 RMF .OHMM           .734:   Rmf
 MFST.F                57:   Rmf Meas. temp.
 MFSS.              PRESS:   Source Rmf.
 RMB .OHMM           .403:   Rm. at BHT
 BHT .F               143:   BHT.
 TLAB.HRS            1208:   Time logger at bottom
 MRT .F               143:   Maximum recorded temp.
 LUN .               2211:   Logging unit number
 LUL .             CASPER:   Logging unit location
 ENGI.           R. SROUR:   Recorded By
 WITN.        M. MILLIKEN:   Witnessed by
 ORIG.           5" PRINT:   Origin of data
 UWI .     49025230400000:   Unique Well ID
 DICO. A2D TECHNOLOGIES, INC.:   Digitizing Company
 RMC .               1.24:   Rmc
 MCST.                 57:   Rmc Meas. temp.
 MCSS.              PRESS:   Source Rmc.
 TCS .                200:   Time Circ. stopped
~OTHER INFORMATION
~A   DEPT     TEND       PEFZ       HDRA       NPHI       TENS         DT       TENR       CALR         GRR      RXOZ       HLLD       HLLS       HRLD       RHOZ   
# ...
 2900.0000  1761.1940     2.3770     0.0010     0.2030  1263.6820    93.8850  1770.6470     8.8070    52.4650    10.3270    17.2700    15.4680    16.7160     2.3280
 2900.5000  1761.1940     2.2830     0.0000     0.2010  1263.6820    84.5110  1763.0439     8.7670    54.5780     9.7850    16.3030    15.1730    15.9200     2.3180
 2901.0000  1761.1940     2.2710     0.0000     0.2020  1263.6820    80.6010  1757.6960     8.7230    54.6420     9.6220    15.3400    14.7890    15.2010     2.3090
 2901.5000  1761.1940     2.2860    -0.0010     0.2020  1263.6820    80.7410  1790.4010     8.6780    53.3980     9.9960    16.2500    15.0640    15.9860     2.3070
 2902.0000  1741.1190     2.2880    -0.0010     0.1990  1263.6820    81.0450  1779.0959     8.6960    50.5300    10.2580    16.5050    15.5350    16.2700     2.3050
 2902.5000  1722.5750     2.2430    -0.0020     0.1930  1263.6820    81.0250  1741.9310     8.7540    46.9890    10.1210    16.6210    16.0060    16.3550     2.3140
 2903.0000  1704.0300     2.2000    -0.0020     0.1870  1263.6820    80.6000  1737.8350     8.8040    44.6750     9.9800    16.8570    16.1590    16.5860     2.3160
 2903.5000  1709.0250     2.1590    -0.0030     0.1860  1263.6820    80.1750  1742.6610     8.7590    42.2880    10.2100    17.0930    16.2730    16.7980     2.3160
 2904.0000  1717.7520     2.1850    -0.0030     0.1860  1263.6820    79.8340  1752.5720     8.7260    41.4710    10.4470    17.3110    16.4910    17.0100     2.3090
 2904.5000  1726.4790     2.2240    -0.0040     0.1920  1263.6820    79.5860  1760.0890     8.7640    43.0380    10.3150    17.5270    16.9680    17.7120     2.3020
 2905.0000  1735.2061     2.2810    -0.0040     0.2020  1263.6820    79.3380  1765.0450     8.8370    46.1900    10.1200    19.2180    17.9760    18.9360     2.2880
 2905.5000  1743.9330     2.3470    -0.0020     0.2110  1263.6820    78.9960  1770.0000     8.8800    49.6840     9.9800    21.1280    19.6370    20.5560     2.2750
 2906.0000  1752.6600     2.3860     0.0000     0.2200  1263.6820    78.6050  1774.9550     8.6900    50.0150    10.4640    18.7130    17.8170    20.0860     2.2670
 2906.5000  1761.1940     2.4070     0.0020     0.2300  1263.6820    78.2140  1776.4230     8.5270    47.0600    10.7380    15.0620    15.1290    14.8180     2.2680
 2907.0000  1761.1940     2.4220     0.0040     0.2360  1263.6820    77.8220  1772.2939     8.5430    44.2610    10.0880    15.1090    14.7360    14.9890     2.2790
 2907.5000  1761.1940     2.4400     0.0060     0.2410  1263.6820    77.8660  1768.1650     8.5620    44.1950    10.1880    15.2010    14.6750    15.2010     2.2950
 2908.0000  1761.1940     2.5160     0.0080     0.2460  1263.6820    78.1280  1764.0350     8.5790    47.2490    10.2580    14.6890    13.4970    14.5590     2.3100
 2908.5000  1761.1940     2.5950     0.0100     0.2390  1263.6820    78.8360  1759.9060     8.5960    50.2050    10.0980    14.1020    13.5640    14.0000     2.3260
 2909.0000  1759.4570     2.6740     0.0130     0.2440  1263.6820    79.5890  1757.6960     8.6140    53.1340     9.9800    14.0040    13.7080    13.8320     2.3320
 2909.5000  1750.4659     2.7510     0.0160     0.2450  1263.6820    80.3510  1763.6720     8.6340    56.1260     9.9800    13.9050    13.8520    13.6740     2.3350
 2910.0000  1741.4740     2.8210     0.0190     0.2430  1263.6820    80.9450  1772.6820     8.6660    58.1050     9.5160    13.6620    13.6250    13.4230     2.3390
 2910.5000  1732.4830     2.8370     0.0220     0.2390  1263.6820    80.8610  1777.5570     8.6970    58.5680     9.1920    13.3430    13.3370    13.1250     2.3480
 2911.0000  1723.4919     2.8540     0.0250     0.2400  1263.6820    80.1550  1760.6090     8.7540    57.6040     9.3450    13.0250    12.8930    12.8270     2.3580
 2911.5000  1744.7230     2.8690     0.0280     0.2420  1263.6820    79.1930  1757.8180     8.8240    56.1330     9.5780    12.6600    12.9680    12.5440     2.3660
 2912.0000  1775.1550     2.9110     0.0310     0.2470  1263.6820    78.2310  1788.3130     8.8420    56.0800     9.7990    12.7360    13.1330    12.6490     2.3660
 2912.5000  1797.7970     2.8720     0.0340     0.2490  1263.6820    77.3630  1817.2791     8.8580    57.3660     9.6220    12.8530    13.2980    12.7710     2.3590
 2913.0000  1776.6030     2.8340     0.0300     0.2470  1263.6820    77.2830  1796.4650     8.8740    59.4870     9.8890    12.9700    13.4630    12.8930     2.3530
 2913.5000  1755.4091     2.7970     0.0240     0.2230  1263.6820    77.9210  1777.5570     8.8900    61.9610    10.3010    13.1190    13.6210    13.0150     2.3470
 2914.0000  1741.2939     2.7600     0.0160     0.2070  1263.6820    78.8600  1785.9380     8.9070    64.1770    10.4950    13.5900    14.2190    13.1310     2.3450
 2914.5000  1742.8040     2.7220     0.0060     0.2000  1263.6820    79.7990  1795.8490     8.9370    63.7360    10.6020    14.3490    14.7910    13.9530     2.3530
 2915.0000  1744.4250     2.6840    -0.0020     0.1920  1263.6820    80.7380  1785.5010     8.9720    62.9760    12.0980    15.2710    15.3400    14.7410     2.3930
 2915.5000  1746.0470     2.7390     0.0000     0.1730  1263.6820    81.2440  1771.3430     9.0620    58.6940    15.2170    16.6570    18.4450    16.4580     2.4450
 2916.0000  1747.6680     2.8250     0.0020     0.1400  1263.6820    80.8210  1757.6960     9.1480    53.8450    19.4180    25.1370    21.3220    21.1450     2.4900
 2916.5000  1749.2900     2.9110     0.0040     0.1420  1263.6820    80.5840  1761.6450     9.1970    48.7060    23.6180    33.3060    35.8290    25.8330     2.4990
 2917.0000  1750.9110     2.9310     0.0050     0.1530  1263.6820    81.0090  1765.4570     9.1430    46.1520    27.8180    38.6390    40.0790    30.5200     2.4480
 2917.5000  1752.5320     2.8850     0.0070     0.1850  1263.6820    83.3440  1769.2690     9.0930    47.2180    29.9090    30.7570    33.6860    31.5970     2.3930
 2918.0000  1754.1541     2.8380     0.0070     0.2190  1263.6820    86.2190  1773.0811     9.1330    49.8840    15.8420    21.0470    25.0110    21.2230     2.3650
 2918.5000  1755.7750     2.7900     0.0080     0.2530  1263.6820   107.6120  1776.8929     9.1750    60.5760    11.2830    14.9280    16.8100    13.0120     2.3810
 2919.0000  1757.3970     2.7630     0.0100     0.2580  1263.6820   111.4930  1782.1030     9.2150    74.7580     9.0590    12.5440    13.3740    12.0620     2.4280
 2919.5000  1759.0179     2.7430     0.0150     0.2680  1263.6820   108.2090  1787.6090     9.3700    90.8700     7.2200    10.9230    11.4480    10.9360     2.4590
 2920.0000  1760.6390     2.7230     0.0150     0.2860  1263.9351    97.4530  1793.1150     9.5030   103.3610     5.3120     6.3170     6.4340     5.4570     2.4520
 2920.5000  1763.5179     2.6840     0.0100     0.2860  1264.2750    85.3230  1796.9260     9.5460    98.0230     5.5260     6.3650     6.4970     5.8410     2.4150
 2921.0000  1767.0500     2.6600     0.0070     0.2830  1264.6160    79.6930  1794.6740     9.5250    87.0200     5.9530     6.4970     6.6460     6.3080     2.3910
 2921.5000  1770.5830     2.6670     0.0070     0.2750  1264.9561    76.1690  1792.4210     9.5110    75.8190     6.5530     7.0210     7.6140     6.7760     2.3710
 2922.0000  1774.1150     2.6740     0.0000     0.2670  1265.2970    76.7890  1790.1689     9.5210    67.7460     7.3970     8.0040     8.7680     7.7000     2.3590
 2922.5000  1777.6470     2.6690     0.0050     0.2590  1265.6370    77.4570  1787.9160     9.5580    65.2400     7.7960     8.7810     9.4470     8.9430     2.3540
 2923.0000  1781.0950     2.7050     0.0060     0.2570  1265.9780    78.1250  1785.6639     9.5930    65.9350     7.5720     8.2850     9.0900     8.4100     2.3550
 2923.5000  1771.8860     2.7800     0.0060     0.2620  1266.3190    78.7920  1783.4120     9.6010    66.6260     7.3860     7.8760     8.7540     7.7960     2.3630
 2924.0000  1762.8950     2.8580     0.0050     0.2670  1266.6591    79.3810  1781.1591     9.5630    64.1720     7.3130     7.7960     8.5430     7.8680     2.3630
