~VERSION INFORMATION
 VERS.                2.0:   CWLS LOG ASCII STANDARD - VERSION 2.0
 WRAP.                 NO:   ONE LINE PER DEPTH STEP
~WELL INFORMATION
#MNEM.UNIT      DATA TYPE    INFORMATION
#----------   ------------   ------------------------------
 STRT.F           32.0000:   START DEPTH
 STOP.F         2998.0000:   STOP DEPTH
 STEP.F            0.5000:   STEP LENGTH
 NULL.          -999.2500:   NO VALUE
 COMP.   TESORO PETROLEUM:   COMPANY
 WELL. TESORO N.P.R. #3-34:   WELL
 FLD .        TEAPOT DOME:   FIELD
 LOC .      S34 T39N R78W:   LOCATION
 CNTY.            NATRONA:   COUNTY
 STAT.            WYOMING:   STATE
 CTRY. UNITED STATES OF AMERICA:   COUNTRY
 SRVC.       SCHLUMBERGER:   SERVICE COMPANY
 DATE.        08-AUG-1969:   LOGDATE
 API .     49025100250000:   API NUMBER
~CURVE INFORMATION
#MNEM.UNIT       API CODE    CURVE DESCRIPTION
#----------   ------------   ------------------------------
 DEPT.F                  :   
 SPR .MV     05 010 01 00:   SPONTANEOUS POTENTIAL FROM RES.
 ASN .OHMM   05 040 16 00:   AMPLIFIED SHORT NORMAL 16"
 ILD .OHMM   05 120 46 00:   INDUCTION LOG DEEP
 CORR.G/C3   45 356 01 00:   DENSITY CORRECTION
 GRD .GAPI   45 310 01 00:   GAMMA RAY FROM DENSITY LOG
 CALD.IN     45 280 60 00:   CALIPER FROM DENSITY LOG
 RHOB.G/C3   45 350 01 00:   BULK DENSITY
~PARAMETER INFORMATION
#MNEM.UNIT          VALUE    DESCRIPTION
#----------   ------------   ------------------------------
 EKB .F         5185.0000:   Kelly bushing
 EGL .F         5172.0000:   Ground level
 TD  .F         2999.0000:   Total depth
 CLNT.            A2DTECH:   Client Code
 SL  . 465' FWL & 1075' FSL':   Surface Location
 DATE.        08-AUG-1969:   Date Logged [DD-MMM-YYYY]
 DD  .F              2998:   Depth driller
 DL  .F              2999:   Depth logger
 BLI .F              2998:   Bottom log interval
 TLI .F               615:   Top log interval
 CS1 .              10.75:   Casing size
 CBD1.      10.75" @ 615':   Casing driller 1
 CBL1.IN              615:   Casing logger 1
 BS1 .IN                9:   Bit size
 BSD1.F              2998:   Depth drilled with bit1
 DFT .      FRESH GEL MUD:   Type fluid in hole
 DFD .                9.6:   Density
 DFV .                 55:   Viscosity
 DFPH.                9.5:   pH
 DFL .                7.0:   Fluid loss
 MSS .           FLOWLINE:   Source of sample
 RMS .OHMM           0.75:   Rm
 MST .F                87:   Rm Meas. temp.
 RMF .OHMM           1.09:   Rmf
 MFST.F                87:   Rmf Meas. temp.
 MFSS.               MEAS:   Source Rmf.
 RMB .OHMM           0.59:   Rm. at BHT
 BHT .F               111:   BHT.
 TCS .HRS               3:   Time Circ. stopped
 MRT .F               111:   Maximum recorded temp.
 LUN .               4507:   Logging unit number
 LUL .               CSPR:   Logging unit location
 ENGI.            ED MIXA:   Recorded By
 WITN.                MAY:   Witnessed by
 ORIG.   1" 2.5" 5" PRINT:   Origin of data
 UWI .     49025100250000:   Unique Well ID
 DICO. A2D TECHNOLOGIES, INC.:   Digitizing Company
~OTHER INFORMATION
~A   DEPT      SPR        ASN        ILD       CORR        GRD       CALD       RHOB   
# ...
 2398.0000   -24.2525    10.5613     8.2690     0.0121    99.2089     8.9700     2.4959
 2398.5000   -24.2511    10.6352     8.4174     0.0125   101.6746     8.9691     2.4921
 2399.0000   -24.2494    10.4874     8.5658     0.0114   102.7951     8.9682     2.4603
 2399.5000   -24.2480    10.4136     8.6404     0.0190   105.2163     8.9367     2.4750
 2400.0000   -24.5341    10.5613     8.7888     0.0231   105.1953     8.9358     2.4956
 2400.5000   -24.3945    10.7829     8.8635     0.0222   102.7277     8.9349     2.5073
 2401.0000   -24.2552    11.0044     8.8642     0.0182   102.0951     8.9339     2.5117
 2401.5000   -24.1158    11.1521     8.9388     0.0157    99.6275     8.9330     2.5205
 2402.0000   -23.9764    11.3737     8.9395     0.0129    90.4321     8.9321     2.5160
 2402.5000   -23.9815    11.3737     8.9291     0.0065    90.3108     8.9312     2.5040
 2403.0000   -23.8421    11.2260     8.9274     0.0085    93.4481     8.9303     2.5233
 2403.5000   -23.8472    11.0783     8.9260     0.0168    98.3200     8.9294     2.5130
 2404.0000   -23.8513    11.0044     8.9246     0.0251   103.4355     8.9284     2.4952
 2404.5000   -23.8553    11.0053     9.0022     0.0220   109.9802     8.9275     2.4922
 2405.0000   -24.0029    11.2260     9.0695     0.0164   114.8610     8.9266     2.4922
 2405.5000   -24.1514    11.3737     9.0678     0.0102   117.2953     8.9257     2.4862
 2406.0000   -24.4424    11.5214     9.0664     0.0041   116.6715     8.9248     2.4567
 2406.5000   -24.5900    11.5953     9.0650    -0.0023   109.3199     8.9239     2.4581
 2407.0000   -24.5940    11.7368     9.0632    -0.0099   103.8031     8.9229     2.4773
 2407.5000   -24.5991    11.5147     9.0618    -0.0028   102.3443     8.9242     2.4861
 2408.0000   -24.4587    11.3666     8.9866     0.0037   104.3904     8.9255     2.4934
 2408.5000   -24.1768    11.1446     8.9852     0.0086   106.2131     8.9269     2.4935
 2409.0000   -23.8940    11.0703     8.9838     0.0126   105.5893     8.9283     2.4830
 2409.5000   -23.8981    11.0699     8.9821     0.0175   101.2958     8.9296     2.4918
 2410.0000   -23.9031    11.2171     8.9807     0.0199    96.3906     8.9310     2.5065
 2410.5000   -24.0507    11.3645     8.9793     0.0224    93.9320     8.9324     2.5050
 2411.0000   -24.3417    11.5855     9.0517     0.0242    93.9198     8.9337     2.4931
 2411.5000   -24.4892    11.6589     9.0500     0.0247    93.9076     8.9351     2.5123
 2412.0000   -24.7812    11.7324     9.1963     0.0213    91.4490     8.9365     2.5181
 2412.5000   -24.9288    11.7318     9.2691     0.0002    87.7671     8.9378     2.5122
 2413.0000   -25.0767    11.7314     9.4151    -0.0061    87.1433     8.9392     2.5003
 2413.5000   -25.0804    11.7199     9.4875    -0.0016    88.3544     8.9406     2.5047
 2414.0000   -24.9412    11.8832     9.6335     0.0089    90.1770     8.9419     2.5150
 2414.5000   -24.6591    12.0993     9.7063     0.0144    91.3884     8.9433     2.5238
 2415.0000   -24.5187    12.3205     9.7784     0.0144    90.7643     8.9447     2.5267
 2415.5000   -24.5238    12.5416     9.7770     0.0097    91.3638     8.9460     2.5163
 2416.0000   -24.3844    12.6151     9.7753     0.0083    95.6329     8.9474     2.4765
 2416.5000   -24.3895    12.6146     9.7739     0.0151   102.3486     8.9488     2.4867
 2417.0000   -24.2490    12.3187     9.7725     0.0190   108.4736     8.9501     2.4586
 2417.5000   -24.2545    12.2444     9.7710     0.0213   117.6555     8.9515     2.4336
 2418.0000   -24.2583    12.0963     9.6955     0.0105   116.8450     8.9529     2.4411
 2418.5000   -24.2633    12.0220     9.6202     0.0005   107.7358     8.9542     2.4574
 2419.0000   -24.2673    12.0953     9.6188    -0.0004   104.6774     8.9556     2.4738
 2419.5000   -24.2714    12.1688     9.6174     0.0072   104.8958     8.9570     2.4927
 2420.0000   -24.2755    12.2422     9.5418     0.0246   109.6841     8.9583     2.5028
 2420.5000   -24.2806    12.2418     9.4666     0.0340   111.4255     8.9595     2.5041
 2421.0000   -24.2840    12.2339     9.4652     0.0344   110.6945     8.9584     2.4909
 2421.5000   -24.2890    12.0193     9.3899     0.0275   108.7186     8.9588     2.4694
 2422.0000   -24.1486    12.0189     9.2408     0.0171   104.3988     8.9600     2.4627
 2422.5000   -24.0109    12.0184     9.1652     0.0129   102.8142     8.9611     2.4771
 2423.0000   -24.0150    12.0180     9.0161     0.0172   106.6258     8.9622     2.4942
 2423.5000   -24.0190    12.0175     8.9409     0.0174   108.9891     8.9634     2.4876
 2424.0000   -23.8795    11.9432     8.8656     0.0135   110.1171     8.9645     2.4916
 2424.5000   -23.7406    11.7951     8.8639     0.0084   106.7593     8.9656     2.5044
 2425.0000   -23.7453    11.7208     8.7886     0.0205   102.4462     8.9668     2.5052
 2425.5000   -23.7494    11.5690     8.7872     0.0240    94.3569     8.9679     2.5036
 2426.0000   -23.7534    11.4244     8.7120     0.0268    92.9430     8.9691     2.5113
 2426.5000   -23.6140    11.4240     8.6363     0.0263    95.6164     8.9702     2.5083
 2427.0000   -23.6191    11.2759     8.5611     0.0236    97.3249     8.9713     2.4991
 2427.5000   -23.6232    11.1278     8.5597     0.0236   100.1631     8.9725     2.5055
 2428.0000   -23.6276    10.8220     8.4844     0.0249   104.5151     8.9736     2.5036
 2428.5000   -23.6313    10.7575     8.4092     0.0231   102.9880     8.9747     2.4975
 2429.0000   -23.6364    10.6833     8.2597     0.0143   101.1296     8.9743     2.5007
 2429.5000   -23.7839    10.5351     8.2583     0.0057    99.5841     8.9734     2.5147
 2430.0000   -23.9315    10.3182     8.1092     0.0077    98.9619     8.9725     2.5240
 2430.5000   -24.0794     9.9433     7.8863     0.0175    99.5613     8.9716     2.5320
 2431.0000   -23.9399     9.8839     7.6630     0.0186    97.3620     8.9707     2.5264
 2431.5000   -23.9440     9.9573     7.3661     0.0182    94.2793     8.9695     2.5310
 2432.0000   -23.9491     9.9125     7.0693     0.0190    91.9960     8.9686     2.5385
 2432.5000   -23.8087     9.6560     6.7725     0.0222    90.9480     8.9677     2.5230
 2433.0000   -23.6706     9.2764     6.2538     0.0236    89.5126     8.9668     2.4976
 2433.5000   -23.6744     8.6999     5.8831     0.0130    89.0907     8.9659     2.4921
 2434.0000   -23.5349     8.0496     5.5124     0.0046    92.9821     8.9650     2.5021
 2434.5000   -23.5400     7.5913     5.2895     0.0008    98.1058     8.9641     2.5241
 2435.0000   -23.5441     7.5170     5.1403     0.0033   101.8983     8.9632     2.5186
 2435.5000   -23.5482     7.6790     5.2128     0.0130   102.4977     8.9623     2.4944
 2436.0000   -23.5523     8.1808     5.5065     0.0167   103.7088     8.9614     2.4968
 2436.5000   -23.7008     8.6382     6.0221     0.0116    94.6573     8.9604     2.4821
 2437.0000   -23.7049     8.9337     6.5407     0.0049    87.6248     8.9595     2.4770
 2437.5000   -23.7089     9.0361     7.1268     0.0016    81.7535     8.9586     2.4938
 2438.0000   -23.7131     9.0506     7.4946     0.0046    80.4159     8.9577     2.5065
 2438.5000   -23.7174     9.0648     7.6413     0.0129    81.0153     8.9568     2.5156
 2439.0000   -23.7221     9.1530     7.7873     0.0183    81.2765     8.9559     2.5242
 2439.5000   -23.7262     9.4582     7.7855     0.0252    82.2141     8.9550     2.5424
 2440.0000   -23.7303     9.8759     7.8583     0.0311    83.3842     8.9541     2.5526
 2440.5000   -23.7354    10.1561     7.9304     0.0342    84.3447     8.9532     2.5339
 2441.0000   -23.7394    10.7540     7.9291     0.0266    81.8959     8.9522     2.5111
 2441.5000   -23.7435    10.8200     8.0015     0.0184    76.6750     8.9513     2.5044
 2442.0000   -23.7476    10.6717     8.1475     0.0098    74.5203     8.9504     2.4985
 2442.5000   -23.8961    10.0362     8.2203     0.0053    78.1957     8.9495     2.5052
 2443.0000   -24.0437     9.9176     8.2924     0.0072    80.6480     8.9486     2.5201
