~VERSION INFORMATION
 VERS.                2.0:   CWLS LOG ASCII STANDARD - VERSION 2.0
 WRAP.                 NO:   ONE LINE PER DEPTH STEP
~WELL INFORMATION
#MNEM.UNIT      DATA TYPE    INFORMATION
#----------   ------------   ------------------------------
 STRT.F           13.0000:   START DEPTH
 STOP.F         2858.0000:   STOP DEPTH
 STEP.F            0.5000:   STEP LENGTH
 NULL.          -999.2500:   NO VALUE
 COMP.    FENIX & SCISSON:   COMPANY
 WELL. FENIX & SCISSON "AX" #16-21:   WELL
 FLD .  TEAPOT DOME NRP-3:   FIELD
 LOC .      S21 T39N R78W:   LOCATION
 CNTY.            NATRONA:   COUNTY
 STAT.            WYOMING:   STATE
 CTRY. UNITED STATES OF AMERICA:   COUNTRY
 SRVC.           BIRDWELL:   SERVICE COMPANY
 DATE.        17-JUL-1978:   LOGDATE
 API .     49025106590000:   API NUMBER
~CURVE INFORMATION
#MNEM.UNIT       API CODE    CURVE DESCRIPTION
#----------   ------------   ------------------------------
 DEPT.F                  :   
 GRD .GAPI   45 310 01 00:   GAMMA RAY FROM DENSITY LOG
 CALD.IN     45 280 60 00:   CALIPER FROM DENSITY LOG
 CORR.G/C3   45 356 01 00:   DENSITY CORRECTION
 RHOB.G/C3   45 350 01 00:   BULK DENSITY
 SPR .MV     05 010 01 00:   SPONTANEOUS POTENTIAL FROM RES.
 ILD .OHMM   05 120 46 00:   INDUCTION LOG DEEP
 SN  .OHMM   05 041 16 00:   SHORT NORMAL 16"
~PARAMETER INFORMATION
#MNEM.UNIT          VALUE    DESCRIPTION
#----------   ------------   ------------------------------
 EKB .F         5003.0000:   Kelly bushing
 EGL .F         4993.0000:   Ground level
 EDF .F            0.0000:   Drilling floor
 EPD .F         4993.0000:   Permanent datum
 TD  .F         2858.0000:   Total depth
 CLNT.            A2DTECH:   Client Code
 SL  . 1420' FSL & 200' FWL:   Surface Location
 DATE.        17-JUL-1978:   Date Logged [DD-MMM-YYYY]
 DD  .F              2855:   Depth driller
 DL  .F              2858:   Depth logger
 BLI .F              2858:   Bottom log interval
 TLI .F                20:   Top log interval
 CS1 .              8.625:   Casing size
 CBD1.      8.625" @ 200':   Casing driller 1
 CBL1.IN              228:   Casing logger 1
 BS1 .IN            7.875:   Bit size
 BSD1.F              2855:   Depth drilled with bit1
 DFT .            MUD GEL:   Type fluid in hole
 DFD .                9.9:   Density
 DFV .                 32:   Viscosity
 DFPH.               10.5:   pH
 DFL .                7.2:   Fluid loss
 MSS .           FLOWLINE:   Source of sample
 RMS .OHMM            1.3:   Rm
 MST .F                80:   Rm Meas. temp.
 RMF .OHMM           0.77:   Rmf
 MFST.F                74:   Rmf Meas. temp.
 MFSS.               MEAS:   Source Rmf.
 RMC .OHMM            1.5:   Rmc
 MCST.F                73:   Rmc Meas. temp.
 MCSS.               MEAS:   Source Rmc.
 TCS .HRS               1:   Time Circ. stopped
 MRT .F               118:   Maximum recorded temp.
 LUN .               2958:   Logging unit number
 LUL .               CASP:   Logging unit location
 ENGI.              HONEA:   Recorded By
 WITN.           MCGINLEY:   Witnessed by
 ORIG.        2" 5" PRINT:   Origin of data
 UWI .     49025106590000:   Unique Well ID
 DICO. A2D TECHNOLOGIES, INC.:   Digitizing Company
 PD  .                 GL:   Permanent Datum
 DAPD.                 10:   Feet Above Permanent Datum
~OTHER INFORMATION
~A   DEPT       GRD      CALD       CORR       RHOB        SPR        ILD         SN   
# ...
  604.5000    71.7568     9.9308    -0.0022     2.5184   -34.4404    10.1014     9.7939
  605.0000    72.3905     9.9331    -0.0019     2.5080   -34.4103    10.1076     9.7978
  605.5000    74.9572     9.9353     0.0057     2.5007   -34.3857    10.1139     9.8018
  606.0000    77.6731     9.9375     0.0103     2.5015   -34.5154    10.1201     9.8057
  606.5000    79.9413     9.9397     0.0120     2.5082   -34.4846    10.0587     9.8097
  607.0000    80.1199     9.9420     0.0124     2.5164   -34.6143    10.0675     9.8136
  607.5000    79.4030     9.9595     0.0146     2.5195   -34.7378    10.0763     9.7504
  608.0000    75.4025     9.9617     0.0148     2.5195   -34.8563    10.0140     9.7545
  608.5000    76.4975     9.9639     0.0149     2.5212   -34.8306    10.0250     9.7592
  609.0000    76.6626     9.9660     0.0151     2.5286   -34.8059    10.0337     9.6953
  609.5000    76.0949     9.9831     0.0167     2.5309   -34.9295    10.0425     9.7002
  610.0000    73.8855    10.0002     0.0198     2.5309   -34.8988    10.0513     9.6367
  610.5000    74.6611    10.0321     0.0229     2.5302   -34.8742    10.0602     9.7080
  611.0000    75.8845    10.0343     0.0260     2.5295   -34.8496    10.0692     9.7119
  611.5000    76.5109    10.0365     0.0231     2.5341   -34.8249    10.0088     9.8502
  612.0000    78.0328    10.0387     0.0218     2.5415   -34.6522    10.0197     9.8542
  612.5000    81.4950    10.0409     0.0175     2.5461   -34.6276    10.0285     9.8582
  613.0000    83.4646    10.0580     0.0161     2.5446   -34.6030     9.9665     9.7276
  613.5000    80.5089    10.0607     0.0162     2.5402   -34.7274     9.9071     9.6649
  614.0000    78.4487    10.0629     0.0164     2.5335   -34.7019     9.8480     9.6036
  614.5000    77.5826    10.0651     0.0165     2.5314   -34.6771     9.7893     9.4115
  615.0000    77.6119    10.0821     0.0122     2.5337   -34.6519     9.6666     9.3509
  615.5000    74.1792    10.0843     0.0049     2.5345   -34.3256     9.6750     9.2261
  616.0000    73.6408    10.0865     0.0006     2.5236   -34.0047     9.6173     9.1666
  616.5000    79.3492    10.0887     0.0022     2.5072   -33.9801     9.6264     9.1712
  617.0000    80.7218    10.0909    -0.0007     2.5080   -33.9555     9.6341     9.1749
  617.5000    80.1541    10.0931    -0.0035     2.5132   -33.9309     9.5767     9.1786
  618.0000    79.7357    10.0952    -0.0034     2.5148   -33.9063     9.5857     9.1823
  618.5000    80.2129    10.0974    -0.0002     2.5089   -33.8817     9.5955     9.1861
  619.0000    80.2422    10.0997     0.0118     2.5060   -33.8570     9.5383     9.1907
  619.5000    79.5253    10.1023     0.0224     2.5068   -34.1289     9.5466     9.1944
  620.0000    79.2488    10.1045     0.0284     2.5165   -34.4099     9.5549     9.2614
  620.5000    80.6288    10.1216     0.0181     2.5225   -34.5239     9.5640     9.3290
  621.0000    80.3597    10.1238     0.0123     2.5292   -34.4932     9.6375     9.3971
  621.5000    78.7472    10.1409     0.0065     2.5330   -34.4686     9.6466     9.4009
  622.0000    76.8363    10.1430     0.0052     2.5193   -34.4440     9.6543     9.3403
  622.5000    77.9104    10.1601     0.0068     2.5094   -34.4194     9.6629     9.3441
  623.0000    79.5816    10.1772     0.0069     2.5064   -34.5490     9.6715     9.2839
  623.5000    74.1491    10.1942     0.0070     2.5043   -34.6726     9.6156     9.2876
  624.0000    71.1329    10.2113     0.0057     2.5028   -34.9381     9.6240     9.2914
  624.5000    71.6173    10.2148     0.0028     2.5111   -35.0622     9.6324     9.2315
  625.0000    71.6467    10.2307     0.0015     2.5119   -35.1852     9.6408     9.2361
  625.5000    71.9746    10.2482     0.0031     2.5127   -35.1600     9.6492     9.1766
  626.0000    81.7054    10.2504     0.0077     2.5077   -35.2841     9.6576     9.1803
  626.5000    83.0707    10.2526     0.0138     2.5002   -35.2533     9.6661     9.0578
  627.0000    78.4805    10.2547     0.0199     2.5054   -35.0806     9.6745     8.9994
  627.5000    72.8383    10.2569     0.0230     2.5092   -35.0560     9.6830     9.0039
  628.0000    71.5170    10.2591     0.0201     2.5152   -34.8832     9.6914     9.0075
  628.5000    74.2403    10.2613     0.0158     2.5212   -34.7105     9.7056     9.0112
  629.0000    76.0607    10.2635     0.0129     2.5228   -34.6858     9.7087     9.0149
  629.5000    81.9109    10.2657     0.0086     2.5273   -34.6612     9.7858     9.0186
  630.0000    79.2537    10.2679     0.0073     2.5199   -34.4885     9.7253     9.0230
  630.5000    71.9603    10.2701     0.0044     2.5044   -34.4637     9.7359     9.0266
  631.0000    71.5513    10.2573     0.0091     2.5029   -34.5874     9.6758     9.0302
  631.5000    74.1253    10.2452     0.0198     2.5052   -34.5566     9.6181     9.0339
  632.0000    75.9457    10.2474     0.0272     2.5031   -34.6863     9.4954     9.0375
  632.5000    76.1170    10.2496     0.0228     2.5016   -34.8099     9.3124     9.0412
  633.0000    75.9971    10.2518     0.0140     2.5121   -35.0816     9.1933     9.0448
  633.5000    77.0785    10.2539     0.0067     2.5218   -35.2051     9.2016     9.0484
  634.0000    76.3616    10.2561     0.0039     2.5159   -35.1743     9.2097     9.0521
  634.5000    77.1373    10.2583     0.0040     2.5100   -35.3040     9.2179     9.0558
  635.0000    77.9129    10.2605     0.0042     2.5108   -35.2733     9.2261     9.0603
  635.5000    79.1363    10.2627     0.0058     2.5124   -35.2486     9.2358     9.0639
  636.0000    81.2552    10.2649     0.0089     2.5125   -35.3722     9.2439     9.0676
  636.5000    80.6875    10.2671     0.0120     2.5110   -35.3476     9.1868     9.0713
  637.0000    80.5671    10.2694     0.0167     2.5029   -35.3168     9.1968     9.0749
  637.5000    80.7463    10.2720     0.0197     2.5067   -35.2922     9.2048     9.0786
  638.0000    81.3930    10.2742     0.0183     2.5209   -35.1194     9.2129     9.0191
  638.5000    81.8498    10.2764     0.0200     2.5254   -34.7985     9.2209     9.0237
  639.0000    78.6029    10.2631     0.0231     2.5240   -34.6258     9.2290     9.0273
  639.5000    77.1324    10.2659     0.0262     2.5196   -34.6012     9.2370     9.0310
  640.0000    78.0646    10.2680     0.0233     2.5218   -34.4284     9.2451     8.9728
  640.5000    75.5566    10.2702     0.0220     2.5278   -34.4038     9.1900     8.8548
  641.0000    73.7876    10.2724     0.0221     2.5301   -34.3792     9.1983     8.8584
  641.5000    75.3169    10.2895     0.0208     2.5280   -34.3541     9.2080     8.8619
  642.0000    76.9880    10.2917     0.0194     2.5258   -34.3289     9.1531     8.8655
  642.5000    73.8830    10.2939     0.0181     2.5266   -34.2992     9.0966     8.8691
  643.0000    72.1214    10.2961     0.0182     2.5319   -34.2746     9.0423     8.8726
  643.5000    72.7477    10.2988     0.0168     2.5252   -34.4043     8.9290     8.8762
  644.0000    75.0159    10.3010     0.0170     2.5171   -34.6698     8.8738     8.8798
  644.5000    76.6871    10.3180     0.0216     2.5149   -34.6452     8.8209     8.8834
  645.0000    77.7612    10.3202     0.0247     2.5202   -34.6206     8.7699     8.8869
  645.5000    78.5373    10.3373     0.0248     2.5262   -34.5960     8.7779     8.8297
  646.0000    78.5672    10.3395     0.0249     2.5307   -34.7200     8.7255     8.8341
  646.5000    78.1551    10.3417     0.0191     2.5338   -34.6929     8.7333     8.7763
  647.0000    75.1994    10.3438     0.0177     2.5361   -34.6696     8.7411     8.7807
  647.5000    74.1767    10.3460     0.0149     2.5309   -34.6395     8.7503     8.7843
  648.0000    78.0940    10.3482     0.0151     2.5228   -34.6149     8.7580     8.7276
  648.5000    80.2129    10.3504     0.0152     2.5184   -34.5903     8.7656     8.7312
  649.0000    80.8392    10.3676     0.0153     2.5214   -34.5657     8.7733     8.6749
  649.5000    77.2865    10.3702     0.0155     2.5252   -34.6954     8.7809     8.6784
