~VERSION INFORMATION
 VERS.                2.0:   CWLS LOG ASCII STANDARD - VERSION 2.0
 WRAP.                 NO:   ONE LINE PER DEPTH STEP
~WELL INFORMATION
#MNEM.UNIT      DATA TYPE    INFORMATION
#----------   ------------   ------------------------------
 STRT.F           58.0000:   START DEPTH
 STOP.F         5662.0000:   STOP DEPTH
 STEP.F            0.5000:   STEP LENGTH
 NULL.          -999.2500:   NO VALUE
 COMP. DEPARTMENT OF ENERGY:   COMPANY
 WELL. DEPARTMENT NPR 3 67 "X" #1-10:   WELL
 FLD .              NPR 3:   FIELD
 LOC .      S10 T38N R78W:   LOCATION
 CNTY.            NATRONA:   COUNTY
 STAT.            WYOMING:   STATE
 CTRY. UNITED STATES OF AMERICA:   COUNTRY
 SRVC.       SCHLUMBERGER:   SERVICE COMPANY
 DATE.        05-FEB-2002:   LOGDATE
 API .     49025230400000:   API NUMBER
~CURVE INFORMATION
#MNEM.UNIT       API CODE    CURVE DESCRIPTION
#----------   ------------   ------------------------------
 DEPT.F                  :   
 TEND.LBS    45 635 01 00:   TENSION FROM DENSITY LOG
 PEFZ.B/E    45 358 01 00:   HILT PHOTOELECTRIC FACTOR
 HDRA.G/C3   45 356 01 00:   DELTA RHO HIP TOOL
 NPHI.DEC    42 890 03 00:   NEUTRON POROSITY SANDSTONE
 TENS.LBS    60 635 01 00:   TENSION
 DT  .US/F   60 520 00 00:   DELTA TIME
 TENR.LBS    07 635 01 00:   TENSION FROM RESISTIVITY
 CALR.IN     07 280 01 00:   CALIPER FROM RESISTIVITY
 GRR .GAPI   07 310 01 00:   GAMMA RAY FROM RESISTIVITY
 RXOZ.OHMM   11 270 04 00:   STD. RES. INVADED ZONE RESISTIVITY
 HLLD.OHMM   11 220 10 00:   LATEROLOG DEEP RES.
 HLLS.OHMM   11 220 09 00:   LATEROLOG SHALLOW RES.
 HRLD.OHMM   11 120 46 00:   HIGH RESOULATION DEEP RESISTIVITY
 RHOZ.G/C3   45 350 01 00:   HILT BULK DENSITY
~PARAMETER INFORMATION
#MNEM.UNIT          VALUE    DESCRIPTION
#----------   ------------   ------------------------------
 EKB .F         5205.7000:   Kelly bushing
 EGL .F         5195.7000:   Ground level
 EDF .F            0.0000:   Drilling floor
 EPD .F         5195.7000:   Permanent datum
 TD  .F         5654.0000:   Total depth
 DATE.        05-FEB-2002:   Date logged
 CLNT.            A2DTECH:   Client Code
 SL  . 1503' FEL & 721' FSL:   Surface Location
 PD  .                 GL:   Permanent Datum
 DAPD.F                10:   Feet Above Permanent Datum
 DD  .F              5650:   Depth driller
 DL  .F              5654:   Depth logger
 BLI .F              5646:   Bottom log interval
 TLI .F               499:   Top log interval
 CS1 .IN            9.625:   Casing size
 CBD1.      9.625" @ 505':   Casing driller 1
 CBL1.F               499:   Casing logger 1
 BS1 .IN            8.875:   Bit size
 BSD1.F              5650:   Depth drilled with bit1
 DFT .           GEL/CHEM:   Type fluid in hole
 DFD .                9.2:   Density
 DFV .                 52:   Viscosity
 DFPH.                8.5:   pH
 DFL .                6.8:   Fluid loss
 MSS .           FLOWLINE:   Source of sample
 RMS .OHMM           .954:   Rm
 MST .F                57:   Rm Meas. temp.
 RMF .OHMM           .734:   Rmf
 MFST.F                57:   Rmf Meas. temp.
 MFSS.              PRESS:   Source Rmf.
 RMB .OHMM           .403:   Rm. at BHT
 BHT .F               143:   BHT.
 TLAB.HRS            1208:   Time logger at bottom
 MRT .F               143:   Maximum recorded temp.
 LUN .               2211:   Logging unit number
 LUL .             CASPER:   Logging unit location
 ENGI.           R. SROUR:   Recorded By
 WITN.        M. MILLIKEN:   Witnessed by
 ORIG.           5" PRINT:   Origin of data
 UWI .     49025230400000:   Unique Well ID
 DICO. A2D TECHNOLOGIES, INC.:   Digitizing Company
 RMC .               1.24:   Rmc
 MCST.                 57:   Rmc Meas. temp.
 MCSS.              PRESS:   Source Rmc.
 TCS .                200:   Time Circ. stopped
~OTHER INFORMATION
~A   DEPT     TEND       PEFZ       HDRA       NPHI       TENS         DT       TENR       CALR         GRR      RXOZ       HLLD       HLLS       HRLD       RHOZ   
# ...
 1185.0000  1303.4830     2.9550     0.0030     0.2970   766.1690    97.2740  1342.2510    10.9830    87.0710     7.8680     8.7810     9.2870     8.6820     2.5190
 1185.5000  1303.4830     2.9550     0.0030     0.3040   766.1690    97.1420  1345.1660    10.9890    86.9840     8.0150     8.8760     9.3520     8.6220     2.5230
 1186.0000  1303.4830     2.9580     0.0030     0.3110   766.1690    97.0650  1348.0811    10.9970    83.7050     8.1670     9.0460     9.4470     9.0550     2.5260
 1186.5000  1303.4830     2.8870     0.0020     0.3110   766.1690    97.2530  1350.9960    11.0380    80.4390     8.3880     9.2170     9.3720     9.4470     2.5360
 1187.0000  1303.4830     2.8560     0.0020     0.3090   766.1690    97.2450  1353.9110    11.0540    81.6330     8.2500     9.3700     9.1590     9.3400     2.5380
 1187.5000  1303.4830     2.8560     0.0020     0.3010   766.1690    96.9530  1356.8260    11.0680    84.9660     7.9990     9.4470     8.9460     9.1450     2.5300
 1188.0000  1303.4830     2.8600     0.0020     0.2930   766.1690    96.6620  1359.7410    11.0780    88.7370     7.7490     9.3260     8.7330     8.9500     2.5160
 1188.5000  1303.4830     2.9090     0.0010     0.3030   766.1690    96.3680  1360.4771    11.0420    92.6010     7.5850     9.1040     8.5200     8.7890     2.5080
 1189.0000  1303.4830     2.9570     0.0010     0.3180   766.1690    96.3680  1360.4771    11.0270    93.5900     7.7880     8.7810     8.2360     8.6560     2.5230
 1189.5000  1303.4830     2.9550     0.0000     0.3260   766.1690    96.3680  1360.4771    11.0130    93.8180     8.0130     8.8750     8.3980     8.4780     2.5310
 1190.0000  1303.4830     2.9550    -0.0010     0.3130   766.1690    96.2710  1360.4771    11.0000    93.0850     7.7490     9.0060     8.5690     8.2360     2.5270
 1190.5000  1303.4830     2.9550    -0.0010     0.3180   766.1690    96.1090  1373.8330    10.9920    91.1290     7.5850     8.2360     8.7400     8.2360     2.5210
 1191.0000  1303.4830     2.9620     0.0000     0.3300   766.1690    95.7650  1376.2770    10.9840    89.2650     7.6700     8.3010     8.9110     8.3140     2.5210
 1191.5000  1303.4830     2.9800    -0.0010     0.3250   766.1690    95.4220  1370.7710    10.9750    87.8910     7.9200     8.3700     9.0250     8.3730     2.5210
 1192.0000  1303.4830     2.9980    -0.0010     0.3170   766.1690    95.3300  1365.2650    10.9660    87.5150     8.0870     8.6050     7.8680     8.3880     2.5200
 1192.5000  1303.4830     3.0160    -0.0010     0.3220   766.1690    95.5760  1359.7590    10.9580    87.1960     8.0810     8.9000     8.1220     8.6000     2.5170
 1193.0000  1303.4830     3.0340     0.0000     0.3270   766.1690    95.9360  1354.2540    10.9490    87.3650     8.0350     9.2760     8.3470     9.0250     2.5140
 1193.5000  1303.4830     3.0340     0.0010     0.3220   766.1690    96.1690  1348.7480    10.9410    88.3100     7.9810     8.9820     8.5150     8.7870     2.5200
 1194.0000  1303.4830     3.0310     0.0020     0.3240   766.1690    96.1320  1343.2419    10.9130    89.9310     7.8070     8.5770     8.1620     8.3360     2.5320
 1194.5000  1303.4830     3.0290     0.0030     0.3300   766.1690    95.8850  1340.6160    10.8760    90.0750     7.4410     8.3470     7.7960     7.9400     2.5460
 1195.0000  1303.4830     3.0270     0.0030     0.3230   766.1690    95.6370  1340.6160    10.8500    88.2040     7.3800     8.2360     7.7960     8.1460     2.5360
 1195.5000  1303.4830     3.0240     0.0100     0.3060   766.1690    95.6260  1340.6160    10.8300    86.4080     7.8680     8.6890     8.1640     8.3880     2.5220
 1196.0000  1303.4830     3.0220     0.0190     0.3000   766.1690    95.6990  1340.6160    10.8120    85.4900     6.9260     9.7990     8.3880     8.9430     2.5230
 1196.5000  1303.4830     3.0190     0.0230     0.3100   766.1690    95.7720  1340.6160    10.7930    84.7220     6.4220     9.1930     8.3430     8.6990     2.5250
 1197.0000  1303.4830     3.0170     0.0200     0.3350   766.1690    95.8450  1340.6160    10.7750    84.5740     6.2600     8.7010     8.2360     8.4650     2.5230
 1197.5000  1303.9620     3.0140     0.0020     0.3290   766.1690    95.9170  1340.6160    10.7590    86.6470     7.8680     8.9460     8.2680     8.8130     2.5060
 1198.0000  1304.4821     3.0080    -0.0020     0.3110   766.1690    95.9900  1340.6160    10.7540    91.3350     7.7960     9.0820     8.3020     8.9430     2.5070
 1198.5000  1305.0010     3.0010    -0.0060     0.2990   766.1690    96.0700  1349.3790    10.7510    94.7120     7.7250     8.6220     8.3370     8.4820     2.5120
 1199.0000  1305.5200     2.9950    -0.0060     0.3040   766.1690    95.8480  1360.4771    10.7470    93.1530     7.8330     8.8120     8.3880     8.6390     2.5120
 1199.5000  1306.0389     2.9890    -0.0060     0.3270   766.1690    95.1330  1360.4771    10.7430    89.9030     7.8680     9.1080     8.3710     8.7630     2.5110
 1200.0000  1306.5590     2.9820    -0.0050     0.3230   766.1690    94.9890  1360.4771    10.7390    86.6620     7.7530     8.7910     8.3360     8.5880     2.5200
 1200.5000  1307.0780     2.9760     0.0000     0.3140   766.1690    95.3730  1360.4771    10.7380    83.4710     7.6640     8.5430     8.3120     8.4650     2.5340
 1201.0000  1307.5970     2.9450     0.0010     0.3170   766.1690    96.7020  1360.4771    10.7380    83.4280     7.6550     8.6450     8.3330     8.5160     2.5450
 1201.5000  1308.1160     2.9450     0.0010     0.3210   766.1690    97.9160  1360.4771    10.7380    86.6610     7.6550     8.7240     8.3520     8.5550     2.5380
 1202.0000  1308.6360     2.9650     0.0010     0.3040   766.1690    98.0600  1360.4771    10.7400    89.4550     7.7250     8.7950     8.3710     8.5940     2.5290
 1202.5000  1309.1550     2.9850     0.0000     0.2790   766.1690    95.8930  1360.4771    10.7410    90.9490     7.5190     8.8610     8.3880     8.6220     2.5210
 1203.0000  1309.6740     2.9930    -0.0030     0.2870   766.1690    94.1980  1360.4771    10.7430    91.1340     7.2180     8.5970     8.1140     8.3440     2.5320
 1203.5000  1310.1930     2.9430    -0.0080     0.3020   766.1690    92.8730  1360.4771    10.7440    91.9820     7.0400     8.1610     7.7250     8.0130     2.5430
 1204.0000  1310.7130     2.9270    -0.0110     0.3180   766.1690    92.4900  1360.4771    10.7460    93.1230     6.8810     8.2120     7.7420     8.0530     2.5480
 1204.5000  1311.2321     2.9780    -0.0080     0.3110   766.1690    92.7150  1360.4771    10.7470    90.8890     7.0970     8.2870     7.7770     8.1390     2.5410
 1205.0000  1311.7510     3.0270    -0.0030     0.3040   766.1690    92.9400  1360.4771    10.7480    89.1360     7.3720     8.5050     7.9160     8.2240     2.5220
 1205.5000  1312.2710     3.0770    -0.0070     0.3000   766.1690    93.1650  1362.1050    10.7500    89.7770     7.7960     8.7810     8.1610     8.2590     2.5130
 1206.0000  1312.7900     3.0720    -0.0030     0.2990   766.1690    93.3890  1364.5780    10.7510    90.1300     7.7700     8.7810     8.4960     8.2860     2.5180
 1206.5000  1313.3090     3.0380     0.0020     0.3030   766.1690    93.6140  1367.0510    10.7530    88.3720     7.7250     8.7810     8.8130     8.3120     2.5350
 1207.0000  1313.8280     3.0030     0.0020     0.3160   766.1690    93.8390  1369.5229    10.7540    86.2680     8.3120     9.2710     8.8610     8.4430     2.5520
 1207.5000  1314.3480     2.9650     0.0020     0.3400   766.1690    94.0080  1371.9960    10.7550    86.8960     8.3120     9.3610     8.7250     8.6220     2.5560
 1208.0000  1314.8669     2.9190     0.0020     0.3360   766.1690    94.1640  1374.4690    10.7570    91.5190     7.7620     8.7800     8.6150     8.3370     2.5530
 1208.5000  1315.3860     2.8730     0.0020     0.3290   766.1690    94.3200  1376.9410    10.7580    94.3420     7.4480     8.2360     8.4650     7.9400     2.5490
 1209.0000  1315.9050     2.8330     0.0010     0.3010   766.1690    94.4780  1379.4139    10.7810    93.0090     7.4480     8.2970     8.5600     8.0420     2.5390
