~VERSION INFORMATION
 VERS.                2.0:   CWLS LOG ASCII STANDARD - VERSION 2.0
 WRAP.                 NO:   ONE LINE PER DEPTH STEP
~WELL INFORMATION
#MNEM.UNIT      DATA TYPE    INFORMATION
#----------   ------------   ------------------------------
 STRT.F          200.0000:   START DEPTH
 STOP.F         3080.0000:   STOP DEPTH
 STEP.F            0.5000:   STEP LENGTH
 NULL.          -999.2500:   NO VALUE
 COMP.    FENIX & SCISSON:   COMPANY
 WELL. FENIX NPR 3 "AX" #55-33:   WELL
 FLD .        TEAPOT DOME:   FIELD
 LOC .      S33 T38N R78W:   LOCATION
 CNTY.            NATRONA:   COUNTY
 STAT.            WYOMING:   STATE
 CTRY. UNITED STATES OF AMERICA:   COUNTRY
 SRVC.           BIRDWELL:   SERVICE COMPANY
 DATE.        08-FEB-1978:   LOGDATE
 API .     49025105740000:   API NUMBER
~CURVE INFORMATION
#MNEM.UNIT       API CODE    CURVE DESCRIPTION
#----------   ------------   ------------------------------
 DEPT.F                  :   
 CALD.IN     45 280 60 00:   CALIPER FROM DENSITY LOG
 GRD .GAPI   45 310 01 00:   GAMMA RAY FROM DENSITY LOG
 RHOB.G/C3   45 350 01 00:   BULK DENSITY
 CORR.G/C3   45 356 01 00:   DENSITY CORRECTION
 NPOR.DEC    42 890 03 00:   ALPHA PROCESSED NEUTRON POROSITY
 SPR .MV     05 010 01 00:   SPONTANEOUS POTENTIAL
 SN  .OHMM   05 040 16 00:   SHORT NORMAL 16"
 ILD .OHMM   05 120 46 00:   DEEP INDUCTION RESISTIVITY
~PARAMETER INFORMATION
#MNEM.UNIT          VALUE    DESCRIPTION
#----------   ------------   ------------------------------
 EKB .F         5197.0000:   Kelly bushing
 EGL .F         5187.0000:   Ground level
 EDF .F            0.0000:   Drilling floor
 TD  .F         3084.0000:   Total depth
 DATE.        08-FEB-1978:   Date logged
 CLNT.            A2DTECH:   Client Code
 SL  . 2000' FSL & 2310' FEL:   Surface Location
 PD  .                 GL:   Permanent Datum
 EPD .F              5187:   Elevation Permanent Datum
 LMF .                 KB:   Log Measured From
 DMF .                 KB:   Drilling Measured From
 DAPD.F                10:   Feet Above Permanent Datum
 DD  .F              3084:   Depth driller
 DL  .F              3080:   Depth logger
 BLI .F              3074:   Bottom log interval
 TLI .F               200:   Top log interval
 CS1 .IN            8.625:   Casing size
 CBD1.      8.625" @ 229':   Casing driller 1
 CBL1.F               230:   Casing logger 1
 BS1 .IN            7.875:   Bit size
 BSD1.F              3084:   Depth drilled with bit1
 DFT .     LIGNOSULFONATE:   Type fluid in hole
 DFD .                9.2:   Density
 DFV .                 30:   Viscosity
 DFPH.                  9:   pH
 DFL .                  5:   Fluid loss
 MSS .           FLOWLINE:   Source of sample
 RMS .OHMM            1.5:   Rm
 MST .F                62:   Rm Meas. temp.
 RMF .OHMM            1.2:   Rmf
 MFST.F                66:   Rmf Meas. temp.
 RMC .OHMM            2.8:   Rmc
 MCST.F                65:   Rmc Meas. temp.
 MFSS.               MEAS:   Source Rmf.
 RMB .OHMM            .82:   Rm. at BHT
 BHT .F               114:   BHT.
 TCS .HRS               3:   Time Circ. stopped
 MRT .F               114:   Maximum recorded temp.
 LUN .               2958:   Logging unit number
 LUL .               CASP:   Logging unit location
 ENGI.            POINTER:   Recorded By
 WITN.         HARRINGTON:   Witnessed by
 ORIG.           5" PRINT:   Origin of data
 UWI .     49025105740000:   Unique Well ID
 DICO. A2D TECHNOLOGIES, INC.:   Digitizing Company
~OTHER INFORMATION
~A   DEPT       CALD      GRD       RHOB        CORR      NPOR        SPR         SN        ILD   
# ...
 2832.5000     8.1415   108.5477     2.5569     0.1309     0.2655   -44.8213     5.7670     4.6320
 2833.0000     8.1615   108.5487     2.5650     0.1389     0.2648   -44.8258     5.7662     4.6309
 2833.5000     8.1417   108.5497     2.5509     0.1389     0.2648   -44.8304     5.7643     4.6298
 2834.0000     8.1220   108.5507     2.5529     0.1390     0.2656   -44.8350     5.6582     4.6287
 2834.5000     8.0824   108.3533     2.5529     0.1390     0.2652   -44.8395     5.7619     4.6276
 2835.0000     8.0627   108.3543     2.5509     0.1330     0.2708   -44.6451     5.7078     4.5843
 2835.5000     8.0627   108.5537     2.5510     0.1310     0.2892   -44.6497     5.6542     4.5410
 2836.0000     8.0629   109.5468     2.5470     0.1290     0.2972   -44.8532     5.5499     4.4986
 2836.5000     8.0629   109.3494     2.5450     0.1230     0.3000   -44.8578     5.5486     4.4973
 2837.0000     8.0631   108.3583     2.5470     0.1190  -999.2500   -44.8623     5.4462     4.4144
 2837.5000     8.0632   108.5576     2.5530     0.1190  -999.2500   -45.0649     5.4449     4.3729
 2838.0000     8.0633   110.1459     2.5485     0.1110  -999.2500   -45.2684     5.3938     4.3318
 2838.5000     8.0633   112.7263     2.5490     0.1070  -999.2500   -45.0740     5.2943     4.2518
 2839.0000     8.0635   114.7115     2.5199     0.0970  -999.2500   -45.0786     5.1490     4.1732
 2839.5000     8.0635   115.1093     2.5199     0.0950  -999.2500   -44.6853     5.1953     4.1340
 2840.0000     8.0637   116.3006     2.5300     0.0990  -999.2500   -44.4909     5.2424     4.0951
 2840.5000     8.1034   116.8969     2.5300     0.1030  -999.2500   -44.2957     5.1456     4.0941
 2841.0000     8.1432   117.2947     2.5310     0.1030  -999.2500   -44.3011     5.1444     4.0932
 2841.5000     8.1432   117.4935     2.5380     0.1030  -999.2500   -44.3057     5.1910     4.0922
 2842.0000     8.1831   117.2967     2.5380     0.1030  -999.2500   -44.3094     5.1420     4.0918
 2842.5000     8.2030   116.9009     2.5390     0.1030  -999.2500   -44.3139     5.1883     4.0530
 2843.0000     8.2031   114.9177     2.5340     0.1011  -999.2500   -44.1196     5.1871     4.0520
 2843.5000     8.2231   114.7203     2.5300     0.1011     0.2993   -44.3231     5.2821     4.0511
 2844.0000     8.2430   114.1261     2.5310     0.1071     0.2817   -44.3276     5.4286     4.0878
 2844.5000     8.2629   113.1350     2.5340     0.1111     0.2757   -44.7300     5.3286     4.1248
 2845.0000     8.2631   112.3424     2.5390     0.1231     0.2717   -44.7337     5.3766     4.2390
 2845.5000     8.2631   112.1450     2.5490     0.1312     0.2721   -44.9380     5.3753     4.2380
 2846.0000     8.2831   112.3444     2.5611     0.1432     0.2737   -45.1415     5.4738     4.2762
 2846.5000     8.2832   112.7422     2.5801     0.1472     0.2970   -44.9471     5.5741     4.2754
 2847.0000     8.2833   112.7432     2.5932     0.1472     0.2990   -44.9517     5.5728     4.3941
 2847.5000     8.2834   112.7442     2.5661     0.1352     0.2990   -44.9553     5.5715     4.3528
 2848.0000     8.3033   112.7450     2.5551     0.1112     0.2970   -44.9599     5.5702     4.3518
 2848.5000     8.3034   112.7461     2.5531     0.1072     0.2850   -44.9645     5.5691     4.3508
 2849.0000     8.3233   110.9613     2.5511     0.1052     0.2830   -44.9690     5.6193     4.4306
 2849.5000     8.3235   109.1766     2.5481     0.1052     0.2858   -44.7747     5.6179     4.4295
 2850.0000     8.3434   105.8047     2.5401     0.1052     0.2910   -44.5804     5.8270     4.4285
 2850.5000     8.3633   105.8057     2.5431     0.1072     0.2982   -44.5849     5.7195     4.4684
 2851.0000     8.3635   106.6002     2.5511     0.1072     0.2998   -44.5886     5.7710     4.4676
 2851.5000     8.3635   106.6012     2.5551     0.1092     0.2998   -44.3952     5.7705     4.4665
 2852.0000     8.3835   106.6022     2.5551     0.1093     0.2998   -44.3998     5.6634     4.4655
 2852.5000     8.3836   106.8017     2.5531     0.1093     0.2994   -44.4034     5.7144     4.4644
 2853.0000     8.3837   107.9932     2.5481     0.1093     0.2946   -44.4080     5.6605     4.3819
 2853.5000     8.3838   110.1767     2.5481     0.1073     0.2938   -44.4126     5.6076     4.3407
 2854.0000     8.3839   111.9633     2.5501     0.1153     0.2894   -44.4171     5.4538     4.3397
 2854.5000     8.4038   110.5756     2.5501     0.1293     0.2950   -44.4217     5.2075     4.1435
 2855.0000     8.4039   108.3940     2.5572     0.1394     0.2991   -44.4262     5.1586     4.1808
 2855.5000     8.4040   107.6014     2.5832     0.1554     0.2995   -44.6297     5.1102     4.1415
 2856.0000     8.4041   105.8166     2.5602     0.1695     0.2996   -44.6342     5.1562     4.1405
 2856.5000     8.4042   104.4287     2.5492     0.1234     0.2996   -44.6388     5.1550     4.1398
 2857.0000     8.4043   102.4456     2.5482     0.1114     0.2997   -44.6433     5.1538     4.1008
 2857.5000     8.4044   102.4466     2.5672     0.1194     0.2998   -44.6479     5.2002     4.1378
 2858.0000     8.4243   103.4395     2.5842     0.1354     0.2999   -45.0502     5.1989     4.1366
 2858.5000     8.4443   107.0120     2.5812     0.1455     0.2831   -45.0538     5.2457     4.1359
 2859.0000     8.4643   108.4019     2.5752     0.1214     0.2734   -45.0584     5.4413     4.1349
 2859.5000     8.4643   108.4029     2.5742     0.1074     0.2710   -45.0629     5.5409     4.3287
 2860.0000     8.4644   104.6340     2.5752     0.0974     0.2678   -45.0675     5.5908     4.3277
 2860.5000     8.4645   101.4604     2.5753     0.0954     0.2406   -45.0720     5.9611     4.4481
 2861.0000     8.4646   100.2709     2.5652     0.0934     0.2354   -44.8778     5.9597     4.5299
 2861.5000     8.4846    98.6846     2.5602     0.0934     0.2346   -44.4847     5.9583     4.5705
 2862.0000     8.4847    97.2967     2.5562     0.0934     0.2358   -44.2904     5.9572     4.6117
 2862.5000     8.4848    98.0913     2.5602     0.0954     0.2394   -44.2950     5.8478     4.5265
 2863.0000     8.4849   102.4575     2.5602     0.0954     0.2458   -44.2986     5.5832     4.5254
 2863.5000     8.4850   105.0377     2.5552     0.0975     0.2486   -44.3032     5.3311     4.3208
 2864.0000     8.5247   107.0229     2.5552     0.0975     0.2518   -44.3077     4.9976     4.1254
 2864.5000     8.5249   108.0159     2.5512     0.0955     0.2535   -44.3123     4.5155     3.9388
 2865.0000     8.5647   110.9932     2.5352     0.0955     0.2515   -44.7145     4.1943     3.6921
 2865.5000     8.5647   115.5575     2.5192     0.0955     0.2487   -44.9179     3.9319     3.2447
 2866.0000     8.5053   120.3205     2.5042     0.0975     0.2483   -44.9224     3.4562     3.0415
 2866.5000     8.5054   131.4326     2.4921     0.1015     0.2687   -44.9270     3.4553     3.0129
 2867.0000     8.5055   133.4178     2.4861     0.1116     0.2852   -45.3291     3.4545     3.0122
 2867.5000     8.5056   129.8473     2.4861     0.1216     0.2864   -45.3337     3.4856     3.1245
 2868.0000     8.4859   120.7214     2.4962     0.1396     0.2836   -45.3382     3.7167     3.2709
 2868.5000     8.4661   110.2986     2.5813     0.1577     0.2262   -45.3428     4.0737     3.3930
 2869.0000     8.4661    99.4932     2.5914     0.1597     0.2122   -45.3464     4.7182     3.5195
 2869.5000     8.4861    99.6926     2.5904     0.1437     0.2074   -45.3510     4.8049     3.6846
 2870.0000     8.5061   102.6698     2.5633     0.1116     0.2026   -45.3555     5.0762     3.9955
 2870.5000     8.5062   102.6708     2.5764     0.0996     0.2006   -45.3601     5.0750     4.2675
 2871.0000     8.5460   102.4732     2.5794     0.1036     0.2010   -45.3647     5.0738     4.4266
 2871.5000     8.5461   102.8711     2.5794     0.1036     0.2026   -45.3692     5.0262     4.4665
 2872.0000     8.5462   106.8404     2.5784     0.1036     0.2186   -45.3738     5.0250     4.4654
 2872.5000     8.5859   110.2144     2.5754     0.1037     0.2443   -45.3783     4.7542     4.3833
