~VERSION INFORMATION
 VERS.                2.0:   CWLS LOG ASCII STANDARD - VERSION 2.0
 WRAP.                 NO:   ONE LINE PER DEPTH STEP
~WELL INFORMATION
#MNEM.UNIT      DATA TYPE    INFORMATION
#----------   ------------   ------------------------------
 STRT.F            3.5000:   START DEPTH
 STOP.F         5648.0000:   STOP DEPTH
 STEP.F            0.5000:   STEP LENGTH
 NULL.          -999.2500:   NO VALUE
 COMP.       FLUOR DANIEL:   COMPANY
 WELL.   FLUOR "X" #46-10:   WELL
 FLD .          N.P.R. #3:   FIELD
 LOC .      S10 T38N R78W:   LOCATION
 CNTY.            NATRONA:   COUNTY
 STAT.            WYOMING:   STATE
 CTRY. UNITED STATES OF AMERICA:   COUNTRY
 SRVC.      WESTERN ATLAS:   SERVICE COMPANY
 DATE.        25-MAR-1996:   LOGDATE
 API .     49025227700000:   API NUMBER
~CURVE INFORMATION
#MNEM.UNIT       API CODE    CURVE DESCRIPTION
#----------   ------------   ------------------------------
 DEPT.F                  :   
 CALD.IN     45 280 60 00:   CALIPER FROM DENSITY LOG
 ZDEN.G/C3   45 350 01 00:   BULK DENSITY
 ZCOR.G/C3   45 356 01 00:   DENSITY CORRECTION
 TEND.LBS    45 635 01 00:   TENSION FORM DENSITY LOG
 GRD .GAPI   45 310 01 00:   GAMMA RAY FROM DENSITY LOG
 CNC .DEC    42 890 01 00:   NEUTRON POROSITY LIMESTONE
 SPR .MV     07 010 01 00:   SPONTANEOUS POTENTIAL
 RD  .OHMM   07 220 10 00:   RESISTIVITY DEEP
 RS  .OHMM   07 220 09 00:   RESISTIVITY SHALLOW
~PARAMETER INFORMATION
#MNEM.UNIT          VALUE    DESCRIPTION
#----------   ------------   ------------------------------
 EKB .F         5216.0000:   Kelly bushing
 EGL .F         5206.0000:   Ground level
 EDF .F         5215.0000:   Drilling floor
 TD  .F         5650.0000:   Total depth
 CLNT.            A2DTECH:   Client Code
 SL  . 1493' FSL & 2330' FWL:   Surface Location
 PD  .                 GL:   Permanent Datum
 EPD .F              5206:   Elevation Permanent Datum
 LMF .                 KB:   Log Measured From
 DMF .                 KB:   Drilling Measured From
 DAPD.F                10:   Feet Above Permanent Datum
 DATE.        25-MAR-1996:   Date Logged [DD-MMM-YYYY]
 DD  .F              5650:   Depth driller
 DL  .F              5648:   Depth logger
 BLI .F              5636:   Bottom log interval
 TLI .F                 0:   Top log interval
 CS1 .IN            9.625:   Casing size
 CBD1.      9.625" @ 498':   Casing driller 1
 CBL1.F               496:   Casing logger 1
 BS1 .IN             8.75:   Bit size
 BSD1.F              5650:   Depth drilled with bit1
 DFT .           CHEM GEL:   Type fluid in hole
 DFD .                9.6:   Density
 DFV .                 54:   Viscosity
 DFPH.                9.5:   pH
 DFL .                8.4:   Fluid loss
 MSS .           FLOWLINE:   Source of sample
 RMS .OHMM          0.635:   Rm
 MST .F                68:   Rm Meas. temp.
 RMF .OHMM          0.483:   Rmf
 MFST.F                68:   Rmf Meas. temp.
 MFSS.               MEAS:   Source Rmf.
 RMC .OHMM          0.789:   Rmc
 MCST.F                68:   Rmc Meas. temp.
 MCSS.               MEAS:   Source Rmc.
 RMB .OHMM           0.26:   Rm. at BHT
 BHT .F               166:   BHT.
 TCS .HRS               6:   Time Circ. stopped
 MRT .F               166:   Maximum recorded temp.
 LUN .            HL-6530:   Logging unit number
 LUL .             CASPER:   Logging unit location
 ENGI.        VERN RAUTIO:   Recorded By
 WITN. LORRAINE LAFRENIERE:   Witnessed by
 ORIG.           5" PRINT:   Origin of data
 UWI .     49025227700000:   Unique Well ID
 DICO. A2D TECHNOLOGIES, INC.:   Digitizing Company
~OTHER INFORMATION
~A  DEPTH     CALD       ZDEN       ZCOR       TEND        GRD        CNC        SPR         RD         RS
# ...
  478.0000  -999.2500  -999.2500  -999.2500  -999.2500    49.0000  -999.2500  -999.2500  -999.2500  -999.2500
  478.5000  -999.2500  -999.2500  -999.2500  -999.2500    48.4079  -999.2500  -999.2500  -999.2500  -999.2500
  479.0000  -999.2500  -999.2500  -999.2500  -999.2500    47.8119  -999.2500  -999.2500  -999.2500  -999.2500
  479.5000  -999.2500  -999.2500  -999.2500  -999.2500    47.8012  -999.2500  -999.2500  -999.2500  -999.2500
  480.0000  -999.2500  -999.2500  -999.2500  -999.2500    48.4354  -999.2500  -999.2500  -999.2500  -999.2500
  480.5000  -999.2500  -999.2500  -999.2500  -999.2500    49.3475  -999.2500  -999.2500  -999.2500  -999.2500
  481.0000  -999.2500  -999.2500  -999.2500  -999.2500    50.2596  -999.2500  -999.2500  -999.2500  -999.2500
  481.5000  -999.2500  -999.2500  -999.2500  -999.2500    51.1717  -999.2500  -999.2500  -999.2500  -999.2500
  482.0000  -999.2500  -999.2500  -999.2500  -999.2500    49.9774  -999.2500  -999.2500  -999.2500  -999.2500
  482.5000  -999.2500  -999.2500  -999.2500  -999.2500    49.0823  -999.2500  -999.2500  -999.2500  -999.2500
  483.0000  -999.2500  -999.2500  -999.2500  -999.2500    48.7874  -999.2500  -999.2500  -999.2500  -999.2500
  483.5000  -999.2500  -999.2500  -999.2500  -999.2500    50.0302  -999.2500  -999.2500  -999.2500  -999.2500
  484.0000  -999.2500  -999.2500  -999.2500  -999.2500    52.7242  -999.2500  -999.2500  -999.2500  -999.2500
  484.5000  -999.2500  -999.2500  -999.2500  -999.2500    52.7327  -999.2500  -999.2500  -999.2500  -999.2500
  485.0000  -999.2500  -999.2500  -999.2500  -999.2500    51.8376  -999.2500  -999.2500  -999.2500  -999.2500
  485.5000  -999.2500  -999.2500  -999.2500  -999.2500    51.2436  -999.2500  -999.2500  -999.2500  -999.2500
  486.0000  -999.2500  -999.2500  -999.2500  -999.2500    52.4590  -999.2500  -999.2500  -999.2500  -999.2500
  486.5000  -999.2500  -999.2500  -999.2500  -999.2500    53.0699  -999.2500  -999.2500  -999.2500  -999.2500
  487.0000  -999.2500  -999.2500  -999.2500  -999.2500    52.7771  -999.2500  -999.2500  -999.2500  -999.2500
  487.5000  -999.2500  -999.2500  -999.2500  -999.2500    52.4844  -999.2500  -999.2500  -999.2500  -999.2500
  488.0000  -999.2500  -999.2500  -999.2500  -999.2500    51.8905  -999.2500  -999.2500  -999.2500  -999.2500
  488.5000  -999.2500  -999.2500  -999.2500  -999.2500    55.2143  -999.2500  -999.2500  -999.2500  -999.2500
  489.0000  -999.2500  -999.2500  -999.2500  -999.2500    56.1265  -999.2500  -999.2500  -999.2500  -999.2500
  489.5000  -999.2500  -999.2500  -999.2500  -999.2500    55.2333     0.4711  -999.2500  -999.2500  -999.2500
  490.0000  -999.2500  -999.2500  -999.2500  -999.2500    54.9385     0.4681  -999.2500  -999.2500  -999.2500
  490.5000  -999.2500  -999.2500  -999.2500  -999.2500    54.6476     0.4672  -999.2500     0.5860  -999.2500
  491.0000  -999.2500  -999.2500  -999.2500  -999.2500    54.6566     0.4744  -999.2500     0.6456  -999.2500
  491.5000  -999.2500  -999.2500  -999.2500  -999.2500    54.9681     0.4796  -999.2500     1.0791  -999.2500
  492.0000  -999.2500  -999.2500  -999.2500  -999.2500    55.5790     0.4841  -999.2500     2.2372  -999.2500
  492.5000  -999.2500  -999.2500  -999.2500  -999.2500    56.1899     0.4844  -999.2500     5.0061     3.4769
  493.0000  -999.2500  -999.2500  -999.2500  -999.2500    55.2968     0.4844  -999.2500     8.9697     7.9792
  493.5000  -999.2500  -999.2500  -999.2500  -999.2500    53.7993     0.4853  -999.2500     3.9236     3.6805
  494.0000  -999.2500  -999.2500  -999.2500  -999.2500    53.8077     0.4817  -999.2500     0.2290     0.7372
  494.5000  -999.2500  -999.2500  -999.2500  -999.2500    53.8163     0.4591  -999.2500     0.2034     0.2003
  495.0000  -999.2500  -999.2500  -999.2500  -999.2500    52.9232     0.4420  -999.2500     0.2019     0.1997
  495.5000  -999.2500  -999.2500  -999.2500  -999.2500    49.3172     0.4374  -999.2500     0.1977     0.1991
  496.0000     9.0362     2.2584     0.0395   -45.8321    46.9160     0.4481   -57.6109     0.2149     0.1984
  496.5000     9.1875     2.3464    -0.0552   -45.8356    49.8674     0.4567   -60.1757     0.2758     0.1978
  497.0000     9.3734     2.3562    -0.2356   -44.3939    60.1881     0.4368   -63.9473     0.2350     2.1126
  497.5000     9.5204     2.3382    -0.2506   -30.6393    66.5218     0.4074   -68.4729     4.2551     7.7785
  498.0000     9.6266     2.3345     0.0697   -16.8848    71.9520     0.3938   -76.7693 107907.5547     3.8056
  498.5000     9.5972     2.3465     0.1555    -5.9761    74.6713     0.3959   -81.8605 39859.8750     0.2174
  499.0000     9.5226     2.3563     0.1601    -5.9840    71.6698     0.3959   -86.5748     3.3807  -999.2500
  499.5000     9.5385     2.3985     0.1481   -15.8214    70.4735     0.3923   -88.5363  -999.2500  -999.2500
  500.0000     9.5543     2.4414     0.0639   -34.0240    70.7831     0.3797   -89.8944  -999.2500  -999.2500
  500.5000     9.5700     2.4549     0.0339   -45.8167    76.5088     0.3220   -90.1970  -999.2500  -999.2500
  501.0000     9.5860     2.4497     0.0414   -45.8167    80.7280     0.3156   -89.5943  -999.2500  -999.2500
  501.5000     9.5867     2.4482     0.0490   -45.8167    84.4053     0.3183   -88.9917  -999.2500  -999.2500
  502.0000     9.5874     2.4482     0.0521   -45.8167    88.8659     0.3196   -88.3891  -999.2500  -999.2500
  502.5000     9.5881     2.4588     0.0461   -45.8167    89.1688     0.3103   -88.6917  -999.2500  -999.2500
  503.0000     9.5589     2.4889     0.0341   -45.8167    87.0634     0.2967   -88.6924  -999.2500  -999.2500
  503.5000     9.5596     2.5220     0.0281   -41.5860    86.1487     0.2838   -89.1518  -999.2500  -999.2500
  504.0000     9.5754     2.5251     0.0282   -36.5775    87.6711     0.2811   -89.5989  -999.2500  -999.2500
  504.5000     9.6062     2.5176     0.0297   -31.5690    89.1795     0.2829   -89.9013  -999.2500  -999.2500
  505.0000     9.6522     2.5116     0.0448   -26.5604    90.6879     0.2862   -90.2036  -999.2500  -999.2500
  505.5000     9.6831     2.5063     0.0509   -22.9533    91.5939     0.2887   -90.8078 38692.6133  -999.2500
  506.0000     9.7139     2.5074     0.0359   -19.5605    91.2956     0.2896   -91.1102  7105.8794  -999.2500
  506.5000     9.7297     2.5252     0.0284   -16.1676    86.7799     0.2812   -91.5634    21.2977  -999.2500
  507.0000     9.7306     2.5290     0.0254   -12.7747    86.1793     0.2782   -92.0166  -999.2500  -999.2500
  507.5000     9.7463     2.5298     0.0300    -9.3818    87.6883     0.2809   -92.3191  -999.2500  -999.2500
  508.0000     9.7470     2.5275     0.0346    -5.9761    87.3900     0.2806   -92.6215  -999.2500  -999.2500
  508.5000     9.7628     2.5268     0.0377   -15.9363    87.0906     0.2791   -92.9238  -999.2500  -999.2500
  509.0000     9.7637     2.5269     0.0422   -15.9363    87.9971     0.2785   -93.2264  -999.2500  -999.2500
  509.5000     9.7644     2.5261     0.0437   -25.8964    89.2043     0.2785   -93.5287  -999.2500  -999.2500
  510.0000     9.7651     2.5262     0.0423   -35.8566    91.3157     0.2801   -93.8311  -999.2500  -999.2500
  510.5000     9.7658     2.5247     0.0363   -35.8566    91.9205     0.2827   -94.1335  -999.2500  -999.2500
  511.0000     9.7515     2.5172     0.0378   -45.8167    91.3204     0.2837   -94.1343  -999.2500  -999.2500
  511.5000     9.7523     2.5105     0.0379   -45.8167    90.4192     0.2834   -94.1350  -999.2500  -999.2500
  512.0000     9.7531     2.5090     0.0394   -55.7769    89.5185     0.2822   -94.1357  -999.2500  -999.2500
  512.5000     9.7538     2.5075     0.0363   -55.7769    88.3161     0.2810   -94.4383  -999.2500  -999.2500
  513.0000     9.7547     2.5015     0.0245   -55.7769    86.5112     0.2813   -94.4390  -999.2500  -999.2500
  513.5000     9.7252     2.4873     0.0336   -35.8566    84.4052     0.2882   -94.4397  -999.2500  -999.2500
  514.0000     9.7259     2.4775     0.0426   -35.8566    85.3117     0.2957   -94.7422  -999.2500  -999.2500
