~VERSION INFORMATION
 VERS.                2.0:   CWLS LOG ASCII STANDARD - VERSION 2.0
 WRAP.                 NO:   ONE LINE PER DEPTH STEP
~WELL INFORMATION
#MNEM.UNIT      DATA TYPE    INFORMATION
#----------   ------------   ------------------------------
 STRT.F            0.0000:   START DEPTH
 STOP.F         5576.0000:   STOP DEPTH
 STEP.F            0.5000:   STEP LENGTH
 NULL.          -999.2500:   NO VALUE
 COMP.      FLUCOR DANIEL:   COMPANY
 WELL.  FLUCOR "X" #76-10:   WELL
 FLD .          N.P.R. #3:   FIELD
 LOC .      S10 T38N R78W:   LOCATION
 CNTY.            NATRONA:   COUNTY
 STAT.            WYOMING:   STATE
 CTRY. UNITED STATES OF AMERICA:   COUNTRY
 SRVC. ATLAS WIRELINE SERVICES:   SERVICE COMPANY
 DATE.        16-MAR-1995:   LOGDATE
 API .     49025226860000:   API NUMBER
~CURVE INFORMATION
#MNEM.UNIT       API CODE    CURVE DESCRIPTION
#----------   ------------   ------------------------------
 DEPT.F                  :   
 CNC .DEC    42 890 01 00:   NEUTRON POROSITY LIMESTONE
 CALD.IN     45 280 60 00:   CALIPER FROM DENSITY LOG
 ZDEN.G/C3   45 350 01 00:   BULK DENSITY
 ZCOR.G/C3   45 356 01 00:   DENSITY CORRECTION
 RILD.OHMM   07 120 46 00:   INDUCTION LOG DEEP RESISTIVITY
 RILM.OHMM   07 120 44 00:   INDUCTION LOG MEDIUM RESISTIVITY
 RS  .OHMM   11 220 10 00:   RESISTIVITY SHALLOW
 RD  .OHMM   11 220 09 00:   RESISTIVITY DEEP
 GRR .GAPI   07 310 01 00:   GAMMA RAY
 TENR.LBS    07 635 01 00:   TENSION FROM RESISTIVITY
~PARAMETER INFORMATION
#MNEM.UNIT          VALUE    DESCRIPTION
#----------   ------------   ------------------------------
 EKB .F         5191.0000:   Kelly bushing
 EGL .F         5101.0000:   Ground level
 EDF .F         5190.0000:   Drilling floor
 TD  .F         5582.0000:   Total depth
 CLNT.            A2DTECH:   Client Code
 SL  . 1896' FSL & 832' FEL:   Surface Location
 PD  .                 GL:   Permanent Datum
 EPD .F              5181:   Elevation Permanent Datum
 LMF .                 KB:   Log Measured From
 DMF .                 KB:   Drilling Measured From
 DAPD.F                10:   Feet Above Permanent Datum
 DATE.        16-MAR-1995:   Date Logged [DD-MMM-YYYY]
 DD  .F              5582:   Depth driller
 DL  .F              5578:   Depth logger
 BLI .F              5566:   Bottom log interval
 TLI .F               518:   Top log interval
 CS1 .IN            8.625:   Casing size
 CBD1.      8.625" @ 519':   Casing driller 1
 CBL1.F               518:   Casing logger 1
 BS1 .IN             8.75:   Bit size
 BSD1.F              5582:   Depth drilled with bit1
 DFT .               LSND:   Type fluid in hole
 DFD .               10.1:   Density
 DFV .                 52:   Viscosity
 DFPH.                9.5:   pH
 DFL .                7.2:   Fluid loss
 MSS .           FLOWLINE:   Source of sample
 RMS .OHMM          0.536:   Rm
 MST .F                70:   Rm Meas. temp.
 RMF .OHMM          0.415:   Rmf
 MFST.F                70:   Rmf Meas. temp.
 MFSS.               MEAS:   Source Rmf.
 RMC .OHMM          0.646:   Rmc
 MCST.F                70:   Rmc Meas. temp.
 MCSS.               MEAS:   Source Rmc.
 RMB .OHMM          0.228:   Rm. at BHT
 BHT .F               165:   BHT.
 TCS .HRS             6.5:   Time Circ. stopped
 MRT .F               165:   Maximum recorded temp.
 LUN .            HL-6530:   Logging unit number
 LUL .             CASPER:   Logging unit location
 ENGI.      PAT RASMUSSEN:   Recorded By
 WITN.        GARY STRONG:   Witnessed by
 ORIG.           5" PRINT:   Origin of data
 UWI .     49025226860000:   Unique Well ID
 DICO. A2D TECHNOLOGIES, INC.:   Digitizing Company
~OTHER INFORMATION
~A  DEPTH      CNC       CALD       ZDEN       ZCOR       RILD       RILM         RS         RD        GRR       TENR
# ...
 2847.5000     0.2377     9.5574     2.5146     0.0002  -999.2500  -999.2500     8.0540    10.2067   111.8485   -48.4951
 2848.0000     0.2368     9.5578     2.5176    -0.0016  -999.2500  -999.2500     7.9400    10.0608   107.9019   -40.6185
 2848.5000     0.2361     9.5582     2.5183    -0.0046  -999.2500  -999.2500     7.9368     9.9179   105.7749   -17.7759
 2849.0000     0.2328     9.5587     2.5137    -0.0062  -999.2500  -999.2500     7.9342     9.9140   106.9812   -17.4898
 2849.5000     0.2265     9.5591     2.5114    -0.0048  -999.2500  -999.2500     7.9876    10.1191   110.0058   -24.7222
 2850.0000     0.2177     9.5595     2.5068    -0.0064  -999.2500  -999.2500     8.2669    10.4475   110.6061   -46.9752
 2850.5000     0.2110     9.5601     2.5022    -0.0089  -999.2500  -999.2500     8.6759    10.9146   109.0853   -46.6015
 2851.0000     0.2046     9.5609     2.4984    -0.0112  -999.2500  -999.2500     9.7618    12.1091   106.9594   -46.2278
 2851.5000     0.1974     9.5617     2.4931    -0.0067  -999.2500  -999.2500    10.6082    14.1061   100.5383   -45.8541
 2852.0000     0.1893     9.5625     2.4908    -0.0131  -999.2500  -999.2500    13.2487    16.4325    91.4941   -45.4804
 2852.5000     0.1808     9.5632     2.4990    -0.0312  -999.2500  -999.2500    16.2729    20.3153    80.2772   -45.1068
 2853.0000     0.1766     9.5640     2.5013    -0.0434  -999.2500  -999.2500    18.1067    25.6257    73.6057   -44.7331
 2853.5000     0.1759     9.5648     2.4906    -0.0556  -999.2500  -999.2500    16.7659    25.0867    68.4494   -44.3594
 2854.0000     0.1865     9.5656     2.4732    -0.0617  -999.2500  -999.2500    13.8903    22.2800    66.6265   -43.9217
 2854.5000     0.2007     9.5664     2.4375    -0.0542  -999.2500  -999.2500    12.0822    17.4567    70.8629   -43.5640
 2855.0000     0.2166     9.5672     2.4087    -0.0419  -999.2500  -999.2500    10.4357    14.8698    78.1309   -43.2063
 2855.5000     0.2232     9.5669     2.3928    -0.0303  -999.2500  -999.2500    10.1460    13.1146    88.1261   -35.3297
 2856.0000     0.2244     9.5648     2.3814    -0.0153  -999.2500  -999.2500    10.2135    12.9284    88.4244   -27.4436
 2856.5000     0.2238     9.5627     2.3745    -0.0063  -999.2500  -999.2500    10.4982    13.2880    85.9941   -19.4872
 2857.0000     0.2214     9.5605     2.3684    -0.0427  -999.2500  -999.2500    11.1779    13.8476    79.9288   -11.6107
 2857.5000     0.2148     9.5584     2.3716    -0.0762  -999.2500  -999.2500    12.3106    15.0473    69.6210   -18.8610
 2858.0000     0.2063     9.5563     2.3782    -0.0807  -999.2500  -999.2500    13.6600    17.0462    62.5571   -18.4140
 2858.5000     0.2003     9.5541     2.3797    -0.0687  -999.2500  -999.2500    13.5609    17.8899    54.4599   -10.5263
 2859.0000     0.2009     9.5520     2.3819    -0.0733  -999.2500  -999.2500    13.5564    18.1334    58.0903    -2.5713
 2859.5000     0.2051     9.5499     2.3909    -0.0825  -999.2500  -999.2500    13.2611    18.5086    63.2370     5.3053
 2860.0000     0.2166     9.5477     2.4015    -0.1038  -999.2500  -999.2500    13.0833    18.7588    62.0201     5.6630
 2860.5000     0.2190     9.5456     2.4075    -0.1084  -999.2500  -999.2500    13.1713    18.7515    56.8627    -9.0169
 2861.0000     0.2193     9.5441     2.3984    -0.0874  -999.2500  -999.2500    13.0746    18.7441    54.4336    -8.6466
 2861.5000     0.2200     9.5437     2.3862    -0.0799  -999.2500  -999.2500    12.9797    18.7366    52.6107   -15.8202
 2862.0000     0.2206     9.5433     2.3612    -0.0770  -999.2500  -999.2500    12.9744    18.7277    51.6968   -15.3730
 2862.5000     0.2209     9.5429     2.3498    -0.0968  -999.2500  -999.2500    13.0165    18.8511    51.9951   -15.0153
 2863.0000     0.2200     9.5426     2.3475    -0.1059  -999.2500  -999.2500    13.1914    18.9754    51.3830   -14.6575
 2863.5000     0.2151     9.5422     2.3475    -0.1106  -999.2500  -999.2500    13.3701    19.5031    50.7722   -14.2857
 2864.0000     0.2076     9.5418     2.3406    -0.1062  -999.2500  -999.2500    13.3625    19.9066    49.5553   -21.4609
 2864.5000     0.2021     9.5414     2.3216    -0.1047  -999.2500  -999.2500    12.9899    19.5689    48.6352   -28.6217
 2865.0000     0.2015     9.5411     2.3155    -0.1018  -999.2500  -999.2500    12.4532    18.9437    46.5143   -35.7828
 2865.5000     0.2037     9.5407     2.3132    -0.1110  -999.2500  -999.2500    11.5921    17.6622    44.6913   -35.3356
 2866.0000     0.2070     9.5403     2.3079    -0.1310  -999.2500  -999.2500    10.5276    16.4689    41.9593   -34.8886
 2866.5000     0.2143     9.5399     2.2972    -0.1460  -999.2500  -999.2500    10.2341    15.3562    38.6211   -34.5306
 2867.0000     0.2188     9.5396     2.2889    -0.1340  -999.2500  -999.2500    10.3008    15.1366    38.9182   -34.1729
 2867.5000     0.2197     9.5392     2.2866    -0.1069  -999.2500  -999.2500    10.2950    15.1307    38.0043   -33.8152
 2868.0000     0.2243     9.5388     2.3039    -0.0904  -999.2500  -999.2500    10.2903    14.9158    36.1814   -33.4574
 2868.5000     0.2367     9.5384     2.3047    -0.0769  -999.2500  -999.2500    10.2143    14.7040    36.1354   -33.0102
 2869.0000     0.2427     9.5228     2.3008    -0.0588  -999.2500  -999.2500    10.0896    14.4938    38.3217   -32.6525
 2869.5000     0.2458     9.5223     2.2978    -0.0393  -999.2500  -999.2500     9.9739    14.1889    39.8034   -32.2948
 2870.0000     0.2448     9.5219     2.3053    -0.0167  -999.2500  -999.2500     9.7826    13.6985    40.4035   -39.5453
 2870.5000     0.2445     9.5063     2.3136    -0.0017  -999.2500  -999.2500     9.5095    13.3161    40.3987   -46.6169
 2871.0000     0.2449     9.5210     2.3151     0.0088  -999.2500  -999.2500     9.2433    13.1270    43.4343   -53.7780
 2871.5000     0.2473     9.5357     2.3044     0.0147  -999.2500  -999.2500     9.1114    12.7618    44.3286   -53.3308
 2872.0000     0.2503     9.5503     2.3014     0.0161  -999.2500  -999.2500     8.9815    12.4067    43.4135   -45.4542
 2872.5000     0.2515     9.5347     2.3104     0.0145  -999.2500  -999.2500     8.9773    12.3147    41.5906   -37.5775
 2873.0000     0.2497     9.5343     2.3187     0.0129  -999.2500  -999.2500     8.9723    12.3099    41.2828   -29.6993
 2873.5000     0.2519     9.5187     2.3247     0.0128  -999.2500  -999.2500     9.0949    12.3922    41.8828   -29.2538
 2874.0000     0.2579     9.5032     2.3302     0.0066  -999.2500  -999.2500     9.3462    12.4818    42.7872   -45.5889
 2874.5000     0.2509     9.5027     2.3481     0.0132  -999.2500  -999.2500     9.6044    12.9078    43.6927   -58.6135
 2875.0000     0.2195     9.5022     2.3810     0.0412  -999.2500  -999.2500    10.0092    13.4527    43.3837   -58.2558
 2875.5000     0.1863     9.5170     2.4519     0.0486  -999.2500  -999.2500    10.6511    14.8230    42.7727   -57.8947
 2876.0000     0.1604     9.5317     2.5427     0.0546  -999.2500  -999.2500    12.2031    17.7531    41.8578   -42.4132
 2876.5000     0.1352     9.5463     2.5760     0.0469  -999.2500  -999.2500    16.9577    20.1134    37.9136   -34.5367
 2877.0000     0.1150     9.5458     2.5730     0.0301  -999.2500  -999.2500    25.0238    25.8273    36.6967   -34.1790
 2877.5000     0.1091     9.5605     2.5186     0.0119  -999.2500  -999.2500    27.5712    42.6418    33.6616   -33.8212
 2878.0000     0.1127     9.5449     2.4160    -0.0018  -999.2500  -999.2500    22.6784    37.5698    34.5648   -40.9774
 2878.5000     0.1482     9.4991     2.3372     0.0163  -999.2500  -999.2500    16.0088    22.2886    36.6812   -48.1432
 2879.0000     0.1855     9.4835     2.3243     0.0237  -999.2500  -999.2500    11.2223    16.0665    39.7067   -47.6962
 2879.5000     0.2150     9.4831     2.3258     0.0236  -999.2500  -999.2500     9.2899    13.2165    42.7322   -47.3382
 2880.0000     0.2406     9.4978     2.3311     0.0175  -999.2500  -999.2500     8.7881    12.5834    45.7566   -46.9805
 2880.5000     0.2452     9.4972     2.3242     0.0098  -999.2500  -999.2500     8.6628    12.4047    50.6003   -54.1416
