~VERSION INFORMATION
 VERS.                2.0:   CWLS LOG ASCII STANDARD - VERSION 2.0
 WRAP.                 NO:   ONE LINE PER DEPTH STEP
~WELL INFORMATION
#MNEM.UNIT      DATA TYPE    INFORMATION
#----------   ------------   ------------------------------
 STRT.F          190.0000:   START DEPTH
 STOP.F         2998.5000:   STOP DEPTH
 STEP.F            0.5000:   STEP LENGTH
 NULL.          -999.2500:   NO VALUE
 COMP.    FENIX & SCISSON:   COMPANY
 WELL.   FENIX "A" #52-28:   WELL
 FLD .        TEAPOT DOME:   FIELD
 LOC .      S28 T39N R78W:   LOCATION
 CNTY.            NATRONA:   COUNTY
 STAT.            WYOMING:   STATE
 CTRY. UNITED STATES OF AMERICA:   COUNTRY
 SRVC.           BIRDWELL:   SERVICE COMPANY
 DATE.        14-AUG-1977:   LOGDATE
 API .     49025104130000:   API NUMBER
~CURVE INFORMATION
#MNEM.UNIT       API CODE    CURVE DESCRIPTION
#----------   ------------   ------------------------------
 DEPT.F                  :   
 SPR .MV     05 010 01 00:   SPONTANEOUS POTENTIAL FROM RES.
 SN  .OHMM   05 040 16 00:   SHORT NORMAL 16"
 ILD .OHMM   05 120 46 00:   INDUCTION LOG DEEP
 GRD .GAPI   45 310 01 00:   GAMMA RAY FROM DENSITY LOG
 CALD.IN     45 280 60 00:   CALIPER FROM DENSITY LOG
 RHOB.G/C3   45 350 01 00:   BULK DENSITY
 CORR.G/C3   45 356 01 00:   DENSITY CORRECTION
~PARAMETER INFORMATION
#MNEM.UNIT          VALUE    DESCRIPTION
#----------   ------------   ------------------------------
 EKB .F         5026.0000:   Kelly bushing
 EGL .F         5016.0000:   Ground level
 EDF .F            0.0000:   Drilling floor
 TD  .F         3000.0000:   Total depth
 DATE.        14-AUG-1977:   Date logged
 CLNT.            A2DTECH:   Client Code
 SL  . 990' FNL & 2310' FEL:   Surface Location
 PD  .                 GL:   Permanent Datum
 EPD .F              5016:   Elevation Permanent Datum
 LMF .                 KB:   Log Measured From
 DMF .                 KB:   Drilling Measured From
 DAPD.F                10:   Feet Above Permanent Datum
 DD  .F              3000:   Depth driller
 DL  .F              3000:   Depth logger
 BLI .F              2994:   Bottom log interval
 TLI .F               214:   Top log interval
 CS1 .IN            8.625:   Casing size
 CBD1.      8.625" @ 214':   Casing driller 1
 CBL1.F               212:   Casing logger 1
 BS1 .IN            7.875:   Bit size
 BSD1.F              3000:   Depth drilled with bit1
 DFT .                KCL:   Type fluid in hole
 DFD .                8.8:   Density
 DFV .                 30:   Viscosity
 DFPH.               10.5:   pH
 DFL .               10.4:   Fluid loss
 MSS .           FLOWLINE:   Source of sample
 RMS .OHMM           0.13:   Rm
 MST .F                82:   Rm Meas. temp.
 RMF .OHMM           0.12:   Rmf
 MFST.F                72:   Rmf Meas. temp.
 RMC .OHMM           0.16:   Rmc
 MCST.F                72:   Rmc Meas. temp.
 MFSS.               MEAS:   Source Rmf.
 MCSS.               MEAS:   Source Rmc.
 TCS .HRS               4:   Time Circ. stopped
 LUN .               2958:   Logging unit number
 LUL .             CASPER:   Logging unit location
 ENGI.                LAW:   Recorded By
 WITN.         PETTINGILL:   Witnessed by
 ORIG.           5" PRINT:   Origin of data
 UWI .     49025104130000:   Unique Well ID
 DICO. A2D TECHNOLOGIES, INC.:   Digitizing Company
~OTHER INFORMATION
~A   DEPT      SPR         SN        ILD         GRD      CALD       RHOB       CORR   
# ...
 1100.0000   -24.1580     6.0880     8.1400   113.6210     9.0810     2.5320     0.0340
 1100.5000   -24.0320     6.0890     8.1350   113.3690     9.0810     2.5350     0.0370
 1101.0000   -22.9780     6.0910     8.1290   112.9530     9.0810     2.5350     0.0370
 1101.5000   -22.7840     6.0920     8.1240   112.0590     9.0810     2.5330     0.0370
 1102.0000   -22.6360     6.0940     8.1190   115.4180     9.0810     2.5410     0.0320
 1102.5000   -22.4840     6.0950     8.1130   115.4010     9.0810     2.5470     0.0230
 1103.0000   -22.3370     6.0970     8.1080   114.2700     9.0810     2.5200     0.0180
 1103.5000   -22.1480     6.0980     8.1010   111.5600     9.0810     2.5180     0.0180
 1104.0000   -21.9120     6.1000     8.1230   108.5190     9.0810     2.5180     0.0190
 1104.5000   -21.8050     6.1010     8.1550   107.8740     9.0810     2.5250     0.0210
 1105.0000   -22.8180     6.1030     8.1860   107.2690     9.0810     2.5260     0.0280
 1105.5000   -23.5400     6.1040     8.2180   107.8460     9.0810     2.5400     0.0270
 1106.0000   -23.5610     6.1050     8.2500   110.7730     9.0810     2.5390     0.0240
 1106.5000   -23.5940     6.1070     8.2820   113.6120     9.0810     2.5390     0.0290
 1107.0000   -23.6290     6.1080     8.3140   115.9300     9.0810     2.5390     0.0320
 1107.5000   -23.6600     6.1100     8.3390   114.8270     9.0810     2.5390     0.0350
 1108.0000   -23.7000     6.1130     8.3620   113.6100     9.0810     2.5420     0.0370
 1108.5000   -23.8480     6.1090     8.3840   113.8840     9.0810     2.5450     0.0370
 1109.0000   -24.5010     6.2280     8.4530   119.2450     9.0810     2.5490     0.0370
 1109.5000   -30.1810     6.3360     8.6510   120.6240     9.0810     2.5520     0.0370
 1110.0000   -30.3700     6.4450     8.8500   119.7570     9.0810     2.5510     0.0300
 1110.5000   -30.0880     6.5530     9.0480   117.9260     9.0810     2.5380     0.0270
 1111.0000   -29.9620     6.6330     9.1160   117.6590     9.0810     2.5390     0.0270
 1111.5000   -29.8770     6.6330     9.1160   117.3700     9.0810     2.5420     0.0210
 1112.0000   -29.7940     6.6330     9.1160   117.0840     9.0810     2.5440     0.0180
 1112.5000   -29.7110     6.6340     9.1160   116.7970     9.0810     2.5390     0.0190
 1113.0000   -29.6280     6.6330     9.1160   116.4630     9.0810     2.5320     0.0190
 1113.5000   -29.5440     6.6330     9.1160   115.9000     9.0810     2.5310     0.0280
 1114.0000   -29.4610     6.6330     9.1160   113.0870     9.0810     2.5310     0.0340
 1114.5000   -29.3770     6.6330     9.1160   111.1330     9.0810     2.5350     0.0320
 1115.0000   -29.2940     6.6330     9.1160   111.4300     9.0800     2.5370     0.0280
 1115.5000   -29.2100     6.6330     9.1160   112.9250     9.0780     2.5310     0.0290
 1116.0000   -29.1250     6.6330     9.1490   112.8450     9.0770     2.5330     0.0290
 1116.5000   -29.0420     6.6330     9.2000   112.3240     9.0750     2.5340     0.0250
 1117.0000   -29.2880     6.6330     9.2510   111.5650     9.0730     2.5300     0.0150
 1117.5000   -29.5690     6.6330     9.3020   111.8270     9.0720     2.5200     0.0140
 1118.0000   -29.8250     6.6330     9.3530   110.7750     9.0700     2.5170     0.0210
 1118.5000   -29.9360     6.6330     9.4040   111.1750     9.0680     2.5280     0.0240
 1119.0000   -30.0390     6.6330     9.4530   111.4330     9.0670     2.5400     0.0220
 1119.5000   -30.1470     6.6330     9.4940   108.6770     9.0650     2.5420     0.0210
 1120.0000   -30.3650     6.6330     9.5330   114.8260     9.0640     2.5370     0.0210
 1120.5000   -30.9270     6.6330     9.5730   116.7380     9.0620     2.5330     0.0250
 1121.0000   -31.3760     6.6330     9.6120   114.8610     9.0600     2.5340     0.0300
 1121.5000   -31.7270     6.6330     9.6520   115.4880     9.0590     2.5340     0.0350
 1122.0000   -32.0920     6.6330     9.7150   112.4960     9.0570     2.5350     0.0370
 1122.5000   -32.1300     6.6330     9.6880   113.5910     9.0560     2.5340     0.0350
 1123.0000   -32.0620     6.6330     9.6250   112.8410     9.0540     2.5340     0.0320
 1123.5000   -31.9610     6.6330     9.5620   110.8840     9.0520     2.5290     0.0280
 1124.0000   -31.3290     6.6330     9.4990   110.5020     9.0510     2.5250     0.0270
 1124.5000   -30.7190     6.6330     9.4350   111.6750     9.0490     2.5250     0.0270
 1125.0000   -30.3990     6.6330     9.3720   112.4670     9.0480     2.5230     0.0240
 1125.5000   -30.3660     6.6330     9.3090   110.4080     9.0460     2.5160     0.0200
 1126.0000   -30.3310     6.6330     9.2620   108.5200     9.0440     2.5140     0.0170
 1126.5000   -30.2980     6.6330     9.2250   109.3810     9.0430     2.5160     0.0150
 1127.0000   -30.2660     6.6330     9.1890   111.5230     9.0410     2.5110     0.0160
 1127.5000   -30.2330     6.6330     9.1530   112.3460     9.0390     2.5150     0.0210
 1128.0000   -30.2170     6.6330     9.1160   109.1730     9.0380     2.5260     0.0290
 1128.5000   -30.2160     6.6330     9.0660   110.5810     9.0360     2.5340     0.0350
 1129.0000   -30.2140     6.6340     9.0150   111.9970     9.0350     2.5380     0.0340
 1129.5000   -30.2280     6.6350     8.9640   112.0220     9.0330     2.5410     0.0320
 1130.0000   -30.9730     6.5850     8.9130   113.5580     9.0310     2.5400     0.0300
 1130.5000   -31.8890     6.5230     8.8500   114.7190     9.0300     2.5370     0.0290
 1131.0000   -32.6710     6.4620     8.7300   112.1560     9.0280     2.5310     0.0290
 1131.5000   -32.7480     6.4000     8.6110   109.6960     9.0270     2.5310     0.0270
 1132.0000   -32.3070     6.3380     8.4920   109.8610     9.0250     2.5330     0.0250
 1132.5000   -31.8750     6.2760     8.3720   112.9950     9.0230     2.5360     0.0200
 1133.0000   -31.4270     6.2240     8.2490   114.0070     9.0220     2.5360     0.0180
 1133.5000   -31.2210     6.2200     8.2280   112.3170     9.0220     2.5360     0.0170
 1134.0000   -31.2570     6.2160     8.2060   115.4550     9.0230     2.5350     0.0190
 1134.5000   -31.2920     6.2120     8.1750   115.0930     9.0230     2.5390     0.0270
 1135.0000   -31.3300     6.2080     8.1820   115.0850     9.0240     2.5450     0.0340
 1135.5000   -31.3710     6.2040     8.1950   116.8740     9.0240     2.5510     0.0350
 1136.0000   -31.3600     6.2000     8.2090   115.4930     9.0250     2.5520     0.0350
 1136.5000   -30.5400     6.1960     8.2220   115.1340     9.0250     2.5500     0.0350
 1137.0000   -29.8240     6.1920     8.2360   116.9350     9.0260     2.5470     0.0360
 1137.5000   -29.2290     6.1880     8.2490   116.7690     9.0260     2.5480     0.0360
 1138.0000   -29.5710     6.1840     8.2620   113.4600     9.0270     2.5490     0.0370
 1138.5000   -29.8820     6.1800     8.2760   110.4250     9.0270     2.5490     0.0330
 1139.0000   -30.2030     6.1760     8.2890   109.0990     9.0280     2.5380     0.0290
 1139.5000   -30.8450     6.1720     8.3020   108.5450     9.0290     2.5350     0.0280
 1140.0000   -32.5400     6.1680     8.3160   109.0640     9.0290     2.5350     0.0270
 1140.5000   -33.9370     6.1640     8.3240   109.5200     9.0300     2.5350     0.0260
 1141.0000   -34.7100     6.1600     8.3140   109.9590     9.0300     2.5230     0.0220
 1141.5000   -34.9070     6.1560     8.3070   110.4300     9.0310     2.5240     0.0190
 1142.0000   -35.0750     6.1520     8.2990   111.5160     9.0310     2.5190     0.0180
 1142.5000   -35.2460     6.1480     8.2910   112.6840     9.0320     2.5170     0.0190
 1143.0000   -35.2860     6.1440     8.2840   113.9140     9.0320     2.5240     0.0200
 1143.5000   -35.1910     6.1400     8.2760   115.3390     9.0330     2.5310     0.0210
 1144.0000   -35.0970     6.1360     8.2680   113.5880     9.0330     2.5310     0.0230
 1144.5000   -35.0010     6.1320     8.2610   113.5870     9.0340     2.5280     0.0260
 1145.0000   -34.9060     6.1280     8.2490   114.8700     9.0340     2.5330     0.0280
