~VERSION INFORMATION
 VERS.                2.0:   CWLS LOG ASCII STANDARD - VERSION 2.0
 WRAP.                 NO:   ONE LINE PER DEPTH STEP
~WELL INFORMATION
#MNEM.UNIT      DATA TYPE    INFORMATION
#----------   ------------   ------------------------------
 STRT.F          906.0000:   START DEPTH
 STOP.F         3426.0000:   STOP DEPTH
 STEP.F            0.5000:   STEP LENGTH
 NULL.          -999.2500:   NO VALUE
 COMP.    FENIX & SCISSON:   COMPANY
 WELL. FENIX NPR 3 "AX" #46-11:   WELL
 FLD .                NPR:   FIELD
 LOC .      S11 T38N R78W:   LOCATION
 CNTY.            NATRONA:   COUNTY
 STAT.            WYOMING:   STATE
 CTRY. UNITED STATES OF AMERICA:   COUNTRY
 SRVC.       SCHLUMBERGER:   SERVICE COMPANY
 DATE.        16-MAY-1981:   LOGDATE
 API .     49025108720000:   API NUMBER
~CURVE INFORMATION
#MNEM.UNIT       API CODE    CURVE DESCRIPTION
#----------   ------------   ------------------------------
 DEPT.F                  :   
 SPR .MV     07 010 01 00:   SPONTANEOUS POTENTIAL
 ILD .OHMM   07 120 46 00:   INDUCTION LOG DEEP RESISTIVITY
 SFL .OHMM   07 220 01 00:   SHALLOW FOCUSED LOG RESISTIVITY
 TENR.LBS    07 635 01 00:   TENSION
 ILM .OHMM   07 120 44 00:   INDUCTION LOG MEDIUM RESISTIVITY
 CALD.IN     45 280 60 00:   CALIPER FROM DENSITY LOG
 GRD .GAPI   45 310 01 00:   GAMMA RAY FROM DENSITY LOG
 RHOB.G/C3   45 350 01 00:   BULK DENSITY
 TEND.LBS    45 635 01 00:   TENSION FROM DENSITY LOG
 CORR.G/C3   45 356 01 00:   DENSITY CORRECTION
~PARAMETER INFORMATION
#MNEM.UNIT          VALUE    DESCRIPTION
#----------   ------------   ------------------------------
 EKB .F         5199.0000:   Kelly bushing
 EGL .F         5189.0000:   Ground level
 EDF .F            0.0000:   Drilling floor
 TD  .F         3422.0000:   Total depth
 DATE.        16-MAY-1981:   Date logged
 CLNT.            A2DTECH:   Client Code
 SL  . 1867' FSL & 2100' FWL:   Surface Location
 PD  .                 GL:   Permanent Datum
 EPD .F              5189:   Elevation Permanent Datum
 LMF .                 KB:   Log Measured From
 DMF .                 KB:   Drilling Measured From
 DAPD.F                10:   Feet Above Permanent Datum
 DD  .F              3421:   Depth driller
 DL  .F              3422:   Depth logger
 BLI .F              3416:   Bottom log interval
 TLI .F               926:   Top log interval
 CS1 .IN            8.625:   Casing size
 CBD1.      8.625" @ 925':   Casing driller 1
 CBL1.F               926:   Casing logger 1
 BS1 .IN            7.875:   Bit size
 BSD1.F              3421:   Depth drilled with bit1
 DFT .                FGM:   Type fluid in hole
 DFD .                8.5:   Density
 DFV .                 60:   Viscosity
 DFPH.                  9:   pH
 DFL .                 12:   Fluid loss
 MSS .               PITS:   Source of sample
 RMS .OHMM           1.17:   Rm
 MST .F                73:   Rm Meas. temp.
 RMF .OHMM           1.03:   Rmf
 MFST.F                73:   Rmf Meas. temp.
 MFSS.               MEAS:   Source Rmf.
 RMB .OHMM            .71:   Rm. at BHT
 BHT .F               120:   BHT.
 TCS .HRS            1200:   Time Circ. stopped
 TLAB.HRS            1745:   Time logger at bottom
 MRT .F               120:   Maximum recorded temp.
 LUN .               8133:   Logging unit number
 LUL .               CSPR:   Logging unit location
 ENGI.             TAYLOR:   Recorded By
 WITN.              RIVAS:   Witnessed by
 ORIG.           5" PRINT:   Origin of data
 UWI .     49025108720000:   Unique Well ID
 DICO. A2D TECHNOLOGIES, INC.:   Digitizing Company
~OTHER INFORMATION
~A   DEPT      SPR        ILD        SFL       TENR        ILM       CALD         GRD        RHOB     TEND        CORR  
# ...
 1241.0000   -48.2520     8.7950     9.4800   700.2560     8.0470     9.1520   107.8600     2.4810   693.3480     0.0090
 1241.5000   -48.3170     8.7230     9.2690   700.6200     8.0310     9.1490   106.1480     2.4890   693.0690     0.0050
 1242.0000   -48.3920     8.6510     9.1870   700.9840     8.0140     9.1460   104.4940     2.4980   692.7910     0.0090
 1242.5000   -48.3890     8.5800     9.1150   701.3490     7.9980     9.1440   103.8380     2.5080   692.5120     0.0140
 1243.0000   -48.3140     8.5080     9.0420   701.7130     7.9810     9.1410   105.6990     2.5170   692.2340     0.0190
 1243.5000   -48.2480     8.4360     8.9700   702.0770     7.9650     9.1390   108.3540     2.5200   691.9560     0.0150
 1244.0000   -48.1810     8.3640     8.8980   702.4410     7.9490     9.1360   110.9270     2.5150   691.6770     0.0100
 1244.5000   -48.1130     8.2920     8.8250   702.8050     7.9320     9.1340   113.2870     2.5110   691.3990     0.0060
 1245.0000   -48.0460     8.2210     8.7740   703.1700     7.9160     9.1310   114.0210     2.5120   691.1210     0.0060
 1245.5000   -47.9780     8.1540     8.7990   703.5340     7.8990     9.1280   114.2640     2.5080   690.8420     0.0110
 1246.0000   -47.9100     8.1460     8.8280   703.8980     7.8830     9.1260   112.8090     2.5020   690.5640     0.0160
 1246.5000   -47.8430     8.1390     8.8570   704.2620     7.8670     9.1230   111.1220     2.4980   690.2860     0.0230
 1247.0000   -47.7740     8.1320     8.8860   704.6260     7.8470     9.1210   109.4600     2.5080   690.0070     0.0320
 1247.5000   -47.7090     8.1250     8.9150   704.9910     7.8250     9.1180   108.7140     2.5120   689.7290     0.0410
 1248.0000   -47.6340     8.1180     8.9430   705.3550     7.8020     9.1160   110.7670     2.5050   689.4510     0.0350
 1248.5000   -47.6120     8.1110     8.9720   705.7190     7.7800     9.1150   111.1590     2.4960   689.1720     0.0250
 1249.0000   -47.5890     8.1040     9.0010   706.0830     7.7580     9.1150   108.9450     2.4920   688.8940     0.0140
 1249.5000   -47.5690     8.0970     9.0310   706.4480     7.7360     9.1150   104.2440     2.5000   688.6160     0.0200
 1250.0000   -47.5470     8.0900     9.0620   706.8120     7.7140     9.1150   100.0730     2.5130   688.3370     0.0290
 1250.5000   -47.5260     8.0830     9.0960   707.1760     7.6920     9.1150   100.8910     2.5240   688.0590     0.0400
 1251.0000   -47.5050     8.0760     9.0180   707.5400     7.6700     9.1150   101.9820     2.5250   687.7810     0.0450
 1251.5000   -47.4840     8.0690     8.8670   707.9040     7.6480     9.1140   105.5200     2.5200   687.5020     0.0420
 1252.0000   -47.4630     8.0620     8.6140   708.2690     7.6260     9.1090   109.1620     2.5130   687.2240     0.0300
 1252.5000   -47.4420     8.0550     8.6240   708.6330     7.6040     9.1050   111.5120     2.5060   686.9450     0.0180
 1253.0000   -47.4210     8.0480     8.6560   708.9970     7.5820     9.1010   110.0990     2.5010   686.6670     0.0060
 1253.5000   -47.3990     8.0410     8.6870   709.3610     7.5600     9.0970   108.4080     2.5020   686.3890     0.0010
 1254.0000   -47.3780     8.0340     8.7190   709.7250     7.5380     9.0920   106.6540     2.4940   686.1100     0.0010
 1254.5000   -47.3570     8.0280     8.7500   710.0900     7.5160     9.0880   106.4090     2.4890   685.8320     0.0020
 1255.0000   -47.3360     8.0210     8.7810   710.4540     7.4940     9.0840   110.1690     2.4960   685.5540     0.0040
 1255.5000   -47.3150     8.0120     8.8130   710.8180     7.4720     9.0800   113.5840     2.5030   685.2750     0.0060
 1256.0000   -47.2940     8.0010     8.8440   711.1820     7.4410     9.0750   116.2460     2.5060   684.9970     0.0080
 1256.5000   -47.2730     8.0780     8.8750   711.5460     7.4870     9.0710   115.1710     2.5060   684.7190     0.0100
 1257.0000   -47.2510     8.2220     8.9060   711.9110     7.5720     9.0670   112.0490     2.5090   684.4400     0.0110
 1257.5000   -47.2300     8.4280     8.9340   712.2750     7.7000     9.0630   108.5680     2.5130   684.1620     0.0090
 1258.0000   -47.2090     8.4010     8.9340   712.6390     7.6820     9.0580   105.3730     2.5090   683.8840     0.0030
 1258.5000   -47.1880     8.1990     8.9330   713.0030     7.5540     9.0540   103.7050     2.4980   683.6050    -0.0040
 1259.0000   -47.1670     7.9980     8.9360   713.3670     7.4270     9.0500   105.3630     2.4900   683.3270    -0.0030
 1259.5000   -47.1460     7.7960     8.9360   713.7320     7.3000     9.0450   108.8130     2.4960   683.0490     0.0010
 1260.0000   -47.1250     7.5780     8.8170   714.0960     7.1730     9.0410   110.6400     2.5100   682.7700     0.0040
 1260.5000   -47.1030     7.5780     8.6240   714.4600     7.0430     9.0370   109.5180     2.5230   682.4920     0.0070
 1261.0000   -47.0820     7.6040     8.4310   714.8240     7.0990     9.0330   107.3250     2.5220   682.2140     0.0060
 1261.5000   -47.0610     7.6310     8.3050   715.1880     7.1560     9.0280   106.2330     2.5140   681.9350     0.0040
 1262.0000   -47.0400     7.6570     8.4030   715.5530     7.2140     9.0240   108.4110     2.5030   681.6570     0.0040
 1262.5000   -47.0190     7.6840     8.5070   715.9170     7.2710     9.0200   112.5530     2.4930   681.3780     0.0030
 1263.0000   -46.9980     7.7110     8.6120   716.2810     7.3280     9.0150   116.5390     2.4950   681.1000     0.0090
 1263.5000   -46.9770     7.7370     8.7160   716.6450     7.3860     9.0110   119.8490     2.5020   680.8220     0.0160
 1264.0000   -46.9550     7.7640     8.7740   717.0090     7.4410     9.0070   121.2460     2.5090   680.5430     0.0230
 1264.5000   -46.9340     7.7910     8.7000   717.3740     7.4080     9.0030   122.0980     2.5150   680.2650     0.0270
 1265.0000   -46.9130     7.8180     8.6300   717.7380     7.3770     8.9980   120.8510     2.5220   679.9870     0.0190
 1265.5000   -46.8920     7.8600     8.5600   718.1020     7.3450     8.9940   119.6480     2.5290   679.7080     0.0140
 1266.0000   -46.8710     7.8410     8.4580   718.4660     7.3140     8.9900   118.3610     2.5580   679.4300     0.0210
 1266.5000   -46.8500     7.7850     8.5010   718.8300     7.2830     8.9850   114.3670     2.5800   679.1520     0.0390
 1267.0000   -46.8290     7.7300     8.5780   719.1950     7.2520     8.9810   110.5200     2.5660   678.8730     0.0550
 1267.5000   -46.8070     7.6740     8.6550   719.5590     7.2200     8.9770   107.1310     2.5530   678.5950     0.0540
 1268.0000   -46.7860     7.6180     8.7740   719.9230     7.1890     8.9730   104.4570     2.5440   678.3170     0.0520
 1268.5000   -46.7650     7.5620     8.6000   720.2870     7.1580     8.9710   107.1750     2.5450   678.0380     0.0490
 1269.0000   -46.7440     7.5060     8.2310   720.6510     7.1270     8.9690   111.1730     2.5360   677.7600     0.0470
 1269.5000   -46.7230     7.4510     7.7180   721.0160     7.0950     8.9670   112.7220     2.5240   678.0950     0.0450
 1270.0000   -46.7020     7.3950     7.7660   721.3800     7.0640     8.9650   112.3860     2.5160   678.5620     0.0410
 1270.5000   -46.6810     7.3390     7.8440   721.7440     7.0330     8.9630   113.0260     2.5070   679.0290     0.0300
 1271.0000   -46.6590     7.2840     7.9230   722.1080     7.0010     8.9610   116.2970     2.4990   679.4960     0.0190
 1271.5000   -46.6380     7.2280     8.0060   722.4720     6.9700     8.9590   118.9580     2.4930   679.9630     0.0100
 1272.0000   -46.6170     7.1720     8.0060   722.8370     6.9390     8.9570   120.2570     2.5010   680.4300     0.0140
 1272.5000   -46.5960     7.1170     7.9390   723.2010     6.9080     8.9550   120.2420     2.5160   680.8970     0.0170
 1273.0000   -46.5750     7.0610     7.8800   723.5650     6.8760     8.9530   119.0970     2.5320   681.3640     0.0200
 1273.5000   -46.5540     7.0430     7.8610   723.9290     6.8450     8.9510   118.4620     2.5380   681.8310     0.0200
 1274.0000   -46.5330     7.0430     7.9120   724.2930     6.8140     8.9490   121.6910     2.5370   682.2980     0.0170
