~VERSION INFORMATION
 VERS.                2.0:   CWLS LOG ASCII STANDARD - VERSION 2.0
 WRAP.                 NO:   ONE LINE PER DEPTH STEP
~WELL INFORMATION
#MNEM.UNIT      DATA TYPE    INFORMATION
#----------   ------------   ------------------------------
 STRT.F           29.5000:   START DEPTH
 STOP.F         2719.5000:   STOP DEPTH
 STEP.F            0.5000:   STEP LENGTH
 NULL.          -999.2500:   NO VALUE
 COMP.          INTEX OIL:   COMPANY
 WELL. INTEX NPR 3 "AX" #82-20:   WELL
 FLD .             TEAPOT:   FIELD
 LOC .      S20 T39N R78W:   LOCATION
 CNTY.            NATRONA:   COUNTY
 STAT.            WYOMING:   STATE
 CTRY. UNITED STATES OF AMERICA:   COUNTRY
 SRVC.       SCHLUMBERGER:   SERVICE COMPANY
 DATE.        19-MAY-1956:   LOGDATE
 API .     49025095270000:   API NUMBER
~CURVE INFORMATION
#MNEM.UNIT       API CODE    CURVE DESCRIPTION
#----------   ------------   ------------------------------
 DEPT.F                  :   
 CALD.IN     45 280 60 00:   CALIPER FROM DENSITY LOG
 GRD .GAPI   45 310 01 00:   GAMMA RAY FROM DENSITY LOG
 CORR.G/C3   45 356 01 00:   DENSITY CORRECTION
 RHOB.G/C3   45 350 01 00:   BULK DENSITY
 SPR .MV     05 010 01 00:   SPONTANEOUS POTENTIAL
 ILD .OHMM   05 120 46 00:   DEEP INDUCTION RESISTIVITY
 SN  .OHMM   05 040 00 00:   SHORT NORMAL
~PARAMETER INFORMATION
#MNEM.UNIT          VALUE    DESCRIPTION
#----------   ------------   ------------------------------
 EKB .F         5014.3000:   Kelly bushing
 EGL .F         5004.0000:   Ground level
 EDF .F            0.0000:   Drilling floor
 TD  .F         2717.0000:   Total depth
 DATE.        19-MAY-1956:   Date logged
 CLNT.            A2DTECH:   Client Code
 PD  .                 GL:   Permanent Datum
 EPD .F              5004:   Elevation Permanent Datum
 LMF .                 KB:   Log Measured From
 DMF .                 KB:   Drilling Measured From
 DAPD.F              10.3:   Feet Above Permanent Datum
 DD  .F              2717:   Depth driller
 DL  .F              2717:   Depth logger
 BLI .F              2716:   Bottom log interval
 TLI .F               100:   Top log interval
 CS1 .IN            10.75:   Casing size
 CBD1.       10.75" @ 30':   Casing driller 1
 BS1 .IN            7.875:   Bit size
 BSD1.F              2717:   Depth drilled with bit1
 DFT .        GEL/CAUSTIC:   Type fluid in hole
 DFD .                9.7:   Density
 DFV .                 35:   Viscosity
 DFPH.                7.6:   pH
 DFL .                8.8:   Fluid loss
 MSS .           FLOWLINE:   Source of sample
 RMS .OHMM           1.68:   Rm
 MST .F                58:   Rm Meas. temp.
 RMF .OHMM           1.17:   Rmf
 MFST.F                68:   Rmf Meas. temp.
 MFSS.                 FP:   Source Rmf.
 RMB .OHMM              1:   Rm. at BHT
 BHT .F               101:   BHT.
 TCS .HRS               4:   Time Circ. stopped
 MRT .F               101:   Maximum recorded temp.
 LUN .               4507:   Logging unit number
 LUL .               CSPR:   Logging unit location
 ENGI.            MANGOLD:   Recorded By
 WITN.             TUTTLE:   Witnessed by
 ORIG.           5" PRINT:   Origin of data
 UWI .     49025095270000:   Unique Well ID
 DICO. A2D TECHNOLOGIES, INC.:   Digitizing Company
~OTHER INFORMATION
~A   DEPT     CALD         GRD      CORR       RHOB        SPR        ILD         SN   
# ...
 2668.5000     7.7100    45.6420     0.0740     2.3210   -61.7410    28.2000    36.1530
 2669.0000     7.7330    45.8160     0.0820     2.3120   -61.2910    27.1520    35.1180
 2669.5000     7.7550    47.5300     0.0920     2.3290   -60.8580    26.1040    33.9840
 2670.0000     7.7770    46.6820     0.0980     2.3340   -60.4250    25.0490    32.5370
 2670.5000     7.7880    45.1590     0.0890     2.3020   -59.9850    24.3880    31.0970
 2671.0000     7.7870    46.6310     0.0830     2.3120   -59.4700    23.9700    29.8030
 2671.5000     7.7950    48.8100     0.0950     2.3320   -58.6750    23.8730    29.2500
 2672.0000     7.9750    51.3770     0.1070     2.3520   -57.8950    23.6600    28.6710
 2672.5000     8.1550    52.3340     0.1190     2.3700   -57.5130    23.4590    28.7630
 2673.0000     8.3340    52.8360     0.1230     2.3540   -57.9320    23.2560    29.0690
 2673.5000     8.4390    53.2810     0.1170     2.3360   -58.3060    23.7590    29.3800
 2674.0000     8.3780    55.8920     0.0920     2.3190   -58.6910    24.3570    29.6940
 2674.5000     8.2270    58.4760     0.0760     2.3010   -59.0880    24.9560    29.7210
 2675.0000     8.0770    59.0620     0.0860     2.2960   -59.1380    25.4640    29.6880
 2675.5000     8.0510    59.6410     0.0960     2.3130   -59.1680    25.4490    29.6520
 2676.0000     8.1130    60.0040     0.1030     2.3270   -59.1980    25.2840    29.7560
 2676.5000     8.1480    56.5790     0.0930     2.3390   -59.2290    25.9540    29.8840
 2677.0000     8.0480    50.9220     0.0740     2.3170   -59.2570    27.0980    30.0050
 2677.5000     7.9500    46.7670     0.0550     2.3140   -59.2770    28.2430    30.8090
 2678.0000     7.8490    48.3430     0.0710     2.3460   -59.0280    29.3850    32.0560
 2678.5000     7.8940    50.6200     0.0920     2.3660   -57.9010    30.2160    33.3010
 2679.0000     7.8670    48.3450     0.1130     2.3530   -56.8000    29.8250    34.5550
 2679.5000     7.8150    45.4090     0.1340     2.4360   -55.7030    29.1220    35.8150
 2680.0000     7.8030    43.5390     0.1440     2.4950   -54.6030    27.5680    36.1990
 2680.5000     8.0080    44.9860     0.0950     2.4840   -53.5510    24.5270    32.7880
 2681.0000     7.9670    46.9830     0.0780     2.4530   -53.1460    21.8290    29.5240
 2681.5000     7.8930    50.4260     0.1010     2.4140   -53.5310    19.7990    26.2640
 2682.0000     7.8190    52.4830     0.0890     2.3750   -53.9500    17.1590    23.4660
 2682.5000     7.7460    53.9480     0.0740     2.3350   -54.3040    15.3090    21.4520
 2683.0000     7.6880    55.4060     0.0600     2.3310   -53.5800    14.0770    19.7560
 2683.5000     7.7190    59.3090     0.0570     2.3390   -51.8170    12.8380    18.0300
 2684.0000     7.7760    60.4590     0.0680     2.3530   -48.6600    11.5870    16.2910
 2684.5000     7.8330    58.8500     0.0820     2.3760   -45.9350    10.7410    15.2330
 2685.0000     7.8900    57.2330     0.0810     2.3740   -43.7990     9.8990    14.3560
 2685.5000     7.9480    57.7270     0.0750     2.3740   -41.6690     9.6610    13.4880
 2686.0000     7.9850    61.5810     0.0710     2.3810   -39.4310     9.3240    12.7120
 2686.5000     7.9830    65.3450     0.0740     2.3710   -37.2110     8.8650    12.1360
 2687.0000     7.9810    69.0600     0.0860     2.4350   -34.9940     8.4170    11.5440
 2687.5000     7.9790    74.0720     0.0750     2.4140   -32.7980     7.9720    10.9570
 2688.0000     7.9770    77.8500     0.0660     2.4260   -30.9430     7.4950    10.3840
 2688.5000     7.9750    75.9070     0.0970     2.4470   -31.0860     7.3580    10.1040
 2689.0000     7.9730    74.0440     0.0890     2.4320   -31.1870     7.2220     9.8100
 2689.5000     7.9710    72.2470     0.0790     2.4130   -31.1400     7.0850     9.5130
 2690.0000     7.9690    71.0290     0.0690     2.4090   -30.8540     6.9470     9.2160
 2690.5000     7.9670    72.9040     0.0620     2.4010   -30.5720     6.8100     8.9200
 2691.0000     7.9660    74.7910     0.0600     2.3880   -30.2900     6.6720     8.6250
 2691.5000     7.9660    75.7440     0.0570     2.3860   -29.9980     6.5340     8.3650
 2692.0000     7.9680    77.7220     0.0540     2.3940   -29.5220     6.3820     8.2120
 2692.5000     7.9690    81.5690     0.0410     2.3860   -29.0290     6.2250     8.0480
 2693.0000     7.9710    82.3740     0.0650     2.3980   -28.5350     6.0680     7.8830
 2693.5000     7.9720    84.3930     0.0440     2.3970   -28.0400     5.9110     7.7180
 2694.0000     7.9740    86.7080     0.0560     2.4000   -27.4510     5.7910     7.5540
 2694.5000     7.9750    87.8530     0.0820     2.4260   -27.3030     5.7140     7.3890
 2695.0000     7.9770    86.3910     0.0710     2.4370   -27.1790     5.6340     7.2250
 2695.5000     7.9780    86.6730     0.0550     2.4250   -27.0530     5.5540     7.0600
 2696.0000     7.9800    84.2950     0.0530     2.4150   -26.9270     5.4740     6.8950
 2696.5000     7.9810    82.1510     0.0510     2.4100   -26.8000     5.3940     6.7260
 2697.0000     7.9830    83.9480     0.0530     2.4120   -26.6740     5.3120     6.6600
 2697.5000     7.9840    86.5790     0.0640     2.4210   -26.5470     5.2710     6.6090
 2698.0000     7.9860    89.2940     0.0710     2.4360   -26.4060     5.2210     6.5600
 2698.5000     7.9870    89.6530     0.0630     2.4400   -26.1610     5.1710     6.5110
 2699.0000     7.9920    85.5700     0.0730     2.4470   -25.9150     5.1200     6.4630
 2699.5000     7.9970    73.0800     0.0850     2.4610   -25.6700     5.0700     6.4140
 2700.0000     8.0020  -999.2500     0.0840     2.4450   -25.4260     5.0190     6.3650
 2700.5000     8.0060  -999.2500     0.0700     2.4290   -25.2430     4.9690     6.3160
 2701.0000  -999.2500  -999.2500     0.0590     2.4190   -25.3060     4.9180     6.2670
 2701.5000  -999.2500  -999.2500     0.0740     2.4310   -25.3900     4.8680     6.2180
 2702.0000  -999.2500  -999.2500     0.0880     2.4560   -25.4730     4.8170     6.1690
 2702.5000  -999.2500  -999.2500     0.0880     2.4800   -25.5570     4.7670     6.1200
 2703.0000  -999.2500  -999.2500     0.0760     2.4550   -25.6400     4.7160     6.0720
 2703.5000  -999.2500  -999.2500     0.0680     2.4260   -25.6470     4.6660     6.0240
 2704.0000  -999.2500  -999.2500     0.0630     2.4430   -25.4940     4.6150     5.9860
 2704.5000  -999.2500  -999.2500     0.0800     2.4540   -25.3020     4.5650     5.7900
 2705.0000  -999.2500  -999.2500     0.0570     2.4280   -25.1080     4.5140     5.5700
 2705.5000  -999.2500  -999.2500     0.0480     2.4420   -24.9070     4.4630     5.4070
 2706.0000  -999.2500  -999.2500     0.0610     2.4500   -24.8540     4.4140     5.4470
 2706.5000  -999.2500  -999.2500     0.0740     2.4190   -24.8520     4.5000     5.4850
 2707.0000  -999.2500  -999.2500     0.0770     2.4490   -24.8520     4.6000     5.5230
 2707.5000  -999.2500  -999.2500     0.0830     2.4330   -24.8510     4.7010     5.5600
 2708.0000  -999.2500  -999.2500     0.1110     2.4770   -24.8420     4.8020     5.6010
 2708.5000  -999.2500  -999.2500     0.0990     2.5050   -24.7880     4.9050     5.8230
 2709.0000  -999.2500  -999.2500     0.0960     2.4850   -24.7350     4.9120     6.0640
 2709.5000  -999.2500  -999.2500     0.0930     2.5000   -24.6810     4.9270     6.3050
 2710.0000  -999.2500  -999.2500     0.0870     2.4720   -24.8240     4.9420     6.5490
 2710.5000  -999.2500  -999.2500     0.0810     2.4620   -25.1440     4.9560     6.7860
 2711.0000  -999.2500  -999.2500     0.0740     2.4530   -25.4640     4.9710     6.4240
 2711.5000  -999.2500  -999.2500     0.0730     2.4350   -25.4330     4.9860     6.0010
 2712.0000  -999.2500  -999.2500     0.0730     2.4290   -24.9800     5.0000     5.5730
 2712.5000  -999.2500  -999.2500     0.0730     2.4320   -24.5330     5.0100     5.2180
 2713.0000  -999.2500  -999.2500     0.0730     2.4280   -24.0850     5.0100     5.2540
 2713.5000  -999.2500  -999.2500     0.0610     2.4220   -23.6360     5.0100     5.4480
