~VERSION INFORMATION
 VERS.                2.0:   CWLS LOG ASCII STANDARD - VERSION 2.0
 WRAP.                 NO:   ONE LINE PER DEPTH STEP
~WELL INFORMATION
#MNEM.UNIT      DATA TYPE    INFORMATION
#----------   ------------   ------------------------------
 STRT.F           16.0000:   START DEPTH
 STOP.F         2834.0000:   STOP DEPTH
 STEP.F            0.5000:   STEP LENGTH
 NULL.          -999.2500:   NO VALUE
 COMP.    FENIX & SCISSON:   COMPANY
 WELL. FENIX NPR 3 "AX" #14-21:   WELL
 FLD .              N P R:   FIELD
 LOC .      S21 T39N R78W:   LOCATION
 CNTY.            NATRONA:   COUNTY
 STAT.            WYOMING:   STATE
 CTRY. UNITED STATES OF AMERICA:   COUNTRY
 SRVC.           BIRDWELL:   SERVICE COMPANY
 DATE.        26-JUL-1978:   LOGDATE
 API .     49025106740000:   API NUMBER
~CURVE INFORMATION
#MNEM.UNIT       API CODE    CURVE DESCRIPTION
#----------   ------------   ------------------------------
 DEPT.F                  :   
 GRD .GAPI   45 310 01 00:   GAMMA RAY FROM DENSITY LOG
 CALD.IN     45 280 60 00:   CALIPER FROM DENSITY LOG
 RHOB.G/C3   45 350 01 00:   BULK DENSITY
 CORR.G/C3   45 356 01 00:   DENSITY CORRECTION
 SPR .MV     05 010 01 00:   SPONTANEOUS POTENTIAL
 ILD .OHMM   05 120 46 00:   DEEP INDUCTION RESISTIVITY
 SN  .OHMM   05 040 00 00:   SHORT NORMAL
~PARAMETER INFORMATION
#MNEM.UNIT          VALUE    DESCRIPTION
#----------   ------------   ------------------------------
 EKB .F         4998.0000:   Kelly bushing
 EGL .F         4988.0000:   Ground level
 EDF .F            0.0000:   Drilling floor
 EPD .F            0.0000:   Permanent datum
 TD  .F         2850.0000:   Total depth
 DATE.        26-JUL-1978:   Date logged
 CLNT.            A2DTECH:   Client Code
 SL  . 2640' FNL & 500' FWL:   Surface Location
 PD  .                 GL:   Permanent Datum
 DD  .F              2850:   Depth driller
 DL  .F              2838:   Depth logger
 BLI .F              2832:   Bottom log interval
 CS1 .IN            8.625:   Casing size
 CBD1.      8.625" @ 208':   Casing driller 1
 BS1 .IN            7.875:   Bit size
 DFT .            MUD/GEL:   Type fluid in hole
 DFD .                9.4:   Density
 DFV .                 37:   Viscosity
 DFPH.                 11:   pH
 TCS .HRS               4:   Time Circ. stopped
 LUN .               2958:   Logging unit number
 LUL .               CASP:   Logging unit location
 ENGI.             MILLER:   Recorded By
 WITN.           MCGINLEY:   Witnessed by
 ORIG.           5" PRINT:   Origin of data
 UWI .     49025106740000:   Unique Well ID
 DICO. A2D TECHNOLOGIES, INC.:   Digitizing Company
 DAPD.                 12:   Feet Above Permanent Datum
 BSD1.               3950:   Depth drilled with bit1
 MCSS.               CALC:   Source Rmc.
 TLI .F               230:   Top log interval
~OTHER INFORMATION
~A   DEPT       GRD      CALD       RHOB       CORR        SPR        ILD         SN   
# ...
 2609.5000   128.8140     7.0460     2.5440     0.2520   -36.3760     5.9960     6.8240
 2610.0000   128.5010     7.0440     2.5280     0.2520   -36.3660     5.9450     6.8130
 2610.5000   128.6090     7.0410     2.5280     0.2520   -36.3560     5.8940     6.8130
 2611.0000   129.0520     7.0380     2.5230     0.2530   -36.3460     5.8010     6.8130
 2611.5000   129.7930     7.0350     2.5150     0.2570   -36.3350     5.6710     6.8130
 2612.0000   130.4040     7.0240     2.5150     0.2630   -36.3280     5.5440     6.6740
 2612.5000   130.1710     6.9930     2.5240     0.2650   -36.3870     5.4300     6.5110
 2613.0000   129.1100     6.9630     2.5350     0.2670   -36.6150     5.3150     6.3480
 2613.5000   127.9650     6.9350     2.5390     0.2670   -36.8340     5.2220     6.1840
 2614.0000   127.7340     6.9420     2.5420     0.2660   -37.0570     5.1970     5.9960
 2614.5000   127.6530     6.9470     2.5490     0.2660   -37.1050     5.1730     6.0230
 2615.0000   126.3310     6.9530     2.5530     0.2660   -37.1070     5.1340     6.0560
 2615.5000   125.7270     6.9590     2.5480     0.2670   -37.1060     5.1450     6.0890
 2616.0000   126.2860     6.9810     2.5430     0.2670   -37.1060     5.1810     6.1220
 2616.5000   126.9140     7.0040     2.5460     0.2670   -37.1060     5.1700     6.1540
 2617.0000   126.8940     7.0260     2.5490     0.2680   -37.1060     5.1430     6.1870
 2617.5000   127.2250     7.0490     2.5480     0.2680   -37.1060     5.1340     6.2190
 2618.0000   127.9900     7.0710     2.5490     0.2670   -37.1060     5.3420     6.3200
 2618.5000   128.3090     7.0920     2.5550     0.2650   -37.1060     5.4730     6.4180
 2619.0000   125.8930     7.0920     2.5600     0.2650   -37.1060     5.4660     6.5160
 2619.5000   123.6680     7.0920     2.5500     0.2650   -37.1060     5.4520     6.6140
 2620.0000   126.3560     7.0920     2.5380     0.2650   -37.1060     5.4370     6.6900
 2620.5000   131.3410     7.0920     2.5430     0.2650   -37.1060     5.4230     6.6900
 2621.0000   132.6220     7.0920     2.5490     0.2660   -37.1060     5.3520     6.6290
 2621.5000   133.2980     7.0920     2.5560     0.2660   -37.1060     5.2830     6.4960
 2622.0000   135.8950     7.0920     2.5500     0.2670   -37.1060     5.2280     6.4350
 2622.5000   136.9170     7.0920     2.5410     0.2700   -37.1060     5.2280     6.3730
 2623.0000   136.0000     7.0920     2.5330     0.2720   -37.1060     5.2380     6.2760
 2623.5000   132.3390     7.0920     2.5310     0.2720   -37.1060     5.2490     6.3030
 2624.0000   128.1690     7.0920     2.5290     0.2780   -37.1060     5.2600     6.3690
 2624.5000   127.0620     7.0920     2.5200     0.2840   -37.1060     5.2720     6.4360
 2625.0000   127.8590     7.0920     2.5230     0.2850   -37.1060     5.2780     6.5020
 2625.5000   129.7660     7.0920     2.5270     0.2820   -37.1060     5.2810     6.5690
 2626.0000   131.5660     7.0940     2.5300     0.2780   -37.1060     5.2850     6.5730
 2626.5000   131.5610     7.0960     2.5320     0.2790   -37.1060     5.2880     6.5770
 2627.0000   133.4690     7.0990     2.5160     0.2800   -37.1060     5.2910     6.5810
 2627.5000   135.3900     7.1010     2.5320     0.2750   -37.1060     5.2940     6.5840
 2628.0000   135.1090     7.1040     2.5540     0.2700   -37.1060     5.2970     6.5880
 2628.5000   132.3380     7.1060     2.5450     0.2680   -37.1060     5.3000     6.5920
 2629.0000   128.5890     7.1080     2.5300     0.2700   -37.1060     5.3030     6.5960
 2629.5000   126.5560     7.1110     2.5310     0.2720   -37.1060     5.3070     6.6000
 2630.0000   126.1820     7.1100     2.5280     0.2740   -37.1060     5.3100     6.6040
 2630.5000   125.8520     7.0520     2.5230     0.2720   -37.1080     5.3130     6.6080
 2631.0000   123.8220     7.0640     2.5390     0.2660   -36.9630     5.3160     6.6120
 2631.5000   120.4980     7.0920     2.5300     0.2680   -36.7360     5.3190     6.6160
 2632.0000   122.7210     7.1130     2.5170     0.2690   -36.5210     5.3250     6.6200
 2632.5000   126.8700     7.1070     2.5180     0.2710   -36.5150     5.3170     6.6230
 2633.0000   130.7340     7.1020     2.5190     0.2760   -36.5160     5.2690     6.6290
 2633.5000   130.5930     7.0970     2.5170     0.2820   -36.5160     5.2260     6.5560
 2634.0000   130.3040     7.0920     2.5260     0.2750   -36.5160     5.2110     6.4290
 2634.5000   130.1170     7.0920     2.5420     0.2630   -36.5160     5.1960     6.3010
 2635.0000   130.9990     7.0920     2.5210     0.2600   -36.5160     5.1810     6.2190
 2635.5000   133.5540     7.0920     2.5090     0.2600   -36.5160     5.1360     6.2190
 2636.0000   135.5220     7.0930     2.5180     0.2570   -36.5160     5.0890     6.2190
 2636.5000   136.3300     7.1200     2.5210     0.2530   -36.5160     5.0420     6.2190
 2637.0000   136.8920     7.1470     2.5160     0.2540   -36.5160     4.9950     6.2190
 2637.5000   139.9600     7.1480     2.5110     0.2580   -36.5160     4.9470     6.0880
 2638.0000   140.3550     7.1440     2.5080     0.2620   -36.5160     4.9000     5.9510
 2638.5000   138.8590     7.1390     2.5110     0.2660   -36.5160     4.8600     5.8420
 2639.0000   140.3720     7.1350     2.5150     0.2640   -36.5160     4.8580     5.8870
 2639.5000   142.2070     7.1300     2.5200     0.2650   -36.5090     4.8530     5.8610
 2640.0000   142.5450     7.1260     2.5180     0.2650   -36.4930     4.8480     5.8320
 2640.5000   141.0740     7.1210     2.5140     0.2620   -36.4780     4.8430     5.8040
 2641.0000   138.7340     7.1170     2.5200     0.2590   -36.4620     4.8380     5.7750
 2641.5000   136.0340     7.1120     2.5150     0.2540   -36.4470     4.8340     5.7470
 2642.0000   135.8060     7.1120     2.5060     0.2520   -36.4320     4.8290     5.7280
 2642.5000   137.8630     7.1150     2.4970     0.2520   -36.4160     4.8240     6.0510
 2643.0000   138.8170     7.1180     2.4960     0.2580   -36.4010     4.8190     6.0150
 2643.5000   135.8800     7.1220     2.4990     0.2660   -36.3850     4.8160     5.9410
 2644.0000   129.7490     7.1260     2.5120     0.2740   -36.3700     4.8960     6.0400
 2644.5000   124.4920     7.1290     2.5180     0.2810   -36.3550     4.9670     6.1460
 2645.0000   125.7380     7.1360     2.5170     0.2890   -36.3390     5.0390     6.2190
 2645.5000   128.4040     7.1470     2.5230     0.2910   -36.3230     5.0870     6.2320
 2646.0000   130.4690     7.1570     2.5340     0.2810   -36.3400     5.0180     6.2470
 2646.5000   131.2640     7.1680     2.5290     0.2750   -36.3690     4.9950     6.2620
 2647.0000   131.0200     7.1790     2.5190     0.2730   -36.3990     5.0170     6.2760
 2647.5000   127.0380     7.1900     2.5210     0.2670   -36.4290     5.0580     6.2760
 2648.0000   125.1460     7.2010     2.5240     0.2660   -36.4590     5.1000     6.3620
 2648.5000   126.0650     7.2110     2.5260     0.2660   -36.4890     5.1410     6.4840
 2649.0000   127.1040     7.2220     2.5290     0.2660   -36.5140     5.1830     6.5840
 2649.5000   126.4740     7.2300     2.5320     0.2660   -36.4810     5.2280     6.6350
 2650.0000   124.8300     7.1960     2.5330     0.2660   -36.4490     5.2760     6.6970
 2650.5000   123.5230     7.1570     2.5260     0.2660   -36.4170     5.3250     6.7580
 2651.0000   124.8310     7.1150     2.5190     0.2660   -36.3860     5.3740     6.8160
 2651.5000   126.1810     7.0740     2.5130     0.2660   -36.3550     5.2980     6.8450
 2652.0000   127.2180     7.1080     2.5170     0.2660   -36.3200     5.2300     6.8760
 2652.5000   127.5400     7.1590     2.5170     0.2660   -35.9780     5.1620     6.7910
 2653.0000   129.6810     7.1810     2.5120     0.2680   -35.5960     5.0870     6.6900
 2653.5000   132.1080     7.1570     2.5070     0.2720   -35.2170     4.9790     6.4300
 2654.0000   131.3670     7.1790     2.5130     0.2750   -34.9700     4.8610     6.1460
 2654.5000   130.0230     7.2000     2.5130     0.2770   -35.1210     4.7430     5.8610
