~VERSION INFORMATION
 VERS.                2.0:   CWLS LOG ASCII STANDARD - VERSION 2.0
 WRAP.                 NO:   ONE LINE PER DEPTH STEP
~WELL INFORMATION
#MNEM.UNIT      DATA TYPE    INFORMATION
#----------   ------------   ------------------------------
 STRT.F            0.0000:   START DEPTH
 STOP.F         5576.0000:   STOP DEPTH
 STEP.F            0.5000:   STEP LENGTH
 NULL.          -999.2500:   NO VALUE
 COMP.      FLUCOR DANIEL:   COMPANY
 WELL.  FLUCOR "X" #76-10:   WELL
 FLD .          N.P.R. #3:   FIELD
 LOC .      S10 T38N R78W:   LOCATION
 CNTY.            NATRONA:   COUNTY
 STAT.            WYOMING:   STATE
 CTRY. UNITED STATES OF AMERICA:   COUNTRY
 SRVC. ATLAS WIRELINE SERVICES:   SERVICE COMPANY
 DATE.        16-MAR-1995:   LOGDATE
 API .     49025226860000:   API NUMBER
~CURVE INFORMATION
#MNEM.UNIT       API CODE    CURVE DESCRIPTION
#----------   ------------   ------------------------------
 DEPT.F                  :   
 CNC .DEC    42 890 01 00:   NEUTRON POROSITY LIMESTONE
 CALD.IN     45 280 60 00:   CALIPER FROM DENSITY LOG
 ZDEN.G/C3   45 350 01 00:   BULK DENSITY
 ZCOR.G/C3   45 356 01 00:   DENSITY CORRECTION
 RILD.OHMM   07 120 46 00:   INDUCTION LOG DEEP RESISTIVITY
 RILM.OHMM   07 120 44 00:   INDUCTION LOG MEDIUM RESISTIVITY
 RS  .OHMM   11 220 10 00:   RESISTIVITY SHALLOW
 RD  .OHMM   11 220 09 00:   RESISTIVITY DEEP
 GRR .GAPI   07 310 01 00:   GAMMA RAY
 TENR.LBS    07 635 01 00:   TENSION FROM RESISTIVITY
~PARAMETER INFORMATION
#MNEM.UNIT          VALUE    DESCRIPTION
#----------   ------------   ------------------------------
 EKB .F         5191.0000:   Kelly bushing
 EGL .F         5101.0000:   Ground level
 EDF .F         5190.0000:   Drilling floor
 TD  .F         5582.0000:   Total depth
 CLNT.            A2DTECH:   Client Code
 SL  . 1896' FSL & 832' FEL:   Surface Location
 PD  .                 GL:   Permanent Datum
 EPD .F              5181:   Elevation Permanent Datum
 LMF .                 KB:   Log Measured From
 DMF .                 KB:   Drilling Measured From
 DAPD.F                10:   Feet Above Permanent Datum
 DATE.        16-MAR-1995:   Date Logged [DD-MMM-YYYY]
 DD  .F              5582:   Depth driller
 DL  .F              5578:   Depth logger
 BLI .F              5566:   Bottom log interval
 TLI .F               518:   Top log interval
 CS1 .IN            8.625:   Casing size
 CBD1.      8.625" @ 519':   Casing driller 1
 CBL1.F               518:   Casing logger 1
 BS1 .IN             8.75:   Bit size
 BSD1.F              5582:   Depth drilled with bit1
 DFT .               LSND:   Type fluid in hole
 DFD .               10.1:   Density
 DFV .                 52:   Viscosity
 DFPH.                9.5:   pH
 DFL .                7.2:   Fluid loss
 MSS .           FLOWLINE:   Source of sample
 RMS .OHMM          0.536:   Rm
 MST .F                70:   Rm Meas. temp.
 RMF .OHMM          0.415:   Rmf
 MFST.F                70:   Rmf Meas. temp.
 MFSS.               MEAS:   Source Rmf.
 RMC .OHMM          0.646:   Rmc
 MCST.F                70:   Rmc Meas. temp.
 MCSS.               MEAS:   Source Rmc.
 RMB .OHMM          0.228:   Rm. at BHT
 BHT .F               165:   BHT.
 TCS .HRS             6.5:   Time Circ. stopped
 MRT .F               165:   Maximum recorded temp.
 LUN .            HL-6530:   Logging unit number
 LUL .             CASPER:   Logging unit location
 ENGI.      PAT RASMUSSEN:   Recorded By
 WITN.        GARY STRONG:   Witnessed by
 ORIG.           5" PRINT:   Origin of data
 UWI .     49025226860000:   Unique Well ID
 DICO. A2D TECHNOLOGIES, INC.:   Digitizing Company
~OTHER INFORMATION
~A  DEPTH      CNC       CALD       ZDEN       ZCOR       RILD       RILM         RS         RD        GRR       TENR
# ...
  837.5000     0.2853    10.9589     2.5284     0.0458  -999.2500  -999.2500     6.8513    10.8430    80.0742    -5.6361
  838.0000     0.2862    10.9583     2.5200     0.0457  -999.2500  -999.2500     6.8952    10.8374    80.7149    -5.4702
  838.5000     0.2872    10.9578     2.5102     0.0442  -999.2500  -999.2500     6.9388    10.9074    83.0536   -10.4318
  839.0000     0.2853    10.9573     2.5056     0.0456  -999.2500  -999.2500     6.9352    10.9004    83.0218   -12.7068
  839.5000     0.2863    10.9568     2.5024     0.0455  -999.2500  -999.2500     6.9316    10.9710    83.6025   -12.5269
  840.0000     0.2920    10.9563     2.5017     0.0455  -999.2500  -999.2500     6.9764    10.8122    85.3889   -19.9035
  840.5000     0.2944    10.9557     2.5025     0.0454  -999.2500  -999.2500     7.0206    10.8067    87.1816   -12.2780
  841.0000     0.2957    10.9552     2.4956     0.0422  -999.2500  -999.2500     7.0169    10.8011    87.1562   -19.6241
  841.5000     0.2975    10.9547     2.4752     0.0332  -999.2500  -999.2500     6.8684    10.7116    86.2000   -19.4737
  842.0000     0.3066    10.9542     2.4570     0.0225  -999.2500  -999.2500     6.6294    10.4197    84.6747   -19.2991
  842.5000     0.3290    10.9537     2.4637     0.0180  -999.2500  -999.2500     6.5344    10.1992    82.8311   -26.7113
  843.0000     0.3259    10.9531     2.4887     0.0376  -999.2500  -999.2500     6.4416    10.1233    81.8966   -26.5414
  843.5000     0.3129    10.9526     2.5038     0.0355  -999.2500  -999.2500     6.9970    10.4748    81.2651   -26.3910
  844.0000     0.2939    10.9521     2.5121     0.0208  -999.2500  -999.2500     7.3936    11.5403    82.4454   -26.2136
  844.5000     0.2803    10.9516     2.5068     0.0192  -999.2500  -999.2500     7.5992    12.0260    83.0261   -33.5902
  845.0000     0.2878    10.9511     2.5029     0.0252  -999.2500  -999.2500     7.7007    12.1882    82.6666   -33.4480
  845.5000     0.2854    10.9505     2.5097     0.0297  -999.2500  -999.2500     7.6957    12.3526    81.4537   -48.3434
  846.0000     0.2779    10.9500     2.5211     0.0296  -999.2500  -999.2500     7.8005    12.5177    80.8222   -48.1656
  846.5000     0.2788    10.9495     2.5241     0.0296  -999.2500  -999.2500     8.0154    12.6863    80.7968   -48.0234
  847.0000     0.2794    10.9490     2.5165     0.0280  -999.2500  -999.2500     8.1791    12.8574    83.1892   -47.8947
  847.5000     0.2800    10.9485     2.5134     0.0279  -999.2500  -999.2500     8.2330    13.0308    85.5880   -40.2202
  848.0000     0.2773    10.9479     2.5149     0.0264  -999.2500  -999.2500     8.2277    13.2049    86.7811   -32.5564
  848.5000     0.2794    10.9474     2.5209     0.0233  -999.2500  -999.2500     8.2233    13.3829    85.7999   -24.8627
  849.0000     0.2836    10.9469     2.5231     0.0202  -999.2500  -999.2500     8.1612    13.3743    85.5054    -2.1641
  849.5000     0.2843    10.9464     2.5201     0.0186  -999.2500  -999.2500     8.1569    13.4631    86.3891    13.0157
  850.0000     0.2840    10.9459     2.5170     0.0201  -999.2500  -999.2500     8.2096    13.5725    86.3636     5.6391
  850.5000     0.2782    10.9453     2.5140     0.0245  -999.2500  -999.2500     8.4365    13.6360    85.7576   -30.7402
  851.0000     0.2714    10.9448     2.5132     0.0215  -999.2500  -999.2500     8.6115    13.7235    84.5455   -30.4719
  851.5000     0.2662    10.9448     2.5141     0.0139  -999.2500  -999.2500     8.6734    13.9094    82.1212   -30.2598
  852.0000     0.2658    10.9455     2.5237     0.0138  -999.2500  -999.2500     8.5421    13.9015    79.0909   -30.0477
  852.5000     0.2684    10.9463     2.5320     0.0138  -999.2500  -999.2500     8.4795    13.7032    79.6970   -29.8356
  853.0000     0.2705    10.9470     2.5358     0.0228  -999.2500  -999.2500     8.4752    13.6860    80.3030   -44.7293
  853.5000     0.2717    10.9478     2.5342     0.0319  -999.2500  -999.2500     8.3811    13.5001    80.9091   -44.4641
  854.0000     0.2729    10.9485     2.5122     0.0394  -999.2500  -999.2500     8.3496    13.4940    82.1212   -44.2520
  854.5000     0.2747    10.9493     2.5062     0.0409  -999.2500  -999.2500     8.2305    13.3015    86.8641   -36.4804
  855.0000     0.2760    10.9500     2.5054     0.0423  -999.2500  -999.2500     8.1697    13.1103    90.0000   -36.2220
  855.5000     0.2748    10.9508     2.5069     0.0423  -999.2500  -999.2500     8.0456    12.9233    88.7879   -28.4570
  856.0000     0.2745    10.9515     2.5121     0.0437  -999.2500  -999.2500     7.9928    12.7389    88.1818   -28.2449
  856.5000     0.2778    10.9522     2.5166     0.0422  -999.2500  -999.2500     7.8242    12.3823    87.5758   -27.9798
  857.0000     0.2833    10.9530     2.5189     0.0376  -999.2500  -999.2500     7.6583    12.0371    86.3636   -27.7677
  857.5000     0.2851    10.9537     2.5211     0.0285  -999.2500  -999.2500     7.5490    11.7831    85.1515   -27.5680
  858.0000     0.2830    10.9545     2.5188     0.0315  -999.2500  -999.2500     7.4414    11.6960    81.8182   -12.2357
  858.5000     0.2819    10.9552     2.5165     0.0450  -999.2500  -999.2500     7.3352    11.5280    82.7414    -4.4198
  859.0000     0.2822    10.9560     2.5157     0.0480  -999.2500  -999.2500     7.3311    11.5232    83.6364     3.3452
  859.5000     0.2834    10.9567     2.5157     0.0480  -999.2500  -999.2500     7.3277    11.5176    85.4545     3.5573
  860.0000     0.2828    10.9575     2.5134     0.0449  -999.2500  -999.2500     7.3244    11.5110    85.7576     3.7764
  860.5000     0.2828    10.9582     2.5111     0.0403  -999.2500  -999.2500     7.1194    11.5058    83.9394     4.0345
  861.0000     0.2841    10.9590     2.5095     0.0357  -999.2500  -999.2500     7.1162    11.5006    83.6364     4.2466
  861.5000     0.2877    10.9597     2.5080     0.0342  -999.2500  -999.2500     7.2134    11.4941    85.1515     4.4587
  862.0000     0.2871    10.9605     2.5080     0.0311  -999.2500  -999.2500     7.3103    11.4889    86.6667    12.2767
  862.5000     0.2835    10.9612     2.5079     0.0233  -999.2500  -999.2500     7.3396    11.4837    86.7424    20.0416
  863.0000     0.2799    10.9620     2.5079     0.0174  -999.2500  -999.2500     7.3029    11.4784    85.7576    27.8066
  863.5000     0.2787    10.9627     2.5080     0.0143  -999.2500  -999.2500     7.2995    11.4720    85.7576    20.4658
  864.0000     0.2790    10.9634     2.5101     0.0112  -999.2500  -999.2500     7.2954    11.5468    85.1515    20.7309
  864.5000     0.2803    10.9642     2.5154     0.0112  -999.2500  -999.2500     7.3430    11.5416    84.5455    20.9430
  865.0000     0.2815    10.9649     2.5229     0.0157  -999.2500  -999.2500     7.3910    11.6169    82.1212    21.1551
  865.5000     0.2806    10.9657     2.5229     0.0217  -999.2500  -999.2500     7.4911    11.7730    83.6364    13.8143
  866.0000     0.2788    10.9664     2.5153     0.0262  -999.2500  -999.2500     7.5400    11.9325    85.7576     6.4735
  866.5000     0.2748    10.9672     2.5077     0.0337  -999.2500  -999.2500     7.5891    11.9066    86.6667    -8.3671
  867.0000     0.2740    10.9679     2.5016     0.0384  -999.2500  -999.2500     7.3766    11.5932    86.6524   -15.7079
  867.5000     0.2752    10.9687     2.4986     0.0412  -999.2500  -999.2500     7.2203    11.2700    84.2424   -23.0486
  868.0000     0.2831    10.9694     2.4993     0.0427  -999.2500  -999.2500     7.0679    11.0312    79.0909   -22.7835
  868.5000     0.2898    10.9702     2.5091     0.0411  -999.2500  -999.2500     7.0647    10.8736    78.4848   -22.5714
  869.0000     0.2904    10.9709     2.5166     0.0299  -999.2500  -999.2500     7.0607    11.0210    79.6970   -26.3339
  869.5000     0.2832    10.9717     2.5181     0.0122  -999.2500  -999.2500     7.4614    11.7277    82.1212   -29.7001
  870.0000     0.2838    10.9724     2.5173     0.0288  -999.2500  -999.2500     7.4721    11.5591    81.2121   -29.4350
  870.5000     0.2832    10.9732     2.5127     0.0470  -999.2500  -999.2500     7.1990    11.2368    84.2424   -29.2229
