~VERSION INFORMATION
 VERS.                2.0:   CWLS LOG ASCII STANDARD - VERSION 2.0
 WRAP.                 NO:   ONE LINE PER DEPTH STEP
~WELL INFORMATION
#MNEM.UNIT      DATA TYPE    INFORMATION
#----------   ------------   ------------------------------
 STRT.F          397.0000:   START DEPTH
 STOP.F         5516.0000:   STOP DEPTH
 STEP.F            0.5000:   STEP LENGTH
 NULL.          -999.2500:   NO VALUE
 COMP.  FENIX AND SCISSON:   COMPANY
 WELL.   FENIX TPX #54-10:   WELL
 FLD . NAVAL PETROLEUM RESERVE=3:   FIELD
 LOC .      S10 T38N R78W:   LOCATION
 CNTY.            NATRONA:   COUNTY
 STAT.            WYOMING:   STATE
 CTRY. UNITED STATES OF AMERICA:   COUNTRY
 SRVC.       SCHLUMBERGER:   SERVICE COMPANY
 DATE.        03-APR-1981:   LOGDATE
 API .     49025108690000:   API NUMBER
~CURVE INFORMATION
#MNEM.UNIT       API CODE    CURVE DESCRIPTION
#----------   ------------   ------------------------------
 DEPT.F                  :   
 SPR .MV     11 010 01 00:   SPONTANEOUS POTENTIAL FROM RES.
 TENR.LBS    11 635 01 00:   TENSION FROM RES.
 LLD .OHMM   11 220 10 00:   LATEROLOG DEEP
 LLS .OHMM   11 220 09 00:   LATEROLOG LOG SHALLOW
 TEND.LBS    45 635 01 00:   TENSION FORM DENSITY LOG
 GRD .GAPI   45 310 01 00:   GAMMA RAY FROM DENSITY LOG
 NPHI.DEC    42 890 03 00:   NEUTRON POROSITY SANDSTONE
 CALD.IN     45 280 60 00:   CALIPER FROM DENSITY LOG
 CORR.G/C3   45 356 01 00:   DENSITY CORRECTION
 RHOB.G/C3   45 350 01 00:   BULK DENSITY
~PARAMETER INFORMATION
#MNEM.UNIT          VALUE    DESCRIPTION
#----------   ------------   ------------------------------
 EKB .F         5206.0000:   Kelly bushing
 EGL .F         5196.0000:   Ground level
 EDF .F            0.0000:   Drilling floor
 TD  .F         5498.0000:   Total depth
 CLNT.            A2DTECH:   Client Code
 SL  . 2080' FNL & 2150' FEL:   Surface Location
 PD  .                 GL:   Permanent Datum
 EPD .F              5196:   Elevation Permanent Datum
 LMF .                 KB:   Log Measured From
 DMF .                 KB:   Drilling Measured From
 DAPD.F                10:   Feet Above Permanent Datum
 DATE.         3-APR-1981:   Date Logged [DD-MMM-YYYY]
 DD  .F              5485:   Depth driller
 DL  .F              5498:   Depth logger
 BLI .F              5496:   Bottom log interval
 TLI .F               397:   Top log interval
 CS1 .IN                7:   Casing size
 CBD1.         7" @ 3891':   Casing driller 1
 CBL1.F              3889:   Casing logger 1
 BS1 .IN            6.125:   Bit size
 BSD1.F              5485:   Depth drilled with bit1
 DFT .           CHEM GEL:   Type fluid in hole
 DFD .                9.1:   Density
 DFV .                 42:   Viscosity
 DFPH.                9.0:   pH
 DFL .                5.0:   Fluid loss
 MSS .           MUD TANK:   Source of sample
 RMS .OHMM           0.81:   Rm
 MST .F                62:   Rm Meas. temp.
 RMF .OHMM           0.64:   Rmf
 MFST.F                62:   Rmf Meas. temp.
 MFSS.               MEAS:   Source Rmf.
 RMB .OHMM          0.031:   Rm. at BHT
 BHT .F               174:   BHT.
 TCS .HRS            0830:   Time Circ. stopped
 TLAB.HRS            2130:   Time logger at bottom
 MRT .F               174:   Maximum recorded temp.
 LUN .               8035:   Logging unit number
 LUL .               CSPR:   Logging unit location
 ENGI.             BEATIE:   Recorded By
 WITN.              FIVAS:   Witnessed by
 ORIG.           5" PRINT:   Origin of data
 UWI .     49025108690000:   Unique Well ID
 DICO. A2D TECHNOLOGIES, INC:   Digitizing Company
~OTHER INFORMATION
~A   DEPT      SPR       TENR        LLD        LLS       TEND         GRD        NPHI     CALD       CORR       RHOB   
# ...
 4182.5000   -17.8271  1454.5482     4.8794     5.0538  1563.6528    80.1806     0.3374     8.7440    -0.0165     2.7333
 4183.0000   -17.9820  1453.8778     4.8104     4.9099  1567.0216    79.5649     0.3755     9.2234    -0.0435     2.7456
 4183.5000   -18.1369  1453.2073     4.5788     4.5791  1565.9606    78.3420     0.4609     9.7926    -0.1892     2.5559
 4184.0000   -18.2918  1452.5367     4.1493     4.1205  1582.5549    79.5390     0.5044    10.7809    -0.2305     2.3361
 4184.5000   -18.5994  1451.8662     3.8097     3.7079  1553.1179    82.5486     0.5083    11.4099    -0.2440     2.3195
 4185.0000   -18.9062  1451.1957     3.6296     3.5544  1554.5597    87.3709     0.5150    11.6203    -0.1648     2.4847
 4185.5000   -18.9091  1450.5251     3.5037     3.4312  1555.7573    92.1932     0.5090    11.5303     0.0097     2.9982
 4186.0000   -19.0640  1449.8546     3.5030     3.3592  1541.7159    96.4113     0.4686    11.2312     0.1598     3.0072
 4186.5000   -19.0669  1449.1842     3.5768     3.7847  1558.3103    95.7927     0.4495    11.0219     0.2183     3.1393
 4187.0000   -19.0699  1448.5137     3.8978     3.9009  1589.7671    94.5727     0.4388    11.0671     0.2427     3.1806
 4187.5000   -19.0735  1447.8431     4.2313     3.9861  1666.6786    93.3528     0.4351    11.2620     0.2476     3.3472
 4188.0000   -19.0037  1447.1726     4.2905     3.9731  1617.5806    93.0391     0.4415    11.9210     0.2475     3.4212
 4188.5000   -18.9266  1446.5021     4.0268     3.8574  1532.6226    91.9481     0.4599    12.5051     0.2468     3.3112
 4189.0000   -18.9303  1445.8315     3.7795     3.7293  1564.3685    90.8984     0.4763    12.8973     0.1623     3.0168
 4189.5000   -18.9331  1445.1610     3.6741     3.6767  1610.9771    90.2827     0.4880    12.6105     0.0590     2.9904
 4190.0000   -18.9561  1444.4905     3.6776     3.6250  1596.9792    91.4796     0.5037    11.5479    -0.0011     2.8321
 4190.5000   -19.2437  1443.8201     3.7506     3.5991  1582.9817    93.8850     0.5137    11.2339    -0.0078     2.8156
 4191.0000   -19.5505  1443.1495     3.8029     3.6240  1690.4852    95.6862     0.5152    11.4288     0.0192     2.8479
 4191.5000   -20.0094  1442.4790     3.8559     3.6748  1706.5015    95.6718     0.4887    11.6431     0.0860     2.8967
 4192.0000   -20.3162  1441.8085     3.8822     3.9694  1601.8837    92.0349     0.4694    11.8935     0.0507     2.8812
 4192.5000   -20.9301  1441.1379     3.9361     4.3790  1527.2800    84.4705     0.4504    12.3428    -0.0072     2.7405
 4193.0000   -21.8425  1440.4674     4.3418     5.0390  1559.0260    80.2294     0.4175    12.5826    -0.0132     2.7157
 4193.5000   -22.6053  1439.7969     5.1737     6.1509  1575.3313    78.6735     0.3881    12.0141     0.1159     2.9604
 4194.0000   -22.9122  1439.1265     6.3852     8.4128  1576.4852    76.8802     0.3170     9.2072     0.2480     3.0089
 4194.5000   -23.2190  1438.4559     7.8221    10.0975  1577.6390    75.3581     0.2799     8.3021     0.2480     3.1728
 4195.0000   -23.3739  1437.7854     9.7939    11.5378  1578.7928    73.5339     0.2111     7.7949     0.2480     3.1038
 4195.5000   -23.3768  1437.1149    11.3473    12.6395  1560.3572    72.0118     0.1839     7.6603     0.1785     3.0632
 4196.0000   -23.2278  1436.4443    12.7830    13.6761  1535.9351    70.4610     0.1658     7.5856     0.1736     3.0677
 4196.5000   -23.2314  1435.7738    13.5188    14.5419  1521.9374    69.5690     0.1559     7.5409     0.2066     3.1324
 4197.0000   -23.2343  1435.1033    14.2102    14.7462  1523.0913    68.9532     0.1509     7.5410     0.2254     3.1923
 4197.5000   -23.2371  1434.4329    14.7010    14.9524  1524.2451    67.7332     0.1466     7.5412     0.2388     3.2200
 4198.0000   -23.0882  1433.7623    14.9059    14.9504  1525.6869    66.5133     0.1478     7.5413     0.2463     3.2403
 4198.5000   -23.0912  1433.1658    14.7979    14.6277  1526.8407    68.0591     0.1499     7.5407     0.2499     3.2779
 4199.0000   -23.0947  1448.9945    14.4866    14.1290  1543.1460    72.2275     0.1514     7.5416     0.2499     3.3274
 4199.5000   -22.9449  1464.6785    14.1751    13.9300  1544.3010    74.3308     0.1533     7.5418     0.2498     3.3439
 4200.0000   -22.9486  1480.3624    13.8836    13.8306  1545.4550    75.5306     0.1555     7.5419     0.2497     3.3247
 4200.5000   -22.6475  1481.0853    13.9563    13.7320  1531.4573    75.5162     0.1608     7.5421     0.2497     3.2937
 4201.0000   -22.6504  1481.6636    14.0237    13.6795  1532.8990    74.5425     0.1645     7.5422     0.2496     3.2710
 4201.5000   -22.3494  1466.9916    13.9752    13.5366  1533.9392    71.5628     0.1645     7.5424     0.2495     3.2680
 4202.0000   -22.0484  1482.8201    13.8459    13.4397  1519.7673    70.0407     0.1636     7.5425     0.2494     3.3340
 4202.5000   -21.9000  1482.1229    13.5843    13.2504  1536.3635    69.4250     0.1633     7.5427     0.2494     3.3400
 4203.0000   -21.7502  1481.3754    13.3931    13.0638  1537.8035    73.6431     0.1676     7.5578     0.2493     3.3167
 4203.5000   -21.7539  1480.6278    13.2022    12.8783  1538.9573    78.5197     0.1736     7.5729     0.2492     3.2806
 4204.0000   -21.9212  1479.8802    12.8902    12.5912  1540.1112    83.8891     0.1800     7.5581     0.2491     3.2446
 4204.5000   -22.3683  1479.1327    12.3809    12.0870  1556.4165    87.5029     0.1896     7.5432     0.2476     3.2310
 4205.0000   -22.6900  1478.3851    11.8797    11.8422  1572.7218    89.6062     0.1949     7.5434     0.2468     3.2483
 4205.5000   -22.9992  1477.6376    11.5486    11.3434  1557.8563    89.8997     0.1999     7.5436     0.2483     3.2505
 4206.0000   -23.3075  1476.8900    11.2276    10.9503  1559.2047    89.2810     0.2042     7.5437     0.2416     3.2272
 4206.5000   -23.4638  1476.1425    11.2263    10.7202  1544.8613    88.6624     0.2063     7.5439     0.2341     3.2167
 4207.0000   -23.6201  1475.3949    11.2247    10.7947  1546.2119    89.7996     0.2066     7.5590  -999.2500     3.2842
 4207.5000   -23.6246  1474.6473    11.3416    10.9459  1547.5571    91.5926     0.2063     7.5741  -999.2500     3.3345
 4208.0000   -23.6297  1473.8998    11.7040    11.0216  1533.4839    93.3896     0.2051     7.5743  -999.2500     3.3442
 4208.5000   -23.4820  1473.1522    11.8684    11.0975  1519.4108    94.5784     0.2046     7.5744  -999.2500     3.3510
 4209.0000   -23.3347  1472.4047    11.8664    10.8533  1520.4890    95.1708     0.2061     7.5746  -999.2500     3.4050
 4209.5000   -23.3389  1471.6571    11.5363    10.4144  1521.5907    96.3596     0.2142     7.5897  -999.2500     3.6340
 4210.0000   -23.1910  1470.9095    10.9813    10.1958  1522.9158    96.9486     0.2181     7.6048  -999.2500     3.8637
 4210.5000   -23.0444  1470.1620    10.4533     9.7737  1523.9941    95.7236     0.2212     7.6199  -999.2500     3.9177
 4211.0000   -22.8967  1469.4144     9.8811     9.3690  1540.1512    95.1000     0.2152     7.6799  -999.2500     3.9567
 4211.5000   -22.7490  1468.6669     9.6739     8.9741  1534.1338    96.2928     0.2083     7.8448  -999.2500     3.9867
 4212.0000   -22.5476  1467.9193     9.5375     8.9170  1527.2290   100.5067     0.2083     8.0545  -999.2500     3.9987
 4212.5000   -22.4037  1467.1718     9.4032     8.7911  1528.5775   102.9079     0.2171     8.2493  -999.2500     3.9979
 4213.0000   -22.1550  1466.4243     9.0777     8.2514  1529.5454   104.3988     0.2255     8.3692  -999.2500     3.9904
 4213.5000   -22.1486  1465.6599     8.5208     7.7447  1530.7341   103.4767     0.2376     8.4442  -999.2500     3.8260
 4214.0000   -21.8598  1466.1429     8.2258     7.4198  1531.8181   101.0441     0.2440     8.4743  -999.2500     3.6826
 4214.5000   -21.7132  1466.6370     8.2244     7.3195  1533.1609    96.1945     0.2476     8.4145  -999.2500     3.7749
 4215.0000   -21.7175  1467.1311     8.2234     7.6334  1534.0911    94.9703     0.2479     8.3548  -999.2500     3.9378
 4215.5000   -21.7219  1467.6251     8.3385     8.0171  1535.2271    96.7633     0.2473     8.3250  -999.2500     3.9783
