~VERSION INFORMATION
 VERS.                2.0:   CWLS LOG ASCII STANDARD - VERSION 2.0
 WRAP.                 NO:   ONE LINE PER DEPTH STEP
~WELL INFORMATION
#MNEM.UNIT      DATA TYPE    INFORMATION
#----------   ------------   ------------------------------
 STRT.F           57.0000:   START DEPTH
 STOP.F         5817.0000:   STOP DEPTH
 STEP.F            0.5000:   STEP LENGTH
 NULL.          -999.2500:   NO VALUE
 COMP. DEPARTMENT OF ENERGY:   COMPANY
 WELL. DEPARTMENT NPR 371 "X" #1-4:   WELL
 FLD .              NPR-3:   FIELD
 LOC .       S4 T38N R78W:   LOCATION
 CNTY.            NATRONA:   COUNTY
 STAT.            WYOMING:   STATE
 CTRY. UNITED STATES OF AMERICA:   COUNTRY
 SRVC.       SCHLUMBERGER:   SERVICE COMPANY
 DATE.        25-AUG-2002:   LOGDATE
 API .     49025230480000:   API NUMBER
~CURVE INFORMATION
#MNEM.UNIT       API CODE    CURVE DESCRIPTION
#----------   ------------   ------------------------------
 DEPT.F                  :   
 HCAL.IN     07 280 01 00:   HRLT CALIPER
 RLA1.OHMM   06 120 01 00:   HRLT RESISTIVITY 1
 RLA2.OHMM   06 120 02 00:   HRLT RESISTIVITY 2
 RLA3.OHMM   06 120 03 00:   HRLT RESISTIVITY 3
 RXOZ.OHMM   06 270 04 00:   STAN RES. MICROCFL RESISTIVITY
 TENR.LBS    06 635 01 00:   TENSION FROM RESITIVITY
 GRR .GAPI   07 310 01 00:   GAMMA RAY FROM RESISTIVITY
 SPHI.DEC    60 890 22 00:   SONIC POROSITY SANDSTONE
 DT  .US/F   60 520 00 00:   DELTA TIME
 TENS.LBS    60 635 01 00:   TENSION FROM SONIC
 RT  .OHMM   06 120 00 00:   HRLT TRUE RESISTIVITY
~PARAMETER INFORMATION
#MNEM.UNIT          VALUE    DESCRIPTION
#----------   ------------   ------------------------------
 EKB .F         5196.0000:   Kelly bushing
 EGL .F         5186.0000:   Ground level
 EDF .F         5194.0000:   Drilling floor
 TD  .F         5803.0000:   Total depth
 CLNT.            A2DTECH:   Client Code
 SL  . 794' FEL & 333' FNL:   Surface Location
 PD  .                 GL:   Permanent Datum
 EPD .F              5186:   Elevation Permanent Datum
 LMF .                 KB:   Log Measured From
 DMF .                 KB:   Drilling Measured From
 DAPD.F                10:   Feet Above Permanent Datum
 DATE.        25-AUG-2002:   Date Logged [DD-MMM-YYYY]
 DD  .F              5800:   Depth driller
 DL  .F              5803:   Depth logger
 BLI .F              5803:   Bottom log interval
 TLI .F               656:   Top log interval
 CS1 .IN            9.625:   Casing size
 CBD1.      9.625" @ 660':   Casing driller 1
 CBL1.F               656:   Casing logger 1
 BS1 .IN            8.750:   Bit size
 BSD1.F              5800:   Depth drilled with bit1
 DFT .           GEL CHEM:   Type fluid in hole
 DFD .                  9:   Density
 DFV .                 36:   Viscosity
 DFPH.                8.5:   pH
 DFL .                7.6:   Fluid loss
 MSS .           FLOWLINE:   Source of sample
 RMS .OHMM          0.846:   Rm
 MST .F                90:   Rm Meas. temp.
 RMF .OHMM          0.670:   Rmf
 MFST.F                90:   Rmf Meas. temp.
 MFSS.               MEAS:   Source Rmf.
 RMC .OHMM          1.075:   Rmc
 MCST.F                90:   Rmc Meas. temp.
 MCSS.               CALC:   Source Rmc.
 TCS .HRS            0300:   Time Circ. stopped
 TLAB.HRS            0915:   Time logger at bottom
 MRT .F               156:   Maximum recorded temp.
 LUN .               2211:   Logging unit number
 LUL .             CASPER:   Logging unit location
 ENGI.        J.L. FLORES:   Recorded By
 WITN.        STEVE HARDY:   Witnessed by
 ORIG.        2" 5" PRINT:   Origin of data
 UWI .     49025230480000:   Unique Well ID
 DICO. A2D TECHNOLOGIES, INC.:   Digitizing Company
~OTHER INFORMATION
~A   DEPT     HCAL       RLA1       RLA2       RLA3       RXOZ       TENR         GRR      SPHI         DT       TENS         RT   
# ...
 2710.5000    11.0453     3.7063     4.3159     4.9495     3.1852  1752.5004    99.9962     0.2555    86.6012  1433.8856     3.7253
 2711.0000    11.0604     4.2562     3.8933     3.8566     2.7735  1755.4458   102.7032     0.2615    88.1118  1434.0544     4.0054
 2711.5000    11.0755     4.6244     4.2905     4.0204     2.6792  1757.8223   104.5070     0.2842    91.0574  1440.7150     4.3388
 2712.0000    11.0302     5.0945     4.6053     4.3129     2.9314  1810.1975   101.6792     0.2990    93.0967  1449.4226     4.5231
 2712.5000    11.0151     5.1649     4.9984     4.5862     4.3188  1812.5741   101.5624     0.3002    94.4562  1452.8925     4.9553
 2713.0000    10.9698     4.0526     4.5682     4.9495     5.0991  1764.9507   105.6252     0.3002    93.3233  1464.7590     5.0186
 2713.5000    10.9321     3.8872     3.9679     5.1955     3.7606  1767.9204   108.3321     0.2991    92.1822  1464.9097     3.9650
 2714.0000    10.9245     5.6490     4.8298     4.1621     4.9599  1770.2969   111.4908     0.2921    90.9063  1465.0648     4.1312
 2714.5000    10.9094     5.7272     5.4721     4.5862     5.6961  1772.6735   115.3277     0.2833    90.0000  1450.1414     5.5299
 2715.0000    10.8792     5.4932     4.5075     5.3415     5.0290  1775.0499   113.8554     0.2812    89.8489  1465.3729     5.7249
 2715.5000    10.8036     8.2642     5.5884     4.4918     5.2422  1777.4998   109.4464     0.2815    89.9245  1450.4495     4.4608
 2716.0000    10.7583     6.8067     8.2391     5.5299     8.5090  1780.3962   109.2170     0.2804    89.6887  1450.6206     6.2023
 2716.5000    10.6828     4.7150     6.2452     7.8743     5.3893  1782.7727   110.4180     0.2653    86.5257  1450.7576     7.3471
 2717.0000    10.6677     6.6648     4.6363     6.9509     4.8879  1785.1481   111.9200     0.2387    83.8066  1435.8685     5.0535
 2717.5000    10.6828    10.0271     6.2465     4.7097     8.1067  1737.5245   106.4949     0.2302    82.2961  1436.0054     6.9509
 2718.0000    10.6828    11.3568    10.5058     7.0969    10.8409  1740.4955   100.0532     0.2210    81.3142  1421.0820     9.5607
 2718.5000    10.6828    11.1215    11.4178     9.8294    11.0013  1742.8708    97.2250     0.2118    79.8036  1421.2532    11.2128
 2719.0000    10.6677     8.1427     9.6027    11.1353     7.4607  1745.2473    94.9625     0.2058    79.0483  1436.4503    10.2467
 2719.5000    10.6677     7.1379     7.5355    11.4483     6.7251  1747.6239    94.6197     0.1970    77.9909  1421.5270     7.8200
 2720.0000    10.6828     9.3496     8.7169     8.6167     8.9934  1800.0004    94.0510     0.1804    76.2538  1421.6981     7.5015
 2720.5000    10.6828    13.7772    11.1216     7.9735    13.6219  1802.9701    93.3698     0.1718    76.2538  1406.7748     9.8978
 2721.0000    10.6778    14.3599    13.9972    10.1130    14.1994  1805.3467    93.2529     0.1723    76.2538  1406.9460    13.2418
 2721.5000    10.6677    11.5038    15.2864    13.2564     9.1820  1807.7233    95.3951     0.1786    76.4048  1407.0829    14.8975
 2722.0000    10.6677    10.1543    12.4601    14.3097     9.5713  1900.0000    97.4248     0.1919    77.4622  1407.2540    11.3693
 2722.5000    10.6753    10.3661    10.8123    10.7744     9.6377  1950.0000    97.4213     0.1944    77.7644  1407.3910    10.5995
 2723.0000    10.6828    10.1514    10.8135    10.8534     9.6377  2000.0000    94.2543     0.1819    76.6314  1407.5302    10.6080
 2723.5000    10.6828     9.8046    10.4937    10.6341     9.1187  1950.0000    92.2177     0.1723    74.7432  1407.6990    10.1057
 2724.0000    10.7055     9.7357    10.0219     9.7216     9.2458  1950.0000    92.6660     0.1699    74.5166  1422.8961     9.7615
 2724.5000    10.7281    10.5776    10.3766    10.4223     9.7720  1950.0000    93.5653     0.1784    75.4985  1423.0673    10.5348
 2725.0000    10.7432    11.3347    11.2001    10.7938    10.7661  1950.0000    94.2395     0.1863    76.7069  1423.2041    11.0584
 2725.5000    10.7432    11.9788    11.5161    10.8730    11.3789  1946.2543    94.9137     0.1962    78.1420  1423.3433    11.3693
 2726.0000    10.7432    12.3993    11.9649    11.3380    11.9437  1900.0000    93.1022     0.1987    78.3686  1423.5122    11.6889
 2726.5000    10.7432    12.3973    12.3455    12.0723    11.7795  1900.0000    92.1951     0.1981    78.3686  1423.6490    12.1010
 2727.0000    10.7734    11.0190    11.2831    11.7457     8.6875  1850.0000    93.5470     0.1951    77.9909  1423.7952    11.3693
 2727.5000    10.8036     9.8620     9.7559     9.4785     8.9934  1850.0000    98.2866     0.1911    77.3112  1423.9457     9.8741
 2728.0000    10.8263    10.8643    10.1012     9.7486    10.1863  1850.0000   100.3163     0.1848    76.1027  1424.0963     9.7615
 2728.5000    10.8489    11.8042    11.0547    10.6709    10.7661  1850.0000    98.0538     0.1797    75.5740  1424.2469    10.6080
 2729.0000    10.8489    11.9673    11.6862    11.5205    11.3789  1850.0000    98.5012     0.1800    75.7464  1424.4021    11.4858
 2729.5000    10.8489    11.4784    11.8508    11.8478    12.5365  1850.0000    98.9495     0.1863    76.8580  1424.5481    12.1010
 2730.0000    10.8338    10.8584    11.4484    11.0587    12.8883  1850.0000    97.3647     0.1918    77.4622  1424.7102    11.2128
 2730.5000    10.8338    10.1303    10.6056    10.2509    13.0679  1850.0000    94.6479     0.1921    77.6133  1424.8494    10.3180
 2731.0000    10.8338    11.4737     9.8318    10.8309    13.0679  1850.0000    94.1909     0.1864    77.3112  1425.0000    10.3247
 2731.5000    10.8338    11.7130    10.8347    11.6889    12.7994  1850.0000    95.5397     0.1840    76.7028  1425.1665    11.3693
 2732.0000    10.8005    11.3126    11.4536    11.3693     9.7047  1853.3944    97.1158     0.1825    76.1782  1425.3011    11.7701
 2732.5000    10.7998    11.1556    11.4586    11.1353    10.8573  1856.2865    94.6257     0.1834    76.6314  1425.4518    11.2894
 2733.0000    10.7991    11.4674    11.3022    11.4483    12.7112  1857.7369    88.6333     0.1846    76.7825  1435.3878    11.1353
 2733.5000    10.7983    11.7067    11.5420    11.6889    12.9778  1858.8976    84.6741     0.1858    76.7069  1440.8315    11.2128
 2734.0000    10.7674    11.4641    11.6241    11.5280    12.7901  1860.0582    83.7652     0.1849    76.4048  1425.9081    11.4483
 2734.5000    10.7516    11.8665    11.4660    11.4483    12.6235  1861.2501    87.5997     0.1819    76.1027  1426.0793    11.4483
 2735.0000    10.7356    12.8037    12.2064    12.1851    13.4347  1862.6693    88.7233     0.1804    75.8006  1426.2162    11.6889
 2735.5000    10.7273    13.0713    12.9048    12.8798    14.1015  1863.8301    89.3958     0.1795    75.6495  1426.3553    12.3552
 2736.0000    10.7040    12.4507    13.2697    12.4071    13.7165  1864.9999    87.3574     0.1774    75.2719  1426.5243    13.0596
 2736.5000    10.6578    11.8601    12.1284    11.8520    13.2500  1866.4412    86.6731     0.1740    74.8943  1426.6566    12.3552
 2737.0000    10.6118    12.3613    11.7172    12.1851    13.1587  1867.6018    87.5715     0.1711    74.7432  1441.8926    11.7701
 2737.5000    10.6111    12.1897    12.1500    11.8452    13.4347  1868.7618    90.9548     0.1702    74.7432  1442.0181    12.0174
 2738.0000    10.6102    11.9375    11.9677    11.4483    13.4347  1920.2129    90.9483     0.1723    74.9738  1442.1687    11.7701
 2738.5000    10.6095    13.2421    11.8048    12.1010    13.6219  1921.3735    90.9430     0.1771    75.5740  1442.3192    11.5197
 2739.0000    10.6088    13.2404    12.8311    12.7055    13.7165  1972.5337    91.8414     0.1793    75.7251  1442.4698    12.3552
 2739.5000    10.6079    12.0986    13.1934    12.7908    13.3420  1956.0210    94.9982     0.1799    75.6495  1442.6205    13.0596
 2740.0000    10.6072    11.3661    11.8931    11.8520    12.8767  1933.3364    95.2182     0.1796    75.6495  1442.7711    11.8520
 2740.5000    10.5914    12.0120    11.4899    11.7701    12.6235  1910.6519    99.9569     0.1790    75.8761  1443.4232    11.5280
