~VERSION INFORMATION
 VERS.                2.0:   CWLS LOG ASCII STANDARD - VERSION 2.0
 WRAP.                 NO:   ONE LINE PER DEPTH STEP
~WELL INFORMATION
#MNEM.UNIT      DATA TYPE    INFORMATION
#----------   ------------   ------------------------------
 STRT.F           27.5000:   START DEPTH
 STOP.F         5889.0000:   STOP DEPTH
 STEP.F            0.5000:   STEP LENGTH
 NULL.          -999.2500:   NO VALUE
 COMP.   LAWRENCE ALLISON:   COMPANY
 WELL. LAWRENCE "X" #25-11:   WELL
 FLD .        N.P.R NO. 3:   FIELD
 LOC .      S11 T38N R78W:   LOCATION
 CNTY.            NATRONA:   COUNTY
 STAT.            WYOMING:   STATE
 CTRY. UNITED STATES OF AMERICA:   COUNTRY
 SRVC.      DRESSER ATLAS:   SERVICE COMPANY
 DATE.        09-FEB-1983:   LOGDATE
 API .     49025109170000:   API NUMBER
~CURVE INFORMATION
#MNEM.UNIT       API CODE    CURVE DESCRIPTION
#----------   ------------   ------------------------------
 DEPT.F                  :   
 CN  .DEC    42 890 03 00:   NEUTRON POROSITY
 GRD .GAPI   45 310 01 00:   GAMMA RAY FROM DENSITY LOG
 CORR.G/C3   45 356 01 00:   DENSITY CORRECTION
 DEN .G/C3   45 350 01 00:   BULK DENSITY
 CALD.IN     45 280 60 00:   CALIPER FROM DENSITY LOG
 TEND.LBS    45 635 01 00:   TENSION FORM DENSITY LOG
 GRS .GAPI   60 310 01 00:   GAMMA RAY FROM SONIC LOG
 TENS.LBS    60 635 01 00:   TENSION FROM SONIC
 DT  .US/F   60 520 00 00:   DELTA TIME
 SPR .MV     11 010 01 00:   SPONTANEOUS POTENTIAL FROM RES.
 RD  .OHMM   11 220 10 00:   RESISTIVITY DEEP
 RS  .OHMM   11 220 09 00:   RESISTIVITY SHALLOW
 RMLL.OHMM   11 270 04 00:   MICRO LATEROLOG
 TENR.LBS    11 635 01 00:   TENSION FROM RES.
~PARAMETER INFORMATION
#MNEM.UNIT          VALUE    DESCRIPTION
#----------   ------------   ------------------------------
 EKB .F         5196.0000:   Kelly bushing
 EGL .F         5186.0000:   Ground level
 TD  .F         5883.0000:   Total depth
 CLNT.            A2DTECH:   Client Code
 SL  . 1989' FSL & 1148' FWL:   Surface Location
 PD  .                 GL:   Permanent Datum
 EPD .F              5186:   Elevation Permanent Datum
 LMF .                 KB:   Log Measured From
 DMF .                 KB:   Drilling Measured From
 DAPD.F                10:   Feet Above Permanent Datum
 DATE.        09-FEB-1983:   Date Logged [DD-MMM-YYYY]
 DD  .F              5883:   Depth driller
 DL  .F              5882:   Depth logger
 BLI .F              5871:   Bottom log interval
 TLI .F               700:   Top log interval
 CS1 .IN            9.625:   Casing size
 CBD1.      9.625" @ 701':   Casing driller 1
 CBL1.F               700:   Casing logger 1
 BS1 .IN             8.75:   Bit size
 BSD1.F              5883:   Depth drilled with bit1
 DFT .    HEC/DRISPAC/KCL:   Type fluid in hole
 DFD .                  9:   Density
 DFV .                 35:   Viscosity
 DFPH.                  8:   pH
 DFL .                6.4:   Fluid loss
 MSS .           FLOWLINE:   Source of sample
 RMS .OHMM           0.23:   Rm
 MST .F                50:   Rm Meas. temp.
 RMF .OHMM           0.17:   Rmf
 MFST.F                54:   Rmf Meas. temp.
 MFSS.               MEAS:   Source Rmf.
 BHT .F               176:   BHT.
 TCS .HRS              10:   Time Circ. stopped
 MRT .F               176:   Maximum recorded temp.
 LUN .               6274:   Logging unit number
 LUL .               GLTE:   Logging unit location
 ENGI.          TOLLEFSON:   Recorded By
 WITN.           JENNINGS:   Witnessed by
 ORIG.           5" PRINT:   Origin of data
 UWI .     49025109170000:   Unique Well ID
 DICO. A2D TECHNOLOGIES, INC.:   Digitizing Company
 RMC .OHMM           0.41:   Rmc
 MCST.F                54:   Rmc Meas. temp.
 MCSS.               MEAS:   Source Rmc.
~OTHER INFORMATION
~A  DEPTH       CN        GRD       CORR        DEN       CALD       TEND        GRS       TENS         DT        SPR         RD         RS       RMLL       TENR
# ...
 2061.0000     0.2956   152.5746     0.0542     2.4766     9.7195   -26.7882  -999.2500  -999.2500  -999.2500   -98.3991     9.5496     8.6948     8.9402   -52.8574
 2061.5000     0.2990   154.7029     0.0527     2.4735     9.7233   -27.3347  -999.2500  -999.2500  -999.2500   -98.4076     9.4685     8.5647     8.8674   -54.0938
 2062.0000     0.2985   156.2333     0.0271     2.4667     9.7270   -27.8812  -999.2500  -999.2500  -999.2500   -98.4183     9.2014     8.4386     8.6147   -47.3269
 2062.5000     0.3023   155.3501     0.0150     2.4607     9.7301   -28.4277  -999.2500  -999.2500  -999.2500   -98.2748     8.9401     8.3721     8.2559   -48.5798
 2063.0000     0.3060   153.5628     0.0165     2.4538     9.7300   -28.9742  -999.2500  -999.2500  -999.2500   -98.2855     8.8072     8.4220     7.3318   -49.5824
 2063.5000     0.3024   152.0767     0.0345     2.4493     9.7300   -29.5208  -999.2500  -999.2500  -999.2500   -98.2940     8.7974     8.4117     5.9919   -50.3676
 2064.0000     0.3061   151.1928     0.0349     2.4703     9.7300   -30.0673  -999.2500  -999.2500  -999.2500   -98.4528     8.9101     8.4034     5.5855   -51.1785
 2064.5000     0.3091   152.4227     0.0284     2.4816     9.7285   -30.6138  -999.2500  -999.2500  -999.2500   -98.4632     8.8977     8.5124     6.0620   -51.9894
 2065.0000     0.2989   153.6474     0.0344     2.4868     9.7188   -30.6074  -999.2500  -999.2500  -999.2500   -98.6217     9.0117     8.6224     6.6726   -52.8004
 2065.5000     0.2953   153.9685     0.0389     2.4898     9.7107   -29.9376  -999.2500  -999.2500  -999.2500   -98.6302     9.1297     8.7341     7.4471   -53.6113
 2066.0000     0.2860   153.6868     0.0404     2.4898     9.7220   -29.2678  -999.2500  -999.2500  -999.2500   -98.6388     9.2443     8.8450     7.8636   -54.4222
 2066.5000     0.2806   153.6648     0.0434     2.4875     9.7232   -28.5980  -999.2500  -999.2500  -999.2500   -98.6477     9.2979     8.9596     7.9104   -55.2331
 2067.0000     0.2855   153.4258     0.0418     2.4829     9.7022   -27.9282  -999.2500  -999.2500  -999.2500   -98.6580     9.4144     9.0756     7.9576   -56.0441
 2067.5000     0.2876   154.0531     0.0328     2.4783     9.6923   -27.2585  -999.2500  -999.2500  -999.2500   -98.5145     9.6013     9.1909     8.1146   -56.8550
 2068.0000     0.2780   155.2778     0.0147     2.4730     9.6980   -26.5887  -999.2500  -999.2500  -999.2500   -98.5252     9.6600     9.1819     8.3343   -57.6659
 2068.5000     0.2690   157.1328     0.0100     2.4670     9.7036   -25.9189  -999.2500  -999.2500  -999.2500   -98.3838     9.7810     9.2389     8.6360   -58.4768
 2069.0000     0.2660   158.6359     0.0056     2.4662     9.7093   -25.2491  -999.2500  -999.2500  -999.2500   -98.2425     9.9063     9.2275     8.9122   -59.3467
 2069.5000     0.2757   157.7522    -0.0019     2.4677     9.7150   -24.5793  -999.2500  -999.2500  -999.2500   -98.1011     9.9640     9.2825     9.0276   -60.3008
 2070.0000     0.2836   155.6637    -0.0095     2.4699     9.7206   -23.9095  -999.2500  -999.2500  -999.2500   -97.9597    10.0917     9.4657     9.0187   -61.4328
 2070.5000     0.2899   153.2516    -0.0219     2.4721     9.7262   -23.2398  -999.2500  -999.2500  -999.2500   -98.1203    10.1481     9.5883     9.0724   -54.6094
 2071.0000     0.2966   150.8892    -0.0366     2.4736     9.7301   -22.5700  -999.2500  -999.2500  -999.2500   -98.1289    10.2067     9.6458     9.0613   -55.7682
 2071.5000     0.3002   149.6993    -0.0487     2.4811     9.7300   -21.9002  -999.2500  -999.2500  -999.2500   -98.1396    10.1925     9.6358     9.0524   -56.6955
 2072.0000     0.2978   149.4180     0.0100     2.4901     9.7300   -21.2304  -999.2500  -999.2500  -999.2500   -98.1481    10.1811     9.6241     9.1063   -57.6692
 2072.5000     0.2891   151.8525     0.0388     2.4930     9.7300   -20.5606  -999.2500  -999.2500  -999.2500   -98.0060    10.1697     9.6147     9.1608   -58.7817
 2073.0000     0.2807   153.6846     0.0505     2.4922     9.7300   -19.8909  -999.2500  -999.2500  -999.2500   -98.0153    10.1586     9.6052     9.1513   -54.6747
 2073.5000     0.2772   154.0007     0.0384     2.4884     9.7300   -19.4677  -999.2500  -999.2500  -999.2500   -98.1739    10.0766     9.4638     9.1403   -53.0827
 2074.0000     0.2784   153.4182     0.0143     2.4854     9.7300   -19.2562  -999.2500  -999.2500  -999.2500   -98.1845     9.9934     9.3222     9.0683   -54.0602
 2074.5000     0.2875   154.3467     0.0143     2.4846     9.7299   -19.0405  -999.2500  -999.2500  -999.2500   -98.1919     9.9134     9.1849     8.9968   -55.2037
 2075.0000     0.2968   156.4801     0.0083     2.4868     9.7364   -18.7804  -999.2500  -999.2500  -999.2500   -98.2016     9.7661     9.0497     8.8032   -56.1310
 2075.5000     0.3059   156.8011     0.0007     2.4890     9.7459   -18.5689  -999.2500  -999.2500  -999.2500   -98.2102     9.6879     9.0408     8.6116   -57.0583
 2076.0000     0.3057   155.3150     0.0172     2.4898     9.7433   -18.3573  -999.2500  -999.2500  -999.2500   -98.0688     9.7443     9.0947     8.6650   -54.4622
 2076.5000     0.2909   152.6241     0.0323     2.4875     9.7315   -18.8422  -999.2500  -999.2500  -999.2500   -98.0795     9.9350     9.1489     8.7750   -51.4286
 2077.0000     0.2780   150.2007     0.0352     2.4837     9.7379   -25.4306  -999.2500  -999.2500  -999.2500   -98.0880     9.9928     9.2651     8.9504   -52.5530
 2077.5000     0.2729   148.1508     0.0367     2.4814     9.7478   -25.1663  -999.2500  -999.2500  -999.2500   -98.0966    10.0510     9.3874     9.0663   -53.4799
 2078.0000     0.2763   147.8645     0.0367     2.4821     9.7462   -24.9547  -999.2500  -999.2500  -999.2500   -97.9552    10.0397     9.5066     9.1837   -46.8884
 2078.5000     0.2857   149.9979     0.0350     2.4828     9.7410   -24.7376  -999.2500  -999.2500  -999.2500   -97.9640    10.0983     9.4949     9.1724   -40.2969
 2079.0000     0.2929   151.2229     0.0291     2.4799     9.7357   -24.4789  -999.2500  -999.2500  -999.2500   -97.8245    10.1558     9.4856     8.9131   -33.7055
 2079.5000     0.2890   151.2475     0.0245     2.4752     9.7305   -24.2674  -999.2500  -999.2500  -999.2500   -97.8331    10.2872     9.4763     8.7818   -34.8643
 2080.0000     0.2866   151.5686     0.0185     2.4721     9.7300   -31.5592  -999.2500  -999.2500  -999.2500   -97.6917    10.2728     9.5329     8.4140   -28.1955
 2080.5000     0.2861   151.2873     0.0079     2.4713     9.7300   -31.3344  -999.2500  -999.2500  -999.2500   -97.7003    10.3327     9.5676     8.3478   -29.2001
 2081.0000     0.2906   151.0060     0.0019     2.4736     9.7300   -31.0763  -999.2500  -999.2500  -999.2500   -97.7091    10.3928     9.5288     8.3588   -30.1504
 2081.5000     0.2982   150.7247     0.0049     2.4765     9.7300   -30.8648  -999.2500  -999.2500  -999.2500   -97.5696    10.3067     9.5031     8.3895   -31.2863
 2082.0000     0.2994   151.3520     0.0139     2.4788     9.7300   -30.6534  -999.2500  -999.2500  -999.2500   -97.5782    10.2241     9.5598     8.3230   -32.2136
 2082.5000     0.2994   151.9743     0.0138     2.4795     9.7300   -30.4348  -999.2500  -999.2500  -999.2500   -97.5862    10.2127     9.5480     8.3129   -33.1405
 2083.0000     0.2980   152.5966     0.0063     2.4802     9.7298   -22.6812  -999.2500  -999.2500  -999.2500   -97.5953    10.1305     9.5386     8.2474   -41.5789
 2083.5000     0.2968   152.6215     0.0017     2.4794     9.7497   -22.4697  -999.2500  -999.2500  -999.2500   -97.6060    10.0469     9.6622     8.1260   -42.5564
 2084.0000     0.2986   152.3352    -0.0043     2.4764     9.7807   -14.7620  -999.2500  -999.2500  -999.2500   -97.6145    10.0357     9.6525     7.8417   -43.6727
 2084.5000     0.2927   152.3601     0.0138     2.4718     9.8121   -14.5427  -999.2500  -999.2500  -999.2500   -97.6231    10.0245     9.5082     7.6710   -44.6000
 2085.0000     0.2894   152.6812     0.0287     2.4656     9.8441   -14.2861  -999.2500  -999.2500  -999.2500   -97.6316     9.9442     9.4333     7.8243   -53.0462
