~VERSION INFORMATION
 VERS.                2.0:   CWLS LOG ASCII STANDARD - VERSION 2.0
 WRAP.                 NO:   ONE LINE PER DEPTH STEP
~WELL INFORMATION
#MNEM.UNIT      DATA TYPE    INFORMATION
#----------   ------------   ------------------------------
 STRT.F           60.0000:   START DEPTH
 STOP.F         3178.0000:   STOP DEPTH
 STEP.F            0.5000:   STEP LENGTH
 NULL.          -999.2500:   NO VALUE
 COMP. LAWRENCE-ALLISON & ASSOSCIATES:   COMPANY
 WELL. LAWRENCE "AX" #46-21:   WELL
 FLD .             NPR #3:   FIELD
 LOC .      S21 T39N R78W:   LOCATION
 CNTY.            NATRONA:   COUNTY
 STAT.            WYOMING:   STATE
 CTRY. UNITED STATES OF AMERICA:   COUNTRY
 SRVC.       SCHLUMBERGER:   SERVICE COMPANY
 DATE.        03-JUN-1982:   LOGDATE
 API .     49025108890000:   API NUMBER
~CURVE INFORMATION
#MNEM.UNIT       API CODE    CURVE DESCRIPTION
#----------   ------------   ------------------------------
 DEPT.F                  :   
 TEND.LBS    45 635 01 00:   TENSION FORM DENSITY LOG
 CALD.IN     45 280 60 00:   CALIPER FROM DENSITY LOG
 CORR.G/C3   45 356 01 00:   DENSITY CORRECTION
 RHOB.G/C3   45 350 01 00:   BULK DENSITY
 NPHI.DEC    42 890 03 00:   NEUTRON POROSITY SANDSTONE
 GRR .GAPI   07 310 01 00:   GAMMA RAY FROM RESISTIVITY
 SPR .MV     07 010 01 00:   SPONTANEOUS POTENTIAL
 SFL .OHMM   07 220 01 00:   SHALLOW FOCUSED LOG RESISTIVITY
 ILD .OHMM   07 120 46 00:   DEEP INDUCTION RESISTIVITY
 ILM .OHMM   07 120 44 00:   INDUCTION LOG MEDIUM RESISTIVITY
 TENR.LBS    07 635 01 00:   TENSION FROM RESISTIVITY
~PARAMETER INFORMATION
#MNEM.UNIT          VALUE    DESCRIPTION
#----------   ------------   ------------------------------
 EKB .F         5008.0000:   Kelly bushing
 EGL .F         4998.0000:   Ground level
 EDF .F         5007.0000:   Drilling floor
 TD  .F         3230.0000:   Total depth
 CLNT.            A2DTECH:   Client Code
 SL  . 1864' FSL & 2484' FWL:   Surface Location
 PD  .                 GL:   Permanent Datum
 EPD .F              4998:   Elevation Permanent Datum
 LMF .                 KB:   Log Measured From
 DMF .                 KB:   Drilling Measured From
 DAPD.F                10:   Feet Above Permanent Datum
 DATE.        03-JUN-1982:   Date Logged [DD-MMM-YYYY]
 DD  .F              3230:   Depth driller
 DL  .F              3200:   Depth logger
 BLI .F              3190:   Bottom log interval
 TLI .F               475:   Top log interval
 CS1 .IN            9.625:   Casing size
 CBD1.      9.625" @ 465':   Casing driller 1
 CBL1.F               475:   Casing logger 1
 BS1 .IN             8.75:   Bit size
 BSD1.F              3230:   Depth drilled with bit1
 DFT .   FORM WATER / AIR:   Type fluid in hole
 TCS .HRS            1530:   Time Circ. stopped
 TLAB.HRS            1900:   Time logger at bottom
 MRT .F               135:   Maximum recorded temp.
 LUN .               8035:   Logging unit number
 LUL .               CSPR:   Logging unit location
 ENGI.              PENNY:   Recorded By
 WITN.           JENNINGS:   Witnessed by
 ORIG.      2.5" 5" PRINT:   Origin of data
 UWI .     49025108890000:   Unique Well ID
 DICO. A2D TECHNOLOGIES, INC.:   Digitizing Company
~OTHER INFORMATION
~A   DEPT     TEND       CALD       CORR       RHOB       NPHI        GRR        SPR        SFL        ILD        ILM       TENR   
# ...
 1371.5000  1556.5023     9.9900     0.1414     2.5263  -999.2500   166.2872  -999.2500  -999.2500     7.7207     7.8137  1636.3636
 1372.0000  1555.1136     9.9906     0.1415     2.5294  -999.2500   165.5264  -999.2500  -999.2500     7.8295     7.9236  1636.3636
 1372.5000  1553.5947     9.9912     0.1201     2.5225  -999.2500   169.8297  -999.2500  -999.2500     7.8295     7.9236  1636.3636
 1373.0000  1552.4664     9.9478     0.1047     2.4972  -999.2500   175.4441  -999.2500  -999.2500     7.8295     7.9236  1636.3636
 1373.5000  1550.8822     9.9042     0.0980     2.4897  -999.2500   178.0674  -999.2500  -999.2500     7.8295     7.9236  1636.3636
 1374.0000  1549.7759     9.9049     0.0906     2.4890  -999.2500   172.3739  -999.2500  -999.2500     7.9399     8.0350  1636.3636
 1374.5000  1563.5519     9.8907     0.0846     2.4966  -999.2500   167.3804  -999.2500  -999.2500     7.9399     8.0350  1636.3636
 1375.0000  1562.0330     9.9060     0.0832     2.5116  -999.2500   166.6667  -999.2500  -999.2500     7.9399     8.0350  1636.3636
 1375.5000  1575.6353     9.9066     0.0833     2.5229  -999.2500   168.3025  -999.2500  -999.2500     7.9399     8.0350  1636.3636
 1376.0000  1574.0514     9.9219     0.0816     2.5164  -999.2500   171.5151  -999.2500  -999.2500     7.9399     8.0350  1630.3062
 1376.5000  1590.8790     9.9077     0.0684     2.4908  -999.2500   172.9174  -999.2500  -999.2500     7.9154     8.0103  1606.0605
 1377.0000  1601.6683     9.8936     0.0730     2.4826  -999.2500   173.3227  -999.2500  -999.2500     7.8295     7.9236  1606.0605
 1377.5000  1614.9886     9.8795     0.0851     2.4818  -999.2500   172.7536  -999.2500  -999.2500     7.8295     7.9236  1606.0605
 1378.0000  1628.9600     9.8949     0.0965     2.4879  -999.2500   170.1532  -999.2500  -999.2500     7.7207     7.8137  1606.0605
 1378.5000  1627.3544     9.8955     0.1064     2.4902  -999.2500   171.5341  -999.2500  -999.2500     7.6134     7.7053  1606.0605
 1379.0000  1640.9784     9.9107     0.0929     2.4880  -999.2500   172.8967  -999.2500  -999.2500     7.6134     7.7053  1606.0605
 1379.5000  1624.6201     9.9113     0.0787     2.4819  -999.2500   173.0372  -999.2500  -999.2500     7.6134     7.7053  1606.0605
 1380.0000  1623.3185     9.9414     0.0652     2.4798  -999.2500   171.5461  -999.2500  -999.2500     7.6134     7.7053  1606.0605
 1380.5000  1621.9730     9.9713     0.0739     2.5061  -999.2500   168.3708  -999.2500  -999.2500     7.6134     7.7053  1606.0605
 1381.0000  1620.6279    10.0159     0.0812     2.5362  -999.2500   162.9227  -999.2500  -999.2500     7.6134     7.7053  1606.0605
 1381.5000  1619.2825    10.0605     0.0850     2.5512  -999.2500   160.6565  -999.2500  -999.2500     7.6134     7.7053  1606.0605
 1382.0000  1617.8939     9.9730     0.0859     2.5498  -999.2500   161.2031  -999.2500  -999.2500     7.6498     7.7421  1606.0605
 1382.5000  1601.6442     9.9148     0.0845     2.5461  -999.2500   162.0341  -999.2500  -999.2500     7.7207     7.8137  1606.0605
 1383.0000  1606.2795     9.8842     0.0838     2.5386  -999.2500   162.4955  -999.2500  -999.2500     7.7798     7.8734  1606.0605
 1383.5000  1613.9883     9.8572     0.0816     2.5202  -999.2500   162.7190  -999.2500  -999.2500     7.8295     7.9236  1606.0605
 1384.0000  1612.5560     9.8431     0.0742     2.5094  -999.2500   167.7087  -999.2500  -999.2500     7.8295     7.9236  1606.0605
 1384.5000  1611.2109     9.8145     0.0622     2.5065  -999.2500   172.9715  -999.2500  -999.2500     7.8295     7.9236  1606.0605
 1385.0000  1624.9215     9.8002     0.0548     2.4930  -999.2500   175.7053  -999.2500  -999.2500     7.9399     8.0350  1606.0605
 1385.5000  1638.3506     9.7715     0.0466     2.4817  -999.2500   177.9845  -999.2500  -999.2500     7.9399     8.0350  1606.0605
 1386.0000  1637.0487     9.7427     0.0391     2.4744  -999.2500   177.5365  -999.2500  -999.2500     7.8295     7.9236  1606.0605
 1386.5000  1635.7250     9.7433     0.0550     2.4947  -999.2500   175.1930  -999.2500  -999.2500     7.8295     7.9236  1606.0605
 1387.0000  1634.3798     9.7440     0.0741     2.5195  -999.2500   172.8650  -999.2500  -999.2500     7.8295     7.9236  1606.0605
 1387.5000  1633.0343     9.7446     0.0898     2.5240  -999.2500   170.9660  -999.2500  -999.2500     7.8295     7.9236  1606.0605
 1388.0000  1631.5154     9.7745     0.0839     2.5143  -999.2500   169.8352  -999.2500  -999.2500     7.8295     7.9236  1606.0605
 1388.5000  1630.2137     9.8044     0.0742     2.5166  -999.2500   171.1554  -999.2500  -999.2500     7.8295     7.9236  1606.0605
 1389.0000  1628.9985     9.8344     0.0757     2.5286  -999.2500   172.1227  -999.2500  -999.2500     7.8295     7.9236  1606.0605
 1389.5000  1627.6532     9.8496     0.0773     2.5399  -999.2500   169.8580  -999.2500  -999.2500     7.8295     7.9236  1606.0605
 1390.0000  1626.3081     9.8649     0.0736     2.5423  -999.2500   165.7736  -999.2500  -999.2500     7.8295     7.9236  1606.0605
 1390.5000  1636.6710     9.8656     0.0698     2.5262  -999.2500   165.3250  -999.2500  -999.2500     7.8295     7.9236  1636.3636
 1391.0000  1638.6520     9.8662     0.0708     2.5011  -999.2500   167.1502  -999.2500  -999.2500     7.8295     7.9236  1636.3636
 1391.5000  1637.2196     9.8519     0.0769     2.4959  -999.2500   169.4724  -999.2500  -999.2500     7.8000     7.8937  1636.3636
 1392.0000  1635.7224     9.8379     0.0838     2.5004  -999.2500   172.2726  -999.2500  -999.2500     7.7207     7.8137  1636.3636
 1392.5000  1634.4205     9.8385     0.0921     2.5132  -999.2500   173.0795  -999.2500  -999.2500     7.7207     7.8137  1636.3636
 1393.0000  1633.1185     9.8244     0.0915     2.5230  -999.2500   172.4894  -999.2500  -999.2500     7.7207     7.8137  1636.3636
 1393.5000  1631.8170     9.8103     0.0877     2.5253  -999.2500   172.1828  -999.2500  -999.2500     7.7207     7.8137  1636.3636
 1394.0000  1630.5151     9.8110     0.0864     2.5223  -999.2500   173.5606  -999.2500  -999.2500     7.7207     7.8137  1636.3636
 1394.5000  1644.0958     9.8115     0.0895     2.5145  -999.2500   174.9263  -999.2500  -999.2500     7.7207     7.8137  1636.3636
 1395.0000  1657.4810     9.7973     0.0865     2.5014  -999.2500   174.9328  -999.2500  -999.2500     7.7207     7.8137  1636.3636
 1395.5000  1659.8428     9.8127     0.0791     2.5120  -999.2500   167.2120  -999.2500  -999.2500     7.7207     7.8137  1636.3636
 1396.0000  1670.1505     9.8132     0.0701     2.5195  -999.2500   163.1276  -999.2500  -999.2500     7.7207     7.8137  1636.3636
 1396.5000  1683.3623     9.8138     0.0649     2.5196  -999.2500   160.8614  -999.2500  -999.2500     7.8295     7.9236  1636.3636
 1397.0000  1682.2123     9.8144     0.0674     2.5166  -999.2500   161.8559  -999.2500  -999.2500     7.8295     7.9236  1636.3636
 1397.5000  1680.8668     9.8151     0.0772     2.5122  -999.2500   163.7689  -999.2500  -999.2500     7.8838     7.9784  1636.3636
 1398.0000  1678.8579     9.8008     0.0840     2.5138  -999.2500   165.8090  -999.2500  -999.2500     8.0518     8.1480  1636.3636
 1398.5000  1662.9899     9.8015     0.0916     2.5145  -999.2500   169.1295  -999.2500  -999.2500     8.0518     8.1480  1636.3636
 1399.0000  1646.7404     9.8021     0.0736     2.4950  -999.2500   171.7803  -999.2500  -999.2500     8.0518     8.1480  1636.3636
 1399.5000  1645.4385     9.8173     0.0571     2.4868  -999.2500   172.0068  -999.2500  -999.2500     8.1653     8.2626  1627.2743
 1400.0000  1626.1204     9.8179     0.0437     2.4831  -999.2500   170.4556  -999.2500  -999.2500     8.1653     8.2626  1606.0605
 1400.5000  1605.0873     9.8187     0.0542     2.4960  -999.2500   170.0068  -999.2500  -999.2500     8.0518     8.1480  1576.1445
 1401.0000  1580.2131     9.8194     0.0725     2.5065  -999.2500   170.4686  -999.2500  -999.2500     8.0518     8.1480  1544.5195
 1401.5000  1593.7468     9.8201     0.0850     2.5206  -999.2500   171.8388  -999.2500  -999.2500     8.0518     8.1480  1544.0880
