~VERSION INFORMATION
 VERS.                2.0:   CWLS LOG ASCII STANDARD - VERSION 2.0
 WRAP.                 NO:   ONE LINE PER DEPTH STEP
~WELL INFORMATION
#MNEM.UNIT      DATA TYPE    INFORMATION
#----------   ------------   ------------------------------
 STRT.F           76.0000:   START DEPTH
 STOP.F         4972.0000:   STOP DEPTH
 STEP.F            0.5000:   STEP LENGTH
 NULL.          -999.2500:   NO VALUE
 COMP.    PENIX & SCISSON:   COMPANY
 WELL. FENIX NPR 3 "LX" #85-9:   WELL
 FLD .                NPR:   FIELD
 LOC .       S9 T38N R78W:   LOCATION
 CNTY.            NATRONA:   COUNTY
 STAT.            WYOMING:   STATE
 CTRY. UNITED STATES OF AMERICA:   COUNTRY
 SRVC.       SCHLUMBERGER:   SERVICE COMPANY
 DATE.        10-OCT-1978:   LOGDATE
 API .     49025107250000:   API NUMBER
~CURVE INFORMATION
#MNEM.UNIT       API CODE    CURVE DESCRIPTION
#----------   ------------   ------------------------------
 DEPT.F                  :   
 TENR.LBS    07 635 01 00:   TENSION FROM RESISTIVITY
 SPR .MV     07 010 01 00:   SPONTANEOUS POTENTIAL
 SFL .OHMM   07 220 01 00:   SHALLOW FOCUSED LOG RESISTIVITY
 ILD .OHMM   07 120 46 00:   DEEP INDUCTION RESISTIVITY
 ILM .OHMM   07 120 44 00:   INDUCTION LOG MEDIUM RESISTIVITY
 CALD.IN     45 280 60 00:   CALIPER FROM DENSITY LOG
 GRD .GAPI   45 310 01 00:   GAMMA RAY FROM DENSITY LOG
 CORR.G/C3   45 356 01 00:   DENSITY CORRECTION
 TEND.LBS    45 635 01 00:   TENSION FROM DENSITY LOG
 RHOB.G/C3   45 350 01 00:   BULK DENSITY
 NPHI.DEC    42 890 03 00:   NEUTRON POROSITY SANDSTONE
~PARAMETER INFORMATION
#MNEM.UNIT          VALUE    DESCRIPTION
#----------   ------------   ------------------------------
 EKB .F         5288.0000:   Kelly bushing
 EGL .F         5278.0000:   Ground level
 EDF .F            0.0000:   Drilling floor
 TD  .F         4950.0000:   Total depth
 DATE.        10-OCT-1978:   Date logged
 CLNT.            A2DTECH:   Client Code
 SL  . 2310' FSL & 230' FEL:   Surface Location
 PD  .                 GL:   Permanent Datum
 EPD .F              5278:   Elevation Permanent Datum
 LMF .                 KB:   Log Measured From
 DMF .                 KB:   Drilling Measured From
 DAPD.F                10:   Feet Above Permanent Datum
 DD  .F              4950:   Depth driller
 DL  .F              4950:   Depth logger
 BLI .F              4947:   Bottom log interval
 TLI .F               499:   Top log interval
 CS1 .IN            8.625:   Casing size
 CBD1.      8.625" @ 489':   Casing driller 1
 CBL1.F               499:   Casing logger 1
 BS1 .IN            7.875:   Bit size
 BSD1.F              4950:   Depth drilled with bit1
 DFT .            GEL/MUD:   Type fluid in hole
 DFD .                9.3:   Density
 DFV .                175:   Viscosity
 DFPH.                 12:   pH
 DFL .                  4:   Fluid loss
 MSS .               TANK:   Source of sample
 RMS .OHMM           .600:   Rm
 MST .F                71:   Rm Meas. temp.
 RMF .OHMM           .804:   Rmf
 MFST.F                71:   Rmf Meas. temp.
 MFSS.               MEAS:   Source Rmf.
 RMB .OHMM           .308:   Rm. at BHT
 BHT .F               138:   BHT.
 TCS .HRS            1200:   Time Circ. stopped
 TLAB.HRS            0330:   Time logger at bottom
 MRT .F               138:   Maximum recorded temp.
 LUN .               8035:   Logging unit number
 LUL .               CSPR:   Logging unit location
 ENGI.        CRAIG/DFARR:   Recorded By
 WITN.              AMEND:   Witnessed by
 ORIG.           5" PRINT:   Origin of data
 UWI .     49025107250000:   Unique Well ID
 DICO. A2D TECHNOLOGIES, INC.:   Digitizing Company
~OTHER INFORMATION
~A   DEPT     TENR        SPR        SFL        ILD        ILM       CALD         GRD      CORR       TEND       RHOB         NPHI 
# ...
 1387.5000   820.8870   -23.6100     7.3390     8.1840     6.7950    13.6180   104.7050     0.0160   934.2080     2.5200     0.2560
 1388.0000   821.0330   -23.6100     7.3450     8.1670     6.7910    13.6340   105.2180     0.0060   934.4510     2.5180     0.2570
 1388.5000   821.1780   -23.6080     7.3510     8.1490     6.7880    13.6510   102.5410     0.0130   934.6930     2.5320     0.2540
 1389.0000   821.3240   -23.6360     7.3570     8.1310     6.7840    13.6700    99.8000     0.0190   934.9360     2.5450     0.2550
 1389.5000   821.4690   -23.3380     7.3640     8.1130     6.7810    13.7100    99.3290     0.0260   935.1790     2.5550     0.2570
 1390.0000   821.6140   -22.7890     7.3690     8.0960     6.7770    13.7570   101.5880     0.0260   935.4210     2.5520     0.2570
 1390.5000   821.7600   -22.2860     7.3750     8.0570     6.7740    13.8030   105.6380     0.0210   935.6640     2.5430     0.2500
 1391.0000   821.9050   -21.8610     7.3510     8.0200     6.7700    13.8500   106.2000     0.0190   935.9060     2.5360     0.2530
 1391.5000   822.0510   -20.9850     7.3220     7.9830     6.7670    13.8940   103.6070     0.0280   936.1490     2.5430     0.2600
 1392.0000   822.1960   -20.3100     7.2920     7.9450     6.7630    13.9450   100.8940     0.0350   936.3920     2.5610     0.2670
 1392.5000   822.3410   -20.1960     7.2620     7.9070     6.7600    13.9570    98.0280     0.0430   936.6340     2.5730     0.2740
 1393.0000   822.4870   -20.0490     7.2330     7.8700     6.7560    13.9860    97.0440     0.0470   936.8770     2.5820     0.2660
 1393.5000   822.6320   -20.0370     7.2030     7.8320     6.7530    13.9450    97.1610     0.0500   937.1200     2.5800     0.2650
 1394.0000   822.7770   -20.0330     7.1740     7.7950     6.7500    13.8970    97.7860     0.0470   937.3620     2.5800     0.2660
 1394.5000   822.9230   -20.0430     7.1440     7.7570     6.7460    13.8460    98.3780     0.0410   937.6050     2.5580     0.2690
 1395.0000   823.0680   -20.0730     7.1140     7.7190     6.7430    13.7970    99.0260     0.0460   937.8480     2.5570     0.2710
 1395.5000   823.2140   -20.5580     7.0980     7.6820     6.7390    13.7480    99.6510     0.0520   938.0900     2.5610     0.2670
 1396.0000   823.3590   -20.9970     7.0710     7.6440     6.7360    13.6940   100.2740     0.0530   938.3330     2.5660     0.2610
 1396.5000   823.5040   -21.4570     7.0440     7.6070     6.7320    13.6780   100.8970     0.0490   938.5760     2.5660     0.2560
 1397.0000   823.6500   -21.9090     7.0180     7.5690     6.7290    13.7110   101.5780     0.0460   938.8180     2.5620     0.2540
 1397.5000   823.7950   -22.1040     6.9910     7.5150     6.7250    13.7380   101.7850     0.0440   939.0610     2.5570     0.2550
 1398.0000   823.9410   -22.2010     6.9650     7.5220     6.7230    13.7680   101.3840     0.0440   939.3040     2.5390     0.2570
 1398.5000   824.0860   -22.2980     6.9380     7.5350     6.7070    13.7930   101.0370     0.0180   939.5460     2.5160     0.2570
 1399.0000   824.2310   -22.3990     6.9120     7.5480     6.6700    13.8250   100.6960     0.0070   939.7890     2.5210     0.2540
 1399.5000   824.3770   -22.4230     6.8850     7.5600     6.6340    13.7630   100.3460     0.0130   940.0320     2.5410     0.2520
 1400.0000   824.5220   -22.4210     6.8590     7.5730     6.5970    13.6740    99.9530     0.0170   940.2740     2.5530     0.2480
 1400.5000   824.6670   -22.4200     6.8320     7.5850     6.5610    13.6300    99.7060     0.0210   940.5170     2.5630     0.2500
 1401.0000   824.8130   -22.4300     6.8050     7.5980     6.5240    13.6500    99.0750     0.0260   940.7600     2.5640     0.2520
 1401.5000   824.9580   -22.3180     6.7790     7.6110     6.4880    13.6610   101.1390     0.0310   941.0020     2.5590     0.2550
 1402.0000   825.1040   -22.0450     6.7520     7.6230     6.4520    13.6750   103.0580     0.0300   941.2450     2.5550     0.2570
 1402.5000   825.2490   -21.7790     6.7260     7.6370     6.4150    13.6900   102.8490     0.0270   941.4880     2.5510     0.2590
 1403.0000   825.3940   -21.5160     6.6990     7.6560     6.3790    13.6990   101.3190     0.0240   941.7300     2.5470     0.2580
 1403.5000   825.5400   -21.2510     6.6730     7.6430     6.3430    13.7560    99.5200     0.0210   941.9730     2.5430     0.2560
 1404.0000   825.6850   -20.9670     6.6460     7.6040     6.3060    13.8610    99.8830     0.0180   942.2160     2.5360     0.2530
 1404.5000   825.8310   -20.8410     6.6200     7.5650     6.2700    13.9690   101.0870     0.0230   942.4580     2.5290     0.2510
 1405.0000   825.9760   -20.9120     6.5930     7.5270     6.2340    14.0460   102.2150     0.0290   942.7010     2.5270     0.2570
 1405.5000   826.1210   -20.9600     6.5670     7.4880     6.1970    14.0780   103.3880     0.0350   942.9440     2.5340     0.2630
 1406.0000   826.2670   -21.0120     6.5400     7.4500     6.1610    14.1170   102.5460     0.0410   943.1860     2.5440     0.2680
 1406.5000   826.4120   -21.0660     6.5130     7.4120     6.1250    14.1430   100.9590     0.0490   943.4290     2.5610     0.2740
 1407.0000   826.5570   -21.1180     6.4870     7.3740     6.0890    14.1230    99.6190     0.0570   943.6720     2.5770     0.2790
 1407.5000   826.7030   -21.1700     6.4600     7.3360     6.0520    14.1150   100.2700     0.0600   943.9140     2.5760     0.2810
 1408.0000   826.8480   -21.2230     6.4340     7.2970     6.0080    14.2470   101.5950     0.0500   944.1570     2.5660     0.2840
 1408.5000   826.9940   -21.2760     6.4070     7.2590     6.0220    14.4850   102.9180     0.0400   944.3990     2.5530     0.2870
 1409.0000   827.1390   -21.3280     6.3810     7.2210     6.0390    14.7090   101.4920     0.0310   944.6420     2.5410     0.2810
 1409.5000   827.2840   -21.3800     6.3540     7.1830     6.0550    14.8160    99.6690     0.0210   944.8850     2.5340     0.2760
 1410.0000   827.4300   -21.4330     6.3470     7.1460     6.0720    14.6740    99.2640     0.0230   945.1270     2.5270     0.2800
 1410.5000   827.5750   -21.4860     6.3350     7.1060     6.0890    14.5110    98.6710     0.0270   945.3700     2.5230     0.2850
 1411.0000   827.7210   -21.5360     6.3220     7.1060     6.1060    14.3440    99.4710     0.0300   945.6130     2.5200     0.2900
 1411.5000   827.8660   -21.5950     6.3100     7.1800     6.1230    14.1750   102.0110     0.0330   945.8550     2.5140     0.2910
 1412.0000   828.0110   -21.6250     6.2980     7.2710     6.1390    14.0920   104.2770     0.0260   946.0980     2.5080     0.2920
 1412.5000   828.1570   -21.6070     6.2860     7.3630     6.1560    14.0790   105.0980     0.0180   946.3410     2.5110     0.2910
 1413.0000   828.3020   -21.3240     6.2730     7.4550     6.1730    14.0600   102.8550     0.0200   946.5830     2.5220     0.2880
 1413.5000   828.4480   -21.0610     6.2610     7.5460     6.1900    14.0400    98.6350     0.0210   946.8260     2.5330     0.2820
 1414.0000   828.5930   -20.7830     6.2490     7.6560     6.2070    14.0400    95.8100     0.0240   947.0690     2.5410     0.2760
 1414.5000   828.7380   -20.5150     6.2370     7.1160     6.2230    14.0780    95.0170     0.0150   947.3110     2.5290     0.2780
 1415.0000   828.8840   -20.2390     6.0500     6.6700     6.2370    14.1240    97.0750     0.0040   947.5540     2.5080     0.2800
 1415.5000   829.0290   -19.9710     5.8630     6.3760     5.2100    14.1660    99.5500     0.0000   947.7970     2.5040     0.2820
 1416.0000   829.1740   -19.7010     5.0820     6.0820     4.3550    14.1900    98.9240     0.0080   948.0390     2.5030     0.2720
 1416.5000   829.3200   -19.4010     3.9050     5.7890     3.4990    14.4140    96.8380     0.0390   948.2820     2.5090     0.2800
 1417.0000   829.4650   -19.2930     3.4340     5.6570     3.8110    14.6490    92.5690     0.0990   948.5250     2.3950     0.2990
 1417.5000   829.6110   -19.5180     3.4340     5.4740     4.3320    14.6800    88.9140     0.1220   948.7670     2.2620     0.3600
