~VERSION INFORMATION
 VERS.                2.0:   CWLS LOG ASCII STANDARD - VERSION 2.0
 WRAP.                 NO:   ONE LINE PER DEPTH STEP
~WELL INFORMATION
#MNEM.UNIT      DATA TYPE    INFORMATION
#----------   ------------   ------------------------------
 STRT.F          212.0000:   START DEPTH
 STOP.F         3042.0000:   STOP DEPTH
 STEP.F            0.5000:   STEP LENGTH
 NULL.          -999.2500:   NO VALUE
 COMP.    FENIX & SCISSON:   COMPANY
 WELL.   FENIX "A" #74-28:   WELL
 FLD .             NPR #3:   FIELD
 LOC .      S28 T39N R78W:   LOCATION
 CNTY.            NATRONA:   COUNTY
 STAT.            WYOMING:   STATE
 CTRY. UNITED STATES OF AMERICA:   COUNTRY
 SRVC.              WELEX:   SERVICE COMPANY
 DATE.        03-AUG-1977:   LOGDATE
 API .     49025104080000:   API NUMBER
~CURVE INFORMATION
#MNEM.UNIT       API CODE    CURVE DESCRIPTION
#----------   ------------   ------------------------------
 DEPT.F                  :   
 SPR .MV     07 010 01 00:   SPONTANEOUS POTENTIAL
 ILD .OHMM   07 120 46 00:   INDUCTION LOG DEEP RESISTIVITY
 ILM .OHMM   07 120 44 00:   INDUCTION LOG MEDIUM RESISTIVITY
 SFLU.OHMM   07 220 01 00:   SPHERICALLY FOCUSED LOG UNAVERAGED RESISTIVITY
 CALD.IN     45 280 60 00:   CALIPER FROM DENSITY LOG
 GRD .GAPI   45 310 01 00:   GAMMA RAY FROM DENSITY LOG
 CORR.G/C3   45 356 01 00:   DENSITY CORRECTION
 RHOB.G/C3   45 350 01 00:   BULK DENSITY
~PARAMETER INFORMATION
#MNEM.UNIT          VALUE    DESCRIPTION
#----------   ------------   ------------------------------
 EKB .F         5050.0000:   Kelly bushing
 EGL .F         5040.0000:   Ground level
 EDF .F            0.0000:   Drilling floor
 TD  .F         3044.0000:   Total depth
 DATE.        03-AUG-1977:   Date logged
 CLNT.            A2DTECH:   Client Code
 SL  . 2310' FNL & 930' FEL:   Surface Location
 PD  .                 GL:   Permanent Datum
 EPD .F              5040:   Elevation Permanent Datum
 LMF .                 KB:   Log Measured From
 DMF .                 KB:   Drilling Measured From
 DAPD.F                10:   Feet Above Permanent Datum
 DD  .F              3044:   Depth driller
 DL  .F              3044:   Depth logger
 BLI .F              3042:   Bottom log interval
 TLI .F               238:   Top log interval
 CS1 .IN            8.625:   Casing size
 CBD1.      8.625" @ 220':   Casing driller 1
 CBL1.F               238:   Casing logger 1
 BS1 .IN            7.875:   Bit size
 BSD1.F              3044:   Depth drilled with bit1
 DFT .            KCL MUD:   Type fluid in hole
 DFV .                 35:   Viscosity
 DFPH.               10.5:   pH
 DFL .                7.2:   Fluid loss
 MSS .           FLOWLINE:   Source of sample
 RMS .OHMM           1.13:   Rm
 MST .F                84:   Rm Meas. temp.
 RMF .OHMM           0.77:   Rmf
 MFST.F                70:   Rmf Meas. temp.
 MFSS.           FANN KIT:   Source Rmf.
 MCSS.           FANN KIT:   Source Rmc.
 RMB .OHMM            .82:   Rm. at BHT
 BHT .F               118:   BHT.
 TCS .HRS               7:   Time Circ. stopped
 MRT .F               116:   Maximum recorded temp.
 LUN .               8611:   Logging unit number
 LUL .             CASPER:   Logging unit location
 ENGI.            C. DOAK:   Recorded By
 WITN.      W. PETTINGILL:   Witnessed by
 ORIG.         2.5" PRINT:   Origin of data
 UWI .     49025104080000:   Unique Well ID
 DICO. A2D TECHNOLOGIES, INC.:   Digitizing Company
~OTHER INFORMATION
~A   DEPT      SPR        ILD        ILM       SFLU         CALD       GRD       CORR        RHOB 
# ...
 3006.5000   -67.6040     4.4000     6.5650     6.5650     7.8780   128.8100     0.0340     2.4670
 3007.0000   -67.6370     4.2960     6.5320     7.3760     7.8770   126.8560     0.0270     2.4740
 3007.5000   -67.6700     4.3160     6.4990     6.9370     7.8760   124.7770     0.0210     2.4680
 3008.0000   -67.7030     4.3390     6.4740     5.7890     7.8750   123.9750     0.0180     2.4580
 3008.5000   -67.7370     4.3630     6.4820     6.1520     7.8740   123.0930     0.0200     2.4670
 3009.0000   -67.7690     4.3860     6.5020     6.5990     7.8730   122.3190     0.0210     2.4840
 3009.5000   -67.7980     4.4090     6.5210     7.0450     7.8720   121.4730     0.0230     2.4860
 3010.0000   -67.8020     4.4330     6.5410     7.8010     7.8710   120.6520     0.0240     2.4870
 3010.5000   -67.8140     4.4590     6.5610     7.6220     7.8700   120.1500     0.0250     2.4860
 3011.0000   -67.8240     4.4590     6.5810     6.8460     7.8690   120.3530     0.0260     2.4940
 3011.5000   -67.8350     4.4340     6.5970     7.3560     7.8680   120.6000     0.0300     2.5110
 3012.0000   -67.8460     4.3970     6.5960     8.0970     7.8670   120.7780     0.0330     2.5300
 3012.5000   -67.8570     4.3590     6.5940     7.6800     7.8650   120.7610     0.0370     2.5300
 3013.0000   -67.8680     4.3220     6.5990     7.0080     7.8640   119.2420     0.0410     2.5250
 3013.5000   -67.8780     4.2850     6.4810     6.6360     7.8630   117.6720     0.0450     2.5100
 3014.0000   -67.8890     4.2480     6.3660     6.4880     7.8620   117.4810     0.0440     2.4960
 3014.5000   -67.9000     4.2100     6.2500     6.3410     7.8610   118.7310     0.0390     2.4820
 3015.0000   -67.9110     4.1730     6.1340     6.2290     7.8600   119.9810     0.0350     2.4810
 3015.5000   -67.9220     4.1360     6.0190     6.2000     7.8590   120.0620     0.0310     2.4810
 3016.0000   -67.9320     4.0990     5.9030     6.1720     7.8580   120.0980     0.0260     2.4810
 3016.5000   -67.9430     4.0620     5.7890     6.1440     7.8560   119.9830     0.0220     2.4770
 3017.0000   -67.9540     4.0490     5.7710     6.1220     7.8550   118.0050     0.0180     2.4700
 3017.5000   -67.9650     4.0370     5.7420     6.3990     7.8540   117.0550     0.0170     2.4690
 3018.0000   -67.9760     4.0250     5.7140     6.8460     7.8530   117.9650     0.0160     2.4720
 3018.5000   -67.9860     4.0130     5.6850     5.5770     7.8520   118.9810     0.0150     2.4820
 3019.0000   -67.9970     4.0010     5.6560     5.7130     7.8510   118.0130     0.0140     2.4870
 3019.5000   -68.0080     3.9870     5.6280     5.9810     7.8500   114.4590     0.0130     2.4870
 3020.0000   -68.0190     3.9720     5.5990     6.2370     7.8490   112.7360     0.0120     2.4870
 3020.5000   -68.0300     3.9380     5.5680     5.6820     7.8470   112.7430     0.0100     2.4840
 3021.0000   -68.0400     3.9050     5.5290     5.6820     7.8460   113.0340     0.0100     2.4690
 3021.5000   -68.0510     3.8720     5.4900     5.6820     7.8450   112.3540     0.0040     2.4690
 3022.0000   -68.0620     3.8380     5.4500     6.5960     7.8440   111.8030     0.0000     2.4700
 3022.5000   -68.0730     3.8050     5.4110     5.4740     7.8430   113.0360    -0.0040     2.4600
 3023.0000   -68.0840     3.7720     5.3720     5.4870     7.8420    54.5366    -0.0090     2.4310
 3023.5000   -68.0940     3.7380     5.3330     5.5290     7.8410    14.8015    -0.0130     2.4170
 3024.0000   -68.1050     3.7000     5.2940     5.5710     7.8400  -999.2500    -0.0170     2.4380
 3024.5000   -68.1160     3.6650     5.2550     5.6140     7.8380  -999.2500    -0.0040     2.4610
 3025.0000   -68.1280     3.5860     5.2160     5.6820     7.8370  -999.2500     0.0080     2.4740
 3025.5000   -68.1360     3.5070     5.1770     5.6420     7.8360  -999.2500     0.0220     2.4710
 3026.0000   -68.1510     3.4280     5.1380     5.5430     7.8350  -999.2500     0.0310     2.4700
 3026.5000   -68.1590     3.3500     5.0990     5.4430     7.8340  -999.2500     0.0270     2.4530
 3027.0000   -68.1630     3.2710     5.0800     5.3430     7.8330  -999.2500     0.0210     2.4390
 3027.5000   -68.2020     3.2310     4.8670     5.2730     7.8320  -999.2500     0.0160     2.4410
 3028.0000   -68.1440     3.1750     4.6760     4.9570     7.8300  -999.2500     0.0100     2.4460
 3028.5000   -68.5110     3.1190     4.4850     4.5430     7.8300  -999.2500     0.0040     2.4480
 3029.0000   -68.0680     3.0630     4.3760     4.7550     7.8270  -999.2500     0.0020     2.4460
 3029.5000   -67.4640     3.0070     4.5280     5.0080     7.8290  -999.2500     0.0040     2.4440
 3030.0000   -66.7490     2.9510     4.6770     5.3730     7.8320  -999.2500     0.0080     2.4390
 3030.5000   -66.1110     2.9040     4.8040     5.2730     7.9280  -999.2500     0.0130     2.4580
 3031.0000   -64.2290     2.9040     4.6950     4.5430     8.0500  -999.2500     0.0170     2.4750
 3031.5000   -62.3100     2.9040     4.6000     4.5010     8.1120  -999.2500     0.0220     2.4710
 3032.0000   -60.8540     2.9040     4.5050     4.4560     8.0970  -999.2500     0.0260     2.4680
 3032.5000   -57.1770     2.9040     4.3760     4.4110     8.0930  -999.2500     0.0310     2.4700
 3033.0000   -52.0700     3.3770     4.4090     4.3760     8.0860  -999.2500     0.0350     2.4780
 3033.5000   -39.3070     3.8260     4.4600     4.7590     8.0790  -999.2500     0.0380     2.4820
 3034.0000   -29.2480     4.3670     4.5100     5.2730     8.0730  -999.2500     0.0410     2.4880
 3034.5000    -5.3140     4.3510     6.6320     4.9850     8.0660  -999.2500     0.0440     2.4910
 3035.0000    -0.0700     4.2960    12.3440     4.4650     8.0600  -999.2500     0.0470     2.4890
 3035.5000    -0.2830     4.3590  -999.2500     4.1380     8.0530  -999.2500     0.0490     2.4930
 3036.0000    -0.4300     4.4590  -999.2500     4.1380     8.0470  -999.2500     0.0550     2.4980
 3036.5000    -0.4140  -999.2500  -999.2500     4.1750     8.0410  -999.2500     0.0640     2.5010
 3037.0000    -0.4840  -999.2500  -999.2500     4.2300     8.0330  -999.2500     0.0730     2.4910
 3037.5000    -0.5590  -999.2500  -999.2500     4.2960     8.0280  -999.2500     0.0820     2.4800
 3038.0000    -0.6080  -999.2500  -999.2500     4.0600     7.9770  -999.2500     0.0910     2.4740
 3038.5000    -0.6570  -999.2500  -999.2500     3.7000     7.9060  -999.2500     0.1000     2.4570
 3039.0000    -0.7170  -999.2500  -999.2500     3.8450     7.8560  -999.2500     0.1090     2.4270
 3039.5000    -0.7790  -999.2500  -999.2500     4.2750     7.7930  -999.2500     0.1180     2.3960
 3040.0000    -0.8420  -999.2500  -999.2500     3.9870     7.7880  -999.2500     0.1270     2.3750
 3040.5000    -0.9100  -999.2500  -999.2500     4.2050  -999.2500  -999.2500     0.1360     2.3450
 3041.0000    -0.9460  -999.2500  -999.2500     4.4650  -999.2500  -999.2500     0.1450     2.3110
 3041.5000    -1.2140  -999.2500  -999.2500     4.1570  -999.2500  -999.2500     0.1500     2.2790
 3042.0000    -1.4180  -999.2500  -999.2500     3.9130  -999.2500  -999.2500     0.1500     2.2780
