~VERSION INFORMATION
 VERS.                2.0:   CWLS LOG ASCII STANDARD - VERSION 2.0
 WRAP.                 NO:   ONE LINE PER DEPTH STEP
~WELL INFORMATION
#MNEM.UNIT      DATA TYPE    INFORMATION
#----------   ------------   ------------------------------
 STRT.F          200.0000:   START DEPTH
 STOP.F         3142.0000:   STOP DEPTH
 STEP.F            0.5000:   STEP LENGTH
 NULL.          -999.2500:   NO VALUE
 COMP.    FENIX & SCISSON:   COMPANY
 WELL.  FENIX "AX" #37-10:   WELL
 FLD .              NPR-3:   FIELD
 LOC .      S10 T38N R78W:   LOCATION
 CNTY.            NATRONA:   COUNTY
 STAT.            WYOMING:   STATE
 CTRY. UNITED STATES OF AMERICA:   COUNTRY
 SRVC.              WELEX:   SERVICE COMPANY
 DATE.        19-SEP-1977:   LOGDATE
 API .     49025104190000:   API NUMBER
~CURVE INFORMATION
#MNEM.UNIT       API CODE    CURVE DESCRIPTION
#----------   ------------   ------------------------------
 DEPT.F                  :   
 CALD.IN     45 280 60 00:   CALIPER FROM DENSITY LOG
 GRD .GAPI   45 310 01 00:   GAMMA RAY FROM DENSITY LOG
 RHOB.G/C3   45 350 01 00:   BULK DENSITY
 CORR.G/C3   45 356 01 00:   DENSITY CORRECTION
 NPHI.DEC    42 890 03 00:   NEUTRON POROSITY SANDSTONE
 SPR .MV     07 010 01 00:   SPONTANEOUS POTENTIAL
 SGRD.OHMM   07 220 05 00:   SHALLOW GUARD RESISTIVITY
 ILD .OHMM   07 120 46 00:   INDUCTION LOG DEEP RESISTIVITY
 ILM .OHMM   07 120 44 00:   INDUCTION LOG MEDIUM RESISTIVITY
 TENR.LBS    07 635 01 00:   TENSION FROM RESISTIVITY
~PARAMETER INFORMATION
#MNEM.UNIT          VALUE    DESCRIPTION
#----------   ------------   ------------------------------
 EKB .F         5221.0000:   Kelly bushing
 EGL .F         5211.0000:   Ground level
 EDF .F            0.0000:   Drilling floor
 TD  .F         3150.0000:   Total depth
 DATE.        19-SEP-1977:   Date logged
 CLNT.            A2DTECH:   Client Code
 SL  . 1190' FSL & 1750' FWL:   Surface Location
 PD  .                 GL:   Permanent Datum
 DD  .F              3150:   Depth driller
 DL  .F              3146:   Depth logger
 BLI .F              3144:   Bottom log interval
 CS1 .IN            8.625:   Casing size
 CBD1.      8.625" @ 215':   Casing driller 1
 BS1 .IN            7.875:   Bit size
 DFT .            KCL/MUD:   Type fluid in hole
 DFD .                8.9:   Density
 TCS .HRS               2:   Time Circ. stopped
 MRT .F               116:   Maximum recorded temp.
 ENGI.            C. DOAK:   Recorded By
 WITN.      B. HARRINGTON:   Witnessed by
 ORIG.           5" PRINT:   Origin of data
 UWI .     49025104190000:   Unique Well ID
 DICO. A2D TECHNOLOGIES, INC.:   Digitizing Company
 DAPD.F                10:   Feet Above Permanent Datum
 BSD1.F              3150:   Depth drilled with bit1
 EPD .F              5211:   Elevation Permanent Datum
 LMF .                 KB:   Log Measured From
 DMF .                 KB:   Drilling Measured From
 TLI .F               200:   Top log interval
 CBL1.                213:   Casing logger 1
 DFV .                 37:   Viscosity
 DFPH.                 11:   pH
 DFL .                5.8:   Fluid loss
 MSS .           MEASURED:   Source of sample
 RMS .               2.82:   Rm
 MST .                 94:   Rm Meas. temp.
 RMF .               1.61:   Rmf
 MFST.                 94:   Rmf Meas. temp.
 MFSS.               MEAS:   Source Rmf.
 RMC .               3.12:   Rmc
 MCST.                 94:   Rmc Meas. temp.
 MCSS.               MEAS:   Source Rmc.
 RMB .               2.28:   Rm. at BHT
 BHT .                116:   BHT.
 LUN .               8611:   Logging unit number
 LUL .             CASPER:   Logging unit location
~OTHER INFORMATION
~A   DEPT       CALD       GRD        RHOB      CORR      NPHI        SPR       SGRD        ILD        ILM       TENR   
# ...
 1372.5000    11.0106    72.4704     2.5606     0.0396     0.2364   -75.0889     7.8106     6.0384     7.1242  1369.3206
 1373.0000    10.9516    72.4741     2.5556     0.0376     0.2297   -75.0909     7.8826     6.0383     7.2563  1367.4288
 1373.5000    10.8727    72.4771     2.5556     0.0376     0.2236   -75.0929     7.9553     5.9830     7.3233  1365.5370
 1374.0000    10.8137    72.4808     2.5556     0.0357     0.2192   -74.8965     7.9552     6.0382     7.3232  1363.6451
 1374.5000    10.7549    72.4845     2.5477     0.0337     0.2261   -75.0969     7.9550     5.9829     7.3231  1361.7535
 1375.0000    10.7948    72.4882     2.5397     0.0298     0.2189   -75.0989     7.9549     5.9829     7.3229  1359.8617
 1375.5000    10.8347    72.6899     2.5338     0.0278     0.2177   -75.1008     7.9547     5.9828     7.2558  1398.1766
 1376.0000    10.8747    72.6936     2.5298     0.0219     0.2165   -74.9044     7.9545     6.0379     7.2557  1398.5327
 1376.5000    10.9542    72.6973     2.5228     0.0199     0.2113   -75.1048     7.9544     5.9827     7.2556  1398.8888
 1377.0000    11.0733    72.7010     2.5149     0.0140     0.2177   -75.3052     7.9542     5.9280     7.2555  1399.2449
 1377.5000    11.1726    72.9027     2.5159     0.0160     0.2218   -75.5056     7.8813     5.9279     7.2554  1399.6010
 1378.0000    11.2720    72.9064     2.5169     0.0160     0.2250   -75.3092     7.8090     5.9279     7.1888  1399.9579
 1378.5000    11.2723    72.7136     2.5199     0.0161     0.2130   -75.3112     7.7374     5.9278     7.1229  1400.3138
 1379.0000    11.1737    72.9138     2.5199     0.0141     0.2141   -75.3132     7.7373     5.9277     7.0576  1400.6699
 1379.5000    11.0553    72.9160     2.5199     0.0141     0.2173   -75.3152     7.7372     5.9277     7.0575  1401.0259
 1380.0000    10.9764    73.1237     2.5199     0.0142     0.2246   -75.3171     7.7370     5.8198     7.0574  1401.3818
 1380.5000    11.0160    73.3315     2.5199     0.0142     0.2310   -75.1207     7.7369     5.8734     7.0573  1401.7378
 1381.0000    10.9967    73.5225     2.5199     0.0122     0.2367   -75.1227     7.7368     5.9275     7.0572  1402.0938
 1381.5000    11.0169    73.5263     2.5200     0.0123     0.2334   -75.1247     7.7366     5.8733     7.0571  1402.4496
 1382.0000    11.0568    73.7279     2.5220     0.0123     0.2270   -75.3251     7.7365     5.9274     6.9924  1382.8448
 1382.5000    11.0967    73.7317     2.5240     0.0123     0.2311   -75.3271     7.5954     5.9274     6.9283  1403.1613
 1383.0000    11.0971    73.7354     2.5240     0.0124     0.2343   -75.3291     7.4569     5.9273     6.9282  1403.5179
 1383.5000    11.0579    73.5411     2.5180     0.0124     0.2391   -75.3311     7.2540     5.8731     6.9921  1403.8738
 1384.0000    10.9790    73.1489     2.5160     0.0124     0.2424   -75.3331     7.8794     5.9272     6.9920  1404.2296
 1384.5000    10.9398    72.9547     2.5141     0.0125     0.2464   -75.5335    10.0987     5.9818     6.9919  1424.5428
 1385.0000    10.9005    73.1584     2.5141     0.0125     0.2522   -75.3370     7.1215     5.9271     6.9918  1384.9843
 1385.5000    10.9009    73.1621     2.5141     0.0125     0.2510   -75.5374     7.8790     5.9270     6.9917  1365.3842
 1386.0000    10.9013    73.3638     2.5181     0.0086     0.2458   -75.5394     8.0991     5.9270     6.9916  1405.6526
 1386.5000    10.9411    73.5655     2.5201     0.0066     0.2377   -75.5414     7.5944     5.9269     6.9915  1386.0531
 1387.0000    11.0188    73.3712     2.5201     0.0027     0.2418   -75.4446     8.3252     5.8727     7.0559  1406.3639
 1387.5000    11.0964    73.3742     2.5121     0.0027     0.2486   -75.4454     9.6437     5.8727     7.0558  1406.7196
 1388.0000    11.1798    73.5759     2.5062    -0.0033     0.2515   -75.4474     7.5940     5.9268     6.9273  1427.1003
 1388.5000    11.2197    73.5796     2.4962    -0.0032     0.2362   -75.4494     7.4556     5.8726     6.9272  1427.3844
 1389.0000    11.2596    73.3854     2.4962    -0.0052     0.2369   -75.4514     7.8780     5.8189     7.0555  1407.8583
 1389.5000    11.2996    73.5871     2.4982    -0.0032     0.2369   -75.4533     7.8779     5.8725     7.1863  1408.2139
 1390.0000    11.3197    73.3928     2.5022    -0.0011     0.2345   -75.4553     7.8777     5.7657     7.1862  1428.5203
 1390.5000    11.3003    73.3965     2.5082     0.0009     0.2249   -75.4573     7.8776     5.8188     7.1861  1408.9249
 1391.0000    11.2412    73.5983     2.5142     0.0029     0.2314   -75.4593     7.8054     5.8723     7.1860  1409.2804
 1391.5000    11.2020    73.4040     2.5262    -0.0030     0.2347   -75.4613     7.6632     5.8187     7.1859  1409.6359
 1392.0000    11.2023    73.2097     2.5302     0.0110     0.2363   -75.4633     7.7338     5.8186     7.1857  1409.9913
 1392.5000    11.2027    72.8174     2.5322     0.0110     0.2315   -75.4653     8.0971     5.8722     7.1856  1390.3988
 1393.0000    11.2227    72.6231     2.5322     0.0110     0.2347   -75.4673     7.8048     5.8185     7.2518  1430.6503
 1393.5000    11.2628    73.0228     2.5372     0.0130     0.2346   -75.4693     7.7334     5.8184     7.2517  1411.0583
 1394.0000    11.3027    72.6305     2.5442     0.0171     0.2298   -75.4712     7.7332     5.8720     7.1853  1431.3599
 1394.5000    11.3031    71.6442     2.5482     0.0211     0.2258   -75.4732     7.8045     5.8183     6.9899  1411.7690
 1395.0000    11.2836    72.2419     2.5482     0.0231     0.2202   -75.4752     7.9490     5.8183     6.9898  1412.1244
 1395.5000    11.2246    71.8519     2.5462     0.0192     0.2186   -75.4772     8.0222     5.8718     6.9897  1412.4797
 1396.0000    11.1655    71.8533     2.5383     0.0152     0.2240   -75.4792     8.0961     5.8182     6.9896  1412.8350
 1396.5000    11.1263    71.8563     2.5323     0.0152     0.2328   -75.4812     8.1706     5.8181     6.9895  1413.1902
 1397.0000    11.0870    71.8607     2.5263     0.0153     0.2364   -75.4832     7.9484     5.8181     6.9894  1413.5455
 1397.5000    11.0874    71.8630     2.5264     0.0153     0.2404   -75.4852     7.6616     5.8180     6.8621  1413.9008
 1398.0000    11.0877    71.8674     2.5343     0.0173     0.2420   -75.4872     7.7322     5.8180     7.0536  1434.1971
 1398.5000    11.1077    71.8704     2.5363     0.0173     0.2404   -75.4891     7.7320     5.7649     6.9891  1434.5518
 1399.0000    11.1375    71.8748     2.5384     0.0186     0.2372   -75.4911     7.8032     5.7648     6.9890  1414.9662
 1399.5000    11.1680    71.6805     2.5384     0.0174     0.2389   -75.4931     7.8031     5.7648     6.9889  1415.3213
 1400.0000    11.1683    71.4869     2.5344     0.0194     0.2493   -75.4951     7.5215     5.7121     7.1183  1435.6154
 1400.5000    11.0911    71.4908     2.5326     0.0195     0.2533   -75.4972     7.4608     5.7628     7.1767  1418.7024
 1401.0000    11.0504    71.4968     2.5305     0.0195     0.2558   -75.4914     7.6613     5.8717     7.1845  1435.2714
 1401.5000    11.0707    71.3027     2.5305     0.0196     0.2443   -75.4894     7.8037     5.8719     6.8623  1435.0861
 1402.0000    11.0910    71.3067     2.5305     0.0197     0.2398   -75.4874     8.0220     5.9262     6.8625  1414.9592
 1402.5000    11.1113    71.3126     2.5345     0.0197     0.2325   -75.4854     8.0963     5.8723     6.9261  1414.7737
 1403.0000    11.1514    71.3176     2.5366     0.0198     0.2357   -75.4834     8.1713     5.8189     7.0547  1434.5302
 1403.5000    11.1717    71.3235     2.5366     0.0178     0.2406   -75.4814     8.1716     5.8191     7.2519  1414.4028
 1404.0000    11.1920    71.3285     2.5366     0.0199     0.2430   -75.8759     8.0971     5.8729     7.1203  1414.2173
 1404.5000    11.1727    71.3325     2.5366     0.0199     0.2278   -75.9190     7.7342     5.8195     7.1206  1414.0319
 1405.0000    11.1336    71.3384     2.5267     0.0200     0.2259   -75.9621     7.7343     5.8733     7.1208  1413.8463
 1405.5000    11.0747    71.3424     2.5227     0.0160     0.2255   -76.0051     7.8781     5.8735     6.9915  1413.6608
