~VERSION INFORMATION
 VERS.                2.0:   CWLS LOG ASCII STANDARD - VERSION 2.0
 WRAP.                 NO:   ONE LINE PER DEPTH STEP
~WELL INFORMATION
#MNEM.UNIT      DATA TYPE    INFORMATION
#----------   ------------   ------------------------------
 STRT.F           22.0000:   START DEPTH
 STOP.F         4228.5000:   STOP DEPTH
 STEP.F            0.5000:   STEP LENGTH
 NULL.          -999.2500:   NO VALUE
 COMP. LAWRENCE ALLISON & ASSOCIATES:   COMPANY
 WELL. LAWRENCE NPR 3 "X" #25-2:   WELL
 FLD .                NPR:   FIELD
 LOC .       S2 T38N R78W:   LOCATION
 CNTY.            NATRONA:   COUNTY
 STAT.            WYOMING:   STATE
 CTRY. UNITED STATES OF AMERICA:   COUNTRY
 SRVC.      DRESSER ATLAS:   SERVICE COMPANY
 DATE.        22-DEC-1985:   LOGDATE
 API .     49025110700000:   API NUMBER
~CURVE INFORMATION
#MNEM.UNIT       API CODE    CURVE DESCRIPTION
#----------   ------------   ------------------------------
 DEPT.F                  :   
 TENS.LBS    60 635 01 00:   TENSION FROM SONIC
 DT  .US/F   60 520 00 00:   DELTA TIME
 SPHI.DEC    60 890 00 00:   SONIC POROSITY
 TENR.LBS    07 635 01 00:   TENSION FROM RESISTIVITY
 CALR.IN     07 280 01 00:   CALIPER FROM RESISTIVITY
 SPR .MV     07 010 01 00:   SPONTANEOUS POTENTIAL
 GRR .GAPI   07 310 01 00:   GAMMA RAY FROM RESISTIVITY
 SFL .OHMM   07 220 01 00:   SHALLOW FOCUSED LOG RESISTIVITY
 ILD .OHMM   07 120 46 00:   DEEP INDUCTION RESISTIVITY
 ILM .OHMM   07 120 44 00:   INDUCTION LOG MEDIUM RESISTIVITY
~PARAMETER INFORMATION
#MNEM.UNIT          VALUE    DESCRIPTION
#----------   ------------   ------------------------------
 EKB .F         5148.0000:   Kelly bushing
 EGL .F         5136.0000:   Ground level
 EDF .F            0.0000:   Drilling floor
 TD  .F         4228.0000:   Total depth
 DATE.        22-DEC-1985:   Date logged
 CLNT.            A2DTECH:   Client Code
 SL  . 1350' FWL & 1968' FSL:   Surface Location
 PD  .                 GL:   Permanent Datum
 DD  .F              4224:   Depth driller
 DL  .F              4228:   Depth logger
 BLI .F              4225:   Bottom log interval
 CS1 .IN            8.625:   Casing size
 CBD1.      8.625" @ 677':   Casing driller 1
 CBL1.F               677:   Casing logger 1
 BS1 .IN            7.875:   Bit size
 DFT .            KCL/GEL:   Type fluid in hole
 DFD .                9.2:   Density
 DFV .                 45:   Viscosity
 DFPH.                8.5:   pH
 DFL .               11.5:   Fluid loss
 MSS .               TANK:   Source of sample
 RMS .OHMM           .256:   Rm
 MST .F                63:   Rm Meas. temp.
 RMF .OHMM           .192:   Rmf
 MFST.F                64:   Rmf Meas. temp.
 RMC .OHMM           .320:   Rmc
 MCST.F                64:   Rmc Meas. temp.
 MFSS.               MEAS:   Source Rmf.
 RMB .OHMM           .119:   Rm. at BHT
 BHT .F               143:   BHT.
 TCS .HRS             4.5:   Time Circ. stopped
 MRT .F               143:   Maximum recorded temp.
 LUN .               6427:   Logging unit number
 LUL .          WILLISTON:   Logging unit location
 ENGI.             MCHUCH:   Recorded By
 WITN.             STRONG:   Witnessed by
 ORIG.           5" PRINT:   Origin of data
 UWI .     49025110700000:   Unique Well ID
 DICO. A2D TECHNOLOGIES, INC.:   Digitizing Company
 DAPD.                 12:   Feet Above Permanent Datum
 BSD1.               4224:   Depth drilled with bit1
 MCSS.               CALC:   Source Rmc.
 EPD .F              5136:   Elevation Permanent Datum
 LMF .                 KB:   Log Measured From
 DMF .                 KB:   Drilling Measured From
~OTHER INFORMATION
~A   DEPT     TENS         DT       SPHI       TENR       CALR        SPR         GRR       SFL        ILD        ILM   
# ...
 2099.0000  -999.2500  -999.2500  -999.2500   -91.4400     8.8870   -63.8610   125.5780    10.1380     8.9440     8.5930
 2099.5000  -999.2500  -999.2500  -999.2500   -88.8550     8.8920   -64.3230   127.2600     9.9970     8.8860     8.4410
 2100.0000  -999.2500  -999.2500  -999.2500   -86.2710     8.9430   -64.7970   127.8920     9.8470     8.6450     8.2790
 2100.5000  -999.2500  -999.2500  -999.2500   -83.6860     9.0160   -64.9190   128.4720     9.7580     8.4030     8.1160
 2101.0000  -999.2500  -999.2500  -999.2500   -81.1010     9.0190   -65.0090   130.7550     9.7300     8.1620     7.9530
 2101.5000  -999.2500  -999.2500  -999.2500   -78.5170     9.0250   -65.1070   133.5440     9.7030     7.9840     7.7910
 2102.0000  -999.2500  -999.2500  -999.2500   -75.9320     9.0310   -65.2040   132.2110     9.5940     7.9840     7.7110
 2102.5000  -999.2500  -999.2500  -999.2500   -79.6610     9.0320   -65.2980   126.6940     9.2360     7.9840     7.6460
 2103.0000  -999.2500  -999.2500  -999.2500   -84.5760     9.0320   -65.4580   124.9260     8.8770     7.9840     7.5650
 2103.5000  -999.2500  -999.2500  -999.2500   -89.4920     9.0320   -65.6250   124.8990     8.5930     7.9840     7.6100
 2104.0000  -999.2500  -999.2500  -999.2500   -94.4070     9.0320   -65.7930   127.4250     8.8840     7.9840     7.6990
 2104.5000  -999.2500  -999.2500  -999.2500   -92.4960     9.0320   -65.9610   132.5840     9.1740     7.9840     7.7880
 2105.0000  -999.2500  -999.2500  -999.2500   -88.7150     9.0320   -66.1310   131.9220     9.4640     8.0620     7.8770
 2105.5000  -999.2500  -999.2500  -999.2500   -84.9340     9.0320   -66.3010   129.6820     9.6820     8.1640     7.9650
 2106.0000  -999.2500  -999.2500  -999.2500   -81.1530     9.0320   -66.2040   127.3030     9.8400     8.2650     8.0540
 2106.5000  -999.2500  -999.2500  -999.2500   -77.3720     9.0320   -66.0860   123.1530    10.0440     8.3660     8.1270
 2107.0000  -999.2500  -999.2500  -999.2500   -80.5480     9.0320   -65.9690   118.7010     9.9720     8.4360     8.0850
 2107.5000  -999.2500  -999.2500  -999.2500   -90.3790     9.0320   -65.8510   115.0560     9.8710     8.3540     8.0430
 2108.0000  -999.2500  -999.2500  -999.2500   -95.4640     9.0320   -65.7300   115.3620     9.7700     8.2910     8.0020
 2108.5000  -999.2500  -999.2500  -999.2500   -88.8460     9.0320   -65.8260   118.4330     9.6690     8.2290     7.9600
 2109.0000  -999.2500  -999.2500  -999.2500   -86.1320     9.0320   -65.9550   121.2600     9.5940     8.2070     7.9180
 2109.5000  -999.2500  -999.2500  -999.2500   -87.5360     9.0320   -66.0870   123.1890     9.5940     8.1760     7.8760
 2110.0000  -999.2500  -999.2500  -999.2500   -88.9400     9.0320   -66.1120   126.0460     9.5100     8.1390     7.8340
 2110.5000  -999.2500  -999.2500  -999.2500   -90.3450     9.0300   -66.1120   126.3780     9.4100     8.0930     7.7670
 2111.0000  -999.2500  -999.2500  -999.2500   -91.7490     9.0230   -66.1120   123.7310     9.3100     8.0460     7.7750
 2111.5000  -999.2500  -999.2500  -999.2500   -93.1530     9.0170   -66.1120   121.2000     9.2420     7.9990     7.7960
 2112.0000  -999.2500  -999.2500  -999.2500   -94.5580     9.0100   -66.1120   120.5360     9.2290     7.9510     7.8160
 2112.5000  -999.2500  -999.2500  -999.2500   -93.9680     9.0040   -66.1120   121.7870     9.2150     7.9110     7.8360
 2113.0000  -999.2500  -999.2500  -999.2500   -89.7550     8.9980   -66.1130   124.8430     9.2010     7.9570     7.8560
 2113.5000  -999.2500  -999.2500  -999.2500   -85.5420     8.9910   -66.2450   129.7730     9.1870     7.9980     7.8770
 2114.0000  -999.2500  -999.2500  -999.2500   -81.3290     8.9850   -66.3950   132.4480     9.1730     8.0580     7.8970
 2114.5000  -999.2500  -999.2500  -999.2500   -77.1160     8.9780   -66.5040   133.7630     9.1630     8.0200     7.9110
 2115.0000  -999.2500  -999.2500  -999.2500   -72.9030     8.9720   -66.2860   132.0130     9.4920     7.9450     7.8060
 2115.5000  -999.2500  -999.2500  -999.2500   -68.6900     8.9660   -66.0670   128.3640     9.7660     7.8690     7.7090
 2116.0000  -999.2500  -999.2500  -999.2500   -74.9750     8.9590   -65.8510   126.7500    10.1370     7.7940     7.3540
 2116.5000  -999.2500  -999.2500  -999.2500   -93.7690     8.9530   -65.6350   126.5300     9.6040     7.4190     6.9580
 2117.0000  -999.2500  -999.2500  -999.2500   -86.7470     8.9580   -65.4170   123.4120     8.7800     7.2660     6.8930
 2117.5000  -999.2500  -999.2500  -999.2500   -79.7250     8.9640   -65.3210   118.3940     8.0330     7.1510     6.8930
 2118.0000  -999.2500  -999.2500  -999.2500   -82.1040     8.9700   -65.3200   114.6970     7.5680     7.3340     6.8930
 2118.5000  -999.2500  -999.2500  -999.2500  -103.1660     8.9730   -65.3210   114.8360     7.2170     7.4870     6.9660
 2119.0000  -999.2500  -999.2500  -999.2500   -90.8770     8.9740   -65.3530   117.1660     7.5250     7.4540     7.0390
 2119.5000  -999.2500  -999.2500  -999.2500   -78.5890     8.9750   -65.4840   119.7860     8.5460     7.4190     7.1560
 2120.0000  -999.2500  -999.2500  -999.2500   -81.1990     8.9760   -65.6120   125.4370    10.0440     7.4910     7.3010
 2120.5000  -999.2500  -999.2500  -999.2500   -88.7610     8.9770   -65.7390   128.4800     9.8370     7.5670     7.3510
 2121.0000  -999.2500  -999.2500  -999.2500   -95.3580     8.9780   -65.8660   128.3700     9.4470     7.6430     7.4000
 2121.5000  -999.2500  -999.2500  -999.2500   -94.4310     8.9790   -66.1040   125.5740     9.2730     7.7190     7.4500
 2122.0000  -999.2500  -999.2500  -999.2500   -93.5030     8.9800   -66.0760   124.3150     9.1770     7.7940     7.5000
 2122.5000  -999.2500  -999.2500  -999.2500   -92.5760     8.9810   -65.9770   124.3630     9.0740     7.8700     7.5500
 2123.0000  -999.2500  -999.2500  -999.2500   -91.6490     8.9820   -65.9640   123.3070     8.9720     7.9130     7.5950
 2123.5000  -999.2500  -999.2500  -999.2500   -90.7210     8.9830   -66.1050   122.1310     8.8330     7.9210     7.6410
 2124.0000  -999.2500  -999.2500  -999.2500   -89.7940     8.9830   -66.2440   121.8770     8.9490     7.9280     7.6860
 2124.5000  -999.2500  -999.2500  -999.2500   -88.8660     8.9840   -66.2580   123.7100     9.2160     7.9360     7.7310
 2125.0000  -999.2500  -999.2500  -999.2500   -87.9390     8.9850   -66.1610   123.3160     9.4830     7.9430     7.7670
 2125.5000  -999.2500  -999.2500  -999.2500   -87.0120     8.9860   -65.9840   121.4660     9.8620     7.9510     7.7500
 2126.0000  -999.2500  -999.2500  -999.2500   -86.0840     8.9870   -65.8790   122.2690     9.7440     7.9580     7.7350
 2126.5000  -999.2500  -999.2500  -999.2500   -85.7190     8.9880   -65.8230   125.9890     9.5410     7.9650     7.7200
 2127.0000  -999.2500  -999.2500  -999.2500   -86.3420     8.9890   -65.7700   127.9900     9.3380     7.9720     7.7060
 2127.5000  -999.2500  -999.2500  -999.2500   -86.9640     8.9900   -65.7090   127.5130     9.1350     7.9840     7.6910
 2128.0000  -999.2500  -999.2500  -999.2500   -87.5860     8.9910   -65.4690   127.4990     8.8330     7.9170     7.6520
 2128.5000  -999.2500  -999.2500  -999.2500   -88.2080     8.9920   -65.2230   128.1640     8.9020     7.7880     7.6140
 2129.0000  -999.2500  -999.2500  -999.2500   -88.8300     9.0000   -65.1220   127.9030     9.0400     7.6900     7.5750
 2129.5000  -999.2500  -999.2500  -999.2500   -89.4530     9.0090   -65.1220   125.3110     9.1770     7.6700     7.5360
 2130.0000  -999.2500  -999.2500  -999.2500   -90.0750     9.0190   -65.1210   122.3230     9.3140     7.6490     7.4980
 2130.5000  -999.2500  -999.2500  -999.2500   -90.6970     9.0290   -65.1210   120.7030     9.1820     7.6290     7.4590
 2131.0000  -999.2500  -999.2500  -999.2500   -91.3190     9.0380   -65.1190   118.1750     9.0060     7.6260     7.4200
 2131.5000  -999.2500  -999.2500  -999.2500   -91.9410     9.0480   -65.1170   116.6390     8.8330     7.6260     7.3810
 2132.0000  -999.2500  -999.2500  -999.2500   -92.5630     9.0580   -65.1600   118.0990     8.9520     7.6260     7.3510
