~VERSION INFORMATION
 VERS.                2.0:   CWLS LOG ASCII STANDARD - VERSION 2.0
 WRAP.                 NO:   ONE LINE PER DEPTH STEP
~WELL INFORMATION
#MNEM.UNIT      DATA TYPE    INFORMATION
#----------   ------------   ------------------------------
 STRT.F           22.0000:   START DEPTH
 STOP.F         4228.5000:   STOP DEPTH
 STEP.F            0.5000:   STEP LENGTH
 NULL.          -999.2500:   NO VALUE
 COMP. LAWRENCE ALLISON & ASSOCIATES:   COMPANY
 WELL. LAWRENCE NPR 3 "X" #25-2:   WELL
 FLD .                NPR:   FIELD
 LOC .       S2 T38N R78W:   LOCATION
 CNTY.            NATRONA:   COUNTY
 STAT.            WYOMING:   STATE
 CTRY. UNITED STATES OF AMERICA:   COUNTRY
 SRVC.      DRESSER ATLAS:   SERVICE COMPANY
 DATE.        22-DEC-1985:   LOGDATE
 API .     49025110700000:   API NUMBER
~CURVE INFORMATION
#MNEM.UNIT       API CODE    CURVE DESCRIPTION
#----------   ------------   ------------------------------
 DEPT.F                  :   
 TENS.LBS    60 635 01 00:   TENSION FROM SONIC
 DT  .US/F   60 520 00 00:   DELTA TIME
 SPHI.DEC    60 890 00 00:   SONIC POROSITY
 TENR.LBS    07 635 01 00:   TENSION FROM RESISTIVITY
 CALR.IN     07 280 01 00:   CALIPER FROM RESISTIVITY
 SPR .MV     07 010 01 00:   SPONTANEOUS POTENTIAL
 GRR .GAPI   07 310 01 00:   GAMMA RAY FROM RESISTIVITY
 SFL .OHMM   07 220 01 00:   SHALLOW FOCUSED LOG RESISTIVITY
 ILD .OHMM   07 120 46 00:   DEEP INDUCTION RESISTIVITY
 ILM .OHMM   07 120 44 00:   INDUCTION LOG MEDIUM RESISTIVITY
~PARAMETER INFORMATION
#MNEM.UNIT          VALUE    DESCRIPTION
#----------   ------------   ------------------------------
 EKB .F         5148.0000:   Kelly bushing
 EGL .F         5136.0000:   Ground level
 EDF .F            0.0000:   Drilling floor
 TD  .F         4228.0000:   Total depth
 DATE.        22-DEC-1985:   Date logged
 CLNT.            A2DTECH:   Client Code
 SL  . 1350' FWL & 1968' FSL:   Surface Location
 PD  .                 GL:   Permanent Datum
 DD  .F              4224:   Depth driller
 DL  .F              4228:   Depth logger
 BLI .F              4225:   Bottom log interval
 CS1 .IN            8.625:   Casing size
 CBD1.      8.625" @ 677':   Casing driller 1
 CBL1.F               677:   Casing logger 1
 BS1 .IN            7.875:   Bit size
 DFT .            KCL/GEL:   Type fluid in hole
 DFD .                9.2:   Density
 DFV .                 45:   Viscosity
 DFPH.                8.5:   pH
 DFL .               11.5:   Fluid loss
 MSS .               TANK:   Source of sample
 RMS .OHMM           .256:   Rm
 MST .F                63:   Rm Meas. temp.
 RMF .OHMM           .192:   Rmf
 MFST.F                64:   Rmf Meas. temp.
 RMC .OHMM           .320:   Rmc
 MCST.F                64:   Rmc Meas. temp.
 MFSS.               MEAS:   Source Rmf.
 RMB .OHMM           .119:   Rm. at BHT
 BHT .F               143:   BHT.
 TCS .HRS             4.5:   Time Circ. stopped
 MRT .F               143:   Maximum recorded temp.
 LUN .               6427:   Logging unit number
 LUL .          WILLISTON:   Logging unit location
 ENGI.             MCHUCH:   Recorded By
 WITN.             STRONG:   Witnessed by
 ORIG.           5" PRINT:   Origin of data
 UWI .     49025110700000:   Unique Well ID
 DICO. A2D TECHNOLOGIES, INC.:   Digitizing Company
 DAPD.                 12:   Feet Above Permanent Datum
 BSD1.               4224:   Depth drilled with bit1
 MCSS.               CALC:   Source Rmc.
 EPD .F              5136:   Elevation Permanent Datum
 LMF .                 KB:   Log Measured From
 DMF .                 KB:   Drilling Measured From
~OTHER INFORMATION
~A   DEPT     TENS         DT       SPHI       TENR       CALR        SPR         GRR       SFL        ILD        ILM   
# ...
 3003.5000  -118.5510    74.8620     0.1720  -105.4340     9.1110   -55.0470    89.9340    10.0250     8.4360     7.6380
 3004.0000  -115.1350    75.6090     0.1740  -114.2800     9.1110   -55.4290    92.5600     9.1650     8.1650     7.4820
 3004.5000  -118.4820    76.8360     0.1850  -111.3070     9.1110   -55.8110    95.5560     8.0580     7.8910     7.2860
 3005.0000  -121.9850    78.0620     0.1980  -108.3340     9.1110   -56.1950    94.8980     8.2330     7.4300     6.8790
 3005.5000  -125.1250    78.8110     0.1990  -105.3610     9.1140   -56.5890    94.3170     8.4650     6.7460     6.3970
 3006.0000  -108.4650    78.7010     0.2010  -102.3880     9.1340   -56.9940    94.9240     8.6390     5.5770     5.3890
 3006.5000   -93.3720    78.7000     0.2020   -99.4150     9.1530   -57.2940   107.2010     7.8560     4.5180     4.3810
 3007.0000   -85.9360    79.8470     0.2160   -96.4420     9.1730   -57.4900   124.4840     6.7320     3.8450     3.3730
 3007.5000   -87.6280    82.7700     0.2260   -96.6820     9.1920   -57.7660   143.6740     5.4300     3.2280     2.8370
 3008.0000   -89.3190    87.1170     0.2550   -98.4990     9.2120   -58.1170   163.0440     4.1290     2.6120     2.3680
 3008.5000   -91.0110    92.3900     0.2820  -100.3160     9.2310   -58.3280   178.2910     3.1110     1.9960     1.9000
 3009.0000   -92.7020    95.9940     0.3100  -102.1320     9.2510   -58.0720   185.8440     3.0330     1.6880     1.6070
 3009.5000   -94.3940    98.2670     0.3380  -103.9490     9.2810   -57.8260   189.8460     2.9550     1.4920     1.4210
 3010.0000   -91.0050   100.4700     0.3560  -103.9380     9.3100   -57.5830   190.4720     2.7940     1.3640     1.2720
 3010.5000   -83.4590   102.9360     0.3730   -95.7630     9.3390   -57.3330   193.8760     2.5000     1.2690     1.3000
 3011.0000   -75.1750   105.5850     0.3900   -87.5870     9.3730   -57.0740   199.6330     2.2050     1.2280     1.3500
 3011.5000   -76.3710   106.3840     0.3990   -86.3730     9.3430   -56.8130   195.1200     2.0700     1.1860     1.3820
 3012.0000   -77.6970   103.9690     0.3840   -87.5550     9.2890   -56.5030   183.5810     2.3840     1.1500     1.3350
 3012.5000   -79.0220    99.8820     0.3550   -88.7370     9.2330   -55.9610   168.3360     3.1850     1.1190     1.2510
 3013.0000   -80.3480    97.3930     0.3360   -89.9190     9.2130   -54.7990   161.4800     3.6920     1.1500     1.1820
 3013.5000   -81.6740   102.2640     0.3570   -91.1010     9.1910   -53.5280   156.8850     2.9640     1.2830     1.3400
 3014.0000   -82.9990   109.0330     0.4090   -92.2830     9.1680   -52.2500   144.6250     1.9950     1.5630     1.8360
 3014.5000   -84.3250   115.5740     0.4620   -93.4650     9.1460   -50.9990   126.1660     2.0700     1.8920     2.3900
 3015.0000   -85.6510   111.7780     0.4630   -94.6470     9.1230   -51.2840   112.1200     2.5100     2.1160     2.9430
 3015.5000   -86.9770   101.4630     0.3710   -95.8290     9.1110   -51.7710   105.5700     4.4360     2.2790     3.2300
 3016.0000   -88.3020    90.7090     0.2880   -97.0110     9.1110   -52.2630   104.8150     6.7060     2.6450     3.4190
 3016.5000   -89.6280    81.2090     0.2190   -98.1930     9.1110   -52.8080   102.6500     6.6190     3.1680     3.6940
 3017.0000   -90.9540    82.3460     0.2290   -99.3750     9.1130   -53.5670    99.8750     6.4640     4.1920     4.6530
 3017.5000   -92.2790    84.2080     0.2390  -100.5570     9.1160   -54.0820    98.3160     6.7100     5.1540     5.6130
 3018.0000   -93.6050    84.9440     0.2450  -101.7390     9.1180   -54.4120    96.7020     7.4900     6.0620     6.3850
 3018.5000   -94.9310    85.1260     0.2450  -102.9210     9.1200   -54.8120    95.0240     8.5980     6.6820     6.9920
 3019.0000   -98.5510    83.8820     0.2420  -104.1030     9.1220   -55.3250    95.7620     8.6470     7.3550     7.6620
 3019.5000  -102.6390    82.4080     0.2300  -105.2850     9.1240   -55.8370    95.2290     8.9460     7.9410     8.4820
 3020.0000   -98.9080    78.5590     0.2090  -103.8650     9.1260   -56.3490    93.0280     9.5130     8.2830     9.9410
 3020.5000   -91.5380    74.2430     0.1720  -102.0710     9.1280   -56.8460    82.2600    12.5990    10.4000    11.6340
 3021.0000   -85.1650    69.9260     0.1340  -100.2760     9.1300   -57.2480    75.3480    16.1020    11.9040    15.0450
 3021.5000   -85.1650    66.7960     0.1140   -98.4810     9.1490   -57.6510    71.7490    19.7200    13.1040    14.7940
 3022.0000   -85.1650    64.9910     0.1020   -96.6870     9.1740   -58.0670    71.9350    21.9240    13.0800    14.3700
 3022.5000   -85.1650    65.3250     0.1020   -94.8920     9.1990   -58.1790    78.0150    18.3260    13.0300    14.7010
 3023.0000   -85.1650    67.0130     0.1170   -93.0980     9.2240   -58.1830    86.8670    14.7600    12.9510    15.0450
 3023.5000   -85.1650    68.5600     0.1280   -91.3030     9.2500   -58.1830    89.3260    12.7530    12.7210    12.8710
 3024.0000   -85.1650    69.2820     0.1310   -89.5080     9.2750   -58.1830    85.5810    13.9970    12.3820    11.9940
 3024.5000   -85.1650    68.9700     0.1270   -87.7140     9.3000   -58.1830    80.6060    15.6700    11.3490    11.0690
 3025.0000   -85.1650    68.7210     0.1280   -85.9190     9.3250   -58.1840    82.3380    16.4920    10.4200    10.0800
 3025.5000   -85.1650    69.9580     0.1350   -84.1240     9.3500   -58.1740    86.9500    14.1100    10.0420     9.2020
 3026.0000   -85.1650    72.6540     0.1530   -82.3300     9.3750   -57.8630    94.3670    11.0650     9.4940     8.7470
 3026.5000   -85.1650    76.1970     0.1790   -80.5350     9.4010   -57.5370   100.6760     9.0490     8.7200     8.2920
 3027.0000   -85.1650    78.5330     0.1990   -78.7410     9.4260   -57.2100    99.0350     8.3960     8.1200     7.8370
 3027.5000   -85.1650    80.2070     0.2070   -76.9460     9.4510   -56.8780    97.5430     8.2300     8.0670     7.3820
 3028.0000   -85.1650    80.8310     0.2150   -76.1870     9.4650   -56.7330    96.8220     8.0340     7.6690     7.0210
 3028.5000   -85.1650    81.4090     0.2220   -79.3860     9.4540   -56.6420    97.6750     7.6960     7.2790     7.0510
 3029.0000   -85.1650    81.7080     0.2230   -82.5850     9.4530   -56.5580    98.2410     7.7630     7.2540     7.0750
 3029.5000   -85.1650    81.2900     0.2210   -85.7840     9.4630   -56.4790    97.9170     7.9850     7.2280     7.0860
 3030.0000   -85.1650    80.4550     0.2150   -88.9830     9.4730   -56.3990    97.5880     8.6720     7.0850     6.7870
 3030.5000   -85.1650    79.4200     0.2070   -92.1820     9.4820   -56.3200    98.2870     8.6030     6.7560     6.5300
 3031.0000   -85.1650    79.3110     0.2040   -95.3810     9.4860   -56.2410    99.4630     8.4750     6.3950     6.1230
 3031.5000   -87.4500    79.4310     0.2040   -98.5800     9.4770   -56.1620   100.0380     8.1790     5.8740     5.5780
 3032.0000   -93.5810    79.6410     0.2090  -101.7790     9.4690   -56.0830   100.2300     7.8130     5.2850     5.1850
 3032.5000   -89.0460    80.6340     0.2170  -104.9790     9.4600   -56.0000   103.8480     6.7040     5.0230     4.9180
 3033.0000   -77.7260    82.1600     0.2290   -92.4880     9.4510   -55.8210   108.8510     5.4310     4.8630     4.7310
 3033.5000   -66.4070    84.2000     0.2390   -77.3950     9.4430   -55.6380   109.3120     4.9080     4.8820     4.7980
 3034.0000   -71.9380    85.1050     0.2460   -72.5990     9.4340   -55.4580   104.2850     5.3010     5.1850     4.8520
 3034.5000   -81.7480    85.0050     0.2490  -105.4340     9.4310   -55.1010    98.8300     6.0580     5.1580     5.1800
 3035.0000   -88.3050    83.8790     0.2400  -105.4340     9.4420   -54.6930    97.3060     6.8300     5.0540     5.5810
 3035.5000   -95.1550    82.3080     0.2300  -105.4340     9.4520   -54.2830    98.7880     7.2250     5.1920     5.7230
 3036.0000   -78.4380    81.1540     0.2200  -105.4340     9.4630   -53.8730   100.1880     7.6270     5.5910     5.9680
 3036.5000   -82.3130    80.0100     0.2100  -105.4340     9.4680   -53.4620   103.9120     8.0580     5.9890     6.2310
