~VERSION INFORMATION
 VERS.                2.0:   CWLS LOG ASCII STANDARD - VERSION 2.0
 WRAP.                 NO:   ONE LINE PER DEPTH STEP
~WELL INFORMATION
#MNEM.UNIT      DATA TYPE    INFORMATION
#----------   ------------   ------------------------------
 STRT.F            7.5000:   START DEPTH
 STOP.F         3140.0000:   STOP DEPTH
 STEP.F            0.5000:   STEP LENGTH
 NULL.          -999.2500:   NO VALUE
 COMP. LAWRENCE ALLISON WEST:   COMPANY
 WELL. LAWRENCE NPR 3 "AX" #51-3:   WELL
 FLD .                NPR:   FIELD
 LOC .       S3 T38N R78W:   LOCATION
 CNTY.            NATRONA:   COUNTY
 STAT.            WYOMING:   STATE
 CTRY. UNITED STATES OF AMERICA:   COUNTRY
 SRVC.      DRESSER ATLAS:   SERVICE COMPANY
 DATE.        09-NOV-1986:   LOGDATE
 API .     49025111180000:   API NUMBER
~CURVE INFORMATION
#MNEM.UNIT       API CODE    CURVE DESCRIPTION
#----------   ------------   ------------------------------
 DEPT.F                  :   
 CALD.IN     45 280 60 00:   CALIPER FROM DENSITY LOG
 DEN .LBS    45 350 01 00:   BULK DENSITY
 CORR.G/C3   45 356 01 00:   DENSITY CORRECTION
 NPOR.DEC    42 890 03 00:   ALPHA PROCESSED NEUTRON POROSITY
 SPR .MV     07 010 01 00:   SPONTANEOUS POTENTIAL
 GRR .GAPI   07 310 01 00:   GAMMA RAY FROM RESISTIVITY
 SFL .OHMM   07 220 01 00:   SHALLOW FOCUSED LOG RESISTIVITY
 ILD .OHMM   07 120 46 00:   DEEP INDUCTION RESISTIVITY
 ILM .OHMM   07 120 44 00:   INDUCTION LOG MEDIUM RESISTIVITY
 TENR.LBS    07 635 01 00:   TENSION FROM RESISTIVITY
~PARAMETER INFORMATION
#MNEM.UNIT          VALUE    DESCRIPTION
#----------   ------------   ------------------------------
 EKB .F         5132.0000:   Kelly bushing
 EGL .F         5120.0000:   Ground level
 TD  .F         3141.0000:   Total depth
 DATE.        09-NOV-1986:   Date logged
 CLNT.            A2DTECH:   Client Code
 SL  . 249' FNL & 2195' FEL:   Surface Location
 PD  .                 GL:   Permanent Datum
 EPD .F              5120:   Elevation Permanent Datum
 LMF .                 KB:   Log Measured From
 DMF .                 KB:   Drilling Measured From
 DAPD.F                12:   Feet Above Permanent Datum
 DD  .F              3141:   Depth driller
 DL  .F              3132:   Depth logger
 BLI .F              3126:   Bottom log interval
 CS1 .IN            8.625:   Casing size
 CBD1.      8.625" @ 690':   Casing driller 1
 CBL1.F               690:   Casing logger 1
 BS1 .IN            7.875:   Bit size
 BSD1.F              3141:   Depth drilled with bit1
 DFT .        KCL/POLYMER:   Type fluid in hole
 DFD .                8.9:   Density
 DFV .                 34:   Viscosity
 DFPH.                9.5:   pH
 DFL .                9.5:   Fluid loss
 MSS .           FLOWLINE:   Source of sample
 RMS .OHMM           .368:   Rm
 MST .F                66:   Rm Meas. temp.
 RMF .OHMM           .296:   Rmf
 MFST.F                66:   Rmf Meas. temp.
 RMC .OHMM           .468:   Rmc
 MCST.F                66:   Rmc Meas. temp.
 MFSS.               MEAS:   Source Rmf.
 MCSS.               CALC:   Source Rmc.
 RMB .OHMM           .282:   Rm. at BHT
 BHT .F               120:   BHT.
 TCS .HRS             3.5:   Time Circ. stopped
 MRT .F               120:   Maximum recorded temp.
 LUN .            HL-6274:   Logging unit number
 LUL .           GILLETTE:   Logging unit location
 ENGI.             RAUTIO:   Recorded By
 WITN.             STRONG:   Witnessed by
 ORIG.        2" 5" PRINT:   Origin of data
 UWI .     49025111180000:   Unique Well ID
 DICO. A2D TECHNOLOGIES, INC.:   Digitizing Company
~OTHER INFORMATION
~A    DEPT    CALD        DEN       CORR       NPOR        SPR         GRR       SFL        ILD        ILM       TENR   
# ...
 2788.0000     8.2907     2.5324    -0.0046     0.2338   -58.5795   109.7887     9.0682     7.4172     7.8424   -53.1285
 2788.5000     8.2909     2.5314    -0.0024     0.2197   -58.7877   104.5462     9.4078     7.6246     7.9871   -63.0120
 2789.0000     8.2922     2.5325    -0.0024     0.2148   -58.7949   104.1302     9.7608     7.8378     8.1345   -62.8097
 2789.5000     8.2929     2.5345    -0.0184     0.2136   -58.8020   104.9208    10.1270     7.9824     8.2846   -52.5210
 2790.0000     8.2936     2.5305    -0.0184     0.2136   -58.8091   106.1137    10.2184     8.0545     8.4375   -52.3185
 2790.5000     8.2943     2.5356    -0.0184     0.2135   -58.6151   108.1112    10.2155     8.0522     8.4350   -42.0292
 2791.0000     8.2950     2.5437    -0.0142     0.2111   -58.6223   108.0974     9.9322     8.0498     8.4326   -41.8265
 2791.5000     8.2955     2.5507    -0.0022     0.2083   -58.4597   107.2791     9.7467     7.9731     8.3522   -51.7110
 2792.0000     8.2589     2.5608     0.0442     0.2107   -58.4368   107.2654     9.7439     7.8240     8.1202   -31.3337
 2792.5000     8.2972     2.5679     0.0664     0.2175   -58.4439   108.4584     9.3861     7.6067     7.8947   -61.3936
 2793.0000     8.2979     2.5710     0.0664     0.2203   -58.6522   109.6516     9.2951     7.2593     7.6045   -51.1035
 2793.5000     8.2982     2.5750     0.0444     0.2239   -58.4582   110.4397     9.2940     7.0576     7.3932   -50.8604
 2794.0000     8.2795     2.5720     0.0384     0.2295   -58.4653   111.6330     9.0361     6.9903     7.2550   -50.6579
 2794.5000     8.2801     2.5650     0.0344     0.2242   -58.4724   113.2285     8.4653     6.9232     7.1853   -40.3669
 2795.0000     8.3008     2.5560     0.0266     0.2206   -58.4781   112.8126     7.9300     6.9211     7.1832   -50.2527
 2795.5000     8.3016     2.5540     0.0226     0.2161   -58.3293   109.9826     8.0016     6.9191     7.1147   -39.9613
 2796.0000     8.2620     2.5571     0.0206     0.2173   -58.2927   108.3595     8.6158     6.9170     7.1790   -49.8476
 2796.5000     8.3031     2.5481     0.0146     0.2185   -58.5010   108.7481     9.0225     6.9795     7.3797   -39.5557
 2797.0000     8.3034     2.5390     0.0046     0.2189   -58.5081   111.1485     8.8540     7.0426     7.5861   -29.2635
 2797.5000     8.2864     2.5320    -0.0034     0.2180   -58.3140   111.9396     8.8514     7.1726     7.7983   -39.1501
 2798.0000     8.2851     2.5351    -0.0314     0.2144   -57.9188   111.9259     8.8488     7.3732     8.0898   -38.9473
 2798.5000     8.3060     2.5381    -0.0414     0.2115   -57.9259   109.4979     9.4402     7.5794     8.0889   -28.6544
 2799.0000     8.3067     2.5371    -0.0294     0.2107   -58.1356   107.4723    10.1650     7.7914     8.2382   -28.4514
 2799.5000     8.3074     2.5352    -0.0072     0.2131   -58.1371   106.2513    10.1621     7.9353     8.3127   -38.3388
 2800.0000     8.3081     2.5433    -0.0090     0.2119   -58.1499   105.4327    10.1592     8.0070     8.4662    12.3581
 2800.5000     8.2998     2.5433    -0.0034     0.2072   -58.3321   107.0257    10.0655     8.0771     8.5401   -30.6070
 2801.0000     8.2928     2.5504    -0.0028     0.2062   -58.3603   107.8268    10.1554     8.1543     8.6219   -37.6026
 2801.5000     8.2905     2.5534     0.0032     0.2078   -58.5660   107.4155     9.9669     8.1526     8.6204   -37.3560
 2802.0000     8.2914     2.5645     0.0072     0.2086   -58.5706   106.6018     9.9648     8.0757     8.5388   -37.1093
 2802.5000     8.2920     2.5646     0.0162     0.2090   -58.5751   102.9711    10.2444     7.9996     8.4584   -46.9528
 2803.0000     8.2930     2.5616     0.0236     0.2094   -58.5797   102.5597    10.2426     7.9982     8.4569   -46.7061
 2803.5000     8.2938     2.5606     0.0236     0.2110   -58.5842   102.9533    10.1465     8.0715     8.4554   -46.4593
 2804.0000     8.2946     2.5647     0.0238     0.2117   -57.9851   102.9444     9.9577     8.1455     8.6929   -36.1227
 2804.5000     8.2948     2.5708     0.0258     0.2101   -58.5934   102.5330     9.8640     8.2968     8.8545   -45.9659
 2805.0000     8.2963     2.5728     0.0280     0.2085   -58.5979   100.1094     9.5914     8.4510     9.0190   -35.6295
 2805.5000     8.2971     2.5789     0.0280     0.2040   -58.6025    99.6980     9.5897     8.6884     9.1016   -35.3828
 2806.0000     8.2979     2.5779     0.0160     0.2000   -58.6070    99.2866    10.2317     8.9324     9.1000   -35.1362
 2806.5000     8.2987     2.5729    -0.0040     0.1992   -58.6125    96.0580    11.7583     9.0143     9.2691   -24.8002
 2807.0000     8.3197     2.5659    -0.0260     0.1988   -58.6171    91.2176    13.1414     9.0968     9.5295   -34.5937
 2807.5000     8.3205     2.5660    -0.0140     0.1975   -58.8228    89.5987    13.1391     9.0952     9.7065   -34.3471
 2808.0000     8.3215     2.5660     0.0062     0.1951   -58.8274    88.7847    12.3103     9.0095     9.7954   -34.1005
 2808.5000     8.3021     2.5660     0.0204     0.1971   -58.6307    94.4103    11.7499     8.9246     9.7031   -33.8539
 2809.0000     8.3030     2.5631     0.0206     0.2039   -58.4340    97.2187    11.4252     8.5972     9.5224   -33.6073
 2809.5000     8.3031     2.5541     0.0086     0.2083   -58.6398    98.8197    10.8040     8.3594     9.2590   -43.3508
 2810.0000     8.3046     2.5521     0.0186     0.2087   -58.6444    99.6157    10.3122     8.2040     8.8371   -43.1724
 2810.5000     8.3054     2.5582     0.0148     0.2103   -58.4495   100.8142     9.8428     8.1267     8.4345   -43.1534
 2811.0000     8.3264     2.5663     0.0208     0.2063   -58.8547   100.0003     9.5709     7.9754     8.2777   -42.8574
 2811.5000     8.3153     2.5733     0.0230     0.2026   -58.8593    98.3813    10.0237     7.9006     8.0488   -62.8369
 2812.0000     8.2877     2.5804     0.0210     0.2058   -58.8639    95.9574    10.4010     7.6820     7.8992   -62.5407
 2812.5000     8.3288     2.5774     0.0232     0.2103   -59.0697    94.3384    10.6928     7.4696     7.7524   -62.2938
 2813.0000     8.3092     2.5715     0.0312     0.2187   -59.0742    96.3419    10.0184     7.2630     7.6786   -72.0363
 2813.5000     8.3104     2.5624     0.0354     0.2255   -59.0788   100.7606     9.2999     7.1280     7.6780   -71.7400
 2814.0000     8.3111     2.5585     0.0092     0.2315   -59.0843   103.5693     8.2414     6.9309     7.4657   -81.5315
 2814.5000     8.3323     2.5585     0.0032     0.2412   -59.0888   107.1831     7.9397     6.6151     7.0712   -81.2844
 2815.0000     8.3104     2.5575     0.0276     0.2452   -59.0934   104.3565     7.9383     6.3138     6.6975   -81.0374
 2815.5000     8.2936     2.5515     0.0376     0.2424   -59.5005   101.5281     7.8639     5.9702     6.3436   -80.7904
 2816.0000     8.2944     2.5516     0.0578     0.2319   -59.5051   100.7141     7.7174     5.6455     6.0811   -80.5434
 2816.5000     8.3152     2.5506     0.0700     0.2323   -59.9122   107.5484     7.4348     5.2891     5.9686   -70.2090
 2817.0000     8.3315     2.5446     0.0580     0.2379   -59.5142   116.7980     7.0309     4.6866     4.7742   -60.0230
 2817.5000     8.3170     2.5366     0.0260     0.2423   -59.5188   122.4249     6.6490     4.1527     4.7299   -49.5410
 2818.0000     8.3178     2.5226    -0.0062     0.2616   -59.5233   129.2613     6.2297     3.0840     3.7843   -39.2073
 2818.5000     8.3383     2.4944    -0.0020     0.2808   -59.7292   136.0961     6.0023     2.6578     3.0277   -28.8738
 2819.0000     8.3207     2.4703     0.0000     0.2986   -59.7337   150.5822     4.7144     2.2481     2.3332   -28.6273
 2819.5000     8.3001     2.4392    -0.0040     0.3202   -59.5379   157.8199     4.0256     1.8840     2.1457   -18.4419
 2820.0000     8.3009     2.3889    -0.0038     0.3376   -59.5416   190.0153     3.2002     1.7080     1.8150   -18.0970
 2820.5000     8.3214     2.3448    -0.0038     0.3649   -59.5462   209.7108     2.4379     1.4919     1.5640   -17.8506
 2821.0000     8.3227     2.3338     0.0184     0.3697   -59.5507   224.5330     2.3487     1.3604     1.4790   -17.6042
