~VERSION INFORMATION
 VERS.                2.0:   CWLS LOG ASCII STANDARD - VERSION 2.0
 WRAP.                 NO:   ONE LINE PER DEPTH STEP
~WELL INFORMATION
#MNEM.UNIT      DATA TYPE    INFORMATION
#----------   ------------   ------------------------------
 STRT.F           10.0000:   START DEPTH
 STOP.F         2950.0000:   STOP DEPTH
 STEP.F            0.5000:   STEP LENGTH
 NULL.          -999.2500:   NO VALUE
 COMP.    FENIX & SCISSON:   COMPANY
 WELL.   PENIX SHX #11-23:   WELL
 FLD .  TEAPOT DOME NPR-3:   FIELD
 LOC .      S23 T38N R78W:   LOCATION
 CNTY.            NATRONA:   COUNTY
 STAT.            WYOMING:   STATE
 CTRY. UNITED STATES OF AMERICA:   COUNTRY
 SRVC.           BIRDWELL:   SERVICE COMPANY
 DATE.        19-MAY-1979:   LOGDATE
 API .     49025107790000:   API NUMBER
~CURVE INFORMATION
#MNEM.UNIT       API CODE    CURVE DESCRIPTION
#----------   ------------   ------------------------------
 DEPT.F                  :   
 ILD .OHMM   05 120 46 00:   INDUCTION LOG DEEP
 SN  .OHMM   05 040 16 00:   SHORT NORMAL 16"
 CALD.IN     45 280 60 00:   CALIPER FROM DENSITY LOG
 GRD .GAPI   45 310 01 00:   GAMMA RAY FROM DENSITY LOG
 RHOB.G/C3   45 350 01 00:   BULK DENSITY
 CORR.G/C3   45 356 01 00:   DENSITY CORRECTION
~PARAMETER INFORMATION
#MNEM.UNIT          VALUE    DESCRIPTION
#----------   ------------   ------------------------------
 EKB .F         5275.0000:   Kelly bushing
 EGL .F         5265.0000:   Ground level
 EDF .F            0.0000:   Drilling floor
 TD  .F         2995.0000:   Total depth
 DATE.        19-MAY-1979:   Date logged
 CLNT.            A2DTECH:   Client Code
 SL  . 337' FNL & 237' FWL:   Surface Location
 PD  .                 GL:   Permanent Datum
 EPD .F              5265:   Elevation Permanent Datum
 LMF .                 KB:   Log Measured From
 DMF .                 KB:   Drilling Measured From
 DAPD.F                10:   Feet Above Permanent Datum
 DD  .F              2995:   Depth driller
 DL  .F              2950:   Depth logger
 BLI .F              2944:   Bottom log interval
 TLI .F              1050:   Top log interval
 CS1 .IN            9.625:   Casing size
 CBD1.     9.625" @ 2050':   Casing driller 1
 CBL1.F              1050:   Casing logger 1
 BS1 .IN             8.75:   Bit size
 BSD1.F              2995:   Depth drilled with bit1
 DFT . AIR/FORRATION FLUIDS:   Type fluid in hole
 TCS .HRS              12:   Time Circ. stopped
 LUN .               3029:   Logging unit number
 LUL .             CASPER:   Logging unit location
 ENGI.         B. ROLLINS:   Recorded By
 ORIG.         2.5" PRINT:   Origin of data
 UWI .     49025107790000:   Unique Well ID
 DICO. A2D TECHNOLOGIES, INC.:   Digitizing Company
~OTHER INFORMATION
~A   DEPT      ILD         SN       CALD        GRD       RHOB         CORR 
# ...
 2298.0000     7.0350     9.5350     8.8770   189.4230     2.4880     0.0530
 2298.5000     7.0020     9.4960     8.8720   197.8950     2.4850     0.0840
 2299.0000     6.9030     9.4570     8.8680   205.7290     2.5210     0.1070
 2299.5000     6.8050     9.0920     8.8630   214.1420     2.5060     0.0760
 2300.0000     6.7070     9.4480     8.8590   208.1980     2.4940     0.0480
 2300.5000     6.5590     9.3130     8.8550   201.6380     2.4910     0.0190
 2301.0000     6.5660     9.1450     8.8500   201.9540     2.4740     0.0100
 2301.5000     6.7120     8.9190     8.8460   208.3670     2.4460     0.0070
 2302.0000     6.8580     9.0960     8.8410   207.2210     2.4350     0.0390
 2302.5000     7.0040     9.3680     8.8370   199.0450     2.5200     0.1510
 2303.0000     7.1660     9.6400     8.8320   206.1250     2.5070     0.1280
 2303.5000     7.2990     9.9120     8.8280   210.0970     2.4410     0.0320
 2304.0000     7.2990    10.2040     8.8240   202.6470     2.4760    -0.0050
 2304.5000     7.2990     9.9930     8.8190   183.7300     2.5240    -0.0040
 2305.0000     7.2990     9.7660     8.8150   181.3020     2.5170    -0.0050
 2305.5000     7.2990     9.5400     8.8100   180.1860     2.5170    -0.0010
 2306.0000     7.2990     9.3130     8.8110   190.6100     2.5170     0.0020
 2306.5000     7.1240     9.0860     8.8130   188.6880     2.5210     0.0070
 2307.0000     6.9470     8.8600     8.8150   185.4450     2.5290     0.0170
 2307.5000     6.7700     8.6330     8.8170   189.9790     2.5350     0.0220
 2308.0000     6.5930     8.4190     8.8190   202.0200     2.5200     0.0120
 2308.5000     6.4690     8.2900     8.8210   202.6010     2.5040     0.0060
 2309.0000     6.3720     8.4070     8.8230   200.5240     2.5030     0.0180
 2309.5000     6.2750     8.5250     8.8250   196.4940     2.5130     0.0180
 2310.0000     6.1780     8.6920     8.8270   192.5130     2.5130     0.0180
 2310.5000     6.0810     8.9190     8.8290   190.6100     2.5080     0.0240
 2311.0000     5.9840     8.9190     8.8310   189.7940     2.5070     0.0350
 2311.5000     5.8460     8.4190     8.8330   189.0270     2.5100     0.0790
 2312.0000     6.0220     8.5230     8.8350   188.8680     2.5480     0.0710
 2312.5000     6.3260     8.7040     8.8370   189.7230     2.5310     0.0300
 2313.0000     6.6310     8.9190     8.8390   195.1270     2.4970    -0.0020
 2313.5000     6.9350     9.4190     8.8410   204.6910     2.4950     0.0080
 2314.0000     7.1790    10.0310     8.8430   213.2690     2.5000     0.0190
 2314.5000     7.2370    10.6040     8.8450   212.0930     2.4830     0.0340
 2315.0000     7.2940    10.6040     8.8470   211.2600     2.4580     0.0320
 2315.5000     7.3510    10.2710     8.8490   207.4470     2.4710     0.0460
 2316.0000     7.4360     9.8940     8.8510   199.3970     2.5300     0.1210
 2316.5000     7.3630     9.5180     8.8520   191.1170     2.5030     0.1020
 2317.0000     7.2240     9.0920     8.8540   186.9190     2.4820     0.0160
 2317.5000     7.0850     9.1870     8.8560   186.5360     2.4960     0.0260
 2318.0000     6.9460     9.2870     8.8580   190.5340     2.5080     0.0250
 2318.5000     6.8070     9.4480     8.8600   193.6710     2.5030     0.0180
 2319.0000     6.7430     9.3560     8.8620   196.4620     2.5040     0.0090
 2319.5000     6.6980     9.2290     8.8640   198.9130     2.5040     0.0030
 2320.0000     6.6550     9.1650     8.8660   206.8340     2.5130     0.0120
 2320.5000     6.7490     9.0920     8.8680   215.6730     2.5250     0.0270
 2321.0000     6.8400     9.2780     8.8700   224.4860     2.5270     0.0300
 2321.5000     6.9320     9.4950     8.8720   221.6760     2.5140     0.0300
 2322.0000     7.0260     9.7130     8.8740   216.1290     2.5020     0.0280
 2322.5000     7.1210     9.9300     8.8760   210.6810     2.4900     0.0260
 2323.0000     7.1660    10.1470     8.8780   213.5580     2.4880     0.0230
 2323.5000     7.1660    10.2040     8.8800   211.1700     2.4920     0.0240
 2324.0000     7.1200    10.2040     8.8820   206.7250     2.5000     0.0310
 2324.5000     7.0720     9.5700     8.8840   207.9800     2.5100     0.0350
 2325.0000     7.0240     8.9190     8.8860   212.0540     2.5200     0.0310
 2325.5000     6.9760     9.0540     8.8880   217.3450     2.5220     0.0230
 2326.0000     6.9270     9.2220     8.8900   215.4290     2.5100     0.0170
 2326.5000     6.8790     9.4480     8.8890   206.1260     2.5000     0.0100
 2327.0000     6.8310     9.3900     8.8860   202.9300     2.4960     0.0160
 2327.5000     6.7830     9.3000     8.8830   202.9700     2.4960     0.0220
 2328.0000     6.7340     9.2100     8.8800   207.3460     2.4900     0.0290
 2328.5000     6.6860     9.1210     8.8770   213.3060     2.4750     0.0010
 2329.0000     6.6510     9.0310     8.8740   219.3790     2.4730    -0.0030
 2329.5000     6.6440     8.9410     8.8700   219.3140     2.4880     0.0140
 2330.0000     6.6380     8.9190     8.8670   218.8470     2.4880     0.0290
 2330.5000     6.6310     8.9190     8.8640   202.7460     2.4430     0.0160
 2331.0000     6.6240     8.9190     8.8610   195.0940     2.2900     0.0010
 2331.5000     6.6170     9.0450     8.8580   196.3570     2.1110     0.0260
 2332.0000     6.6100     9.1710     8.8550   197.8750     2.1170     0.1050
 2332.5000     6.6030     9.2680     8.8520   203.2790     2.2120     0.0830
 2333.0000     6.5960     9.2680     8.8480   208.5110     2.3430     0.0200
 2333.5000     6.5890     9.1900     8.8450   214.0120     2.4750     0.0510
 2334.0000     6.5820     9.1160     8.8420   216.5040     2.4420     0.0390
 2334.5000     6.5750     9.0420     8.8390   210.5980     2.4220     0.0710
 2335.0000     6.5680     8.9680     8.8360   205.0790     2.4870     0.1720
 2335.5000     6.5610     8.9190     8.8330   200.4740     2.3930     0.1090
 2336.0000     6.5530     8.9190     8.8300   202.7970     2.4220     0.0180
 2336.5000     6.5410     8.9190     8.8260   210.2550     2.5150     0.0470
 2337.0000     6.5470     8.9190     8.8230   215.5180     2.5030     0.0620
 2337.5000     6.5320     8.9190     8.8200   218.0800     2.4870     0.0540
 2338.0000     6.6500     8.9190     8.8170   220.3700     2.4700     0.0740
 2338.5000     6.7790     8.7550     8.8140   224.0110     2.5320     0.0930
 2339.0000     6.3600     8.3690     8.8100   227.2730     2.5100     0.0740
 2339.5000     5.9530     7.9840     8.8240   230.8110     2.4760     0.0480
 2340.0000     5.5470     7.5990     8.8780   234.3800     2.5300     0.0570
 2340.5000     4.8590     7.2130     8.9280   236.1780     2.5240     0.0540
 2341.0000     4.8800     6.7810     8.9700   230.5440     2.4950     0.0330
 2341.5000     4.9460     6.3090     8.9370   222.6050     2.4770     0.0110
 2342.0000     5.0420     6.0340     8.8940   223.9460     2.4790     0.0110
 2342.5000     4.8570     5.7890     8.8520   230.8480     2.4850     0.0090
 2343.0000     4.5130     6.1240     8.8550   223.9080     2.4800     0.0070
 2343.5000     4.4120     6.9460     8.8620   216.9340     2.4740     0.0150
 2344.0000     4.2690     6.3090     8.8720   213.5020     2.4800     0.0530
 2344.5000     4.5710     6.4750     8.8720   219.2510     2.5110     0.1050
 2345.0000     5.0420     6.8790     8.8910   216.9200     2.5150     0.1450
 2345.5000     5.1140     6.5570     8.9050   214.0440     2.5060     0.1050
 2346.0000     5.2170     6.7930     9.0970   214.9630     2.3500     0.1260
 2346.5000     5.1650     7.3590     9.3330   215.6120     2.4090     0.2020
 2347.0000     4.8930     7.3590     9.1000   213.8320     2.3750     0.1160
 2347.5000     4.9730     7.3590     8.8230   211.4670     2.3370    -0.0080
 2348.0000     5.1340     7.0920     8.8450   211.6100     2.4090    -0.0180
 2348.5000     5.2950     7.1160     8.8430   196.4350     2.4980    -0.0110
 2349.0000     5.4300     7.1630     8.8310   198.7580     2.4930     0.0040
 2349.5000     5.4300     7.2100     8.8320   202.2540     2.5030     0.0150
