~VERSION INFORMATION
 VERS.                2.0:   CWLS LOG ASCII STANDARD - VERSION 2.0
 WRAP.                 NO:   ONE LINE PER DEPTH STEP
~WELL INFORMATION
#MNEM.UNIT      DATA TYPE    INFORMATION
#----------   ------------   ------------------------------
 STRT.F            0.5000:   START DEPTH
 STOP.F         5758.0000:   STOP DEPTH
 STEP.F            0.5000:   STEP LENGTH
 NULL.          -999.2500:   NO VALUE
 COMP.   LAWRENCE ALLISON:   COMPANY
 WELL. LAWRENCE "X" #51-10:   WELL
 FLD .          NPR NO. 3:   FIELD
 LOC .      S10 T38N R78W:   LOCATION
 CNTY.            NATRONA:   COUNTY
 STAT.            WYOMING:   STATE
 CTRY. UNITED STATES OF AMERICA:   COUNTRY
 SRVC.      DRESSER ATLAS:   SERVICE COMPANY
 DATE.        31-JAN-1987:   LOGDATE
 API .     49025111230000:   API NUMBER
~CURVE INFORMATION
#MNEM.UNIT       API CODE    CURVE DESCRIPTION
#----------   ------------   ------------------------------
 DEPT.F                  :   
 GRR .GAPI   07 310 01 00:   GAMMA RAY FROM RESISTIVITY
 TENR.LBS    07 635 01 00:   TENSION FROM RESISTIVITY
 SPR .MV     07 010 01 00:   SPONTANEOUS POTENTIAL
 RD  .OHMM   11 220 10 00:   RESISTIVITY DEEP
 RS  .OHMM   11 220 09 00:   RESISTIVITY SHALLOW
 CNC .DEC    42 890 03 00:   NEUTRON POROSITY
 CALD.IN     45 280 60 00:   CALIPER FROM DENSITY LOG
 DEN .G/C3   45 350 01 00:   BULK DENSITY
 CORR.G/C3   45 356 01 00:   DENSITY CORRECTION
 TEND.LBS    45 635 01 00:   TENSION FORM DENSITY LOG
~PARAMETER INFORMATION
#MNEM.UNIT          VALUE    DESCRIPTION
#----------   ------------   ------------------------------
 EKB .F         5227.0000:   Kelly bushing
 EGL .F         5215.0000:   Ground level
 EDF .F            0.0000:   Drilling floor
 TD  .F         5750.0000:   Total depth
 CLNT.            A2DTECH:   Client Code
 SL  . 2356' FEL & 170' FNL:   Surface Location
 PD  .                 GL:   Permanent Datum
 EPD .F              5215:   Elevation Permanent Datum
 LMF .                 KB:   Log Measured From
 DMF .                 KB:   Drilling Measured From
 DAPD.F                12:   Feet Above Permanent Datum
 DATE.        31-JAN-1987:   Date Logged [DD-MMM-YYYY]
 DD  .F              5747:   Depth driller
 DL  .F              5750:   Depth logger
 BLI .F              5748:   Bottom log interval
 CS1 .IN            9.625:   Casing size
 CBD1.      9.625" @ 511':   Casing driller 1
 CBL1.F               512:   Casing logger 1
 BS1 .IN             8.75:   Bit size
 BSD1.F              5747:   Depth drilled with bit1
 DFT .        KCL POLYMER:   Type fluid in hole
 DFD .                9.3:   Density
 DFV .                 43:   Viscosity
 DFPH.                9.5:   pH
 MSS .           FLOWLINE:   Source of sample
 RMS .OHMM          0.247:   Rm
 MST .F                74:   Rm Meas. temp.
 RMF .OHMM          0.162:   Rmf
 MFST.F                74:   Rmf Meas. temp.
 MFSS.               MEAS:   Source Rmf.
 RMC .OHMM          0.310:   Rmc
 MCST.F                74:   Rmc Meas. temp.
 MCSS.               CALC:   Source Rmc.
 RMB .OHMM          0.109:   Rm. at BHT
 BHT .F               167:   BHT.
 TCS .HRS               5:   Time Circ. stopped
 MRT .F               167:   Maximum recorded temp.
 LUN .            HL-6274:   Logging unit number
 LUL .           GILLETTE:   Logging unit location
 ORIG.        2" 5" PRINT:   Origin of data
 UWI .     49025111230000:   Unique Well ID
 DICO. A2D TECHNOLOGIES, INC.:   Digitizing Company
 ENGI.             RAUTIO:   Recorded By
 WITN.             STRONG:   Witnessed by
 DFL .                7.8:   Fluid loss
~OTHER INFORMATION
~A  DEPTH      GRR       TENR        SPR         RD         RS        CNC       CALD        DEN       CORR       TEND
# ...
 2613.5000    80.0961   -95.6178   -55.4619    19.1285    12.3939     0.2503    10.7586     2.4421     0.1604   -70.0568
 2614.0000    77.3396   -92.2874   -55.4470    19.6852    12.6662     0.2397    10.7286     2.4538     0.1482   -77.4793
 2614.5000    76.4406   -88.9677   -55.2773    19.5427    12.6705     0.2352    10.6986     2.4615     0.1466   -77.0100
 2615.0000    76.1509   -85.6452   -55.1076    17.9857    12.4050     0.2367    10.6989     2.4418     0.1709   -68.9304
 2615.5000    74.6500   -85.8830   -55.0927    16.6681    11.3069     0.2388    10.6539     2.4236     0.1799   -68.5549
 2616.0000    71.2742   -86.9787   -55.0778    15.3401    10.5295     0.2404    10.6059     2.4017     0.1632   -75.8860
 2616.5000    69.4464   -88.0745   -55.5236    14.2163     9.9467     0.2435    10.4730     2.4054     0.1404   -83.2121
 2617.0000    70.7146   -89.1702   -55.9731    14.0241     9.6689     0.2534    10.4581     2.4137     0.1464   -90.5408
 2617.5000    73.2212   -90.2660   -56.5775    14.3239     9.8110     0.2582    10.5190     2.4235     0.1479   -82.3673
 2618.0000    76.9661   -91.3617   -57.3366    14.6292    10.0991     0.2595    10.5646     2.4333     0.1418   -89.7898
 2618.5000    80.1733   -92.4574   -58.2505    14.8376    10.3950     0.2610    10.5952     2.4324     0.1326   -89.3203
 2619.0000    81.9867   -93.5532   -58.8548    14.8416    10.6233     0.2625    10.6409     2.4286     0.1235   -96.7430
 2619.5000    82.0165   -94.6489   -58.8362    14.8455    10.4753     0.2583    10.6714     2.4248     0.1280   -96.2735
 2620.0000    82.3559   -95.7447   -58.9798    14.5171    10.4035     0.2532    10.6717     2.4210     0.1507   -95.8980
 2620.5000    82.3857   -96.8404   -59.1160    14.3468    10.4065     0.2502    10.6720     2.4172     0.1522   -95.5226
 2621.0000    82.1059   -97.9362   -59.1011    14.5522    10.7120     0.2490    10.7195     2.4164     0.1491   -95.1463
 2621.5000    81.1860   -99.0319   -59.2415    15.6023    11.0259     0.2484    10.7634     2.4254     0.1429   -94.7612
 2622.0000    79.9983  -100.1277   -59.5419    16.1575    11.4304     0.2508    10.7032     2.4390     0.1429   -86.5980
 2622.5000    80.3451  -101.2234   -59.9815    16.0501    11.8498     0.2548    10.7489     2.4503     0.1429   -86.2225
 2623.0000    82.2325  -102.3199   -60.4311    15.7995    11.7686     0.2632    10.7946     2.4563     0.1398   -85.8470
 2623.5000    83.8103  -103.4149   -60.8843    14.7763    11.3583     0.2681    10.8705     2.4562     0.1291   -85.4715
 2624.0000    84.1497  -104.5106   -61.4849    14.3755    11.0419     0.2693    10.9767     2.4509     0.1230   -77.3917
 2624.5000    84.1796  -105.0000   -62.0892    14.3793    10.8873     0.2669    11.0829     2.4486     0.1154   -69.3120
 2625.0000    85.1913  -105.0000   -62.6935    14.3832    10.8911     0.2672    11.1589     2.4471     0.1153   -68.9366
 2625.5000    86.4137  -105.0000   -63.0367    14.2875    10.9722     0.2694    11.2197     2.4463     0.1092   -68.5611
 2626.0000    86.4435  -105.0000   -63.8984    14.3918    11.0540     0.2700    11.2960     2.4463     0.1030   -68.1819
 2626.5000    84.6157   -85.0000   -64.8123    14.6985    11.1364     0.2703    11.3716     2.4470     0.0967   -60.0924
 2627.0000    81.8591   -85.0000   -65.4166    15.0118    11.3811     0.2700    11.4324     2.4492     0.0863   -59.6365
 2627.5000    81.5632   -85.0000   -66.1757    14.8088    11.3038     0.2697    11.4781     2.4507     0.0726   -59.2610
 2628.0000    82.8816   -85.0000   -66.9348    14.3075    10.7549     0.2682    11.4935     2.4530     0.0407   -58.8855
 2628.5000    85.6711   -85.0000   -67.5391    13.8185    10.2326     0.2670    11.4938     2.4566     0.0118   -58.5101
 2629.0000    87.8681   -85.0000   -68.1397    13.0809    10.0894     0.2646    11.4941     2.4627    -0.0004   -50.4304
 2629.5000    87.5883   -85.0000   -68.4344    12.9930    10.1653     0.2546    11.4944     2.4747     0.0026   -50.0547
 2630.0000    86.0701   -65.0000   -68.5781    13.2708    10.5484     0.2482    11.4947     2.4853     0.0102   -49.6793
 2630.5000    84.8615   -65.0000   -68.7180    14.2284    11.3233     0.2490    11.5101     2.4898     0.0163   -57.0080
 2631.0000    83.9484   -65.2600   -68.6994    15.0448    11.8229     0.2559    11.4953     2.4875     0.0212   -56.6255
 2631.5000    83.6827   -65.7382   -68.9941    15.0488    11.6583     0.2611    11.4970     2.4791     0.0419   -56.2404
 2632.0000    84.3391   -66.2165   -69.2888    14.8463    11.4959     0.2650    11.5867     2.4216     0.0722   -48.0833
 2632.5000    84.3689   -66.6947   -69.8894    14.4436    11.2550     0.2696    11.6929     2.4080     0.0767   -47.7079
 2633.0000    84.7083   -67.1729   -70.1878    13.8582    10.9402     0.2729    11.7840     2.4194     0.0478   -55.1304
 2633.5000    86.2861   -67.6512   -70.6336    13.0225    10.6990     0.2744    11.7540     2.4563     0.0068   -54.6611
 2634.0000    88.4831   -68.1294   -71.0836    12.7574    10.3387     0.2760    11.6786     2.4676     0.0037   -69.6939
 2634.5000    90.1065   -68.6076   -71.6875    12.5850    10.1221     0.2772    11.5428     2.4728     0.0295   -69.3184
 2635.0000    91.3365   -69.0859   -71.9822    12.5892    10.1975     0.2715    11.4977     2.4637     0.0507   -76.6563
 2635.5000    91.3663   -69.5641   -72.2769    12.7685    10.3473     0.2627    11.4829     2.4584     0.0346   -76.2558
 2636.0000    90.7769   -70.0423   -72.5716    13.5012    10.7269     0.2543    11.4832     2.4553     0.0051   -68.1818
 2636.5000    87.7107   -70.5206   -72.5530    14.4754    11.2170     0.2488    11.4986     2.4628    -0.0071   -67.7225
 2637.0000    84.0253   -70.9988   -72.6935    15.0950    11.9488     0.2467    11.4966     2.4704    -0.0041   -67.3470
 2637.5000    80.5987   -71.4770   -72.6780    15.6505    12.6558     0.2498    11.4387     2.4803     0.0080   -66.9714
 2638.0000    79.1313   -71.9553   -72.8179    16.0765    12.9338     0.2537    11.4239     2.4901     0.0155   -58.8917
 2638.5000    83.8125   -72.4335   -72.7993    15.5334    12.8443     0.2574    11.3939     2.4801     0.0170   -58.5162
 2639.0000    87.2479   -72.9117   -73.0978    14.2958    11.9620     0.2603    11.5153     2.4679     0.0215   -58.1408
 2639.5000    89.7545   -73.3900   -73.6983    13.1569    11.2898     0.2640    11.6215     2.4573     0.0230   -57.7653
 2640.0000    91.0227   -73.8682   -74.1479    11.9418    10.2270     0.2595    11.6823     2.4528     0.0244   -57.3898
 2640.5000    90.1163   -74.3464   -74.5975    11.4496     9.6611     0.2559    11.5616     2.4603     0.0289   -49.3066
 2641.0000    88.6129   -74.8246   -75.0469    11.3028     9.3906     0.2529    11.5014     2.4633     0.0319   -48.9213
 2641.5000    88.6427   -75.3029   -75.1868    11.4646     9.4612     0.2502    11.4559     2.4655     0.0349   -48.4652
 2642.0000    88.6725   -75.7811   -75.4778    11.7905     9.6690     0.2469    11.4245     2.4670     0.0333   -40.3856
 2642.5000    89.0119   -76.2593   -75.4629    12.3807    10.0238     0.2475    11.3813     2.4694     0.0136   -47.7143
 2643.0000    89.6609   -76.7376   -75.7576    12.2984    10.4021     0.2534    11.3816     2.4760     0.0181   -47.3386
 2643.5000    90.6195   -77.2158   -75.8975    12.1219    10.5448     0.2623    11.3667     2.4895     0.0271   -46.9631
 2644.0000    95.8631   -77.6940   -76.0494    11.4806     9.9612     0.2660    11.3368     2.5023     0.0332   -46.5876
 2644.5000   105.5472   -78.1723   -76.3322    10.3482     8.8868     0.2693    11.2615     2.5023     0.0363   -46.2122
 2645.0000   110.2209   -78.6505   -76.3136     8.5228     6.6779     0.2932    11.2315     2.4947     0.0407   -45.8367
 2645.5000   116.4427   -79.1287   -76.2987     5.3177     5.1269     0.2993    11.2015     2.4750     0.0497   -53.1653
 2646.0000   121.4260   -79.6070   -76.1290     5.2076     4.7403     0.2926    11.2018     2.4062     0.0952   -52.7735
 2646.5000   112.4775   -80.0852   -75.6497     5.9402     5.1300     0.2736    11.2021     2.3835     0.1285   -60.1184
