~VERSION INFORMATION
 VERS.                2.0:   CWLS LOG ASCII STANDARD - VERSION 2.0
 WRAP.                 NO:   ONE LINE PER DEPTH STEP
~WELL INFORMATION
#MNEM.UNIT      DATA TYPE    INFORMATION
#----------   ------------   ------------------------------
 STRT.F          748.0000:   START DEPTH
 STOP.F         2734.0000:   STOP DEPTH
 STEP.F            0.5000:   STEP LENGTH
 NULL.          -999.2500:   NO VALUE
 COMP.    FENIX & SCISSON:   COMPANY
 WELL. FENIX NPR 3 "SHX" #84-4:   WELL
 FLD .             TEAPOT:   FIELD
 LOC .       S4 T38N R78W:   LOCATION
 CNTY.            NATRONA:   COUNTY
 STAT.            WYOMING:   STATE
 CTRY. UNITED STATES OF AMERICA:   COUNTRY
 SRVC.              WELEX:   SERVICE COMPANY
 DATE.        08-MAY-1980:   LOGDATE
 API .     49025108050000:   API NUMBER
~CURVE INFORMATION
#MNEM.UNIT       API CODE    CURVE DESCRIPTION
#----------   ------------   ------------------------------
 DEPT.F                  :   
 CALD.IN     45 280 60 00:   CALIPER FROM DENSITY LOG
 GRD .GAPI   45 310 01 00:   GAMMA RAY FROM DENSITY LOG
 RHOB.G/C3   45 350 01 00:   BULK DENSITY
 CORR.G/C3   45 356 01 00:   DENSITY CORRECTION
~PARAMETER INFORMATION
#MNEM.UNIT          VALUE    DESCRIPTION
#----------   ------------   ------------------------------
 EKB .F         5244.0000:   Kelly bushing
 EGL .F         5234.0000:   Ground level
 EDF .F            0.0000:   Drilling floor
 TD  .F         2733.0000:   Total depth
 DATE.        08-MAY-1980:   Date logged
 CLNT.            A2DTECH:   Client Code
 SL  . 7461' FNL & 383' FEL:   Surface Location
 PD  .                 GL:   Permanent Datum
 EPD .F              5234:   Elevation Permanent Datum
 LMF .                 KB:   Log Measured From
 DMF .                 KB:   Drilling Measured From
 DAPD.F                10:   Feet Above Permanent Datum
 DD  .F              2700:   Depth driller
 DL  .F              2733:   Depth logger
 BLI .F              2731:   Bottom log interval
 TLI .F               752:   Top log interval
 CS1 .IN            9.625:   Casing size
 CBD1.      9.625" @ 260':   Casing driller 1
 BS1 .IN              8.5:   Bit size
 BSD1.F              2700:   Depth drilled with bit1
 DFT .                AIR:   Type fluid in hole
 MRT .F               118:   Maximum recorded temp.
 LUN .                  2:   Logging unit number
 ENGI.           TORTILLE:   Recorded By
 WITN.              AMEND:   Witnessed by
 ORIG.           5" PRINT:   Origin of data
 UWI .     49025108050000:   Unique Well ID
 DICO. A2D TECHNOLOGIES, INC.:   Digitizing Company
~OTHER INFORMATION
~A   DEPT       CALD       GRD        RHOB       CORR 
# ...
 1770.0000     8.9380    88.3060     2.5460     0.1050
 1770.5000     8.9210    88.4830     2.5440     0.0930
 1771.0000     8.9050    88.3750     2.5560     0.0950
 1771.5000     8.9000    88.2850     2.5710     0.1080
 1772.0000     8.9050    88.1960     2.5640     0.1120
 1772.5000     8.9090    88.1020     2.5310     0.0900
 1773.0000     8.9140    88.0120     2.5360     0.0830
 1773.5000     8.9190    87.9200     2.5320     0.0750
 1774.0000     8.9240    87.8290     2.5280     0.0720
 1774.5000     8.9290    87.7360     2.5270     0.0690
 1775.0000     8.9340    87.6460     2.5260     0.0720
 1775.5000     8.9370    87.5510     2.5270     0.0740
 1776.0000     8.9560    87.4630     2.5400     0.0890
 1776.5000     8.9860    87.3760     2.5490     0.0970
 1777.0000     9.0180    87.1390     2.5420     0.0860
 1777.5000     9.0080    86.4740     2.5340     0.0810
 1778.0000     8.9790    85.7850     2.5300     0.0810
 1778.5000     8.9490    85.1820     2.5300     0.0810
 1779.0000     8.9390    84.4060     2.5280     0.0810
 1779.5000     8.9400    84.2900     2.5280     0.0790
 1780.0000     8.9400    84.4050     2.5180     0.0650
 1780.5000     8.9400    84.6360     2.4910     0.0430
 1781.0000     8.9400    84.8130     2.4720     0.0290
 1781.5000     8.9400    85.0100     2.4870     0.0350
 1782.0000     8.9400    85.2040     2.5030     0.0480
 1782.5000     8.9400    85.3950     2.4940     0.0510
 1783.0000     8.9400    85.5880     2.4870     0.0420
 1783.5000     8.9400    85.7810     2.4800     0.0360
 1784.0000     8.9400    85.9740     2.4760     0.0300
 1784.5000     8.9400    86.1670     2.4800     0.0370
 1785.0000     8.9400    86.3600     2.4890     0.0460
 1785.5000     8.9400    86.5530     2.4970     0.0530
 1786.0000     8.9400    86.7460     2.5050     0.0510
 1786.5000     8.9400    86.9410     2.4990     0.0450
 1787.0000     8.9400    87.1260     2.4840     0.0390
 1787.5000     8.9400    87.3360     2.4700     0.0320
 1788.0000     8.9400    87.5090     2.4560     0.0280
 1788.5000     8.9400    87.6980     2.4560     0.0250
 1789.0000     8.9400    88.0330     2.4600     0.0280
 1789.5000     8.9400    88.3040     2.4580     0.0290
 1790.0000     8.9400    87.7280     2.4550     0.0270
 1790.5000     8.9400    87.3220     2.4530     0.0220
 1791.0000     8.9400    86.8470     2.4500     0.0180
 1791.5000     8.9400    86.7570     2.4570     0.0240
 1792.0000     8.9400    86.9150     2.4650     0.0300
 1792.5000     8.9400    87.0370     2.4740     0.0370
 1793.0000     8.9400    87.1520     2.4820     0.0430
 1793.5000     8.9400    87.3070     2.4900     0.0500
 1794.0000     8.9400    87.1240     2.4940     0.0530
 1794.5000     8.9400    86.7300     2.4910     0.0530
 1795.0000     8.9400    86.3540     2.4870     0.0520
 1795.5000     8.9400    85.9790     2.4840     0.0520
 1796.0000     8.9400    85.5970     2.4800     0.0510
 1796.5000     8.9400    85.2240     2.4760     0.0500
 1797.0000     8.9400    84.8440     2.4710     0.0500
 1797.5000     8.9400    84.4570     2.4640     0.0490
 1798.0000     8.9400    84.3130     2.4730     0.0490
 1798.5000     8.9400    84.6390     2.4930     0.0570
 1799.0000     8.9400    84.9030     2.5120     0.0810
 1799.5000     8.9400    85.1900     2.5230     0.0900
 1800.0000     8.9400    85.4690     2.5160     0.0810
 1800.5000     8.9400    85.7490     2.5110     0.0660
 1801.0000     8.9400    86.0300     2.5050     0.0620
 1801.5000     8.9400    86.3100     2.5070     0.0700
 1802.0000     8.9400    86.5890     2.5190     0.0810
 1802.5000     8.9400    86.8730     2.5250     0.0930
 1803.0000     8.9400    87.1500     2.5240     0.0890
 1803.5000     8.9400    87.4270     2.5200     0.0790
 1804.0000     8.9400    87.7380     2.5130     0.0700
 1804.5000     8.9400    87.8420     2.5060     0.0620
 1805.0000     8.9400    87.5870     2.5090     0.0530
 1805.5000     8.9400    87.3680     2.5200     0.0510
 1806.0000     8.9400    87.1380     2.5320     0.0600
 1806.5000     8.9400    86.9070     2.5390     0.0680
 1807.0000     8.9400    86.6780     2.5430     0.0770
 1807.5000     8.9400    86.4560     2.5490     0.0860
 1808.0000     8.9400    86.2130     2.5550     0.0920
 1808.5000     8.9400    86.0010     2.5610     0.0970
 1809.0000     8.9400    85.7730     2.5630     0.0960
 1809.5000     8.9400    85.4010     2.5550     0.0900
 1810.0000     8.9400    84.8460     2.5510     0.1010
 1810.5000     8.9400    84.8780     2.5870     0.1210
 1811.0000     8.9400    84.7570     2.5820     0.1110
 1811.5000     8.9400    84.6810     2.5610     0.0880
 1812.0000     8.9400    84.6030     2.5390     0.0660
 1812.5000     8.9400    84.5120     2.5360     0.0650
 1813.0000     8.9400    84.4390     2.5380     0.0640
 1813.5000     8.9400    84.3420     2.5410     0.0630
 1814.0000     8.9400    84.2760     2.5340     0.0610
 1814.5000     8.9400    83.9350     2.5230     0.0590
 1815.0000     8.9400    83.5700     2.5130     0.0570
 1815.5000     8.9400    83.1890     2.5040     0.0580
 1816.0000     8.9400    82.8200     2.5090     0.0670
 1816.5000     8.9400    82.5110     2.5210     0.0830
 1817.0000     8.9400    82.4510     2.5130     0.1060
 1817.5000     8.9400    82.3690     2.4840     0.0920
 1818.0000     8.9400    82.2970     2.4800     0.0480
 1818.5000     8.9400    82.2240     2.4880     0.0550
 1819.0000     8.9400    82.1470     2.4960     0.0520
 1819.5000     8.9400    82.0720     2.4930     0.0510
 1820.0000     8.9400    82.0110     2.4870     0.0500
 1820.5000     8.9390    81.8940     2.4810     0.0490
 1821.0000     8.9380    82.2130     2.4880     0.0500
 1821.5000     8.9370    82.7890     2.5000     0.0570
 1822.0000     8.9360    83.3120     2.5100     0.0650
 1822.5000     8.9340    83.8350     2.5190     0.0740
 1823.0000     8.9330    84.3680     2.5100     0.0730
 1823.5000     8.9320    84.8930     2.4950     0.0550
 1824.0000     8.9310    85.4210     2.4820     0.0490
 1824.5000     8.9300    85.9480     2.5080     0.0560
 1825.0000     8.9290    86.4790     2.5110     0.0640
 1825.5000     8.9270    87.0000     2.5170     0.0740
 1826.0000     8.9260    87.5380     2.5100     0.0770
 1826.5000     8.9250    88.0620     2.5250     0.0780
 1827.0000     8.9240    88.4590     2.5200     0.0800
 1827.5000     8.9230    88.1380     2.5180     0.0800
 1828.0000     8.9220    87.8630     2.5200     0.0880
 1828.5000     8.9210    87.5520     2.5580     0.1030
 1829.0000     8.9190    87.2590     2.5520     0.1080
 1829.5000     8.9180    86.9630     2.5360     0.0880
 1830.0000     8.9170    86.6620     2.5260     0.0810
 1830.5000     8.9160    86.3670     2.5300     0.0820
 1831.0000     8.9150    86.1110     2.5230     0.0870
 1831.5000     8.9140    86.1040     2.5090     0.0850
 1832.0000     8.9120    86.0970     2.5000     0.0700
 1832.5000     8.9110    86.1030     2.5110     0.0650
 1833.0000     8.9100    86.0990     2.5200     0.0710
 1833.5000     8.9090    86.1010     2.5280     0.0780
 1834.0000     8.9080    86.1070     2.5380     0.0850
 1834.5000     8.9070    86.0790     2.5360     0.0930
 1835.0000     8.9060    86.3480     2.5310     0.0980
 1835.5000     8.9040    86.9640     2.5390     0.0980
 1836.0000     8.9040    87.5570     2.5520     0.1100
 1836.5000     8.9020    88.1470     2.5520     0.1280
 1837.0000     8.9010    88.7360     2.5430     0.1250
 1837.5000     8.9030    89.3820     2.5350     0.1080
 1838.0000     8.9410    89.6440     2.5270     0.0900
 1838.5000     8.9720    89.3670     2.5210     0.0740
 1839.0000     9.0070    89.1530     2.5110     0.0650
 1839.5000     9.0380    88.9240     2.5020     0.0590
 1840.0000     9.0710    88.6910     2.4980     0.0530
 1840.5000     9.1090    88.4660     2.4960     0.0470
 1841.0000     9.1200    88.2350     2.5020     0.0420
 1841.5000     9.0500    88.0080     2.5080     0.0410
 1842.0000     8.9850    87.7760     2.5120     0.0450
 1842.5000     8.9810    87.5520     2.5100     0.0500
