~VERSION INFORMATION
 VERS.                2.0:   CWLS LOG ASCII STANDARD - VERSION 2.0
 WRAP.                 NO:   ONE LINE PER DEPTH STEP
~WELL INFORMATION
#MNEM.UNIT      DATA TYPE    INFORMATION
#----------   ------------   ------------------------------
 STRT.F           60.0000:   START DEPTH
 STOP.F         5768.0000:   STOP DEPTH
 STEP.F            0.5000:   STEP LENGTH
 NULL.          -999.2500:   NO VALUE
 COMP.              RMOTC:   COMPANY
 WELL. RMOTC NPR-3 61 "X" #2-15:   WELL
 FLD .            N P R-3:   FIELD
 LOC .      S15 T38N R78W:   LOCATION
 CNTY.            NATRONA:   COUNTY
 STAT.            WYOMING:   STATE
 CTRY. UNITED STATES OF AMERICA:   COUNTRY
 SRVC.       SCHLUMBERGER:   SERVICE COMPANY
 DATE.        07-JAN-2002:   LOGDATE
 API .     49025230310000:   API NUMBER
~CURVE INFORMATION
#MNEM.UNIT       API CODE    CURVE DESCRIPTION
#----------   ------------   ------------------------------
 DEPT.F                  :   
 CALD.IN     45 280 60 00:   CALIPER FROM DENSITY LOG
 TEND.LBS    45 635 01 00:   TENSION FROM DENSITY LOG
 PEFZ.B/E    45 358 01 00:   HILT PHOTOELECTRIC FACTOR
 RHOZ.G/C3   45 350 01 00:   HILT BULK DENSITY
 NPOR.DEC    42 890 03 00:   ALPHA PROCESSED NEUTRON POROSITY
 HDRA.G/C3   45 356 01 00:   DELTA RHO HIP TOOL
 GRS .GAPI   60 310 01 00:   GAMMA RAY FROM SONIC LOG
 DTSM.US/F   61 523 00 00:   SHEAR-WAVE INTERVAL TRANSIT TIME DELTA-T
 GRR .GAPI   07 310 01 00:   GAMMA RAY FROM RESISTIVITY
 TENR.LBS    01 635 01 00:   TENSION FROM RES.
 SPR .MV     07 010 01 00:   SPONTANEOUS POTENTIAL
 HLLD.OHMM   11 220 10 00:   LATEROLOG DEEP RES.
 HLLS.OHMM   11 220 09 00:   LATEROLOG SHALLOW RES.
 HRLD.OHMM   11 220 10 00:   HIGH RESOLUTION DEEP RESISTIVITY
~PARAMETER INFORMATION
#MNEM.UNIT          VALUE    DESCRIPTION
#----------   ------------   ------------------------------
 EKB .F         5244.0000:   Kelly bushing
 EGL .F         5227.0000:   Ground level
 EDF .F         5243.0000:   Drilling floor
 EPD .F            0.0000:   Permanent datum
 TD  .F         5756.0000:   Total depth
 DATE.        07-JAN-2002:   Date logged
 CLNT.            A2DTECH:   Client Code
 SL  . 189' FNL & 1895' FEL:   Surface Location
 PD  .                 GL:   Permanent Datum
 DD  .F              5750:   Depth driller
 DL  .F              5756:   Depth logger
 BLI .F              5748:   Bottom log interval
 CS1 .IN             3054:   Casing size
 CBD1.     9.625" @ 3052':   Casing driller 1
 CBL1.F              3054:   Casing logger 1
 BS1 .IN            8.750:   Bit size
 DFT .             3% KCL:   Type fluid in hole
 DFD .                9.3:   Density
 DFV .                 42:   Viscosity
 DFPH.                  8:   pH
 DFL .                 28:   Fluid loss
 MSS .           FLOWLINE:   Source of sample
 RMS .OHMM          0.413:   Rm
 MST .F                74:   Rm Meas. temp.
 RMF .OHMM          0.305:   Rmf
 MFST.F                74:   Rmf Meas. temp.
 RMC .OHMM          0.637:   Rmc
 MCST.F                74:   Rmc Meas. temp.
 MFSS.               CALC:   Source Rmf.
 RMB .OHMM          0.187:   Rm. at BHT
 BHT .F               172:   BHT.
 TCS .HRS            0800:   Time Circ. stopped
 MRT .F               172:   Maximum recorded temp.
 LUN .               2211:   Logging unit number
 LUL .             CASPER:   Logging unit location
 ENGI.        J.L. FLORES:   Recorded By
 WITN.      MARK MILLIKEN:   Witnessed by
 ORIG.           5" PRINT:   Origin of data
 UWI .     49025230310000:   Unique Well ID
 DICO. A2D TECHNOLOGIES, INC.:   Digitizing Company
 DAPD.                 17:   Feet Above Permanent Datum
 BSD1.               5750:   Depth drilled with bit1
 MCSS.               CALC:   Source Rmc.
 LMF .                 KB:   Log Measured From
 DMF .                 KB:   Drilling Measured From
 TLI .               3054:   Top log interval
~OTHER INFORMATION
~A   DEPT     CALD       TEND       PEFZ       RHOZ       NPOR       HDRA        GRS       DTSM         GRR      TENR        SPR       HLLD       HLLS       HRLD   
# ...
 5548.0000     9.2080  2833.0020     1.9190     2.5360     0.0640     0.0180    15.7740    97.1070    19.0690  2869.9109   -22.4560   217.1800   195.7230   247.3910
 5548.5000     9.2040  2833.0020     1.9310     2.5390     0.0610     0.0130    16.4630    95.9430    18.8900  2869.9109    -3.3650   166.9470   168.9520   162.4290
 5549.0000     9.1990  2833.0020     1.9550     2.5440     0.0570     0.0120    17.4650    94.8860    18.8280  2869.9109    12.4640   184.6180   193.8750   196.1730
 5549.5000     9.1960  2833.0020     1.9490     2.5470     0.0540     0.0110    17.1910    93.8280    18.6650  2869.9109    11.8110   299.3330   273.6700   262.6580
 5550.0000     9.1960  2833.0020     1.9150     2.5400     0.0550     0.0090    16.8580    92.7710    18.2260  2869.9109    -9.1450   341.1800   295.3480   322.5350
 5550.5000     9.1960  2841.9680     1.8990     2.5320     0.0580     0.0070    16.5270    91.7770    18.0810  2869.9109   -26.6940   233.2590   233.4550   237.4410
 5551.0000     9.1960  2852.8831     1.9040     2.5330     0.0580     0.0050    16.1990    91.4410    18.8510  2873.2649   -28.2650   182.9370   177.9850   204.8530
 5551.5000     9.1960  2852.8831     1.9490     2.5450     0.0490     0.0030    15.9580    91.3510    19.4560  2884.3210   -28.2590   276.0890   315.8580   314.4850
 5552.0000     9.1970  2852.8831     1.9960     2.5580     0.0380     0.0020    15.9620    91.2600    19.5020  2891.8740   -27.3070   670.4290   482.3410   424.1180
 5552.5000     9.1840  2852.8831     1.9970     2.5720     0.0390     0.0030    15.9570    91.1690    19.4510  2896.0200   -24.1400   525.4040   446.2190   454.2840
 5553.0000     9.1680  2852.8831     1.9890     2.5910     0.0390     0.0040    15.9980    91.0790    19.5060  2900.1660   -20.6580   409.1230   406.4460   407.7900
 5553.5000     9.1510  2856.1089     1.9820     2.6130     0.0370     0.0040    16.9320    90.5080    19.4480  2904.3110   -19.5830   412.1150   363.2580   394.4260
 5554.0000     9.1360  2860.6360     1.9620     2.6320     0.0330     0.0050    17.9650    89.7460    19.1770  2908.4570   -18.2590   428.2680   359.9510   401.7070
 5554.5000     9.1300  2865.1641     1.9640     2.6250     0.0330     0.0040    18.3200    88.9000    18.4450  2892.1101   -18.6700   683.7580   447.7100   549.4540
 5555.0000     9.1180  2869.6909     1.9760     2.6160     0.0330     0.0040    17.9040    87.9700    17.9070  2896.6331   -19.1910   812.1040   570.1810   769.0160
 5555.5000     9.1060  2872.7629     1.9940     2.6080     0.0330     0.0030    15.7770    87.4620    18.7840  2901.1560   -20.4860   890.2070   650.5540   890.2070
 5556.0000     9.0910  2869.5430     2.0010     2.6030     0.0330     0.0080    17.1630    86.9540    21.1360  2905.6780   -23.7080   890.2070   664.3250   891.9920
 5556.5000     9.0560  2859.5830     2.0070     2.6230     0.0330     0.0170    19.1490    88.9000    24.2560  2909.6331   -26.2290   890.2070   653.9190   895.4070
 5557.0000     9.1080  2850.5691     2.0120     2.6440     0.0330     0.0210    20.9110    91.0620    22.7890  2909.6331   -25.9740   924.3000   640.4600   906.6410
 5557.5000     9.1660  2832.4600     2.0180     2.6500     0.0330     0.0190    18.8330    93.2240    20.4760  2909.6331   -23.8090   971.2260   617.4520   976.5070
 5558.0000     9.2250  2813.1211     1.9970     2.6400     0.0330     0.0150    16.6900    95.3860    18.2730  2909.6331   -17.5750   949.5040   584.4800   984.4300
 5558.5000     9.2870  2836.3320     1.9690     2.6050     0.0420     0.0140    15.2170    97.5480    16.4080  2909.6331    -3.3940   709.9280   428.0300   747.7280
 5559.0000     9.3770  2861.2329     1.9400     2.5700     0.0550     0.0150    14.6420    98.1760    15.6290  2909.6331    30.8840   441.3910   322.5350   460.9730
 5559.5000     9.4230  2869.7090     1.9120     2.5360     0.0690     0.0140    14.0590    97.2700    14.6530  2909.6331    47.5100   209.8380   187.4420   213.7120
 5560.0000     9.4210  2860.6541     1.8830     2.5100     0.0730     0.0110    13.4810    96.3630    14.5480  2909.6331    23.7150   159.3930   154.2680   174.3610
 5560.5000     9.1070  2852.8831     1.8600     2.5090     0.0730     0.0090    12.9490    95.4570    14.3860  2909.6331    15.2210   137.7730   137.7730   137.7730
 5561.0000     9.0940  2852.8831     1.8380     2.5140     0.0720     0.0060    13.3180    94.5500    14.2650  2908.0439   -12.4300   128.8900   135.2750   127.7300
 5561.5000     9.0770  2852.8831     1.8390     2.5190     0.0690     0.0040    13.7160    93.5530    14.9400  2903.4160   -20.8630   106.6690   114.2790   102.1330
 5562.0000     9.0790  2852.8831     1.8390     2.5100     0.0650     0.0060    14.1120    93.8270    15.5550  2898.7881   -21.8450    78.8600    81.0540    80.3160
 5562.5000     9.0820  2849.4041     1.8390     2.5000     0.0610     0.0100    14.5060    94.2170    16.3100  2894.1589   -21.5660   128.0120    81.0540   131.8500
 5563.0000     9.0850  2839.4431     1.8600     2.5060     0.0590     0.0130    14.9060    94.5690    17.1780  2889.5310   -18.5540   196.8240   167.0250   200.6990
 5563.5000     9.0880  2829.4829     1.8780     2.5260     0.0580     0.0160    15.3010    93.6800    18.0680  2884.9031   -15.5420   255.7460   203.9060   258.9670
 5564.0000     9.0910  2819.5229     1.8580     2.5440     0.0580     0.0190    16.2100    91.9040    18.5010  2880.2749   -12.2290   249.6640   209.8380   249.6640
 5564.5000     9.0930  2809.5630     1.8210     2.5480     0.0560     0.0150    17.1090    91.0150    17.8850  2875.6470   -12.3800   344.8140   227.8420   341.2230
 5565.0000     9.0970  2799.6021     1.7830     2.5420     0.0520     0.0080    17.4410    90.5580    17.8690  2869.9109   -11.6270   448.3080   310.9480   491.2450
 5565.5000     9.1250  2793.2410     1.7590     2.5370     0.0500     0.0040    16.5000    90.0510    18.1440  2869.9109   -10.6220   526.7390   327.8900   537.1880
 5566.0000     9.1540  2800.5530     1.7680     2.5490     0.0460     0.0030    15.5440    89.4920    18.6570  2869.9109   -14.1770   608.4310   387.1200   611.8300
 5566.5000     9.1760  2813.5449     1.8220     2.5630     0.0390     0.0020    16.2990    89.3400    19.1950  2869.9109   -18.1260   676.5890   475.0470   798.2740
 5567.0000     9.1560  2826.5359     1.8760     2.5770     0.0390     0.0080    17.0190    88.8320    19.7130  2869.9109   -22.4700  1049.5190   548.2320  1098.6290
 5567.5000     9.1350  2839.5281     1.9440     2.5770     0.0390     0.0150    17.3490    88.3250    19.8780  2869.9109   -22.2690   887.5480   466.2890   839.0390
 5568.0000     9.1150  2852.8831     2.0100     2.5800     0.0380     0.0200    16.9390    87.8170    18.3420  2869.9109   -19.5080   602.8200   379.8510   424.3680
 5568.5000     9.0970  2838.9409     2.0230     2.5900     0.0380     0.0200    16.5430    87.3100    16.1560  2869.9109   -16.9980   399.1610   278.6260   372.2010
 5569.0000     9.1040  2801.5901     1.9980     2.5890     0.0380     0.0150    16.1450    86.4470    15.1740  2869.9109   -14.4880   331.6270   252.8310   304.6670
 5569.5000     9.1230  2805.4519     1.9710     2.5850     0.0400     0.0080    16.0480    86.0240    15.3950  2869.9109   -12.2290   276.0890   225.7680   281.1860
 5570.0000     9.1360  2821.1780     1.9310     2.5710     0.0410     0.0040    16.2050    86.1930    17.0740  2865.2759   -12.6540   345.5100   225.7680   350.0870
 5570.5000     9.1290  2836.9050     1.8960     2.5560     0.0430     0.0040    16.4330    86.3620    18.8540  2860.5381   -13.0400   443.1210   361.2580   435.2800
 5571.0000     9.1000  2852.8831     1.9380     2.5400     0.0440     0.0040    17.6900    86.9540    19.4680  2855.8000   -14.1740   540.7320   477.9490   520.4720
 5571.5000     9.0970  2850.4409     1.9690     2.5330     0.0450     0.0060    17.6310    87.5250    19.8170  2850.0500   -16.0570   600.7400   500.3140   589.8510
 5572.0000     9.0920  2847.3291     1.9980     2.5420     0.0470     0.0170    17.1910    88.3410    19.6240  2853.6890   -17.9390   477.1320   401.1560   465.8810
