~VERSION INFORMATION
 VERS.                2.0:   CWLS LOG ASCII STANDARD - VERSION 2.0
 WRAP.                 NO:   ONE LINE PER DEPTH STEP
~WELL INFORMATION
#MNEM.UNIT      DATA TYPE    INFORMATION
#----------   ------------   ------------------------------
 STRT.F          200.0000:   START DEPTH
 STOP.F         3196.5000:   STOP DEPTH
 STEP.F            0.5000:   STEP LENGTH
 NULL.          -999.2500:   NO VALUE
 COMP.    FENIX & SCISSON:   COMPANY
 WELL. FENIX & SCISSON #82-15:   WELL
 FLD .                NPR:   FIELD
 LOC .      S15 T38N R78W:   LOCATION
 CNTY.            NATRONA:   COUNTY
 STAT.            WYOMING:   STATE
 CTRY. UNITED STATES OF AMERICA:   COUNTRY
 SRVC.              WELEX:   SERVICE COMPANY
 DATE.        14-AUG-1977:   LOGDATE
 API .     49025104100000:   API NUMBER
~CURVE INFORMATION
#MNEM.UNIT       API CODE    CURVE DESCRIPTION
#----------   ------------   ------------------------------
 DEPT.F                  :   
 CALD.IN     45 280 60 00:   CALIPER FROM DENSITY LOG
 GRD .GAPI   45 310 01 00:   GAMMA RAY FROM DENSITY LOG
 RHOB.G/C3   45 350 01 00:   BULK DENSITY
 CORR.G/C3   45 356 01 00:   DENSITY CORRECTION
 SPR .MV     07 010 01 00:   SPONTANEOUS POTENTIAL
 ILD .OHMM   07 120 46 00:   DEEP INDUCTION RESISTIVITY
 ILM .OHMM   07 120 44 00:   INDUCTION LOG MEDIUM RESISTIVITY
 GURD.OHMM   07 220 05 00:   GUARD LOG RESISTIVITY
~PARAMETER INFORMATION
#MNEM.UNIT          VALUE    DESCRIPTION
#----------   ------------   ------------------------------
 EKB .F         5259.0000:   Kelly bushing
 EGL .F         5249.0000:   Ground level
 EDF .F            0.0000:   Drilling floor
 EPD .F            0.0000:   Permanent datum
 TD  .F         3197.0000:   Total depth
 CLNT.            A2DTECH:   Client Code
 SL  . 990' FNL & 330' FEL:   Surface Location
 PD  .                 GL:   Permanent Datum
 DAPD.F                10:   Feet Above Permanent Datum
 DATE.        14-AUG-1977:   Date Logged [DD-MMM-YYYY]
 DD  .F              3197:   Depth driller
 DL  .F              3200:   Depth logger
 BLI .F              3198:   Bottom log interval
 TLI .F               200:   Top log interval
 CS1 .IN            8.625:   Casing size
 CBD1.      8.625" @ 236':   Casing driller 1
 CBL1.F               220:   Casing logger 1
 BS1 .IN            7.875:   Bit size
 BSD1.F              3197:   Depth drilled with bit1
 DFT .            KCL MUD:   Type fluid in hole
 DFD .                9.1:   Density
 DFV .                 42:   Viscosity
 DFPH.               10.5:   pH
 DFL .                7.2:   Fluid loss
 MSS .           FLOWLINE:   Source of sample
 RMS .OHMM          0.240:   Rm
 MST .F                92:   Rm Meas. temp.
 RMF .OHMM          0.160:   Rmf
 MFST.F                92:   Rmf Meas. temp.
 MFSS.               MEAS:   Source Rmf.
 RMC .OHMM          0.238:   Rmc
 MCST.F                92:   Rmc Meas. temp.
 MCSS.               MEAS:   Source Rmc.
 RMB .OHMM          0.194:   Rm. at BHT
 BHT .F               114:   BHT.
 TCS .HRS               3:   Time Circ. stopped
 MRT .F               114:   Maximum recorded temp.
 LUN .               9685:   Logging unit number
 LUL .             CASPER:   Logging unit location
 ENGI.            C. DOAK:   Recorded By
 WITN.      W. PETTINGILL:   Witnessed by
 ORIG.           5" PRINT:   Origin of data
 UWI .     49025104100000:   Unique Well ID
 DICO. A2D TECHNOLOGIES, INC.:   Digitizing Company
~OTHER INFORMATION
~A   DEPT       CALD       GRD        RHOB      CORR       SPR        ILD        ILM       GURD   
# ...
 2751.5000     8.9590    90.2626     2.3725     0.0205   -27.4542    10.3792    11.9353    12.4262
 2752.0000     8.9601    88.2562     2.3719     0.0179   -25.6281    10.0320    12.1808    13.5311
 2752.5000     8.9461    87.3798     2.3751     0.0197   -24.5365     9.8985    10.5410    11.5874
 2753.0000     8.9176    86.8032     2.3788     0.0228   -23.0672     9.8374     9.5734     9.4382
 2753.5000     8.8587    83.8279     2.3781     0.0260   -22.0048     9.9119     9.5798    10.1210
 2754.0000     8.7856    81.1524     2.3759     0.0292   -21.3909    10.0564     9.8555    10.9287
 2754.5000     8.7274    82.6747     2.3753     0.0324   -20.9264    10.2041    10.3520    10.4179
 2755.0000     8.7285    82.3980     2.3754     0.0326   -20.9103    10.2812    10.8761    10.7169
 2755.5000     8.7297    83.9262     2.3794     0.0342   -20.7448    10.1459    10.8683    12.5208
 2756.0000     8.7308    86.0425     2.3868     0.0359   -20.7288     9.9433    10.3029    11.2581
 2756.5000     8.7320    84.8662     2.3936     0.0391   -20.7127     9.6772     9.4877     9.7036
 2757.0000     8.7331    85.1950     2.4004     0.0438   -20.8461     9.6164     9.2331     9.2247
 2757.5000     8.7346    86.8065     2.4057     0.0501   -20.8296     9.7668     9.3697     9.6233
 2758.0000     8.7357    88.8469     2.4096     0.0576   -20.8100    10.0380     9.9101    10.3912
 2758.5000     8.7369    90.4108     2.4033     0.0623   -20.7939    10.2549    10.3375    11.5356
 2759.0000     8.7228    90.6907     2.3933     0.0535   -20.7779    10.4042    10.4889    12.3702
 2759.5000     8.7242    90.7107     2.3888     0.0477   -20.7618    10.4104    10.4974    12.0395
 2760.0000     8.7104    90.5871     2.3867     0.0463   -20.2699    10.4167    10.7995    11.2408
 2760.5000     8.7116    90.3070     2.3883     0.0495   -21.1451    10.4237    10.6563    11.4061
 2761.0000     8.7280    90.3383     2.3936     0.0497   -21.7257    10.5749    10.8140    11.4130
 2761.5000     8.7291    90.6623     2.4013     0.0483   -22.0117    10.5827    10.7448    11.2611
 2762.0000     8.7601    90.9865     2.4095     0.0486   -22.1439    10.6626    10.7538    10.8860
 2762.5000     8.7613    91.6156     2.4148     0.0457   -22.2720    10.8178    10.6867    10.5950
 2763.0000     8.7624    91.6406     2.4164     0.0384   -22.2544    11.2057    10.6956    10.6014
 2763.5000     8.8084    90.4699     2.4165     0.0295   -22.5360    11.5274    10.5538    11.5407
 2764.0000     8.8693    89.0002     2.4188     0.0148   -22.5144    11.9419    10.3455    15.1124
 2764.5000     8.8405    87.5305     2.4235     0.0060   -22.4970    12.3960    10.7172    15.5439
 2765.0000     8.8867    85.7134     2.4302     0.0031   -22.4797    13.0832    11.7346    12.4637
 2765.5000     8.9327    82.8036     2.4385     0.0003   -22.4624    13.6465    12.4113    11.9618
 2766.0000     8.9338    81.3339     2.4521     0.0050   -22.4451    14.2340    13.6012    19.7101
 2766.5000     8.9350    80.4558     2.4454     0.0189   -22.5773    14.5416    14.3758    39.4166
 2767.0000     8.9361    80.1819     2.4163     0.0339   -22.7094    14.6514    12.2673    31.8233
 2767.5000     8.9373    80.8112     2.3988     0.0386   -22.8416    14.6603    10.5408    19.1168
 2768.0000     8.9536    82.4112     2.3768     0.0342   -23.1189    14.2683     9.3764    11.0423
 2768.5000     8.9846    84.1561     2.3671     0.0269   -23.5500    13.8890     8.7549    10.8984
 2769.0000     9.0156    85.0780     2.3649     0.0241   -23.6865    13.3317     8.7608    11.6871
 2769.5000     9.1213    84.7978     2.3733     0.0243   -23.8146    12.6208     8.7667    12.0228
 2770.0000     9.0926    84.2250     2.3763     0.0246   -23.9465    12.1144     8.8951    11.5420
 2770.5000     9.0788    85.7584     2.3764     0.0291   -23.9248    11.4684     9.0265    10.9265
 2771.0000     9.1122    87.5699     2.3757     0.0338   -23.9075    11.1618     9.1585    10.2016
 2771.5000     9.1709    85.5085     2.3766     0.0310   -23.7407    11.0149     9.1646     9.9274
 2772.0000     9.2019    84.3378     2.3789     0.0237   -23.7234    11.1770     9.0433    11.3319
 2772.5000     9.2479    85.2597     2.3835     0.0193   -23.8599    11.3397     8.8641    11.7383
 2773.0000     9.2938    86.7795     2.3881     0.0226   -23.8382    11.5047     8.8088    11.0800
 2773.5000     9.3099    87.4028     2.3919     0.0257   -23.6712    11.5916     8.8162    10.3751
 2774.0000     9.3110    86.2380     2.3935     0.0274   -23.8036    11.4391     8.8221    11.6801
 2774.5000     9.3423    85.0610     2.3906     0.0291   -23.9358    11.2106     8.8894    12.0971
 2775.0000     9.3733    85.3913     2.3877     0.0307   -23.9141    10.9744     8.8953    11.6135
 2775.5000     9.4342    86.9111     2.3885     0.0309   -24.0463    10.6192     8.9632    11.3798
 2776.0000     9.4652    86.9558     2.3914     0.0343   -24.1828    10.3369     8.9693    11.2317
 2776.5000     9.4962    86.6623     2.3957     0.0388   -24.4604    10.2702     8.9132    10.7748
 2777.0000     9.4973    87.5904     2.4000     0.0420   -24.6028    10.1365     8.9827    10.2787
 2777.5000     9.4985    90.0071     2.4030     0.0436   -24.7244    10.0725     9.2412    10.2849
 2778.0000     9.4999    91.5270     2.4016     0.0453   -25.0060     9.9383     9.3763    10.4346
 2778.5000     9.5011    91.8447     2.4009     0.0440   -24.9844     9.8092     9.4478    10.7341
 2779.0000     9.5172    91.2780     2.4040     0.0442   -25.1209     9.8166     9.5198    11.9163
 2779.5000     9.5332    94.0423     2.4071     0.0414   -24.9498     9.8225     9.6592    12.6903
 2780.0000     9.5344    93.4272     2.4094     0.0401   -24.9324    10.1045     9.7343    12.1645
 2780.5000     9.5206    92.2564     2.4110     0.0402   -24.9148    10.3228     9.8767    11.3730
 2781.0000     9.5218    90.7867     2.4081     0.0389   -24.8935    10.4731    10.0908    11.3815
 2781.5000     9.5232    89.0181     2.3985     0.0391   -24.8762    10.7040    10.4533    11.1542
 2782.0000     9.5393    86.9403     2.3948     0.0286   -24.8589    11.1617    10.9799    11.0823
 2782.5000     9.5703    86.6766     2.4001     0.0305   -24.6921    11.3242    11.2958    11.4813
 2783.0000     9.5714    87.9037     2.4110     0.0396   -24.6747    11.6493    11.4611    11.6485
 2783.5000     9.5275    89.4235     2.4258     0.0443   -24.6574    11.9837    11.4690    12.3315
 2784.0000     9.4991    90.6444     2.4416     0.0475   -24.7896    12.4996    11.3991    14.0624
 2784.5000     9.5003    91.2674     2.4514     0.0476   -24.7679    12.7697    11.1703    13.3126
 2785.0000     9.5166    90.3712     2.4552     0.0478   -24.7506    13.0457    10.8724    12.6027
 2785.5000     9.5626    89.2311     2.4583     0.0465   -24.7333    13.0554    10.8815    12.3510
 2786.0000     9.5786    88.9510     2.4645     0.0407   -24.7160    13.0633    11.1947    12.4443
 2786.5000     9.6096    89.8791     2.4712     0.0378   -24.9976    13.0711    11.8403    13.8148
 2787.0000     9.5809    90.8011     2.4683     0.0411   -25.2793    12.8972    12.5234    18.1561
 2787.5000     9.5672    91.7230     2.4496     0.0472   -25.5609    12.7293    12.5336    25.2652
 2788.0000     9.5214    92.3468     2.4250     0.0519   -25.6887    12.3888    12.1973    16.8037
 2788.5000     9.5098    92.9752     2.4116     0.0431   -25.9704    11.8861    11.8721    11.9757
 2789.0000     9.5112    92.6950     2.4033     0.0358   -26.7004    11.3378    11.5554    10.4330
 2789.5000     9.5273    91.2316     2.3990     0.0314   -27.2810    10.9585    11.2473    10.0840
 2790.0000     9.5434    89.7556     2.4118     0.0316   -27.8616    10.7396    10.9492    10.3019
 2790.5000     9.5594    94.5751     2.4232     0.0408   -28.4422    10.5967    10.7261    10.8963
 2791.0000     9.5606    96.3890     2.4307     0.0471   -29.1846    10.5299    10.3031    11.5469
 2791.5000     9.5319    94.3276     2.4309     0.0502   -29.5991    10.5378    10.4538    12.7056
