~VERSION INFORMATION
 VERS.                2.0:   CWLS LOG ASCII STANDARD - VERSION 2.0
 WRAP.                 NO:   ONE LINE PER DEPTH STEP
~WELL INFORMATION
#MNEM.UNIT      DATA TYPE    INFORMATION
#----------   ------------   ------------------------------
 STRT.F           14.0000:   START DEPTH
 STOP.F         3246.0000:   STOP DEPTH
 STEP.F            0.5000:   STEP LENGTH
 NULL.          -999.2500:   NO VALUE
 COMP.   LAWRENCE ALLISON:   COMPANY
 WELL. LAWRENCE "34X" #11:   WELL
 FLD .             N.P.R.:   FIELD
 LOC .      S34 T38N R78W:   LOCATION
 CNTY.            NATRONA:   COUNTY
 STAT.            WYOMING:   STATE
 CTRY. UNITED STATES OF AMERICA:   COUNTRY
 SRVC.      DRESSER ATLAS:   SERVICE COMPANY
 DATE.        02-MAY-1985:   LOGDATE
 API .     49025110530001:   API NUMBER
~CURVE INFORMATION
#MNEM.UNIT       API CODE    CURVE DESCRIPTION
#----------   ------------   ------------------------------
 DEPT.F                  :   
 CNC .DEC    42 890 03 00:   NEUTRON POROSITY
 CALD.IN     45 280 60 00:   CALIPER FROM DENSITY LOG
 CORR.G/C3   45 356 01 00:   DENSITY CORRECTION
 RHOB.G/C3   45 350 01 00:   BULK DENSITY
 GRR .GAPI   07 310 01 00:   GAMMA RAY FROM RESISTIVITY
 SPR .MV     07 010 01 00:   SPONTANEOUS POTENTIAL FROM RES.
 TENR.LBS    06 635 01 00:   TENSION FROM RESISTIVITY
 RILD.OHMM   07 120 46 00:   DEEP INDUCTION RESISTIVITY
 RILM.OHMM   07 120 44 00:   INDUCTION LOG MEDIUM RESISTIVITY
 RFOC.OHMM   07 220 04 00:   RESISTIVITY FOCUSED LOG RES.
~PARAMETER INFORMATION
#MNEM.UNIT          VALUE    DESCRIPTION
#----------   ------------   ------------------------------
 EKB .F         5099.0000:   Kelly bushing
 TD  .F         3239.0000:   Total depth
 CLNT.            A2DTECH:   Client Code
 PD  .                 GL:   Permanent Datum
 EPD .F              5087:   Elevation Permanent Datum
 LMF .                 KB:   Log Measured From
 DMF .                 KB:   Drilling Measured From
 DAPD.F                12:   Feet Above Permanent Datum
 DATE.        02-MAY-1985:   Date Logged [DD-MMM-YYYY]
 DD  .F              3239:   Depth driller
 DL  .F              3242:   Depth logger
 BLI .F              3294:   Bottom log interval
 CS1 .IN            8.625:   Casing size
 CBD1.      8.625" @ 487':   Casing driller 1
 CBL1.F               487:   Casing logger 1
 BS1 .IN            7.875:   Bit size
 BSD1.F              3239:   Depth drilled with bit1
 DFT .            KCL GEL:   Type fluid in hole
 DFD .                9.1:   Density
 DFV .                 35:   Viscosity
 DFPH.                  8:   pH
 DFL .                9.8:   Fluid loss
 MSS .           FLOWLINE:   Source of sample
 RMS .OHMM           0.27:   Rm
 MST .F                68:   Rm Meas. temp.
 RMF .OHMM           0.20:   Rmf
 MFST.F                68:   Rmf Meas. temp.
 MFSS.               MEAS:   Source Rmf.
 RMC .OHMM           0.34:   Rmc
 MCST.F                68:   Rmc Meas. temp.
 MCSS.               CALC:   Source Rmc.
 RMB .OHMM           0.15:   Rm. at BHT
 BHT .F               126:   BHT.
 TCS .HRS               3:   Time Circ. stopped
 MRT .F               126:   Maximum recorded temp.
 LUN .               6274:   Logging unit number
 LUL .               GLTE:   Logging unit location
 ENGI.       MACK/EDWARDS:   Recorded By
 WITN.             STRONG:   Witnessed by
 ORIG.           5" PRINT:   Origin of data
 UWI .     49025110260000:   Unique Well ID
 DICO. A2D TECHNOLOGIES, INC.:   Digitizing Company
~OTHER INFORMATION
~A   DEPT      CNC       CALD       CORR       RHOB        GRR        SPR       TENR       RILD       RILM       RFOC   
# ...
 1756.0000  -999.2500  -999.2500  -999.2500  -999.2500    88.3971   -65.9656   -55.5211     7.0097     5.9674     6.9682
 1756.5000  -999.2500  -999.2500  -999.2500  -999.2500    90.6628   -66.2369   -58.9914     6.9222     5.9748     6.9285
 1757.0000  -999.2500  -999.2500  -999.2500  -999.2500    88.0112   -66.3698   -61.6098     6.9335     5.9840     6.9871
 1757.5000  -999.2500  -999.2500  -999.2500  -999.2500    87.3487   -66.1920   -55.6264     6.8923     5.9914     6.9957
 1758.0000  -999.2500  -999.2500  -999.2500  -999.2500    85.8400   -66.0198   -57.2180     6.9036     5.9988     7.0044
 1758.5000  -999.2500  -999.2500  -999.2500  -999.2500    84.5183   -65.6980   -59.0810     6.9607     6.0062     7.0132
 1759.0000  -999.2500  -999.2500  -999.2500  -999.2500    85.0060   -65.3757   -60.6164     6.9699     6.0294     7.0229
 1759.5000  -999.2500  -999.2500  -999.2500  -999.2500    85.2616   -65.1984   -62.1521     6.9812     6.0629     7.0802
 1760.0000  -999.2500  -999.2500  -999.2500  -999.2500    84.6204   -64.8765   -63.6875     7.0390     6.0285     7.0887
 1760.5000  -999.2500  -999.2500  -999.2500  -999.2500    85.3245   -65.0094   -72.7416     7.0972     6.0378     7.0973
 1761.0000  -999.2500  -999.2500  -999.2500  -999.2500    85.8049   -65.1366   -74.2770     7.1065     6.0453     7.1060
 1761.5000  -999.2500  -999.2500  -999.2500  -999.2500    84.7225   -65.2638   -75.7894     7.1653     6.0528     7.0653
 1762.0000  -999.2500  -999.2500  -999.2500  -999.2500    81.6149   -65.6856   -77.3685     7.1747     6.0166     7.0250
 1762.5000  -999.2500  -999.2500  -999.2500  -999.2500    82.3189   -65.6624   -78.9475     7.1842     6.0259     6.9850
 1763.0000  -999.2500  -999.2500  -999.2500  -999.2500    84.1441   -65.4895   -72.9001     7.1958     6.0333     6.8518
 1763.5000  -999.2500  -999.2500  -999.2500  -999.2500    85.7450   -65.1628   -67.3005     7.2052     6.0409     6.9077
 1764.0000  -999.2500  -999.2500  -999.2500  -999.2500    85.3280   -65.2957   -68.4520     7.2648     6.0066     6.9640
 1764.5000  -999.2500  -999.2500  -999.2500  -999.2500    85.1352   -65.5670   -62.4690     7.2217     5.9332     6.9725
 1765.0000  -999.2500  -999.2500  -999.2500  -999.2500    86.5197   -65.8439   -64.2856     7.1812     5.8977     6.9829
 1765.5000  -999.2500  -999.2500  -999.2500  -999.2500    88.3449   -66.1265   -58.4047     7.0448     5.8661     6.8952
 1766.0000  -999.2500  -999.2500  -999.2500  -999.2500    88.6005   -66.3982   -59.9401     6.8595     5.7527     6.7617
 1766.5000  -999.2500  -999.2500  -999.2500  -999.2500    84.8203   -66.3750   -61.5037     6.5465     5.6414     6.5850
 1767.0000  -999.2500  -999.2500  -999.2500  -999.2500    83.2822   -66.0479   -63.0825     6.1584     5.5251     6.5455
 1767.5000  -999.2500  -999.2500  -999.2500  -999.2500    82.4167   -65.8757   -64.9304     5.7533     5.1705     6.5553
 1768.0000  -999.2500  -999.2500  -999.2500  -999.2500    82.2239   -65.5539   -66.4658     5.3008     4.5706     6.5633
 1768.5000  -999.2500  -999.2500  -999.2500  -999.2500    81.8147   -65.3817   -68.0012     4.8839     3.8492     5.9662
 1769.0000  -999.2500  -999.2500  -999.2500  -999.2500    81.6141   -65.0599   -69.5365     4.5310     3.9348     4.9212
 1769.5000  -999.2500  -999.2500  -999.2500  -999.2500    81.2049   -64.8877   -71.0723     4.3513     4.0224     4.5345
 1770.0000  -999.2500  -999.2500  -999.2500  -999.2500    79.8832   -64.7156   -72.5565     4.2385     4.1118     4.5715
 1770.5000  -999.2500  -999.2500  -999.2500  -999.2500    79.4662   -64.6724   -74.1430     4.2454     4.1744     5.0426
 1771.0000  -999.2500  -999.2500  -999.2500  -999.2500    81.5234   -64.5153   -75.7142     4.2806     4.2390     5.7184
 1771.5000  -999.2500  -999.2500  -999.2500  -999.2500    85.3752   -64.4929   -69.6949     4.3460     4.3034     6.2210
 1772.0000  -999.2500  -999.2500  -999.2500  -999.2500    86.2960   -64.7755   -71.3533     4.4432     4.3991     5.4463
 1772.5000  -999.2500  -999.2500  -999.2500  -999.2500    85.8855   -65.2021   -65.6311     4.5425     4.4659     4.6646
 1773.0000  -999.2500  -999.2500  -999.2500  -999.2500    85.6849   -65.7728   -59.2638     4.6775     4.5337     4.7353
 1773.5000  -999.2500  -999.2500  -999.2500  -999.2500    85.7242   -66.3492   -61.1830     4.8871     4.5708     5.0807
 1774.0000  -999.2500  -999.2500  -999.2500  -999.2500    85.5235   -66.6261   -54.8158     5.0972     4.6768     6.1318
 1774.5000  -999.2500  -999.2500  -999.2500  -999.2500    82.6480   -66.4484   -49.1730     5.2840     4.8110     6.2305
 1775.0000  -999.2500  -999.2500  -999.2500  -999.2500    82.9036   -66.5812   -50.7519     5.4776     4.8504     6.0203
 1775.5000  -999.2500  -999.2500  -999.2500  -999.2500    84.8237   -66.4034   -52.3309     5.6390     4.8564     5.6529
 1776.0000  -999.2500  -999.2500  -999.2500  -999.2500    93.2882   -66.3810   -54.2065     5.6857     4.9302     5.4398
 1776.5000  -999.2500  -999.2500  -999.2500  -999.2500   100.2702   -66.3585   -55.4887     5.6931     4.9363     5.6398
 1777.0000  -999.2500  -999.2500  -999.2500  -999.2500   102.0875   -66.3361   -64.7964     5.6556     4.9424     5.8860
 1777.5000  -999.2500  -999.2500  -999.2500  -999.2500   100.1089   -66.4633   -66.3318     5.6294     4.9144     6.0584
 1778.0000  -999.2500  -999.2500  -999.2500  -999.2500    91.6201   -66.6098   -67.8672     5.5978     4.8865     6.1503
 1778.5000  -999.2500  -999.2500  -999.2500  -999.2500    89.6336   -66.8619   -69.4025     5.5664     4.8268     6.1577
 1779.0000  -999.2500  -999.2500  -999.2500  -999.2500    89.2165   -67.1388   -70.9022     5.5369     4.7664     6.1651
 1779.5000  -999.2500  -999.2500  -999.2500  -999.2500    88.3589   -67.1164   -64.9549     5.3925     4.7379     5.9233
 1780.0000  -999.2500  -999.2500  -999.2500  -999.2500    87.4935   -66.7945   -66.5415     5.2883     4.6475     5.3457
 1780.5000  -999.2500  -999.2500  -999.2500  -999.2500    87.2928   -66.6224   -68.4094     5.1814     4.4635     5.3136
 1781.0000  -999.2500  -999.2500  -999.2500  -999.2500    87.7805   -66.4502   -62.4260     4.8803     4.3133     5.3216
 1781.5000  -999.2500  -999.2500  -999.2500  -999.2500    87.8119   -66.1180   -63.9618     4.2244     3.7916     5.2913
 1782.0000  -999.2500  -999.2500  -999.2500  -999.2500    85.1528   -65.9506   -57.5945     4.0575     3.1932     5.2611
 1782.5000  -999.2500  -999.2500  -999.2500  -999.2500    83.5930   -65.6287   -59.5137     4.0055     2.9619     5.0816
 1783.0000  -999.2500  -999.2500  -999.2500  -999.2500    83.4219   -65.4566   -60.9774     3.9295     3.4305     4.3764
 1783.5000  -999.2500  -999.2500  -999.2500  -999.2500    83.4611   -65.2844   -62.5565     3.8804     3.7321     3.6856
 1784.0000  -999.2500  -999.2500  -999.2500  -999.2500    82.1473   -64.9626   -64.1352     3.7498     3.8683     3.6382
 1784.5000  -999.2500  -999.2500  -999.2500  -999.2500    80.1529   -64.9401   -65.7141     3.6311     3.4923     4.1557
 1785.0000  -999.2500  -999.2500  -999.2500  -999.2500    80.8648   -64.9177   -67.5748     3.6095     3.4011     4.9465
 1785.5000  -999.2500  -999.2500  -999.2500  -999.2500    81.5689   -64.8945   -69.1101     3.6406     3.1124     5.0914
 1786.0000  -999.2500  -999.2500  -999.2500  -999.2500    81.3588   -64.8671   -70.6455     3.7479     3.0312     4.7846
 1786.5000  -999.2500  -999.2500  -999.2500  -999.2500    79.3974   -64.5453   -72.1812     3.8317     3.0772     4.4454
 1787.0000  -999.2500  -999.2500  -999.2500  -999.2500    78.9725   -64.3731   -73.7166     3.9173     3.2116     3.8755
 1787.5000  -999.2500  -999.2500  -999.2500  -999.2500    77.8907   -64.3507   -67.6692     3.9774     3.4710     3.6967
 1788.0000  -999.2500  -999.2500  -999.2500  -999.2500    76.3526   -64.4835   -69.2685     3.9837     3.6986     3.7527
 1788.5000  -999.2500  -999.2500  -999.2500  -999.2500    74.8066   -65.0543   -63.2851     3.8530     3.7277     4.0544
 1789.0000  -999.2500  -999.2500  -999.2500  -999.2500    77.5365   -65.9496   -64.8871     3.5499     3.5081     4.9271
