~VERSION INFORMATION
 VERS.                2.0:   CWLS LOG ASCII STANDARD - VERSION 2.0
 WRAP.                 NO:   ONE LINE PER DEPTH STEP
~WELL INFORMATION
#MNEM.UNIT      DATA TYPE    INFORMATION
#----------   ------------   ------------------------------
 STRT.F          243.5000:   START DEPTH
 STOP.F         2836.0000:   STOP DEPTH
 STEP.F            0.5000:   STEP LENGTH
 NULL.          -999.2500:   NO VALUE
 COMP. FENIX & SCISSON U. S. NAVY:   COMPANY
 WELL.   FENIX "A" #86-20:   WELL
 FLD .             NPR #3:   FIELD
 LOC .      S20 T39N R78W:   LOCATION
 CNTY.            NATRONA:   COUNTY
 STAT.            WYOMING:   STATE
 CTRY. UNITED STATES OF AMERICA:   COUNTRY
 SRVC.       SCHLUMBERGER:   SERVICE COMPANY
 DATE.        22-MAR-1977:   LOGDATE
 API .     49025103130000:   API NUMBER
~CURVE INFORMATION
#MNEM.UNIT       API CODE    CURVE DESCRIPTION
#----------   ------------   ------------------------------
 DEPT.F                  :   
 SPR .MV     07 010 01 00:   SPONTANEOUS POTENTIAL
 ILD .OHMM   07 120 46 00:   DEEP INDUCTION RESISTIVITY
 ILM .OHMM   07 120 44 00:   INDUCTION LOG MEDIUM RESISTIVITY
 LL8 .OHMM   07 220 08 00:   LATEROLOG-8 RES.
 CALD.IN     45 280 60 00:   CALIPER FROM DENSITY LOG
 GRD .GAPI   45 310 01 00:   GAMMA RAY FROM DENSITY LOG
 RHOB.G/C3   45 350 01 00:   BULK DENSITY
 CORR.G/C3   45 356 01 00:   DENSITY CORRECTION
~PARAMETER INFORMATION
#MNEM.UNIT          VALUE    DESCRIPTION
#----------   ------------   ------------------------------
 EKB .F         5005.0000:   Kelly bushing
 EGL .F         4994.0000:   Ground level
 EDF .F            0.0000:   Drilling floor
 TD  .F         2836.0000:   Total depth
 DATE.        22-MAR-1977:   Date logged
 CLNT.            A2DTECH:   Client Code
 SL  . 330' FEL & 1650' FSL:   Surface Location
 PD  .                 GL:   Permanent Datum
 EPD .F              5005:   Elevation Permanent Datum
 LMF .                 KB:   Log Measured From
 DMF .                 KB:   Drilling Measured From
 DD  .F              2835:   Depth driller
 DL  .F              2836:   Depth logger
 BLI .F              2826:   Bottom log interval
 TLI .F               259:   Top log interval
 CBD1.      8.625" @ 258':   Casing driller 1
 CBL1.F               259:   Casing logger 1
 BS1 .IN            7.875:   Bit size
 DFT .                KCL:   Type fluid in hole
 DFD .                9.1:   Density
 DFV .                 35:   Viscosity
 DFPH.                  9:   pH
 DFL .                8.6:   Fluid loss
 MSS .              CIRC.:   Source of sample
 RMS .OHMM           0.22:   Rm
 MST .F                60:   Rm Meas. temp.
 RMF .OHMM           0.18:   Rmf
 MFST.F                60:   Rmf Meas. temp.
 RMC .OHMM           0.33:   Rmc
 MCST.F                60:   Rmc Meas. temp.
 MFSS.               MEAS:   Source Rmf.
 RMB .OHMM           0.12:   Rm. at BHT
 BHT .F               110:   BHT.
 TCS .HRS            0900:   Time Circ. stopped
 MRT .F               110:   Maximum recorded temp.
 LUN .               7980:   Logging unit number
 LUL .               CSPR:   Logging unit location
 ENGI.                FIX:   Recorded By
 WITN.               JAPP:   Witnessed by
 ORIG.           5" PRINT:   Origin of data
 UWI .     49025103130000:   Unique Well ID
 DICO. A2D TECHNOLOGIES, INC.:   Digitizing Company
 DAPD.                 11:   Feet Above Permanent Datum
 CS1 .              8.625:   Casing size
 BSD1.               2835:   Depth drilled with bit1
 MCSS.               CACL:   Source Rmc.
 TLAB.               1630:   Time logger at bottom
~OTHER INFORMATION
~A   DEPT      SPR        ILD        ILM        LL8       CALD         GRD      RHOB       CORR   
# ...
 2633.0000   -48.9550     5.1590     5.1390     8.3000     8.4640   155.8540     2.5060     0.0270
 2633.5000   -48.9990     5.0580     5.0340     7.5870     8.4680   156.6330     2.5010     0.0200
 2634.0000   -49.0430     4.9570     4.9290     7.5870     8.4730   163.8660     2.4980     0.0380
 2634.5000   -49.0880     4.8560     4.8100     7.7070     8.4770   159.0300     2.5270     0.0230
 2635.0000   -49.1320     4.7560     4.8100     7.8850     8.4810   151.1380     2.5190     0.0350
 2635.5000   -49.1770     4.7230     4.8100     8.0130     8.4850   147.9240     2.5340     0.0190
 2636.0000   -49.2200     4.7670     4.8990     7.8680     8.4890   142.4810     2.5050     0.0140
 2636.5000   -49.2640     4.8550     4.9850     7.7140     8.4930   144.1930     2.4980     0.0200
 2637.0000   -49.3120     4.9440     5.0650     7.5870     8.4970   148.0870     2.4970     0.0180
 2637.5000   -49.3470     5.0320     5.1450     7.8670     8.5010   149.4640     2.5140     0.0260
 2638.0000   -49.3880     5.1210     5.2240     8.8060     8.5050   145.8870     2.5360     0.0470
 2638.5000   -49.0990     5.2100     5.3040     9.7460     8.5100   141.8890     2.5320     0.0370
 2639.0000   -48.6790     5.2980     5.3840    10.6850     8.5140   139.0510     2.5270     0.0250
 2639.5000   -48.2980     5.3870     5.4630    11.5370     8.5180   137.3570     2.5340     0.0320
 2640.0000   -47.9730     5.4650     5.5430    11.7490     8.5190   137.8220     2.5530     0.0340
 2640.5000   -48.2980     5.4650     5.5650    10.7910     8.5180   130.2960     2.5700     0.0350
 2641.0000   -48.3710     5.3660     5.5650     9.4630     8.5160   144.0480     2.5560     0.0380
 2641.5000   -48.5150     5.2690     5.3440     8.7000     8.5150   156.4170     2.5430     0.0370
 2642.0000   -48.6370     4.8890     4.9790     7.9780     8.5140   154.8420     2.5260     0.0360
 2642.5000   -48.7590     4.4810     4.6130     7.2570     8.5120   159.1230     2.5200     0.0450
 2643.0000   -48.8840     4.0740     4.2480     6.4610     8.5110   169.9550     2.5460     0.0660
 2643.5000   -49.0020     3.6660     3.8820     5.6020     8.5090   177.8960     2.5230     0.0540
 2644.0000   -48.9970     3.2580     3.5170     4.7440     8.5080   203.9730     2.4880     0.0360
 2644.5000   -48.9530     2.9950     3.0500     3.8850     8.5060   206.1330     2.4540     0.0250
 2645.0000   -48.9040     2.9950     3.0860     3.1630     8.5050   194.5050     2.4490     0.0340
 2645.5000   -48.8570     3.0290     3.1500     3.0500     8.5040   183.1990     2.4540     0.0420
 2646.0000   -48.8100     3.1240     3.2150     5.7950     8.5020   162.6130     2.5120     0.0320
 2646.5000   -48.7620     3.2210     3.2810     7.9940     8.5010   147.2790     2.5560     0.0470
 2647.0000   -48.7130     3.6610     3.7870     8.5280     8.4990   134.6840     2.5790     0.0580
 2647.5000   -48.6690     4.2200     4.3080     8.6400     8.4980   127.0030     2.5890     0.0470
 2648.0000   -48.6230     4.7780     4.8290     8.7530     8.4960   122.0490     2.5720     0.0530
 2648.5000   -48.7280     5.3360     5.3510     9.2180     8.4950   117.1410     2.5790     0.0520
 2649.0000   -48.8790     5.6680     5.7720     9.7790     8.4940   119.8190     2.5820     0.0430
 2649.5000   -49.0310     5.7720     5.9860    10.3420     8.4920   128.1540     2.5540     0.0270
 2650.0000   -49.1780     5.7160     6.0960    10.1550     8.4910   134.8220     2.5440     0.0190
 2650.5000   -49.3300     5.6240     5.9990     9.4920     8.4890   140.5930     2.5470     0.0320
 2651.0000   -49.4810     5.5310     5.8770     8.9390     8.4880   141.1760     2.5420     0.0260
 2651.5000   -49.6220     5.4380     5.7560     8.4630     8.4860   136.2240     2.5450     0.0300
 2652.0000   -49.8030     5.3660     5.6340     8.3100     8.4850   140.1540     2.5520     0.0330
 2652.5000   -49.6520     5.3420     5.4650     8.3100     8.4840   142.1690     2.5570     0.0330
 2653.0000   -49.2810     5.3140     5.3660     8.3100     8.4820   141.2050     2.5370     0.0250
 2653.5000   -48.9120     5.2850     5.3660     8.3100     8.4830   140.2500     2.5300     0.0310
 2654.0000   -48.5550     5.2570     5.3660     8.8520     8.4570   134.7500     2.5270     0.0210
 2654.5000   -48.2270     5.2290     5.3660     9.6150     8.4510   137.9140     2.5330     0.0110
 2655.0000   -48.2180     5.2000     5.3660     9.4980     8.4430   144.0960     2.5170     0.0020
 2655.5000   -48.2100     5.1740     5.3660     9.3240     8.4360   167.4110     2.5000     0.0020
 2656.0000   -48.2150     4.8650     5.3660     8.8720     8.4290   170.8740     2.5180     0.0150
 2656.5000   -48.2130     4.5800     5.0570     8.0850     8.4210   180.3370     2.5320     0.0250
 2657.0000   -48.2130     4.2960     4.7130     7.2990     8.4140   189.5430     2.5330     0.0320
 2657.5000   -48.2140     4.0110     4.3690     6.5120     8.4070   200.3910     2.5500     0.0570
 2658.0000   -48.2140     3.7270     4.0250     5.7250     8.3990   220.7300     2.5310     0.0510
 2658.5000   -48.2140     3.5290     3.7270     4.9380     8.3870   227.5180     2.5130     0.0510
 2659.0000   -48.2140     3.4650     3.5940     4.1520     8.3750   222.9250     2.5050     0.0560
 2659.5000   -48.2140     3.5250     3.6400     3.7960     8.3620   203.3070     2.5190     0.0550
 2660.0000   -48.2150     3.6350     3.7250     5.4540     8.3500   151.9230     2.5280     0.0450
 2660.5000   -48.2140     3.7270     3.7960     7.6540     8.3380   139.3970     2.5430     0.0320
 2661.0000   -48.2150     4.1620     4.1460     8.1890     8.3260   135.0820     2.5630     0.0510
 2661.5000   -48.2140     4.5360     4.6010     8.2640     8.3140   133.0650     2.5660     0.0450
 2662.0000   -48.2140     4.9090     5.0560     8.4450     8.3010   132.4790     2.5810     0.0540
 2662.5000   -48.2200     5.2820     5.5100     8.7910     8.2890   130.7190     2.5900     0.0570
 2663.0000   -48.1510     5.6550     5.9650     9.1360     8.2770   129.3480     2.5640     0.0460
 2663.5000   -47.9790     6.0960     6.3230     9.6830     8.2650   126.3590     2.5460     0.0330
 2664.0000   -47.8140     5.9860     6.4390    10.3420     8.2530   122.9860     2.5350     0.0280
 2664.5000   -47.6470     6.0940     6.4830     9.9290     8.2400   122.4830     2.5550     0.0480
 2665.0000   -47.4800     6.1700     6.5260     9.4410     8.2280   120.9880     2.5780     0.0640
 2665.5000   -47.3130     6.2450     6.5690     9.6150     8.2160   119.1500     2.5980     0.0580
 2666.0000   -47.1440     6.3210     6.6120    10.0450     8.2040   116.8210     2.5710     0.0470
 2666.5000   -47.0240     6.3970     6.6550    11.1240     8.1920   119.2620     2.5710     0.0360
 2667.0000   -47.0250     6.4730     6.6780    11.3290     8.1790   123.0200     2.5650     0.0250
 2667.5000   -47.0220     6.5570     6.7690    11.3290     8.1670   125.2350     2.5560     0.0230
 2668.0000   -47.0230     6.6350     6.9030    11.3290     8.1630   126.9900     2.5690     0.0370
 2668.5000   -47.0240     6.7960     7.0380    11.2580     8.1610   128.7200     2.5800     0.0330
 2669.0000   -47.0220     6.9560     7.1730    11.1940     8.1590   130.4660     2.5520     0.0280
 2669.5000   -47.0240     7.1170     7.3080    10.9230     8.1570   132.1580     2.5470     0.0230
 2670.0000   -47.0270     7.2770     7.4420    11.8690     8.1550   132.5680     2.5440     0.0230
 2670.5000   -47.0090     7.4500     7.5870    13.1070     8.1530   127.2950     2.5510     0.0370
 2671.0000   -47.1870     7.5870     7.7260    13.6420     8.1510   129.4500     2.5580     0.0510
 2671.5000   -47.5380     7.5550     7.9550    14.2180     8.1500   122.2260     2.5640     0.0410
 2672.0000   -47.8170     7.4630     8.2640    14.7940     8.1480   117.9550     2.5660     0.0240
 2672.5000   -47.7370     7.3700     8.4630    15.4430     8.1460   125.6190     2.5660     0.0310
 2673.0000   -47.5170     7.2780     8.1600    14.1110     8.1440   127.9390     2.5690     0.0440
