~VERSION INFORMATION
 VERS.                2.0:   CWLS LOG ASCII STANDARD - VERSION 2.0
 WRAP.                 NO:   ONE LINE PER DEPTH STEP
~WELL INFORMATION
#MNEM.UNIT      DATA TYPE    INFORMATION
#----------   ------------   ------------------------------
 STRT.F          224.0000:   START DEPTH
 STOP.F         2912.0000:   STOP DEPTH
 STEP.F            0.5000:   STEP LENGTH
 NULL.          -999.2500:   NO VALUE
 COMP.    FENIX & SCISSON:   COMPANY
 WELL. FENIX & SCISSON NPR 34 "A" #3-21:   WELL
 FLD .             NPR #3:   FIELD
 LOC .      S21 T39N R78W:   LOCATION
 CNTY.            NATRONA:   COUNTY
 STAT.            WYOMING:   STATE
 CTRY. UNITED STATES OF AMERICA:   COUNTRY
 SRVC.              WELEX:   SERVICE COMPANY
 DATE.        15-JUL-1977:   LOGDATE
 API .     49025103970000:   API NUMBER
~CURVE INFORMATION
#MNEM.UNIT       API CODE    CURVE DESCRIPTION
#----------   ------------   ------------------------------
 DEPT.F                  :   
 CALD.IN     45 280 60 00:   CALIPER FROM DENSITY LOG
 CORR.G/C3   45 356 01 00:   DENSITY CORRECTION
 RHOB.G/C3   45 350 01 00:   BULK DENSITY
 GRD .GAPI   45 310 01 00:   GAMMA RAY FROM DENSITY LOG
 SPR .MV     07 010 01 00:   SPONTANEOUS POTENTIAL
 ILD .OHMM   07 120 46 00:   DEEP INDUCTION RESISTIVITY
 ILM .OHMM   07 120 44 00:   INDUCTION LOG MEDIUM RESISTIVITY
 SGRD.OHMM   07 220 05 00:   SHALLOW SHORT GUARD RESISTIVITY
~PARAMETER INFORMATION
#MNEM.UNIT          VALUE    DESCRIPTION
#----------   ------------   ------------------------------
 EKB .F         4921.0000:   Kelly bushing
 EGL .F         4911.0000:   Ground level
 TD  .F         2914.0000:   Total depth
 CLNT.            A2DTECH:   Client Code
 SL  . 2310' FNL & 1650' FWL:   Surface Location
 DATE.        15-JUL-1977:   Date Logged [DD-MMM-YYYY]
 DD  .F              2900:   Depth driller
 DL  .F              2914:   Depth logger
 BLI .F              2912:   Bottom log interval
 TLI .F               218:   Top log interval
 CS1 .              8.625:   Casing size
 CBD1.      8.625" @ 230':   Casing driller 1
 CBL1.IN              226:   Casing logger 1
 BS1 .IN            7.875:   Bit size
 BSD1.F              2900:   Depth drilled with bit1
 DFT .                KCL:   Type fluid in hole
 DFD .                8.9:   Density
 DFV .               1.42:   Viscosity
 DFPH.                7.5:   pH
 DFL .               19.6:   Fluid loss
 MSS .            MUD PIT:   Source of sample
 RMS .OHMM           3.75:   Rm
 MST .F                83:   Rm Meas. temp.
 RMF .OHMM           3.40:   Rmf
 MFST.F                83:   Rmf Meas. temp.
 MFSS.           MEASURED:   Source Rmf.
 RMC .OHMM            9.0:   Rmc
 MCST.F                83:   Rmc Meas. temp.
 MCSS.           MEASURED:   Source Rmc.
 RMB .OHMM           2.80:   Rm. at BHT
 BHT .F               111:   BHT.
 TCS .HRS               3:   Time Circ. stopped
 MRT .F               111:   Maximum recorded temp.
 LUN .               8766:   Logging unit number
 LUL .             CASPER:   Logging unit location
 ENGI.          T. JOYNER:   Recorded By
 WITN.     MR. PETTINGILL:   Witnessed by
 ORIG.           5" PRINT:   Origin of data
 UWI .     49025103970000:   Unique Well ID
 DICO. A2D TECHNOLOGIES, INC.:   Digitizing Company
 PD  .                 GL:   Permanent Datum
 EPD .F              4911:   Elevation Permanent Datum
 LMF .                 KB:   Log Measured From
 DMF .                 KB:   Drilling Measured From
 DAPD.F                10:   Feet Above Permanent Datum
~OTHER INFORMATION
~A   DEPT      CALD        CORR       RHOB       GRD       SPR        ILD        ILM       SGRD   
# ...
 1965.5000     8.3380     0.0539     2.4134   120.4302   -57.0641     4.3277     5.1181     7.0678
 1966.0000     8.3395     0.0509     2.4224   115.6873   -57.0413     4.2582     5.1195     6.7342
 1966.5000     8.3409     0.0479     2.4127   113.9132   -56.7362     4.2889     4.9470     6.4164
 1967.0000     8.3424     0.0404     2.4038   115.1167   -56.4024     4.3196     4.9483     6.2423
 1967.5000     8.3439     0.0344     2.3979   116.9117   -56.1103     4.3806     5.0185     6.5097
 1968.0000     8.3454     0.0314     2.3942   118.7066   -55.9435     4.4735     5.0898     6.9799
 1968.5000     8.3469     0.0314     2.3927   119.9072   -55.6307     4.5682     5.1979     7.0795
 1969.0000     8.3484     0.0344     2.3935   119.3248   -55.4669     4.6328     5.3453     7.2305
 1969.5000     8.3499     0.0389     2.3958   118.1480   -55.1541     4.7638     5.4211     7.5403
 1970.0000     8.3513     0.0389     2.3876   116.9094   -54.9903     4.9326     5.4981     8.0289
 1970.5000     8.3528     0.0374     2.3697   116.0886   -54.8266     5.1072     5.6537     8.4313
 1971.0000     8.3543     0.0329     2.3660   115.4493   -54.6628     5.2881     5.8137     8.5622
 1971.5000     8.3558     0.0314     2.3631   114.8677   -54.4990     5.5517     5.9783     8.3195
 1972.0000     8.3573     0.0314     2.3489   114.0440   -54.3352     5.7483     6.1051     8.1501
 1972.5000     8.3588     0.0314     2.3370   113.4616   -54.1715     5.9123     6.2779     7.9291
 1973.0000     8.3603     0.0314     2.3258   113.1235   -54.0077     5.9984     6.4112     7.6605
 1973.5000     8.3617     0.0284     2.3080   112.5938   -53.8439     6.0793     6.5022     7.5008
 1974.0000     8.3632     0.0210     2.2789   112.6062   -53.8292     6.0808     6.5039     7.2464
 1974.5000     8.3945    -0.0015     2.2020   113.5601   -53.8144     6.0401     6.5057     6.9990
 1975.0000     8.4406    -0.0449     2.1057   116.5920   -53.7997     6.0412     6.4626     6.7599
 1975.5000     8.4867    -0.1108     1.9992   118.5854   -53.9345     5.9592     6.3318     6.5389
 1976.0000     8.5477    -0.2066     1.9235   119.4889   -53.9192     5.9194     6.2466     6.4058
 1976.5000     8.6385    -0.0620     1.8802   119.1102   -54.0536     5.7992     6.1201     6.3628
 1977.0000     8.8334     0.1931     2.1842   117.0441   -54.1878     5.7204     5.9948     6.3205
 1977.5000     9.0433     0.2380     2.1223   117.5782   -54.4783     5.5657     5.9156     6.6376
 1978.0000     9.1638     0.1766     2.0230   121.1094   -54.7679     5.4900     6.2652     6.9220
 1978.5000     9.2542     0.1377     2.0021   122.5196   -55.1868     5.4156     6.5283     7.0697
 1979.0000     9.1221     0.1257     2.0313   118.9241   -55.3472     5.4546     6.5669     6.9741
 1979.5000     9.0492     0.1198     2.1381   120.5854   -55.8988     5.6089     6.3901     6.5533
 1980.0000     9.0354     0.1108     2.2591   123.1501   -56.3348     5.6100     6.2176     6.4194
 1980.5000     9.0072     0.0749     2.2696   122.8262   -56.9125     5.6112     6.0498     6.6949
 1981.0000     8.9049     0.0389     2.2824   120.7588   -57.0505     5.4950     5.8865     7.0794
 1981.5000     8.7575     0.0389     2.3220   121.6218   -57.4791     5.4184     5.7272     7.2305
 1982.0000     8.5804     0.0449     2.3885   126.8351   -57.6171     5.3123     5.7291     7.2325
 1982.5000     8.4778     0.0494     2.4057   125.8496   -57.7514     5.2403     5.6912     6.8911
 1983.0000     8.4048     0.0449     2.4155   124.4098   -57.8857     5.1696     5.6147     6.6577
 1983.5000     8.3613     0.0389     2.4289   125.3791   -57.8673     5.1347     5.5391     6.4323
 1984.0000     8.3479     0.0464     2.4424   126.5141   -57.7035     5.0305     5.4270     6.4789
 1984.5000     8.3498     0.0494     2.4464   126.4645   -57.5397     5.0316     5.3539     6.7097
 1985.0000     8.3513     0.0449     2.4320   124.3980   -57.3759     4.9976     5.3184     6.8070
 1985.5000     8.3527     0.0389     2.4216   124.1721   -57.2122     4.9989     5.3569     6.9062
 1986.0000     8.3542     0.0389     2.4157   126.0230   -57.0484     5.0347     5.3583     6.9584
 1986.5000     8.3557     0.0389     2.4156   127.1945   -56.8846     5.0706     5.5100     7.0598
 1987.0000     8.3572     0.0419     2.4195   126.8310   -56.7208     5.1424     5.7065     7.3034
 1987.5000     8.3587     0.0434     2.4255   124.7650   -56.7061     5.1791     5.9109     7.5636
 1988.0000     8.3602     0.0434     2.4300   124.2316   -56.8405     5.2162     5.9501     7.9426
 1988.5000     8.3467     0.0404     2.4302   126.9409   -57.1237     5.2535     5.9106     7.7810
 1989.0000     8.3334     0.0389     2.4264   127.8215   -57.2580     5.2183     5.7118     7.2609
 1989.5000     8.3200     0.0329     2.4227   124.1852   -57.2294     5.1834     5.5194     6.7755
 1990.0000     8.3066     0.0284     2.4205   121.9017   -57.0790     5.1797     5.3704     6.5460
 1990.5000     8.3081     0.0269     2.4255   126.1309   -57.0377     5.1091     5.2613     6.2371
 1991.0000     8.2947     0.0284     2.4308   127.8691   -56.8973     5.0450     5.1196     6.1523
 1991.5000     8.2962     0.0329     2.4361   122.1843   -56.8825     4.9686     5.0160     6.2405
 1992.0000     8.2977     0.0344     2.4324   119.8691   -56.8678     4.9092     4.9481     6.4628
 1992.5000     8.2991     0.0359     2.4255   122.6150   -56.8530     4.8096     4.8483     6.6007
 1993.0000     8.3006     0.0329     2.4228   126.1616   -56.8383     4.7445     4.8496     6.6949
 1993.5000     8.3021     0.0359     2.4386   128.5358   -56.8236     4.6800     4.9184     6.6044
 1994.0000     8.3036     0.0509     2.4513   130.3299   -56.8088     4.6168     5.0228     6.4250
 1994.5000     8.3051     0.0674     2.4566   131.5406   -56.9431     4.5541     5.1294     6.2943
 1995.0000     8.3066     0.0734     2.4537   133.3431   -57.0811     4.5236     5.1308     6.2525
 1995.5000     8.3081     0.0719     2.4352   135.7208   -57.2154     4.4933     5.1322     6.2978
 1996.0000     8.3095     0.0284     2.4263   138.9915   -57.1969     4.4327     5.0632     6.4771
 1996.5000     8.3110     0.0254     2.4308   141.0897   -57.1822     4.4336     5.0646     6.6167
 1997.0000     8.3125     0.0434     2.4399   142.8766   -57.1674     4.4345     5.1364     6.6632
 1997.5000     8.3140     0.0509     2.4447   145.2650   -57.1527     4.4972     5.1378     6.6083
 1998.0000     8.3155     0.0554     2.4505   147.6494   -57.1380     4.5294     5.1038     6.3806
 1998.5000     8.3170     0.0584     2.4490   147.3577   -56.9742     4.5303     5.0289     6.1781
 1999.0000     8.3185     0.0599     2.4387   146.4844   -57.1088     4.5315     4.9674     6.2233
 1999.5000     8.3199     0.0629     2.4462   147.6862   -57.2428     4.5324     5.0383     6.3121
 2000.0000     8.3363     0.0629     2.4492   148.8856   -57.5261     4.5021     5.0746     6.4918
 2000.5000     8.3381     0.0659     2.4362   148.8975   -57.6604     4.4105     5.0410     6.4040
 2001.0000     8.3401     0.0659     2.4280   149.2066   -57.6453     4.3207     5.0073     6.1871
 2001.5000     8.3419     0.0629     2.4137   149.8128   -57.7799     4.2916     4.9060     6.0611
 2002.0000     8.3586     0.0539     2.3972   151.0742   -57.9393     4.2337     4.7738     5.9374
 2002.5000     8.3450     0.0437     2.3835   152.8838   -58.0485     4.1761     4.7093     5.8979
 2003.0000     8.3472     0.0348     2.3698   152.6132   -58.1828     4.1198     4.6139     5.8587
 2003.5000     8.3490     0.0289     2.3656   149.3708   -58.0153     4.0640     4.5522     5.9015
 2004.0000     8.3657     0.0229     2.3717   150.5861   -58.0006     4.0368     4.5218     5.9443
 2004.5000     8.3674     0.0230     2.3777   151.2070   -57.8368     3.9821     4.5547     5.9459
 2005.0000     8.3539     0.0231     2.3845   150.9361   -57.5240     3.9555     4.5875     6.1151
 2005.5000     8.3561     0.0246     2.3928   149.1798   -57.2112     3.9563     4.6206     6.2892
