~VERSION INFORMATION
 VERS.                2.0:   CWLS LOG ASCII STANDARD - VERSION 2.0
 WRAP.                 NO:   ONE LINE PER DEPTH STEP
~WELL INFORMATION
#MNEM.UNIT      DATA TYPE    INFORMATION
#----------   ------------   ------------------------------
 STRT.F           80.0000:   START DEPTH
 STOP.F         2730.0000:   STOP DEPTH
 STEP.F            0.5000:   STEP LENGTH
 NULL.          -999.2500:   NO VALUE
 COMP.          U.S. NAVY:   COMPANY
 WELL. US NPR 3 "AX" #57-20:   WELL
 FLD .             TEAPOT:   FIELD
 LOC .      S20 T39N R78W:   LOCATION
 CNTY.            NATRONA:   COUNTY
 STAT.            WYOMING:   STATE
 CTRY. UNITED STATES OF AMERICA:   COUNTRY
 SRVC.       SCHLUMBERGER:   SERVICE COMPANY
 DATE.        31-JUL-1964:   LOGDATE
 API .     49025066320000:   API NUMBER
~CURVE INFORMATION
#MNEM.UNIT       API CODE    CURVE DESCRIPTION
#----------   ------------   ------------------------------
 DEPT.F                  :   
 SPR .MV     01 010 01 00:   SPONTANEOUS POTENTIAL FROM RES.
 LN  .OHMM   01 060 39 00:   LONG NORMAL 39"
 ASN .OHMM   01 041 16 00:   AMPLIFIED SHORT NORMAL 16"
 LAT .OHMM   01 070 00 00:   LATERAL
 GRN .GAPI   35 310 30 00:   GAMMA RAY
 NEUT.NAPI   35 330 01 00:   NEUTRON
~PARAMETER INFORMATION
#MNEM.UNIT          VALUE    DESCRIPTION
#----------   ------------   ------------------------------
 EKB .F         5019.0000:   Kelly bushing
 EGL .F         5011.0000:   Ground level
 TD  .F         2696.0000:   Total depth
 DATE.        31-JUL-1964:   Date logged
 CLNT.            A2DTECH:   Client Code
 PD  .                 GL:   Permanent Datum
 EPD .F              5011:   Elevation Permanent Datum
 LMF .                 KB:   Log Measured From
 DMF .                 KB:   Drilling Measured From
 DAPD.F                 8:   Feet Above Permanent Datum
 DD  .F              2690:   Depth driller
 DL  .F              2696:   Depth logger
 BLI .F              2695:   Bottom log interval
 TLI .F                82:   Top log interval
 CS1 .IN            12.25:   Casing size
 CBD1.       12.25" @ 15':   Casing driller 1
 BS1 .IN               11:   Bit size
 BSD1.F              2690:   Depth drilled with bit1
 DFT .                GEL:   Type fluid in hole
 MSS .           FLOWLINE:   Source of sample
 RMS .OHMM           2.48:   Rm
 MST .F                83:   Rm Meas. temp.
 RMF .OHMM           1.87:   Rmf
 MFST.F                83:   Rmf Meas. temp.
 MFSS.                 FP:   Source Rmf.
 MCSS.                 FP:   Source Rmc.
 TCS .HRS               4:   Time Circ. stopped
 LUN .               3527:   Logging unit number
 LUL .               CSPR:   Logging unit location
 ENGI.            WINKLER:   Recorded By
 WITN.          GORGENSEN:   Witnessed by
 ORIG.         2.5" PRINT:   Origin of data
 UWI .     49025066320000:   Unique Well ID
 DICO.   A2D TECHNOLOGIES:   Digitizing Company
~OTHER INFORMATION
~A   DEPT      SPR         LN        ASN        LAT        GRN       NEUT   
# ...
 2160.0000   -35.7420     6.8870     8.0900     7.1870  -999.2500  -999.2500
 2160.5000   -35.7420     6.8150     7.9100     7.3260  -999.2500  -999.2500
 2161.0000   -35.7420     6.7430     7.7200     7.4710  -999.2500  -999.2500
 2161.5000   -35.7420     6.6710     7.5380     7.6110  -999.2500  -999.2500
 2162.0000   -35.7420     6.5980     7.3490     7.7530  -999.2500  -999.2500
 2162.5000   -35.7420     6.5330     7.1880     7.8970  -999.2500  -999.2500
 2163.0000   -35.7420     6.4730     7.1000     8.0130  -999.2500  -999.2500
 2163.5000   -35.7420     6.4200     7.0190     8.0090  -999.2500  -999.2500
 2164.0000   -35.7420     6.3650     6.9390     7.9180  -999.2500  -999.2500
 2164.5000   -35.7420     6.3110     6.8810     7.8310  -999.2500  -999.2500
 2165.0000   -35.7420     6.2570     6.9410     7.7410  -999.2500  -999.2500
 2165.5000   -35.7420     6.2020     6.9880     7.6540  -999.2500  -999.2500
 2166.0000   -35.7420     6.1480     6.9910     7.5650  -999.2500  -999.2500
 2166.5000   -35.7420     6.0930     6.9760     7.4770  -999.2500  -999.2500
 2167.0000   -35.7420     6.0400     6.8330     7.3900  -999.2500  -999.2500
 2167.5000   -35.7420     5.9850     6.7040     7.2990  -999.2500  -999.2500
 2168.0000   -35.7410     5.9360     6.5700     7.2220  -999.2500  -999.2500
 2168.5000   -35.7450     5.8730     6.4370     7.1330  -999.2500  -999.2500
 2169.0000   -35.7090     5.8170     6.3040     7.0560  -999.2500  -999.2500
 2169.5000   -35.6340     5.7590     6.2010     6.9750  -999.2500  -999.2500
 2170.0000   -35.5650     5.7030     6.2250     6.8940  -999.2500  -999.2500
 2170.5000   -35.4930     5.6460     6.2490     6.8370  -999.2500  -999.2500
 2171.0000   -35.4230     5.5890     6.3430     6.8630  -999.2500  -999.2500
 2171.5000   -35.3520     5.5320     6.1800     6.8860  -999.2500  -999.2500
 2172.0000   -35.2810     5.4760     6.0560     6.9120  -999.2500  -999.2500
 2172.5000   -35.2100     5.4190     5.7480     6.9360  -999.2500  -999.2500
 2173.0000   -35.1390     5.3620     5.4950     6.9610  -999.2500  -999.2500
 2173.5000   -35.0700     5.3050     5.2220     6.9850  -999.2500  -999.2500
 2174.0000   -34.9930     5.2490     4.9640     7.0130  -999.2500  -999.2500
 2174.5000   -34.9620     5.1890     4.6900     6.9950  -999.2500  -999.2500
 2175.0000   -34.9560     5.1093     4.4980     6.8620  -999.2500  -999.2500
 2175.5000   -35.0470     5.0297     4.5200     6.7330  -999.2500  -999.2500
 2176.0000   -34.7060     4.9500     4.6140     5.8420  -999.2500  -999.2500
 2176.5000   -35.0980     4.9500     4.6800     5.8420  -999.2500  -999.2500
 2177.0000   -35.0980     4.9710     4.7670     5.8420  -999.2500  -999.2500
 2177.5000   -35.0980     5.0450     4.8880     5.8420  -999.2500  -999.2500
 2178.0000   -34.8900     5.1190     5.0080     5.8420  -999.2500  -999.2500
 2178.5000   -34.7060     5.1920     5.1290     5.8420  -999.2500  -999.2500
 2179.0000   -34.7320     5.2660     5.2500     5.8420  -999.2500  -999.2500
 2179.5000   -34.6900     5.2940     5.3050     5.8320  -999.2500  -999.2500
 2180.0000   -34.7670     5.3760     5.3940     5.8370  -999.2500  -999.2500
 2180.5000   -34.7940     5.4500     5.4400     5.7940  -999.2500  -999.2500
 2181.0000   -34.8180     5.5240     5.4460     5.7550  -999.2500  -999.2500
 2181.5000   -34.8430     5.5970     5.4470     5.7130  -999.2500  -999.2500
 2182.0000   -34.8680     5.6710     5.4430     5.6730  -999.2500  -999.2500
 2182.5000   -34.8920     5.7440     5.4820     5.6320  -999.2500  -999.2500
 2183.0000   -34.9160     5.8180     5.5980     5.5930  -999.2500  -999.2500
 2183.5000   -34.9410     5.8920     5.7380     5.5460  -999.2500  -999.2500
 2184.0000   -34.9660     5.9650     5.9360     5.5180  -999.2500  -999.2500
 2184.5000   -34.9900     6.0410     6.1300     5.4490  -999.2500  -999.2500
 2185.0000   -35.0150     6.1080     6.3270     5.6150  -999.2500  -999.2500
 2185.5000   -35.0400     6.1970     6.5240     5.8720  -999.2500  -999.2500
 2186.0000   -35.0640     6.3020     6.7180     6.0770  -999.2500  -999.2500
 2186.5000   -35.0890     6.3980     6.9350     6.2190  -999.2500  -999.2500
 2187.0000   -35.1130     6.4960     7.0970     6.1600  -999.2500  -999.2500
 2187.5000   -35.1380     6.5960     7.1540     6.1020  -999.2500  -999.2500
 2188.0000   -35.1630     6.6890     7.1960     6.0410  -999.2500  -999.2500
 2188.5000   -35.1870     6.8020     7.2400     6.0200  -999.2500  -999.2500
 2189.0000   -35.2120     6.9300     7.3030     5.9990  -999.2500  -999.2500
 2189.5000   -35.2360     7.0510     7.3920     5.9810  -999.2500  -999.2500
 2190.0000   -35.2610     7.1740     7.4820     5.9610    70.7450   589.6600
 2190.5000   -35.2860     7.2950     7.5730     5.9420    87.3730   589.6600
 2191.0000   -35.3100     7.4200     7.6610     5.9230    88.9410   589.6600
 2191.5000   -35.3350     7.5360     7.7490     5.9040    89.3330   589.6600
 2192.0000   -35.3590     7.6750     7.8180     5.8810    90.1960   589.6600
 2192.5000   -35.3840     7.6530     7.9700     5.8720    91.0650   589.6600
 2193.0000   -35.4080     7.4830     8.2180     5.8290    92.0300   584.2640
 2193.5000   -35.4340     7.3350     8.5040     6.0180    92.3630   580.5700
 2194.0000   -35.4570     7.1820     8.8320     6.4170    93.4520   579.4660
 2194.5000   -35.4840     7.0270     9.1330     6.7830    94.4530   581.7120
 2195.0000   -35.4790     6.8750     9.3750     7.1600    95.1790   581.5130
 2195.5000   -35.4570     6.7510     9.3850     7.5350    94.8030   579.6750
 2196.0000   -35.4390     6.8680     9.1500     7.9060    93.2640   577.1290
 2196.5000   -35.4190     6.9860     8.8860     8.2850    91.5990   577.6230
 2197.0000   -35.4000     7.1120     8.4660     8.4140    89.9600   579.6530
 2197.5000   -35.3810     7.2340     7.9510     8.1750    88.4410   581.7410
 2198.0000   -35.3620     7.3250     7.7560     7.8960    88.4030   579.0600
 2198.5000   -35.3430     7.3250     7.6670     7.6150    88.4950   570.5710
 2199.0000   -35.3240     7.3280     7.7890     7.3370    88.5870   577.4750
 2199.5000   -35.3050     7.3260     7.9340     7.0510    88.7250   597.0250
 2200.0000   -35.2860     7.3280     8.0760     6.8350    89.0990   601.6750
 2200.5000   -35.2660     7.3260     8.2090     6.7940    90.5180   606.4670
 2201.0000   -35.2470     7.3270     8.2080     6.7590    91.9370   609.2800
 2201.5000   -35.2280     7.3340     8.1230     6.7270    93.2990   611.1140
 2202.0000   -35.2090     7.4330     7.8720     6.6940    94.8880   613.5810
 2202.5000   -35.1910     7.5380     7.5310     6.6590    96.3300   614.1800
 2203.0000   -35.1710     7.6460     7.1700     6.6330    96.9050   626.7740
 2203.5000   -35.1530     7.7480     6.9680     6.5640    97.0640   649.1960
 2204.0000   -35.1320     7.8650     7.0690     6.4710    96.3340   670.9980
 2204.5000   -35.1130     7.9060     7.6030     6.3860    92.6390   692.4540
 2205.0000   -35.1130     7.8390     8.0480     6.2830    88.8470   703.7920
 2205.5000   -35.2480     7.7910     8.5460     6.2810    86.0540   709.8040
 2206.0000   -35.3660     7.7290     8.8370     6.4150    85.3420   717.2570
 2206.5000   -35.4900     7.7360     8.8190     6.5340    85.6230   721.0650
 2207.0000   -35.6140     7.7540     8.7820     6.6590    86.0130   719.4130
 2207.5000   -35.7320     7.7730     8.7430     6.7820    86.3580   715.4040
 2208.0000   -35.8670     7.7900     8.7030     6.9070    85.2420   704.5140
 2208.5000   -35.8570     7.8080     8.6740     7.0260    83.9880   692.7060
 2209.0000   -35.8260     7.8250     8.5690     7.1630    82.7590   675.4800
 2209.5000   -35.7920     7.8430     8.4040     7.2070    82.1630   655.8690
 2210.0000   -35.7620     7.8610     8.2550     7.1240    83.1010   636.2070
 2210.5000   -35.7300     7.8780     8.1020     7.0610    85.4790   616.7550
 2211.0000   -35.6990     7.8960     8.0230     6.9850    87.8060   598.5260
 2211.5000   -35.6670     7.9140     8.0220     6.9190    90.0570   595.2790
