~VERSION INFORMATION
 VERS.                2.0:   CWLS LOG ASCII STANDARD - VERSION 2.0
 WRAP.                 NO:   ONE LINE PER DEPTH STEP
~WELL INFORMATION
#MNEM.UNIT      DATA TYPE    INFORMATION
#----------   ------------   ------------------------------
 STRT.F         2200.0000:   START DEPTH
 STOP.F         3200.0000:   STOP DEPTH
 STEP.F            0.5000:   STEP LENGTH
 NULL.          -999.2500:   NO VALUE
 COMP.   LAWRENCE ALLISON:   COMPANY
 WELL. LAWRENCE "X" #18-34:   WELL
 FLD .          NPR NO. 3:   FIELD
 LOC .      S34 T39N R78W:   LOCATION
 CNTY.            NATRONA:   COUNTY
 STAT.            WYOMING:   STATE
 CTRY. UNITED STATES OF AMERICA:   COUNTRY
 SRVC.      DRESSER ATLAS:   SERVICE COMPANY
 DATE.        14-MAY-1986:   LOGDATE
 API .     49025110720000:   API NUMBER
~CURVE INFORMATION
#MNEM.UNIT       API CODE    CURVE DESCRIPTION
#----------   ------------   ------------------------------
 DEPT.F                  :   
 CALD.IN     45 280 60 00:   CALIPER FROM DENSITY LOG
 GRD .GAPI   45 310 01 00:   GAMMA RAY FROM DENSITY LOG
 TEND.LBS    45 635 01 00:   TENSION FORM DENSITY LOG
 CORR.G/C3   45 356 01 00:   DENSITY CORRECTION
 DEN .G/C3   45 350 01 00:   BULK DENSITY
 CNC .DEC    42 890 03 00:   NEUTRON POROSITY SANDSTONE
~PARAMETER INFORMATION
#MNEM.UNIT          VALUE    DESCRIPTION
#----------   ------------   ------------------------------
 EKB .F         5192.0000:   Kelly bushing
 EGL .F         5181.0000:   Ground level
 EDF .F         5189.0000:   Drilling floor
 TD  .F         3195.0000:   Total depth
 CLNT.            A2DTECH:   Client Code
 SL  . 722' FWL & 239' FSL:   Surface Location
 PD  .                 GL:   Permanent Datum
 EPD .F              5181:   Elevation Permanent Datum
 LMF .                 KB:   Log Measured From
 DMF .                 KB:   Drilling Measured From
 DAPD.F                11:   Feet Above Permanent Datum
 DATE.        14-MAY-1986:   Date Logged [DD-MMM-YYYY]
 DD  .F              3195:   Depth driller
 DL  .F              3194:   Depth logger
 BLI .F              3192:   Bottom log interval
 TLI .F                 0:   Top log interval
 CS1 .IN            8.625:   Casing size
 CBD1.      8.625" @ 601':   Casing driller 1
 CBL1.F               596:   Casing logger 1
 BS1 .IN            7.875:   Bit size
 BSD1.F              3195:   Depth drilled with bit1
 DFT .        POLYMER-KCL:   Type fluid in hole
 DFD .                  9:   Density
 DFV .                 35:   Viscosity
 DFPH.                9.5:   pH
 DFL .               16.2:   Fluid loss
 MSS .           FLOWLINE:   Source of sample
 RMS .OHMM          0.378:   Rm
 MST .F                65:   Rm Meas. temp.
 RMF .OHMM          0.306:   Rmf
 MFST.F                65:   Rmf Meas. temp.
 MFSS.               MEAS:   Source Rmf.
 RMC .OHMM          0.472:   Rmc
 MCST.F                65:   Rmc Meas. temp.
 MCSS.               CALC:   Source Rmc.
 RMB .OHMM          0.208:   Rm. at BHT
 BHT .F               118:   BHT.
 TCS .HRS               3:   Time Circ. stopped
 MRT .F               118:   Maximum recorded temp.
 LUN .            HL-6274:   Logging unit number
 LUL .           GILLETTE:   Logging unit location
 ENGI.             RAUTIO:   Recorded By
 WITN.             STRONG:   Witnessed by
 ORIG.           5" PRINT:   Origin of data
 UWI .     49025110720000:   Unique Well ID
 DICO. A2D TECHNOLOGIES, INC.:   Digitizing Company
~OTHER INFORMATION
~A  DEPT        CALD      GRD        TEND        CORR        DEN        CNC 
# ...
 2720.0000     9.2971    88.0845   -40.9775    -0.0033     2.5022     0.1941
 2720.5000     9.2970    93.8160   -40.8271    -0.0245     2.4862     0.2022
 2721.0000     9.3119    97.7394   -40.6506    -0.0442     2.4769     0.2122
 2721.5000     9.3117    97.7043   -40.5042    -0.0503     2.4776     0.2171
 2722.0000     9.3116    96.2293   -40.3579    -0.0454     2.4798     0.2083
 2722.5000     9.3115    94.1176   -40.2115    -0.0141     2.4828     0.1981
 2723.0000     9.3113    90.7994   -40.0652     0.0296     2.4903     0.1947
 2723.5000     9.3112    88.3861   -47.4436     0.0251     2.5024     0.1944
 2724.0000     9.3110    90.4977   -47.2913     0.0039     2.5129     0.1957
 2724.5000     9.3259    92.9110   -47.1429    -0.0173     2.5053     0.2026
 2725.0000     9.3258    92.6094   -54.5174    -0.0446     2.4917     0.2108
 2725.5000     9.3256    91.1011   -54.3344    -0.0340     2.4834     0.2184
 2726.0000     9.3255    89.5807   -46.6917     0.0112     2.4826     0.2181
 2726.5000     9.3253    88.3861   -46.5229     0.0323     2.4856     0.2199
 2727.0000     9.3101    89.2911   -46.3766     0.0338     2.4863     0.2217
 2727.5000     9.3099    91.4027   -46.2302     0.0355     2.4910     0.2215
 2728.0000     9.2947    93.2127   -46.0839     0.0398     2.5086     0.2177
 2728.5000     9.2946    91.4027   -45.9375     0.0216     2.5141     0.2163
 2729.0000     9.2944    89.8944   -38.2707    -0.0011     2.5065     0.2136
 2729.5000     9.2942    87.4811   -38.1203    -0.0329     2.4960     0.2094
 2730.0000     9.2941    90.7994   -37.9431     0.0048     2.5087     0.2079
 2730.5000     9.2789    93.2127   -37.7968     0.0456     2.5178     0.2146
 2731.0000     9.2787    92.5870   -37.6504     0.0561     2.5208     0.2140
 2731.5000     9.2786    89.7870   -37.5041     0.0349     2.5215     0.2122
 2732.0000     9.2784    88.9894   -37.3577     0.0318     2.5184     0.2162
 2732.5000     9.2783    92.6094   -37.2114     0.0409     2.5129     0.2216
 2733.0000     9.2781    95.3243   -37.0650     0.0333     2.5063     0.2174
 2733.5000     9.2780    92.9110   -36.9173     0.0136     2.5010     0.2089
 2734.0000     9.2778    88.3861   -36.7669    -0.0167     2.4957     0.2101
 2734.5000     9.2777    86.8778   -29.0706     0.0029     2.4987     0.2122
 2735.0000     9.2775    89.5928   -28.9242     0.0119     2.5092     0.2098
 2735.5000     9.2774    91.1011   -28.7779     0.0270     2.5152     0.2041
 2736.0000     9.2923    91.7364   -28.6315     0.0269     2.5122     0.2085
 2736.5000     9.2921    92.3077   -28.4852     0.0073     2.5091     0.2183
 2737.0000     9.2920    92.3077   -35.8942     0.0133     2.5061     0.2202
 2737.5000     9.2919    91.4027   -35.7113     0.0329     2.5121     0.2102
 2738.0000     9.2917    88.9894   -35.5639     0.0419     2.5158     0.1945
 2738.5000     9.2915    87.1795   -35.4135     0.0280     2.5180     0.1860
 2739.0000     9.2914    88.0845   -42.7819     0.0041     2.5188     0.1845
 2739.5000     9.2913    90.4977   -42.6080    -0.0308     2.5210     0.1861
 2740.0000     9.2911    93.5143   -42.4617    -0.0036     2.5240     0.1909
 2740.5000     9.2909    95.4703   -42.3153     0.0326     2.5241     0.2018
 2741.0000     9.2908    99.3551   -42.1690     0.0431     2.5156     0.2061
 2741.5000     9.2906    99.3479   -42.0226     0.0174     2.5018     0.2070
 2742.0000     9.3056    95.1188   -49.3985    -0.0310     2.4884     0.2061
 2742.5000     9.2903    93.3030   -49.2481    -0.0333     2.4733     0.2049
 2743.0000     9.2902    90.2689   -49.0978    -0.0205     2.4642     0.2031
 2743.5000     9.2900    89.0667   -48.9194     0.0022     2.4717     0.2013
 2744.0000     9.2899    88.4575   -48.7731     0.0126     2.4815     0.2058
 2744.5000     9.2897    87.8484   -56.1821     0.0096     2.4830     0.2080
 2745.0000     9.2896    89.0492   -55.9992     0.0050     2.4754     0.1977
 2745.5000     9.2894    90.8533   -55.8528    -0.0011     2.4663     0.1953
 2746.0000     9.2893    92.0541   -55.7065    -0.0057     2.4594     0.2032
 2746.5000     9.2891    92.3500   -48.0413     0.0154     2.4715     0.2065
 2747.0000     9.2890    90.5839   -47.8947     0.0078     2.4806     0.2086
 2747.5000     9.2888    87.2096   -47.7444     0.0093     2.4828     0.2067
 2748.0000     9.2887    82.1187   -47.5657     0.0153     2.4865     0.1979
 2748.5000     9.2885    85.0849   -47.4193     0.0199     2.5024     0.1872
 2749.0000     9.2884    92.0172   -47.2730     0.0258     2.5242     0.1824
 2749.5000     9.2882    96.2346   -47.1266     0.0136     2.5392     0.1833
 2750.0000     9.3032    97.7385   -46.9803    -0.0060     2.5385     0.2048
 2750.5000     9.3030    95.9213   -46.8339    -0.0121     2.5309     0.2108
 2751.0000     9.3028    95.0105   -47.2758    -0.0061     2.5196     0.2033
 2751.5000     9.2949    94.0739   -48.3981     0.0059     2.5066     0.1978
 2752.0000     9.2702    89.8692   -49.5203     0.0067     2.4931     0.2033
 2752.5000     9.2746    84.7351   -50.6425    -0.0092     2.4795     0.2104
 2753.0000     9.2749    79.2994   -51.7647     0.0042     2.4735     0.2154
 2753.5000     9.2751    80.1986   -52.8870     0.0511     2.4689     0.2151
 2754.0000     9.2754    84.4160   -45.7627     0.0602     2.4749     0.2157
 2754.5000     9.2757    88.0301   -45.6166     0.0360     2.4794     0.2194
 2755.0000     9.2760    90.4375   -53.0258     0.0057     2.4832     0.2236
 2755.5000     9.2763    88.6203   -52.8432    -0.0079     2.4847     0.2266
 2756.0000     9.2766    86.8045   -52.6970     0.0042     2.4794     0.2304
 2756.5000     9.2770    85.2904   -60.0752    -0.0019     2.4786     0.2406
 2757.0000     9.2773    84.9843   -59.9236     0.0149     2.4906     0.2348
 2757.5000     9.2776    86.4868   -60.4086     0.0252     2.5019     0.2249
 2758.0000     9.2779    86.4795   -67.1502     0.0343     2.5109     0.2182
 2758.5000     9.2781    85.8562   -66.9676     0.0191     2.5132     0.2194
 2759.0000     9.2784    86.7681   -74.3767     0.0040     2.5124     0.2231
 2759.5000     9.2787    91.2871   -74.1941    -0.0051     2.5109     0.2259
 2760.0000     9.2790    93.9962   -74.0480     0.0205     2.5237     0.2276
 2760.5000     9.2794    93.6887   -58.8642     0.0357     2.5312     0.2261
 2761.0000     9.2797    92.7779   -51.1994     0.0280     2.5334     0.2258
 2761.5000     9.2951    95.4870   -51.0526     0.0232     2.5327     0.2301
 2762.0000     9.2954    96.9895   -50.9022     0.0189     2.5319     0.2325
 2762.5000     9.2956    96.2791   -50.7245     0.0219     2.5356     0.2259
 2763.0000     9.2959    91.5465   -43.0596     0.0324     2.5379     0.2196
 2763.5000     9.2962    86.7141   -42.9134     0.0400     2.5363     0.2141
 2764.0000     9.3116    86.7083   -42.7674     0.0369     2.5333     0.2047
 2764.5000     9.3120    86.0992   -42.6212     0.0233     2.5318     0.1905
 2765.0000     9.2971    83.9817   -50.0000     0.0096     2.5370     0.1821
 2765.5000     9.2975    79.7453   -49.8478     0.0099     2.5506     0.1830
 2766.0000     9.2826    76.7302   -49.6992     0.0217     2.5702     0.1955
 2766.5000     9.2830    78.5339   -49.5190     0.0322     2.5734     0.2090
 2767.0000     9.2682    80.9693   -49.3730     0.0398     2.5565     0.2132
 2767.5000     9.2534    84.2523   -49.2268     0.0412     2.5335     0.2151
 2768.0000     9.2235    89.9780   -41.5619     0.0397     2.5158     0.2151
 2768.5000     9.1937    92.6871   -41.4158     0.0336     2.5142     0.2148
 2769.0000     9.1789    94.4912   -33.7509     0.0230     2.5195     0.2145
 2769.5000     9.2094    95.9937   -41.1278     0.0139     2.5285     0.2130
 2770.0000     9.2248    97.7978   -48.4962     0.0169     2.5368     0.2199
 2770.5000     9.2251    98.9986   -55.8689     0.0214     2.5413     0.2287
 2771.0000     9.2103    98.6897   -55.6863     0.0274     2.5473     0.2345
 2771.5000     9.1804    98.6838   -55.5402     0.0380     2.5550     0.2327
