~VERSION INFORMATION
 VERS.                2.0:   CWLS LOG ASCII STANDARD - VERSION 2.0
 WRAP.                 NO:   ONE LINE PER DEPTH STEP
~WELL INFORMATION
#MNEM.UNIT      DATA TYPE    INFORMATION
#----------   ------------   ------------------------------
 STRT.F           50.5000:   START DEPTH
 STOP.F         5694.0000:   STOP DEPTH
 STEP.F            0.5000:   STEP LENGTH
 NULL.          -999.2500:   NO VALUE
 COMP. LAWRENCE ALLISON AND ASSOCIATES WEST:   COMPANY
 WELL. LAWRENCE "TX" #57-28:   WELL
 FLD .        TEAPOT DOME:   FIELD
 LOC .      S28 T39N R78W:   LOCATION
 CNTY.            NATRONA:   COUNTY
 STAT.            WYOMING:   STATE
 CTRY. UNITED STATES OF AMERICA:   COUNTRY
 SRVC.       SCHLUMBERGER:   SERVICE COMPANY
 DATE.        26-FEB-1982:   LOGDATE
 API .     49025108850000:   API NUMBER
~CURVE INFORMATION
#MNEM.UNIT       API CODE    CURVE DESCRIPTION
#----------   ------------   ------------------------------
 DEPT.F                  :   
 GRR .GAPI   11 310 01 00:   GAMMA RAY FROM RES.
 CALD.IN     45 280 60 00:   CALIPER FROM DENSITY LOG
 TEND.LBS    45 635 01 00:   TENSION FORM DENSITY LOG
 CORR.G/C3   45 356 01 00:   DENSITY CORRECTION
 RHOB.G/C3   45 350 01 00:   BULK DENSITY
 NPHI.DEC    42 890 03 00:   NEUTRON POROSITY SANDSTONE
 TENR.LBS    06 635 01 00:   TENSION FROM RESISTIVITY
 SPR .MV     11 010 01 00:   SPONTANEOUS POTENTIAL FROM RES.
 LLS .OHMM   11 220 09 00:   LATEROLOG LOG SHALLOW
 LLD .OHMM   11 220 10 00:   LATEROLOG DEEP
 MSFL.OHMM   11 270 04 00:   MICRO SPHERICALLY FOCUSED
~PARAMETER INFORMATION
#MNEM.UNIT          VALUE    DESCRIPTION
#----------   ------------   ------------------------------
 EKB .F         5101.0000:   Kelly bushing
 EGL .F         5091.0000:   Ground level
 EDF .F            0.0000:   Drilling floor
 TD  .F         3248.0000:   Total depth
 CLNT.            A2DTECH:   Client Code
 SL  . 950' FSL & 2100' FEL:   Surface Location
 PD  .                 GL:   Permanent Datum
 EPD .F              5091:   Elevation Permanent Datum
 LMF .                 KB:   Log Measured From
 DMF .                 KB:   Drilling Measured From
 DAPD.F                10:   Feet Above Permanent Datum
 DATE.        26-FEB-1982:   Date Logged [DD-MMM-YYYY]
 DD  .F              3243:   Depth driller
 DL  .F              3248:   Depth logger
 BLI .F              3216:   Bottom log interval
 TLI .F                 0:   Top log interval
 CS1 .IN            9.625:   Casing size
 CBD1.      9.625" @ 401':   Casing driller 1
 CBL1.F               401:   Casing logger 1
 BS1 .IN            7.875:   Bit size
 BSD1.F              3243:   Depth drilled with bit1
 DFT .           CHEM GEL:   Type fluid in hole
 DFD .                8.9:   Density
 DFV .                 55:   Viscosity
 DFPH.                9.5:   pH
 DFL .                 10:   Fluid loss
 MSS .            MUD PIT:   Source of sample
 RMS .OHMM           1.82:   Rm
 MST .F                76:   Rm Meas. temp.
 RMF .OHMM           1.64:   Rmf
 MFST.F                75:   Rmf Meas. temp.
 MFSS.               MEAS:   Source Rmf.
 RMB .OHMM           1.15:   Rm. at BHT
 BHT .F               120:   BHT.
 TCS .HRS            1330:   Time Circ. stopped
 TLAB.HRS            1715:   Time logger at bottom
 MRT .F               120:   Maximum recorded temp.
 LUN .               8043:   Logging unit number
 LUL .               CSPR:   Logging unit location
 ENGI.             TAYLOR:   Recorded By
 WITN.       FIVAS/STRONG:   Witnessed by
 ORIG.      1" 2.5" PRINT:   Origin of data
 UWI .     49025108850000:   Unique Well ID
 DICO. A2D TECHNOLOGIES, INC.:   Digitizing Company
~OTHER INFORMATION
~A   DEPT       GRR      CALD       TEND       CORR       RHOB       NPHI       TENR        SPR        LLS        LLD       MSFL   
# ...
 4595.0000    93.2330    10.6260  1686.9918     0.0066     2.6113     0.1218  1767.8993   -61.6514    31.8969    31.5022    46.0157
 4595.5000    85.9119    10.6249  1686.9918     0.0033     2.6147     0.1151  1768.5874   -61.6656    31.2512    31.2177    44.7288
 4596.0000    82.1868    10.6239  1686.9918     0.0001     2.6173     0.1108  1769.2754   -61.6772    29.5567    29.6037    43.4824
 4596.5000    80.8824    10.6229  1686.9918    -0.0026     2.6117     0.1078  1769.9634   -61.6881    28.3445    28.3429    42.8638
 4597.0000    84.8630    10.6218  1686.9918    -0.0027     2.6060     0.1060  1770.6514   -61.7003    27.1821    27.0027    41.0927
 4597.5000    92.7725    10.6208  1686.9918    -0.0004     2.6051     0.1061  1771.3395   -61.7125    25.9890    26.6208    37.1081
 4598.0000    99.4625    10.6197  1686.9918     0.0002     2.6050     0.1087  1772.0275   -61.7248    24.8467    25.1762    33.0520
 4598.5000   103.1087    10.6186  1686.9918     0.0017     2.6034     0.1129  1772.7155   -61.6355    23.8624    23.8100    31.4953
 4599.0000   104.9838    10.6175  1686.9918     0.0001     2.6004     0.1193  1773.4036   -61.4434    23.6352    23.1504    32.5107
 4599.5000   106.1178    10.6165  1686.9918     0.0031     2.5898     0.1251  1774.0916   -61.4557    25.5653    24.3461    38.1337
 4600.0000   101.2195    10.6152  1686.9918     0.0045     2.5807     0.1255  1774.7795   -61.1607    28.2887    26.9416    42.7371
 4600.5000    90.9737    10.6450  1686.9918     0.0013     2.5840     0.1195  1775.4677   -61.1685    29.8948    28.2431    41.5461
 4601.0000    89.5976    10.7055  1686.9918    -0.0004     2.5890     0.1134  1776.1556   -61.1764    30.7277    28.2286    36.6350
 4601.5000    90.1861    10.7352  1686.9918    -0.0017     2.5984     0.1098  1776.8436   -61.1843    29.4642    26.9020    36.6205
 4602.0000    90.1688    10.7368  1686.9918    -0.0012     2.6067     0.1106  1777.5316   -61.1921    27.0227    27.2664    37.7128
 4602.5000    88.9319    10.7639  1686.9918     0.0026     2.6076     0.1124  1778.2197   -61.2000    26.7268    28.0213    38.9694
 4603.0000    85.8658    10.7628  1686.9918     0.0086     2.6052     0.1110  1778.9077   -61.2078    28.1172    28.8069    41.5450
 4603.5000    82.7359    10.7927  1686.9918     0.0055     2.5985     0.1092  1779.5957   -60.9105    29.8053    30.0589    47.6611
 4604.0000    81.2995    10.8070  1686.9918     0.0002     2.5818     0.1062  1779.8794   -60.6116    31.3491    31.3714    51.7727
 4604.5000    80.3232    10.8516  1686.9918     0.0024     2.5908     0.1037  1779.5870   -60.6193    33.3287    33.5373    47.5979
 4605.0000    81.0969    10.8814  1686.9918     0.0053     2.6059     0.1013  1779.2946   -60.6269    33.7863    31.5381    44.3771
 4605.5000    83.7213    10.9112  1686.9918     0.0113     2.6162     0.0980  1779.0022   -60.6346    32.3998    30.8447    43.1405
 4606.0000    88.1921    10.9717  1686.9918     0.0188     2.6272     0.0952  1778.7097   -60.6422    31.0710    31.2662    43.8862
 4606.5000    89.4686    10.9706  1686.9918     0.0140     2.6292     0.0961  1778.4174   -60.7946    31.0624    31.6924    47.0210
 4607.0000    82.7104    11.0045  1686.9918     0.0075     2.6204     0.0977  1778.1249   -61.2706    31.1539    32.1259    48.6321
 4607.5000    82.5155    11.0301  1686.9918     0.0026     2.6112     0.0977  1777.8325   -61.5837    31.6293    32.1175    50.0990
 4608.0000    89.3889    11.0289  1686.9918    -0.0023     2.6066     0.0965  1777.5400   -61.8967    31.7102    31.6671    47.8870
 4608.5000    93.0330    11.0278  1686.9918    -0.0064     2.6069     0.0947  1777.2477   -62.2097    31.2165    30.7194    47.3332
 4609.0000    93.6520    11.0268  1686.9918    -0.0088     2.6147     0.0965  1776.9552   -62.2291    29.7537    29.1908    49.6224
 4609.5000    94.3167    11.0255  1686.9918    -0.0073     2.6220     0.0996  1776.6628   -62.5778    28.5335    27.0230    51.0794
 4610.0000    98.3534    11.0245  1686.9918    -0.0044     2.6251     0.1078  1776.3705   -62.9255    27.3633    25.5214    49.2629
 4610.5000   102.4364    11.0235  1686.9918    -0.0014     2.6289     0.1179  1776.0780   -63.1575    25.8666    24.3052    37.7845
 4611.0000   105.7534    11.0224  1686.9918     0.0031     2.6454     0.1297  1775.7856   -63.3158    24.7756    24.2048    36.7267
 4611.5000   106.9636    11.0214  1686.9918     0.0062     2.6498     0.1405  1775.4932   -63.7858    24.8118    26.0343    37.7533
 4612.0000   106.9492    11.0203  1686.9918     0.0116     2.6513     0.1440  1775.2008   -63.7931    25.7503    29.8939    39.9483
 4612.5000   106.9348    11.0282  1686.9918     0.0190     2.6545     0.1397  1774.9083   -63.8003    27.2963    31.6073    48.6202
 4613.0000   105.7008    11.0491  1686.9918     0.0223     2.6605     0.1318  1774.6160   -63.9520    29.3390    32.0870    49.3555
 4613.5000   103.1374    11.0088  1686.9918     0.0207     2.6631     0.1227  1774.3235   -64.1208    31.3725    32.4586    50.1015
 4614.0000    98.6466    11.0074  1686.9918     0.0116     2.6395     0.1148  1774.0311   -64.1284    32.6969    31.8407    62.1579
 4614.5000    94.9401    11.0060  1686.9918    -0.0005     2.6207     0.1094  1773.7386   -64.1361    33.1457    30.9430    61.2590
 4615.0000    97.4715    11.0046  1686.9918    -0.0035     2.6146     0.1113  1773.4463   -64.1437    30.9159    27.0854    56.3161
 4615.5000   103.5317    11.0030  1686.9918    -0.0021     2.6236     0.1198  1773.1538   -64.1514    24.3904    24.5763    43.8004
 4616.0000   110.4851    11.0017  1686.9918     0.0025     2.6371     0.1443  1772.8615   -64.1604    22.4591    23.5699    30.9004
 4616.5000   108.6414    11.0004  1686.9918     0.0060     2.6431     0.1592  1772.5691   -64.1676    25.5253    25.6055    32.8074
 4617.0000   102.5294    11.0298  1686.9918     0.0123     2.6412     0.1632  1772.2766   -64.1748    29.7993    28.2313    45.0697
 4617.5000   101.2955    11.0285  1686.9918     0.0186     2.6374     0.1538  1771.9843   -64.4879    32.1515    31.6686    49.1423
 4618.0000    98.0352    11.0271  1686.9918     0.0225     2.6303     0.1186  1771.6918   -64.4954    34.0774    34.4450    49.8853
 4618.5000    90.2203    11.0257  1686.9918     0.0171     2.6214     0.1016  1771.3994   -64.5031    34.9591    36.1620    52.3191
 4619.0000    83.9904    11.0243  1686.9918     0.0110     2.6140     0.0900  1771.1069   -64.8165    34.4670    35.4327    53.7693
 4619.5000    83.5518    11.0229  1686.9918     0.0079     2.6109     0.0846  1770.8146   -64.8242    32.5981    32.2570    55.2614
 4620.0000    87.3161    11.0213  1686.9918     0.0093     2.6154     0.0868  1770.5221   -65.1376    29.1666    23.8453    50.0979
 4620.5000   115.2261    11.0200  1686.9918     0.0076     2.6217     0.0956  1770.2297   -65.4523    22.0000    18.3232    26.8563
 4621.0000   132.8946    11.0187  1686.9918     0.0013     2.6339     0.1130  1769.9373   -65.4596    14.7619    14.2764    18.7749
 4621.5000   147.5143    11.0174  1686.9918    -0.0014     2.6422     0.1520  1769.6449   -65.7726    12.7983    12.7756    17.0226
 4622.0000   152.9877    11.0160  1686.9918     0.0022     2.6496     0.2138  1769.3525   -65.7799    12.1587    12.7721    17.7997
 4622.5000   153.5830    11.0146  1686.9918     0.0046     2.6489     0.2445  1769.0601   -65.7875    12.7675    12.9843    19.3671
 4623.0000   142.6822    11.0132  1686.9918     0.0089     2.6466     0.2390  1768.7677   -65.7951    13.3904    13.4245    19.3569
 4623.5000   134.8736    11.0118  1686.9918     0.0149     2.6526     0.2348  1768.4752   -65.8028    13.7634    13.7578    19.6181
 4624.0000   125.0242    11.0102  1686.9918     0.0163     2.6736     0.2305  1768.1829   -65.9450    14.1469    13.9665    19.6078
 4624.5000   120.8673    11.0089  1679.9618     0.0193     2.6765     0.2275  1767.8904   -66.1239    14.3407    14.0529    20.1937
 4625.0000   120.1736    10.9768  1673.8402     0.0176     2.6624     0.2269  1767.5980   -66.1327    14.1393    13.8553    21.9995
