~VERSION INFORMATION
 VERS.                2.0:   CWLS LOG ASCII STANDARD - VERSION 2.0
 WRAP.                 NO:   ONE LINE PER DEPTH STEP
~WELL INFORMATION
#MNEM.UNIT      DATA TYPE    INFORMATION
#----------   ------------   ------------------------------
 STRT.F          670.0000:   START DEPTH
 STOP.F         3440.0000:   STOP DEPTH
 STEP.F            0.5000:   STEP LENGTH
 NULL.          -999.2500:   NO VALUE
 COMP.    FENIX & SCISSON:   COMPANY
 WELL.   FENIX "A" #57-33:   WELL
 FLD .             NPR #3:   FIELD
 LOC .      S33 T39N R78W:   LOCATION
 CNTY.            NATRONA:   COUNTY
 STAT.            WYOMING:   STATE
 CTRY. UNITED STATES OF AMERICA:   COUNTRY
 SRVC.       SCHLUMBERGER:   SERVICE COMPANY
 DATE.        27-APR-1977:   LOGDATE
 API .     49025103600000:   API NUMBER
~CURVE INFORMATION
#MNEM.UNIT       API CODE    CURVE DESCRIPTION
#----------   ------------   ------------------------------
 DEPT.F                  :   
 SPR .MV     11 010 01 00:   SPONTANEOUS POTENTIAL FROM RES.
 MSFL.OHMM   11 270 04 00:   MICRO SPHERICALLY FOCUSED
 LLD .OHMM   11 220 10 00:   LATEROLOG LOG DEEP
 LLS .OHMM   11 220 09 00:   LATEROLOG LOG SHALLOW
 CALD.IN     45 280 60 00:   CALIPER FROM DENSITY LOG
 DRHO.G/C3   45 356 01 00:   DENSITY CORRECTION
 NPHI.DEC    42 890 03 00:   NEUTRON POROSITY SANDSTONE
 RHOB.G/C3   45 350 01 00:   BULK DENSITY
 GRD .GAPI   45 310 01 00:   GAMMA RAY FROM RESISTIVITY
~PARAMETER INFORMATION
#MNEM.UNIT          VALUE    DESCRIPTION
#----------   ------------   ------------------------------
 EKB .F         5183.0000:   Kelly bushing
 EGL .F         5172.0000:   Ground level
 EDF .F            0.0000:   Drilling floor
 TD  .F         3424.0000:   Total depth
 DATE.        27-APR-1977:   Date logged
 CLNT.            A2DTECH:   Client Code
 SL  . 990' FSL & 2310' FEL:   Surface Location
 PD  .                 GL:   Permanent Datum
 EPD .F              5172:   Elevation Permanent Datum
 LMF .                 KB:   Log Measured From
 DMF .                 KB:   Drilling Measured From
 DAPD.F                11:   Feet Above Permanent Datum
 DD  .F              3421:   Depth driller
 DL  .F              3424:   Depth logger
 BLI .F              3423:   Bottom log interval
 TLI .F               764:   Top log interval
 CS1 .IN            8.625:   Casing size
 CBD1.      8.625" @ 711':   Casing driller 1
 BS1 .IN            7.875:   Bit size
 BSD1.F              3421:   Depth drilled with bit1
 DFT .            KCL MUD:   Type fluid in hole
 DFD .                9.5:   Density
 DFV .                 41:   Viscosity
 DFPH.                  8:   pH
 DFL .               10.8:   Fluid loss
 MSS .            MUD PIT:   Source of sample
 RMS .OHMM           0.26:   Rm
 MST .F                74:   Rm Meas. temp.
 RMF .OHMM           0.21:   Rmf
 MFST.F                74:   Rmf Meas. temp.
 RMC .OHMM            .09:   Rmc
 MCST.F                74:   Rmc Meas. temp.
 MFSS.               MEAS:   Source Rmf.
 MCSS.               CALC:   Source Rmc.
 RMB .OHMM           0.15:   Rm. at BHT
 BHT .F               126:   BHT.
 TCS .HRS            0900:   Time Circ. stopped
 TLAB.HRS            1430:   Time logger at bottom
 MRT .F               126:   Maximum recorded temp.
 LUN .               7711:   Logging unit number
 LUL .               CSPR:   Logging unit location
 ENGI.             SAYLER:   Recorded By
 WITN.         PETTINGILL:   Witnessed by
 ORIG.           5" PRINT:   Origin of data
 UWI .     49025103600000:   Unique Well ID
 DICO. A2D TECHNOLOGIES, INC.:   Digitizing Company
~OTHER INFORMATION
~A   DEPT      SPR       MSFL        LLD        LLS         CALD      DRHO        NPHI       RHOB      GRD   
  670.0000  -999.2500  -999.2500  -999.2500  -999.2500     8.1410    -0.1660     0.3010     2.4990   178.9000
  670.5000  -999.2500  -999.2500  -999.2500  -999.2500     8.1410    -0.1660     0.3010     2.4990   178.9000
  671.0000  -999.2500  -999.2500  -999.2500  -999.2500     8.1410    -0.1660     0.3010     2.4990   175.4870
  671.5000  -999.2500  -999.2500  -999.2500  -999.2500     8.1410    -0.1660     0.3010     2.5010   158.2420
  672.0000  -999.2500  -999.2500  -999.2500  -999.2500     8.1410    -0.1660     0.3010     2.4990   145.2930
  672.5000  -999.2500  -999.2500  -999.2500  -999.2500     8.1410    -0.1660     0.3010     2.4990   128.0650
  673.0000  -999.2500  -999.2500  -999.2500  -999.2500     8.1410    -0.1660     0.3010     2.4990   110.8360
  673.5000  -999.2500  -999.2500  -999.2500  -999.2500     8.1410    -0.1660     0.3010     2.4980    93.6190
  674.0000  -999.2500  -999.2500  -999.2500  -999.2500     8.1410    -0.1710     0.3680     2.5180    77.7890
  674.5000  -999.2500  -999.2500  -999.2500  -999.2500     8.1420    -0.1790     0.3550     2.5130    77.3710
  675.0000  -999.2500  -999.2500  -999.2500  -999.2500     8.1430    -0.1800     0.3570     2.5250    76.0060
  675.5000  -999.2500  -999.2500  -999.2500  -999.2500     8.1440    -0.1700     0.3600     2.5400    75.3980
  676.0000  -999.2500  -999.2500  -999.2500  -999.2500     8.1440    -0.1640     0.3500     2.5510    71.9860
  676.5000  -999.2500  -999.2500  -999.2500  -999.2500     8.1450    -0.1690     0.3430     2.5430    69.5850
  677.0000  -999.2500  -999.2500  -999.2500  -999.2500     8.1460    -0.1700     0.3450     2.5330    69.2850
  677.5000  -999.2500  -999.2500  -999.2500  -999.2500     8.1470    -0.1700     0.3450     2.5200    71.1050
  678.0000  -999.2500  -999.2500  -999.2500  -999.2500     8.1480    -0.1780     0.3480     2.4970    70.7230
  678.5000  -999.2500  -999.2500  -999.2500  -999.2500     8.1490    -0.1840     0.3530     2.4840    69.7000
  679.0000  -999.2500  -999.2500  -999.2500  -999.2500     8.1500    -0.1800     0.3560     2.4910    69.4290
  679.5000  -999.2500  -999.2500  -999.2500  -999.2500     8.1510    -0.1750     0.3620     2.4920    69.4700
  680.0000  -999.2500  -999.2500  -999.2500  -999.2500     8.1520    -0.1790     0.3680     2.4770    69.7240
  680.5000  -999.2500  -999.2500  -999.2500  -999.2500     8.1530    -0.1830     0.3700     2.4580    71.7140
  681.0000  -999.2500  -999.2500  -999.2500  -999.2500     8.1540    -0.1790     0.3590     2.4460    72.6250
  681.5000  -999.2500  -999.2500  -999.2500  -999.2500     8.1550    -0.1740     0.3540     2.4570    73.1620
  682.0000  -999.2500  -999.2500  -999.2500  -999.2500     8.1550    -0.1740     0.3600     2.4840    73.8550
  682.5000  -999.2500  -999.2500  -999.2500  -999.2500     8.1560    -0.1890     0.3700     2.4800    74.1470
  683.0000  -999.2500  -999.2500  -999.2500  -999.2500     8.1570    -0.2020     0.3760     2.4820    70.9930
  683.5000  -999.2500  -999.2500  -999.2500  -999.2500     8.1580    -0.2030     0.3740     2.4720    69.7170
  684.0000  -999.2500  -999.2500  -999.2500  -999.2500     8.1590    -0.1920     0.3840     2.4650    68.9040
  684.5000  -999.2500  -999.2500  -999.2500  -999.2500     8.1600    -0.1800     0.3870     2.5910    73.3100
  685.0000  -999.2500  -999.2500  -999.2500  -999.2500     8.1610    -0.1680     0.3730     2.5680    75.3730
  685.5000  -999.2500  -999.2500  -999.2500  -999.2500     8.1420    -0.1510     0.3610     2.5140    76.5990
  686.0000  -999.2500  -999.2500  -999.2500  -999.2500     8.1410    -0.1560     0.3510     2.5240    73.1280
  686.5000  -999.2500  -999.2500  -999.2500  -999.2500     8.1410    -0.1690     0.3570     2.5150    76.8740
  687.0000  -999.2500  -999.2500  -999.2500  -999.2500     8.1410    -0.1740     0.3620     2.4980    76.9240
  687.5000  -999.2500  -999.2500  -999.2500  -999.2500     8.1410    -0.1830     0.3640     2.4780    74.9760
  688.0000  -999.2500  -999.2500  -999.2500  -999.2500     8.1400    -0.1930     0.3550     2.4610    72.9480
  688.5000  -999.2500  -999.2500  -999.2500  -999.2500     8.1400    -0.2040     0.3600     2.4490    71.6010
  689.0000  -999.2500  -999.2500  -999.2500  -999.2500     8.1400    -0.1970     0.3670     2.4470    72.3750
  689.5000  -999.2500  -999.2500  -999.2500  -999.2500     8.1400    -0.1900     0.3740     2.4490    73.5370
  690.0000  -999.2500  -999.2500  -999.2500  -999.2500     8.1390    -0.1840     0.3720     2.4610    74.3240
  690.5000  -999.2500  -999.2500  -999.2500  -999.2500     8.1390    -0.1770     0.3630     2.4760    76.4220
  691.0000  -999.2500  -999.2500  -999.2500  -999.2500     8.1390    -0.1750     0.3610     2.4890    76.9680
  691.5000  -999.2500  -999.2500  -999.2500  -999.2500     8.1390    -0.1900     0.3630     2.4660    76.8070
  692.0000  -999.2500  -999.2500  -999.2500  -999.2500     8.1390    -0.2020     0.3540     2.4520    74.4310
  692.5000  -999.2500  -999.2500  -999.2500  -999.2500     8.1380    -0.2020     0.3620     2.4520    73.0140
  693.0000  -999.2500  -999.2500  -999.2500  -999.2500     8.1380    -0.1990     0.3670     2.4570    76.5110
  693.5000  -999.2500  -999.2500  -999.2500  -999.2500     8.1380    -0.1960     0.3730     2.4720    76.5390
  694.0000  -999.2500  -999.2500  -999.2500  -999.2500     8.1380    -0.1930     0.3770     2.4920    75.2310
  694.5000  -999.2500  -999.2500  -999.2500  -999.2500     8.1370    -0.1920     0.3810     2.5050    76.1760
  695.0000  -999.2500  -999.2500  -999.2500  -999.2500     8.1370    -0.1900     0.3790     2.5000    76.6230
  695.5000  -999.2500  -999.2500  -999.2500  -999.2500     8.1370    -0.1880     0.3760     2.4920    76.9250
  696.0000  -999.2500  -999.2500  -999.2500  -999.2500     8.1370    -0.1880     0.3840     2.4870    77.0630
  696.5000  -999.2500  -999.2500  -999.2500  -999.2500     8.1360    -0.1910     0.3840     2.4730    77.1000
  697.0000  -999.2500  -999.2500  -999.2500  -999.2500     8.1360    -0.1910     0.3850     2.4720    77.6120
  697.5000  -999.2500  -999.2500  -999.2500  -999.2500     8.1360    -0.1830     0.3880     2.4780    77.5990
  698.0000  -999.2500  -999.2500  -999.2500  -999.2500     8.1360    -0.1790     0.3850     2.4800    78.6100
  698.5000  -999.2500  -999.2500  -999.2500  -999.2500     8.1360    -0.1750     0.3920     2.4810    81.6670
  699.0000  -999.2500  -999.2500  -999.2500  -999.2500     8.1350    -0.1780     0.3880     2.4770    84.7220
  699.5000  -999.2500  -999.2500  -999.2500  -999.2500     8.1350    -0.1850     0.4010     2.4790    86.9040
  700.0000  -999.2500  -999.2500  -999.2500  -999.2500     8.1350    -0.1960     0.4190     2.4910    88.7320
  700.5000  -999.2500  -999.2500  -999.2500  -999.2500     8.1350    -0.1980     0.4370     2.4960    90.5290
  701.0000  -999.2500  -999.2500  -999.2500  -999.2500     8.1340    -0.2040     0.4550     2.4700    92.0810
  701.5000  -999.2500  -999.2500  -999.2500  -999.2500     8.1340    -0.2140     0.4670     2.4460    89.8420
  702.0000  -999.2500  -999.2500  -999.2500  -999.2500     8.1340    -0.2090     0.4710     2.4420    81.9100
  702.5000  -999.2500  -999.2500  -999.2500  -999.2500     8.1340    -0.2040     0.4310     2.4880    78.1510
  703.0000  -999.2500  -999.2500  -999.2500  -999.2500     8.1340    -0.2040     0.3900     2.5240    77.0870
  703.5000  -999.2500  -999.2500  -999.2500  -999.2500     8.1330    -0.2070     0.3680     2.5390    78.4750
  704.0000  -999.2500  -999.2500  -999.2500  -999.2500     8.1330    -0.2100     0.3720     2.5430    79.7930
  704.5000  -999.2500  -999.2500  -999.2500  -999.2500     8.1330    -0.2070     0.3780     2.5290    78.4840
  705.0000  -999.2500  -999.2500  -999.2500  -999.2500     8.1330    -0.2020     0.3840     2.5330    77.7560
  705.5000  -999.2500  -999.2500  -999.2500  -999.2500     8.1320    -0.1940     0.3850     2.5370    79.1560
  706.0000  -999.2500  -999.2500  -999.2500  -999.2500     8.1320    -0.1920     0.3790     2.5360    80.6240
