~VERSION INFORMATION
 VERS.                2.0:   CWLS LOG ASCII STANDARD - VERSION 2.0
 WRAP.                 NO:   ONE LINE PER DEPTH STEP
~WELL INFORMATION
#MNEM.UNIT      DATA TYPE    INFORMATION
#----------   ------------   ------------------------------
 STRT.F           13.0000:   START DEPTH
 STOP.F         2858.0000:   STOP DEPTH
 STEP.F            0.5000:   STEP LENGTH
 NULL.          -999.2500:   NO VALUE
 COMP.    FENIX & SCISSON:   COMPANY
 WELL. FENIX & SCISSON "AX" #16-21:   WELL
 FLD .  TEAPOT DOME NRP-3:   FIELD
 LOC .      S21 T39N R78W:   LOCATION
 CNTY.            NATRONA:   COUNTY
 STAT.            WYOMING:   STATE
 CTRY. UNITED STATES OF AMERICA:   COUNTRY
 SRVC.           BIRDWELL:   SERVICE COMPANY
 DATE.        17-JUL-1978:   LOGDATE
 API .     49025106590000:   API NUMBER
~CURVE INFORMATION
#MNEM.UNIT       API CODE    CURVE DESCRIPTION
#----------   ------------   ------------------------------
 DEPT.F                  :   
 GRD .GAPI   45 310 01 00:   GAMMA RAY FROM DENSITY LOG
 CALD.IN     45 280 60 00:   CALIPER FROM DENSITY LOG
 CORR.G/C3   45 356 01 00:   DENSITY CORRECTION
 RHOB.G/C3   45 350 01 00:   BULK DENSITY
 SPR .MV     05 010 01 00:   SPONTANEOUS POTENTIAL FROM RES.
 ILD .OHMM   05 120 46 00:   INDUCTION LOG DEEP
 SN  .OHMM   05 041 16 00:   SHORT NORMAL 16"
~PARAMETER INFORMATION
#MNEM.UNIT          VALUE    DESCRIPTION
#----------   ------------   ------------------------------
 EKB .F         5003.0000:   Kelly bushing
 EGL .F         4993.0000:   Ground level
 EDF .F            0.0000:   Drilling floor
 EPD .F         4993.0000:   Permanent datum
 TD  .F         2858.0000:   Total depth
 CLNT.            A2DTECH:   Client Code
 SL  . 1420' FSL & 200' FWL:   Surface Location
 DATE.        17-JUL-1978:   Date Logged [DD-MMM-YYYY]
 DD  .F              2855:   Depth driller
 DL  .F              2858:   Depth logger
 BLI .F              2858:   Bottom log interval
 TLI .F                20:   Top log interval
 CS1 .              8.625:   Casing size
 CBD1.      8.625" @ 200':   Casing driller 1
 CBL1.IN              228:   Casing logger 1
 BS1 .IN            7.875:   Bit size
 BSD1.F              2855:   Depth drilled with bit1
 DFT .            MUD GEL:   Type fluid in hole
 DFD .                9.9:   Density
 DFV .                 32:   Viscosity
 DFPH.               10.5:   pH
 DFL .                7.2:   Fluid loss
 MSS .           FLOWLINE:   Source of sample
 RMS .OHMM            1.3:   Rm
 MST .F                80:   Rm Meas. temp.
 RMF .OHMM           0.77:   Rmf
 MFST.F                74:   Rmf Meas. temp.
 MFSS.               MEAS:   Source Rmf.
 RMC .OHMM            1.5:   Rmc
 MCST.F                73:   Rmc Meas. temp.
 MCSS.               MEAS:   Source Rmc.
 TCS .HRS               1:   Time Circ. stopped
 MRT .F               118:   Maximum recorded temp.
 LUN .               2958:   Logging unit number
 LUL .               CASP:   Logging unit location
 ENGI.              HONEA:   Recorded By
 WITN.           MCGINLEY:   Witnessed by
 ORIG.        2" 5" PRINT:   Origin of data
 UWI .     49025106590000:   Unique Well ID
 DICO. A2D TECHNOLOGIES, INC.:   Digitizing Company
 PD  .                 GL:   Permanent Datum
 DAPD.                 10:   Feet Above Permanent Datum
~OTHER INFORMATION
~A   DEPT       GRD      CALD       CORR       RHOB        SPR        ILD         SN   
# ...
 1469.0000    91.9099     9.4881     0.0460     2.5484   -32.2385     6.4915     7.2501
 1469.5000    91.6239     9.5487     0.0476     2.5544   -32.2166     6.4959     7.2511
 1470.0000    91.7873     9.4904     0.0491     2.5514   -32.3486     6.5003     7.2523
 1470.5000    91.7989     9.3876     0.0507     2.5522   -32.4696     6.5048     7.2533
 1471.0000    91.0665     9.3887     0.0537     2.5537   -32.4477     6.5101     7.2542
 1471.5000    86.7627     9.3899     0.0553     2.5537   -32.5742     6.5145     7.2552
 1472.0000    90.7922     9.3911     0.0628     2.5530   -32.5520     6.5188     7.2562
 1472.5000    92.6339     9.3774     0.0688     2.5515   -32.3813     6.5232     7.2572
 1473.0000    89.9227     9.4234     0.0824     2.5478   -32.2064     6.5276     7.2581
 1473.5000    88.8926     9.4988     0.0820     2.5683   -31.7394     6.4863     7.2591
 1474.0000    88.9286     9.5000     0.0497     2.5826   -31.5692     6.4918     7.2601
 1474.5000    90.5558     9.3674     0.0319     2.5583   -31.3990     6.4961     7.2611
 1475.0000    91.1597     9.3237     0.0335     2.5546   -31.5309     6.4559     7.2621
 1475.5000    89.5374     9.3252     0.0618     2.5413   -31.5036     6.4604     7.2630
 1476.0000    85.3824     9.3263     0.0827     2.5524   -31.4817     6.4648     7.2640
 1476.5000    83.0102     9.3126     0.0858     2.5606   -31.6137     6.4692     7.2652
 1477.0000    84.2152     9.2989     0.0755     2.5629   -31.5863     6.4737     7.2662
 1477.5000    86.6078     9.3001     0.0606     2.5785   -31.7136     6.4789     7.2672
 1478.0000    86.6409     9.3759     0.0473     2.5718   -31.8397     6.4833     7.2682
 1478.5000    86.6309     9.3919     0.0370     2.5719   -31.9658     6.4877     7.2692
 1479.0000    87.0933     9.2890     0.0296     2.5606   -31.9436     6.4920     7.2701
 1479.5000    87.2497     9.1713     0.0252     2.5476   -32.0704     6.4964     7.2711
 1480.0000    82.0559     9.0979     0.0238     2.5437   -32.1969     6.5455     7.2721
 1480.5000    85.3414     9.0842     0.0403     2.5443   -32.1696     6.5499     7.2731
 1481.0000    87.5852     9.1005     0.0308     2.5494   -32.3016     6.5543     7.3242
 1481.5000    90.8706     9.1017     0.0166     2.5683   -32.2742     6.5587     7.4777
 1482.0000    95.0460     9.1028     0.0494     2.5764   -32.1040     6.5182     7.6408
 1482.5000    91.0427     9.1040     0.0718     2.5170   -32.0821     6.5226     7.6883
 1483.0000    85.3996     9.1052     0.0808     2.5364   -32.0602     6.5298     7.6893
 1483.5000    82.1375     9.0617     0.0824     2.5595   -32.0384     6.7194     7.6904
 1484.0000    81.7027     9.1375     0.0810     2.5692   -32.0165     6.8113     7.6914
 1484.5000    82.1608     9.3764     0.0498     2.5730   -31.8463     6.8159     7.6924
 1485.0000    91.7660     9.2438     0.0201     2.5738   -31.8244     6.7728     7.6935
 1485.5000    95.7257     9.2896     0.0083     2.5515   -31.8025     6.7784     7.6945
 1486.0000    88.4486     9.1719     0.0024     2.5315   -31.7804     6.7830     7.6955
 1486.5000    87.4186     9.0984     0.0039     2.5241   -31.7582     6.7876     7.7496
 1487.0000    85.4958     9.2392     0.0085     2.5398   -31.7369     6.7921     7.8041
 1487.5000    83.4212     9.1010     0.0145     2.5458   -31.8634     6.8434     7.8051
 1488.0000    84.7750     9.1022     0.0176     2.5481   -31.8360     6.8011     7.8062
 1488.5000    89.8462     9.1037     0.0191     2.5586   -31.8142     6.8058     7.7987
 1489.0000    90.6019     9.1048     0.0177     2.5653   -31.7923     6.8104     7.7548
 1489.5000    90.0183     9.1060     0.0148     2.5592   -31.7704     6.7685     7.7561
 1490.0000    90.4764     9.1071     0.0104     2.5580   -31.7486     6.7268     7.7572
 1490.5000    90.4881     9.0932     0.0075     2.5707   -31.8805     6.7324     7.8117
 1491.0000    90.3509     9.1095     0.0106     2.5589   -31.8532     6.7369     7.8666
 1491.5000    91.4071     9.1106     0.0181     2.5374   -31.8313     6.7878     7.8677
 1492.0000    92.7580     9.0969     0.0211     2.5240   -31.8094     6.8391     7.8687
 1492.5000    92.0257     9.0981     0.0242     2.5323   -31.7876     6.8908     7.8698
 1493.0000    90.4004     9.0992     0.0138     2.5450   -31.9141     6.9428     7.8708
 1493.5000    88.7752     9.0856     0.0139     2.5487   -31.8917     7.0434     7.9261
 1494.0000    87.5934     9.0870     0.0214     2.5428   -32.0187     7.0966     7.9272
 1494.5000    89.0961     9.0882     0.0275     2.5369   -31.9913     7.1502     7.9895
 1495.0000    90.7446     9.0893     0.0246     2.5541   -31.9695     7.1550     8.1505
 1495.5000    90.9216     9.1499     0.0187     2.5631   -31.9476     7.2586     8.1516
 1496.0000    89.4286     9.1657     0.0171     2.5647   -31.9257     7.3135     8.2089
 1496.5000    90.2112     9.1222     0.0144     2.5595   -32.0577     7.1845     8.2666
 1497.0000    91.8770     9.1237     0.0293     2.5536   -31.8820     7.1807     8.2108
 1497.5000    94.2284     9.1268     0.0264     2.5628   -31.8601     7.1770     8.1560
 1498.0000    93.9425     9.1260     0.0191     2.5799   -31.8382     7.1732     8.1571
 1498.5000    92.1684     9.1272     0.0147     2.5770   -31.8164     7.1695     8.1023
 1499.0000    89.9479     9.1283     0.0207     2.5523   -31.7945     7.1650     7.9929
 1499.5000    85.9417     9.1446     0.0237     2.5427   -31.7726     7.0710     7.7773
 1500.0000    86.3998     9.1435     0.0238     2.5405   -31.7507     6.9329     7.7251
 1500.5000    87.7507     9.1384     0.0194     2.5458   -31.8772     6.7963     7.7263
 1501.0000    87.7858     9.1332     0.0180     2.5466   -31.8546     6.7071     7.3142
 1501.5000    85.3931     9.1492     0.0215     2.5407   -31.8447     6.5312     7.1660
 1502.0000    80.0476     9.1355     0.0215     2.5318   -31.8452     6.4025     7.1669
 1502.5000    85.5507     9.1369     0.0275     2.5244   -31.8457     6.3620     7.1679
 1503.0000    91.0787     9.1229     0.0468     2.5208   -31.8462     6.2796     7.1689
 1503.5000    93.3061     9.1392     0.0720     2.5201   -31.8468     6.1993     7.1645
 1504.0000    92.8684     9.1404     0.0986     2.5172   -31.8473     6.2035     7.1133
 1504.5000    93.3256     9.1415     0.1016     2.5224   -31.8478     6.2077     7.0255
 1505.0000   100.7747     9.1278     0.0784     2.5580   -31.9742     6.2119     6.9784
 1505.5000   100.9322     9.1438     0.0291     2.5974   -31.9467     6.2161     6.9796
 1506.0000   104.0659     9.1450     0.0143     2.5982   -31.9248     6.2631     6.9325
 1506.5000   101.3960     9.1464     0.0128     2.5538   -31.9028     6.3976     6.9337
 1507.0000    98.5772     9.1476     0.0143     2.5425   -31.5841     6.4460     6.8869
 1507.5000    99.0345     9.1488     0.0158     2.5389   -31.2653     6.4028     6.8881
 1508.0000    98.1503     9.1499     0.0143     2.5389   -31.0950     6.2260     6.7485
 1508.5000    94.2899     9.1511     0.0128     2.5389   -30.7763     5.9010     6.6573
 1509.0000    93.8500     9.1371     0.0114     2.5382   -30.6059     5.1553     6.4778
 1509.5000    94.0096     9.1534     0.0114     2.5353   -30.7378     5.1227     6.0903
 1510.0000    95.5064     9.1545     0.0114     2.5227   -30.7103     5.1270     5.8855
 1510.5000    95.0684     9.1557     0.0099     2.5071   -30.8422     5.1305     5.7268
 1511.0000    95.5376     9.1571     0.0114     2.4881   -30.9686     5.0294     5.6494
 1511.5000   100.7917     9.1731     0.0144     2.4685   -31.0905     4.9976     5.8980
 1512.0000    96.4361     9.1743     0.0278     2.5020   -31.2166     5.0362     6.2374
 1512.5000    90.3414     9.1755     0.1434     2.4255   -31.3423     5.3239     6.7107
 1513.0000    88.4177     9.2212     0.1281     2.4768   -31.4689     5.7845     6.9461
 1513.5000    83.2180     9.3561     0.1030     2.4107   -31.5975     6.1569     7.1898
 1514.0000    82.6292    10.7688     0.0812     2.5490   -31.7214     6.5533     7.3404
