~VERSION INFORMATION
 VERS.                2.0:   CWLS LOG ASCII STANDARD - VERSION 2.0
 WRAP.                 NO:   ONE LINE PER DEPTH STEP
~WELL INFORMATION
#MNEM.UNIT      DATA TYPE    INFORMATION
#----------   ------------   ------------------------------
 STRT.F          200.0000:   START DEPTH
 STOP.F         2968.0000:   STOP DEPTH
 STEP.F            0.5000:   STEP LENGTH
 NULL.          -999.2500:   NO VALUE
 COMP. FENIX & SCISSON U.S. NAVY:   COMPANY
 WELL.   FENIX "A" #23-28:   WELL
 FLD .              NPR 3:   FIELD
 LOC .      S28 T39N R78W:   LOCATION
 CNTY.            NATRONA:   COUNTY
 STAT.            WYOMING:   STATE
 CTRY. UNITED STATES OF AMERICA:   COUNTRY
 SRVC.       SCHLUMBERGER:   SERVICE COMPANY
 DATE.        10-JUN-1977:   LOGDATE
 API .     49025103860000:   API NUMBER
~CURVE INFORMATION
#MNEM.UNIT       API CODE    CURVE DESCRIPTION
#----------   ------------   ------------------------------
 DEPT.F                  :   
 SPR .MV     07 010 01 00:   SPONTANEOUS POTENTIAL
 RILM.OHMM   07 120 44 00:   INDUCTION LOG MEDIUM RESISTIVITY
 RILD.OHMM   07 120 46 00:   DEEP INDUCTION RESISTIVITY
 LL8 .None   99 022 08 00:   LATEROLOG
 GRD .GAPI   45 310 01 00:   GAMMA RAY FROM DENSITY LOG
 CALD.IN     45 280 60 00:   CALIPER FROM DENSITY LOG
 RHOB.G/C3   45 350 01 00:   BULK DENSITY
 DRHO.G/C3   45 356 01 00:   DENSITY CORRECTION
~PARAMETER INFORMATION
#MNEM.UNIT          VALUE    DESCRIPTION
#----------   ------------   ------------------------------
 EKB .F         5019.0000:   Kelly bushing
 EGL .F         5009.0000:   Ground level
 EDF .F            0.0000:   Drilling floor
 EPD .F         5009.0000:   Permanent datum
 TD  .F         2971.0000:   Total depth
 DATE.        10-JUN-1977:   Date logged
 CLNT.            A2DTECH:   Client Code
 SL  . 1650' FNL & 990' FWL:   Surface Location
 DAPD.F                10:   Feet Above Permanent Datum
 DD  .F              2970:   Depth driller
 DL  .F              2971:   Depth logger
 BLI .F              2905:   Bottom log interval
 TLI .F               216:   Top log interval
 CS1 .IN            8.625:   Casing size
 CBD1.      9.625" @ 216':   Casing driller 1
 CBL1.F               216:   Casing logger 1
 BS1 .IN            7.875:   Bit size
 BSD1.F              2970:   Depth drilled with bit1
 DFT .            KCL MUD:   Type fluid in hole
 DFD .                8.8:   Density
 DFV .                 32:   Viscosity
 DFPH.                8.5:   pH
 DFL .                7.4:   Fluid loss
 MSS .               CIRC:   Source of sample
 RMS .OHMM           1.87:   Rm
 MST .F                85:   Rm Meas. temp.
 RMF .OHMM           1.69:   Rmf
 MFST.F                85:   Rmf Meas. temp.
 RMC .OHMM           2.80:   Rmc
 MCST.F                85:   Rmc Meas. temp.
 MFSS.               MEAS:   Source Rmf.
 MCSS.               CALC:   Source Rmc.
 RMB .OHMM           1.43:   Rm. at BHT
 BHT .F               111:   BHT.
 TCS .HRS            1600:   Time Circ. stopped
 TLAB.HRS            0945:   Time logger at bottom
 MRT .F               111:   Maximum recorded temp.
 LUN .               7711:   Logging unit number
 LUL .               CSPR:   Logging unit location
 ENGI.             SAYLER:   Recorded By
 WITN.         HARRINGTON:   Witnessed by
 ORIG.           5" PRINT:   Origin of data
 UWI .     49025103860000:   Unique Well ID
 DICO. A2D TECHNOLOGIES, INC.:   Digitizing Company
~OTHER INFORMATION
~A  DEPTH      SPR       RILM       RILD        LL8        GRD       CALD       RHOB       DRHO
# ...
 2387.0000   -60.6390     7.6280     6.8600     8.8420   117.6340     9.9640     2.5610    -0.0040
 2387.5000   -60.6620     7.6110     6.9010     9.0160   119.2210     9.9600     2.5550     0.0010
 2388.0000   -60.6850     7.5950     6.9430     8.8230   120.8630     9.9570     2.5540    -0.0040
 2388.5000   -60.7090     7.5790     6.9840     8.6380   121.9050     9.9530     2.5560     0.0000
 2389.0000   -60.7320     7.5690     7.0260     8.3760   122.7730     9.9510     2.5580     0.0030
 2389.5000   -60.7550     8.2990     7.0670     8.5210   123.2620     9.9690     2.5580     0.0000
 2390.0000   -60.7780     7.8490     7.1080     8.7740   126.3080     9.9880     2.5530     0.0030
 2390.5000   -60.8010     7.5690     7.1620     9.1000   130.7390     9.9670     2.5500     0.0100
 2391.0000   -60.8190     7.7530     7.1270     8.9800   131.1910     9.9500     2.5560     0.0070
 2391.5000   -60.8320     7.8530     7.0780     8.7440   128.9190     9.9560     2.5590     0.0030
 2392.0000   -60.8450     8.0310     7.0310     8.5080   125.2070     9.9640     2.5540    -0.0010
 2392.5000   -60.8570     8.1480     7.1280     8.3760   121.5020     9.9660     2.5540    -0.0050
 2393.0000   -60.8700     7.9780     7.2200     8.7700   120.5660     9.9080     2.5630    -0.0050
 2393.5000   -60.8830     7.7310     7.2950     9.2300   121.2320     9.8590     2.5590     0.0090
 2394.0000   -60.8950     7.9830     6.9030     9.1840   119.8350     9.8110     2.5640     0.0050
 2394.5000   -60.9080     8.6110     7.0620     8.8980   118.1440     9.7730     2.5730     0.0140
 2395.0000   -60.9200     8.0120     7.4310     8.6110   117.0500     9.7930     2.5710     0.0130
 2395.5000   -60.9330     7.5690     7.2050     8.8160   115.9660     9.8110     2.5720     0.0100
 2396.0000   -60.9460     7.7810     6.8880     9.3550   114.7280     9.8290     2.5680     0.0140
 2396.5000   -60.9580     7.5850     6.6530     9.1130   112.8800     9.8470     2.5580     0.0140
 2397.0000   -60.9710     7.3200     6.6530     8.7520   111.0070     9.8650     2.5500     0.0070
 2397.5000   -60.9840     7.1400     6.5520     8.2650   111.7210     9.8790     2.5540     0.0060
 2398.0000   -60.9960     7.0310     6.4540     7.4950   113.2890     9.8920     2.5570     0.0060
 2398.5000   -61.0100     7.2280     6.3890     7.6730   115.5940     9.9050     2.5440    -0.0010
 2399.0000   -60.9880     7.0180     6.3540     8.3190   117.5490     9.9180     2.5370     0.0030
 2399.5000   -60.9560     6.8390     6.2020     9.0160   119.4890     9.9310     2.5320    -0.0020
 2400.0000   -60.9250     6.7150     6.0420     8.1830   117.7120     9.9440     2.5390    -0.0080
 2400.5000   -60.8930     6.9030     5.7950     7.2770   115.2630     9.9570     2.5490    -0.0020
 2401.0000   -60.8610     6.6660     5.8150     7.5690   115.3810     9.9700     2.5560     0.0040
 2401.5000   -60.8300     6.3940     5.8480     7.4310   117.3500     9.9830     2.5510     0.0060
 2402.0000   -60.7980     6.0120     5.5370     7.7100   119.8350     9.9950     2.5440     0.0000
 2402.5000   -60.7660     6.1210     5.4060     7.2520   118.8380    10.0080     2.5430     0.0020
 2403.0000   -60.7350     6.4020     5.6150     6.6800   118.2020    10.0210     2.5470     0.0060
 2403.5000   -60.7030     6.5040     5.7820     6.0680   120.9070    10.0340     2.5520     0.0060
 2404.0000   -60.6720     6.5630     5.9490     7.0810   125.5030    10.0470     2.5500     0.0110
 2404.5000   -60.6400     6.6240     6.0680     8.2830   128.4750    10.0600     2.5410     0.0090
 2405.0000   -60.6080     6.6880     6.2580     8.1920   126.6620    10.0700     2.5420     0.0050
 2405.5000   -60.5770     6.7530     6.4340     8.0690   125.5910    10.0800     2.5450     0.0130
 2406.0000   -60.5450     6.9930     6.6090     7.9990   131.1330    10.0900     2.5450     0.0080
 2406.5000   -60.5130     7.3630     6.7150     8.7560   136.6480    10.0990     2.5390     0.0060
 2407.0000   -60.4820     7.4340     6.7150     9.5290   139.8750    10.1090     2.5330     0.0050
 2407.5000   -60.4500     7.7100     6.7150     9.2690   134.6770    10.1140     2.5340     0.0020
 2408.0000   -60.4180     7.4310     6.7150     8.8000   127.6100    10.1190     2.5510     0.0040
 2408.5000   -60.4000     8.3760     6.7150     8.3760   120.5420    10.1250     2.5690     0.0160
 2409.0000   -60.3840     8.0100     6.7660     8.6480   118.5040    10.1310     2.5780     0.0110
 2409.5000   -60.3670     7.5690     6.8230     8.9320   117.3590    10.1360     2.5670     0.0050
 2410.0000   -60.3490     7.6020     6.9030     9.2690   114.7530    10.1420     2.5720     0.0150
 2410.5000   -60.3320     7.7100     6.8740     9.0840   111.3800    10.1480     2.5650     0.0080
 2411.0000   -60.3150     7.6430     6.8020     8.8520   109.0280    10.1410     2.5680     0.0160
 2411.5000   -60.2980     7.5290     6.7300     8.9380   107.4420    10.1270     2.5650     0.0120
 2412.0000   -60.2810     7.4990     6.6530     9.0050   110.9190    10.1130     2.5810     0.0110
 2412.5000   -60.2640     7.6090     6.7880     8.4200   113.1360    10.1090     2.5990     0.0240
 2413.0000   -60.2470     7.7380     6.9060     7.8920   112.0190    10.1090     2.5890     0.0300
 2413.5000   -60.2300     7.7810     7.0560     7.4990   113.1240    10.1090     2.5760     0.0150
 2414.0000   -60.2130     7.7810     7.2040     8.4390   115.0960    10.1090     2.5730     0.0160
 2414.5000   -60.1960     7.7810     7.5690     9.1860   116.4190    10.1090     2.5710     0.0010
 2415.0000   -60.1790     7.9990     7.4310     9.7960   115.1360    10.1090     2.5610     0.0040
 2415.5000   -60.1620     8.2320     7.7100     9.7160   115.6510    10.1090     2.5610     0.0070
 2416.0000   -60.1450     8.4050     7.6390     9.6490   116.9020    10.1090     2.5580     0.0090
 2416.5000   -60.1280     8.6190     7.9260     9.5290   116.7090    10.1090     2.5510     0.0080
 2417.0000   -60.1110     8.7710     7.7250     9.7430   115.2010    10.1090     2.5440     0.0070
 2417.5000   -60.0940     8.4530     7.4380     9.7960   112.2100    10.1090     2.5390     0.0060
 2418.0000   -60.0770     8.2530     7.1620     9.4180   108.5360    10.1090     2.5520     0.0070
 2418.5000   -60.0600     8.0190     7.0960     9.1840   105.3790    10.1090     2.5510     0.0040
 2419.0000   -60.0430     7.8840     6.7770     9.1000   105.7330    10.1090     2.5500     0.0050
 2419.5000   -60.0260     7.7780     6.9670     8.7170   106.6040    10.1090     2.5670     0.0140
 2420.0000   -60.0210     7.6390     6.8790     8.3300   106.2220    10.1090     2.5610     0.0040
 2420.5000   -59.9780     7.3900     6.7200     8.1480   104.8830    10.1070     2.5490    -0.0030
 2421.0000   -59.9280     7.1260     6.5610     8.3760   105.8210    10.1050     2.5430    -0.0020
 2421.5000   -59.8780     6.9540     6.4130     8.3120   108.1790    10.1020     2.5460    -0.0050
 2422.0000   -59.8270     6.8410     6.4130     8.1870   111.8990    10.1000     2.5410     0.0010
 2422.5000   -59.7760     6.7770     6.4130     8.0180   115.6070    10.0980     2.5690     0.0090
 2423.0000   -59.7260     6.8220     6.5920     7.8480   119.3160    10.0960     2.5640     0.0050
 2423.5000   -59.6750     6.8780     6.7150     7.5690   121.2570    10.0940     2.5570     0.0090
 2424.0000   -59.6250     6.9030     6.7150     7.7110   121.8420    10.0910     2.5510     0.0030
 2424.5000   -59.5740     7.0960     6.7150     8.1100   118.0050    10.0890     2.5610     0.0030
 2425.0000   -59.5240     7.2280     6.7460     8.2990   115.5920    10.0860     2.5590     0.0070
 2425.5000   -59.4730     6.9030     6.8400     8.2990   114.5910    10.0820     2.5530     0.0070
 2426.0000   -59.4230     6.9030     6.7150     8.6110   115.0820    10.0780     2.5560     0.0140
 2426.5000   -59.3720     7.0960     6.6530     8.3720   115.4420    10.0740     2.5570     0.0020
 2427.0000   -59.3220     6.9030     6.5920     8.1450   113.4510    10.0700     2.5530     0.0100
