~VERSION INFORMATION
 VERS.                2.0:   CWLS LOG ASCII STANDARD - VERSION 2.0
 WRAP.                 NO:   ONE LINE PER DEPTH STEP
~WELL INFORMATION
#MNEM.UNIT      DATA TYPE    INFORMATION
#----------   ------------   ------------------------------
 STRT.F          494.0000:   START DEPTH
 STOP.F         4999.5000:   STOP DEPTH
 STEP.F            0.5000:   STEP LENGTH
 NULL.          -999.2500:   NO VALUE
 COMP.    FENIX & SCISSON:   COMPANY
 WELL.  FENIX "LX" #26-23:   WELL
 FLD . MPR #3 (TEAPOT DOME):   FIELD
 LOC .      S23 T38N R78W:   LOCATION
 CNTY.            NATRONA:   COUNTY
 STAT.            WYOMING:   STATE
 CTRY. UNITED STATES OF AMERICA:   COUNTRY
 SRVC.       SCHLUMBERGER:   SERVICE COMPANY
 DATE.        11-AUG-1978:   LOGDATE
 API .     49025107340000:   API NUMBER
~CURVE INFORMATION
#MNEM.UNIT       API CODE    CURVE DESCRIPTION
#----------   ------------   ------------------------------
 DEPT.F                  :   
 NPHI.DEC    42 890 03 00:   NEUTRON POROSITY SANDSTONE
 TEND.LBS    45 635 01 00:   TENSION FORM DENSITY LOG
 GRD .GAPI   45 310 01 00:   GAMMA RAY FROM DENSITY LOG
 CALD.IN     45 280 60 00:   CALIPER FROM DENSITY LOG
 DRHO.G/C3   45 356 01 00:   DENSITY CORRECTION
 RHOB.G/C3   45 350 01 00:   BULK DENSITY
 SPR .MV     07 010 01 00:   SPONTANEOUS POTENTIAL
 TENR.LBS    07 635 01 00:   TENSION FROM RESISTIVITY LOG
 ILD .OHMM   07 120 46 00:   INDUCTION LOG DEEP RESISTIVITY
 ILM .OHMM   07 120 44 00:   INDUCTION LOG MEDIUM RESISTIVITY
 SFL .OHMM   07 220 01 00:   SPHERICALLY FOCUSED LOG RESISITIVITY
~PARAMETER INFORMATION
#MNEM.UNIT          VALUE    DESCRIPTION
#----------   ------------   ------------------------------
 EKB .F         5335.0000:   Kelly bushing
 EGL .F         5325.0000:   Ground level
 EDF .F            0.0000:   Drilling floor
 EPD .F         5325.0000:   Permanent datum
 TD  .F         5000.0000:   Total depth
 CLNT.            A2DTECH:   Client Code
 SL  . 1600' FSL & 903' FWL:   Surface Location
 PD  .                 GL:   Permanent Datum
 LMF .                 KB:   Log Measured From
 DMF .                 KB:   Drilling Measured From
 DAPD.F                10:   Feet Above Permanent Datum
 DATE.        11-AUG-1978:   Date Logged [DD-MMM-YYYY]
 DD  .F              5000:   Depth driller
 DL  .F              4998:   Depth logger
 BLI .F              4992:   Bottom log interval
 TLI .F               525:   Top log interval
 CS1 .IN            9.625:   Casing size
 CBD1.      9.625" @ 521':   Casing driller 1
 CBL1.F               521:   Casing logger 1
 BS1 .IN             8.75:   Bit size
 BSD1.F              5000:   Depth drilled with bit1
 DFD .                9.1:   Density
 MSS .            MUD PIT:   Source of sample
 RMS .OHMM          0.897:   Rm
 MST .F                64:   Rm Meas. temp.
 RMF .OHMM          0.821:   Rmf
 MFST.F                64:   Rmf Meas. temp.
 MFSS.               MEAS:   Source Rmf.
 BHT .F               135:   BHT.
 TCS .HRS              03:   00:   Time Circ. stopped
 TLAB.HRS              09:   00:   Time logger at bottom
 MRT .F               135:   Maximum recorded temp.
 LUL .               CSPR:   Logging unit location
 ENGI.              CRAIG:   Recorded By
 ORIG.           5" PRINT:   Origin of data
 UWI .     49025107340000:   Unique Well ID
 DICO. A2D TECHNOLOGIES, INC.:   Digitizing Company
 DFV .                 40:   Viscosity
 DFPH.                 12:   pH
 DFL .                  4:   Fluid loss
~OTHER INFORMATION
~A  DEPTH     NPHI       TEND        GRD       CALD       DRHO       RHOB        SPR       TENR        ILD        ILM        SFL
# ...
 4977.5000     0.1214  2687.5945    88.1813     9.0099     0.0230     2.6370   -11.2310  2392.6667    11.3000    11.7247    11.9325
 4978.0000     0.1247  2703.2439    89.6964     9.0103     0.0229     2.6490   -11.0660  2408.3911    11.3757    11.7247    12.5566
 4978.5000     0.1278  2718.7991    91.8158     8.9956     0.0214     2.6546   -10.9010  2424.1155    11.2933    11.6437    12.4573
 4979.0000     0.1283  2734.3538    93.3309     8.9961     0.0191     2.6404   -11.1852  2439.8450    11.2034    11.5625    12.1049
 4979.5000     0.1256  2735.5291    92.4400     8.9814     0.0151     2.6264   -11.7649  2424.5564    11.1309    11.4833    11.4298
 4980.0000     0.1232  2750.4421    90.6468     8.9818     0.0093     2.6090   -12.3522  2378.3203    11.1280    11.4039    11.2670
 4980.5000     0.1223  2750.8323    92.1647     8.9671     0.0055     2.6022   -12.6325  2316.5254    11.1251    11.2468    11.5950
 4981.0000     0.1238  2736.1570    94.8828     8.9676     0.0025     2.6030   -12.6172  2316.7458    11.1997    11.1691    12.0184
 4981.5000     0.1262  2735.3240    96.6987     8.9680     0.0009     2.5947   -12.7478  2317.0212    11.1186    11.0152    12.4573
 4982.0000     0.1286  2706.8689    94.9055     8.9533     0.0039     2.5871   -12.8861  2317.2417    11.1157    10.8635    12.8199
 4982.5000     0.1311  2677.0381    89.7147     8.9538     0.0115     2.5954   -13.1664  2317.4622    10.8836    10.7884    12.4573
 4983.0000     0.1329  2662.3362    88.3117     8.9543     0.0205     2.6159   -13.6002  2317.6826    10.6520    10.5663    12.0184
 4983.5000     0.1314  2662.8694    90.1303     8.9396     0.0280     2.6240   -14.1800  2317.9070    10.4332    10.2772    11.5121
 4984.0000     0.1296  2663.2957    92.2470     8.9400     0.0280     2.6195   -14.6176  2318.1785    10.2153     9.9960    10.7152
 4984.5000     0.1280  2678.8506    94.1377     8.9253     0.0220     2.6104   -14.9017  2349.4067     9.9328     9.7901     9.8315
 4985.0000     0.1265  2694.4060    96.1823     8.9258     0.0144     2.6074   -15.1821  2411.6426     9.7254     9.7225     9.7612
 4985.5000     0.1265  2710.0676    96.7951     8.9262     0.0129     2.6164   -15.3165  2442.8708     9.5218     9.7225     9.7612
 4986.0000     0.1269  2710.4939    97.7087     8.9418     0.0144     2.6202   -15.2986  2458.6504     9.5856     9.9960     9.9023
 4986.5000     0.1278  2710.9209    98.3215     8.9271     0.0151     2.6051   -15.1335  2474.3748     9.7172    10.2772    10.2639
 4987.0000     0.1290  2711.3472    95.3282     8.9428     0.0151     2.5862   -14.9649  2474.5950    10.0585    10.6398    10.6387
 4987.5000     0.1299  2711.8801    93.2343     8.9280     0.0090     2.5772   -14.7999  2459.2566    10.5556    11.0919    11.3481
 4988.0000     0.1302  2697.0715    93.8471     8.9285     0.0038     2.5870   -14.4852  2413.0203    11.2336    11.5871    12.1920
 4988.5000     0.1296  2697.6047    95.6844     8.9289     0.0022     2.6043   -14.0207  2335.7766    11.7086    12.1384    13.2347
 4989.0000     0.1281  2698.0334    97.1809     8.9293     0.0030     2.6163   -13.5527  2289.4302    11.7055    12.3936    14.3790
 4989.5000     0.1269  2698.5645    98.0945     8.9147     0.0052     2.6268   -13.2380  2227.6902    11.8654    12.4799    14.5867
 4990.0000     0.1266  2698.9907    98.1058     8.9151     0.0067     2.6336   -12.7736  2196.8994    11.9304    12.4799    13.5771
 4990.5000     0.1269  2699.4172  -999.2500     8.9156     0.0082     2.6396   -12.7582  2181.6196    11.9015    12.3080    12.9951
 4991.0000     0.1263  2699.8486  -999.2500     8.9009     0.0089     2.6448   -12.5895  2212.9028    11.8725    12.1384    12.7282
 4991.5000     0.1239  2700.3770  -999.2500     8.8862     0.0089     2.6493   -12.2749  2228.6272    11.8544    12.0545    12.4573
 4992.0000     0.1227  2715.9319  -999.2500     8.8867     0.0089     2.6524   -11.9611  2275.3591    11.8555    12.0545    12.2951
 4992.5000     0.1239  2716.3584  -999.2500     8.8719     0.0097     2.6501  -999.2500  2417.1580  -999.2500  -999.2500  -999.2500
 4993.0000     0.1266  2716.7930  -999.2500     8.8649     0.0111     2.6440  -999.2500  2616.9402  -999.2500  -999.2500  -999.2500
 4993.5000     0.1293  2717.3181  -999.2500     8.8426     0.0141     2.6320  -999.2500  2648.1685  -999.2500  -999.2500  -999.2500
 4994.0000     0.1311  2717.7444  -999.2500     8.8127     0.0292     2.6463  -999.2500  2648.3889  -999.2500  -999.2500  -999.2500
 4994.5000     0.1290  2703.0422  -999.2500     8.7677     0.0413     2.6575  -999.2500  2633.1055  -999.2500  -999.2500  -999.2500
 4995.0000     0.1281  2703.4795  -999.2500     8.7303     0.0544     2.6613  -999.2500  2580.5056  -999.2500  -999.2500  -999.2500
 4995.5000     0.1299  2704.0020  -999.2500     8.6929     0.0654     2.6635  -999.2500  2416.5471  -999.2500  -999.2500  -999.2500
 4996.0000     0.1311  2689.1934  -999.2500     8.6782     0.0684     2.6598  -999.2500  2153.2019  -999.2500  -999.2500  -999.2500
 4996.5000  -999.2500  2689.7261  -999.2500  -999.2500  -999.2500  -999.2500  -999.2500  1967.3759  -999.2500  -999.2500  -999.2500
 4997.0000  -999.2500  2690.1663  -999.2500  -999.2500  -999.2500  -999.2500  -999.2500  1921.0845  -999.2500  -999.2500  -999.2500
 4997.5000  -999.2500  2690.6858  -999.2500  -999.2500  -999.2500  -999.2500  -999.2500  1921.3601  -999.2500  -999.2500  -999.2500
 4998.0000  -999.2500  2691.1123  -999.2500  -999.2500  -999.2500  -999.2500  -999.2500  1968.0922  -999.2500  -999.2500  -999.2500
 4998.5000  -999.2500  2691.5391  -999.2500  -999.2500  -999.2500  -999.2500  -999.2500  1999.3204  -999.2500  -999.2500  -999.2500
 4999.0000  -999.2500  2692.0718  -999.2500  -999.2500  -999.2500  -999.2500  -999.2500  2015.0446  -999.2500  -999.2500  -999.2500
 4999.5000  -999.2500  2692.4983  -999.2500  -999.2500  -999.2500  -999.2500  -999.2500  1999.7612  -999.2500  -999.2500  -999.2500
