~VERSION INFORMATION
 VERS.                2.0:   CWLS LOG ASCII STANDARD - VERSION 2.0
 WRAP.                 NO:   ONE LINE PER DEPTH STEP
~WELL INFORMATION
#MNEM.UNIT      DATA TYPE    INFORMATION
#----------   ------------   ------------------------------
 STRT.F           89.5000:   START DEPTH
 STOP.F         1300.5000:   STOP DEPTH
 STEP.F            0.5000:   STEP LENGTH
 NULL.          -999.2500:   NO VALUE
 COMP.            US NAVY:   COMPANY
 WELL. US NPR 3 "S" #62-11:   WELL
 FLD .             TEAPOT:   FIELD
 LOC .      S11 T38N R78W:   LOCATION
 CNTY.            NATRONA:   COUNTY
 STAT.            WYOMING:   STATE
 CTRY. UNITED STATES OF AMERICA:   COUNTRY
 SRVC.       SCHLUMBERGER:   SERVICE COMPANY
 DATE.        20-JUL-1964:   LOGDATE
 API .     49025063660000:   API NUMBER
~CURVE INFORMATION
#MNEM.UNIT       API CODE    CURVE DESCRIPTION
#----------   ------------   ------------------------------
 DEPT.F                  :   
 CALS.IN     60 280 50 00:   CALIPER FROM SONIC LOG
 DT  .US/F   60 520 33 00:   DELTA TIME
 SPR .MV     05 010 01 00:   SPONTANEOUS POTENTIAL FROM RES.
 ASN .OHMM   05 041 16 00:   AMPLIFIED SHORT NORMAL 16"
 ILD .OHMM   05 120 46 00:   INDUCTION LOG DEEP
~PARAMETER INFORMATION
#MNEM.UNIT          VALUE    DESCRIPTION
#----------   ------------   ------------------------------
 EKB .F         5223.0000:   Kelly bushing
 EGL .F         5215.0000:   Ground level
 EDF .F            0.0000:   Drilling floor
 TD  .F         1303.0000:   Total depth
 DATE.        20-JUL-1964:   Date logged
 CLNT.            A2DTECH:   Client Code
 PD  .                 GL:   Permanent Datum
 EPD .F              5215:   Elevation Permanent Datum
 LMF .                 KB:   Log Measured From
 DMF .                 KB:   Drilling Measured From
 DAPD.F                 8:   Feet Above Permanent Datum
 DD  .F              1303:   Depth driller
 DL  .F              1300:   Depth logger
 BLI .F              1299:   Bottom log interval
 TLI .F                94:   Top log interval
 CS1 .IN            12.25:   Casing size
 CBD1.       12.25" @ 10':   Casing driller 1
 BS1 .IN               11:   Bit size
 BSD1.F              1303:   Depth drilled with bit1
 DFT .            GEL/OIL:   Type fluid in hole
 DFD .                9.8:   Density
 DFV .                 60:   Viscosity
 DFL .                 10:   Fluid loss
 MSS .           FLOWLINE:   Source of sample
 RMS .OHMM           3.13:   Rm
 MST .F                86:   Rm Meas. temp.
 RMF .OHMM           1.81:   Rmf
 MFST.F                86:   Rmf Meas. temp.
 RMC .OHMM           3.39:   Rmc
 MCST.F                86:   Rmc Meas. temp.
 MFSS.                 FP:   Source Rmf.
 MCSS.                 FP:   Source Rmc.
 TCS .HRS             2.5:   Time Circ. stopped
 LUN .               4507:   Logging unit number
 LUL .               CSPR:   Logging unit location
 ENGI.             DANNER:   Recorded By
 WITN.         JORGENESEN:   Witnessed by
 ORIG.       2", 5" PRINT:   Origin of data
 UWI .     49025063660000:   Unique Well ID
 DICO. A2D TECHNOLOGIES, INC.:   Digitizing Company
~OTHER INFORMATION
~A   DEPT     CALS         DT        SPR        ASN          ILD 
   89.5000  -999.2500  -999.2500   -50.7740  -999.2500     4.5470
   90.0000  -999.2500  -999.2500   -50.7740     5.5430     5.7040
   90.5000  -999.2500  -999.2500   -50.7740     6.9290     5.6490
   91.0000  -999.2500  -999.2500   -50.7090     7.5010     5.5000
   91.5000  -999.2500  -999.2500   -50.5400     8.0460     5.3500
   92.0000  -999.2500  -999.2500   -50.3710     6.9540     5.2010
   92.5000  -999.2500  -999.2500   -50.2010     4.3950     5.0100
   93.0000  -999.2500  -999.2500   -50.0320     5.1230     5.0100
   93.5000  -999.2500  -999.2500   -49.8630     5.8670     5.1590
   94.0000  -999.2500  -999.2500   -49.8070     6.0640     5.2770
   94.5000  -999.2500  -999.2500   -49.8070     6.2600     5.3960
   95.0000  -999.2500  -999.2500   -49.8070     6.2800     5.5060
   95.5000  -999.2500  -999.2500   -49.9040     6.0610     5.6050
   96.0000  -999.2500  -999.2500   -49.9810     5.8040     5.6050
   96.5000  -999.2500  -999.2500   -50.0630     6.4780     5.6150
   97.0000  -999.2500  -999.2500   -50.0530     6.3940     5.5840
   97.5000  -999.2500  -999.2500   -50.1300     6.2870     5.5570
   98.0000  -999.2500  -999.2500   -50.2190     6.0420     5.5260
   98.5000  -999.2500  -999.2500   -50.2690     6.1040     5.4970
   99.0000  -999.2500  -999.2500   -50.3810     6.2200     5.4690
   99.5000  -999.2500  -999.2500   -50.5620     6.1360     5.4390
  100.0000  -999.2500  -999.2500   -50.5960     6.0010     5.4110
  100.5000  -999.2500  -999.2500   -50.5120     5.9030     5.3820
  101.0000  -999.2500  -999.2500   -50.4450     5.9480     5.3530
  101.5000  -999.2500  -999.2500   -50.3640     6.0050     5.3240
  102.0000  -999.2500  -999.2500   -50.2800     6.0420     5.2950
  102.5000  -999.2500  -999.2500   -50.2070     6.0210     5.2660
  103.0000  -999.2500  -999.2500   -50.1230     5.9670     5.2370
  103.5000  -999.2500  -999.2500   -50.0440     5.9120     5.2070
  104.0000  -999.2500  -999.2500   -49.9680     5.8580     5.1790
  104.5000  -999.2500  -999.2500   -49.8820     5.8040     5.1490
  105.0000  -999.2500  -999.2500   -49.8100     5.7510     5.1200
  105.5000  -999.2500  -999.2500   -49.7760     5.7220     5.0920
  106.0000  -999.2500  -999.2500   -49.7550     5.6950     5.0600
  106.5000  -999.2500  -999.2500   -49.7260     5.6690     5.0350
  107.0000  -999.2500  -999.2500   -49.7000     5.6400     5.0040
  107.5000  -999.2500  -999.2500   -49.6760     5.5930     4.9730
  108.0000  -999.2500  -999.2500   -49.6450     5.5340     4.9530
  108.5000  -999.2500  -999.2500   -49.6160     5.4340     4.8970
  109.0000  -999.2500  -999.2500   -49.6110     5.2970     4.8260
  109.5000  -999.2500  -999.2500   -49.6130     5.2080     4.7920
  110.0000  -999.2500  -999.2500   -49.5430     5.1850     4.8280
  110.5000  -999.2500  -999.2500   -49.4150     5.2490     4.9680
  111.0000  -999.2500  -999.2500   -49.4250     5.4290     5.1230
  111.5000  -999.2500  -999.2500   -49.6180     5.6350     5.2450
  112.0000  -999.2500  -999.2500   -49.7910     5.7920     5.3790
  112.5000  -999.2500  -999.2500   -49.9350     5.9090     5.5150
  113.0000  -999.2500  -999.2500   -50.1080     6.0070     5.6450
  113.5000  -999.2500  -999.2500   -50.0990     6.1180     5.7750
  114.0000  -999.2500  -999.2500   -49.8830     6.2270     5.9170
  114.5000  -999.2500  -999.2500   -49.6650     6.3300     6.0350
  115.0000  -999.2500  -999.2500   -49.4340     6.4460     6.1100
  115.5000  -999.2500  -999.2500   -49.2350     6.5320     6.1950
  116.0000  -999.2500  -999.2500   -49.2170     6.5240     6.2050
  116.5000  -999.2500  -999.2500   -49.2680     6.4050     6.1020
  117.0000  -999.2500  -999.2500   -49.2910     6.2880     6.0150
  117.5000  -999.2500  -999.2500   -49.3270     6.3170     5.9310
  118.0000  -999.2500  -999.2500   -49.3630     6.4050     5.8350
  118.5000  -999.2500  -999.2500   -49.3920     6.3970     5.7620
  119.0000  -999.2500  -999.2500   -49.4200     6.3350     5.6540
  119.5000  -999.2500  -999.2500   -49.4230     6.2800     5.6190
  120.0000  -999.2500  -999.2500   -49.3410     6.2210     5.7640
  120.5000  -999.2500  -999.2500   -49.2330     6.2200     5.9160
  121.0000  -999.2500  -999.2500   -49.2170     6.3200     6.0290
  121.5000  -999.2500  -999.2500   -49.2320     6.4370     6.1680
  122.0000  -999.2500  -999.2500   -49.1970     6.5070     6.2980
  122.5000  -999.2500  -999.2500   -49.1350     6.5690     6.4010
  123.0000  -999.2500  -999.2500   -49.0610     6.6490     6.3960
  123.5000  -999.2500  -999.2500   -48.9910     6.6690     6.2740
  124.0000  -999.2500  -999.2500   -48.9240     6.5850     6.1470
  124.5000  -999.2500  -999.2500   -48.8490     6.4780     6.0210
  125.0000  -999.2500  -999.2500   -48.7840     6.3920     5.8990
  125.5000  -999.2500  -999.2500   -48.7080     6.2950     5.7740
  126.0000  -999.2500  -999.2500   -48.6490     6.1970     5.6420
  126.5000  -999.2500  -999.2500   -48.7500     6.1130     5.5370
  127.0000  -999.2500  -999.2500   -48.9640     6.0030     5.3800
  127.5000  -999.2500  -999.2500   -49.1400     5.9310     5.3290
  128.0000  -999.2500  -999.2500   -49.3690     5.9830     5.5720
  128.5000  -999.2500  -999.2500   -49.5950     6.0840     5.8420
  129.0000  -999.2500  -999.2500   -49.6300     6.2470     6.0420
  129.5000  -999.2500  -999.2500   -49.6010     6.5520     6.2890
  130.0000  -999.2500  -999.2500   -49.5960     6.8830     6.5130
  130.5000  -999.2500  -999.2500   -49.5550     7.1190     6.7410
  131.0000  -999.2500  -999.2500   -49.5210     7.3340     6.9770
  131.5000  -999.2500  -999.2500   -49.4950     7.5010     7.0480
  132.0000  -999.2500  -999.2500   -49.4530     7.4700     6.9620
  132.5000  -999.2500  -999.2500   -49.4240     7.3230     6.8620
  133.0000  -999.2500  -999.2500   -49.4180     7.1870     6.7740
  133.5000  -999.2500  -999.2500   -49.4220     7.0530     6.6770
  134.0000  -999.2500  -999.2500   -49.4350     6.9520     6.5850
  134.5000  -999.2500  -999.2500   -49.4740     6.8880     6.4920
  135.0000  -999.2500  -999.2500   -49.5090     6.8180     6.3980
  135.5000  -999.2500  -999.2500   -49.5410     6.7490     6.3050
  136.0000  -999.2500  -999.2500   -49.5860     6.6830     6.2110
  136.5000  -999.2500  -999.2500   -49.6040     6.6130     6.1180
  137.0000  -999.2500  -999.2500   -49.6240     6.5450     6.0240
  137.5000  -999.2500  -999.2500   -49.6040     6.5000     5.9300
  138.0000  -999.2500  -999.2500   -49.4700     6.4740     5.8370
  138.5000  -999.2500  -999.2500   -49.3330     6.4640     5.7420
  139.0000  -999.2500  -999.2500   -49.1940     6.4340     5.6500
  139.5000  -999.2500  -999.2500   -49.0450     6.3290     5.5550
  140.0000  -999.2500  -999.2500   -49.0170     6.2050     5.5050
  140.5000  -999.2500  -999.2500   -49.0480     6.1430     5.5550
  141.0000  -999.2500  -999.2500   -49.0590     6.1630     5.6670
  141.5000  -999.2500  -999.2500   -49.1260     6.2480     5.7770
  142.0000  -999.2500  -999.2500   -49.1710     6.3420     5.8880
  142.5000  -999.2500  -999.2500   -49.2120     6.4310     6.0000
  143.0000  -999.2500  -999.2500   -49.4370     6.5210     6.1080
  143.5000  -999.2500  -999.2500   -49.5900     6.6110     6.2220
  144.0000  -999.2500  -999.2500   -49.4430     6.7050     6.3300
  144.5000  -999.2500  -999.2500   -49.3240     6.7880     6.4420
  145.0000  -999.2500  -999.2500   -49.2820     6.8900     6.5550
  145.5000  -999.2500  -999.2500   -49.1740     6.9880     6.6580
  146.0000  -999.2500  -999.2500   -49.1130     7.0060     6.8060
  146.5000  -999.2500  -999.2500   -49.0370     7.0040     6.8880
  147.0000  -999.2500  -999.2500   -49.0120     7.0160     6.7680
  147.5000  -999.2500  -999.2500   -49.0070     6.9920     6.5820
  148.0000  -999.2500  -999.2500   -48.8170     6.9140     6.4230
  148.5000  -999.2500  -999.2500   -48.9450     6.7490     6.2470
  149.0000  -999.2500  -999.2500   -49.7120     6.5810     6.0780
  149.5000  -999.2500  -999.2500   -50.8140     6.4980     5.9090
  150.0000  -999.2500  -999.2500   -51.6320     6.4220     5.7360
