~VERSION INFORMATION
 VERS.                2.0:   CWLS LOG ASCII STANDARD - VERSION 2.0
 WRAP.                 NO:   ONE LINE PER DEPTH STEP
~WELL INFORMATION
#MNEM.UNIT      DATA TYPE    INFORMATION
#----------   ------------   ------------------------------
 STRT.F          206.0000:   START DEPTH
 STOP.F         2974.0000:   STOP DEPTH
 STEP.F            0.5000:   STEP LENGTH
 NULL.          -999.2500:   NO VALUE
 COMP.    FENIX & SCISSON:   COMPANY
 WELL.    FENIX AX #32-21:   WELL
 FLD .                NPR:   FIELD
 LOC .      S21 T39N R78W:   LOCATION
 CNTY.            NATRONA:   COUNTY
 STAT.            WYOMING:   STATE
 CTRY. UNITED STATES OF AMERICA:   COUNTRY
 SRVC.              WELEX:   SERVICE COMPANY
 DATE.        29-JUL-1977:   LOGDATE
 API .     49025104050000:   API NUMBER
~CURVE INFORMATION
#MNEM.UNIT       API CODE    CURVE DESCRIPTION
#----------   ------------   ------------------------------
 DEPT.F                  :   
 SPR .MV     07 010 01 00:   SPONTANEOUS POTENTIAL
 RILM.OHMM   07 120 44 00:   INDUCTION LOG MEDIUM RESISTIVITY
 RILD.OHMM   07 120 46 00:   INDUCTION LOG DEEP RESISTIVITY
 SGRD.OHMM   07 220 05 00:   SHALLOW GUARD LOG RESISTIVITY
 CALD.IN     45 280 60 00:   CALIPER FROM DENSITY LOG
 RHOB.G/C3   45 350 01 00:   BULK DENSITY
 DCOR.G/C3   45 356 01 00:   DENSITY CORRECTION
 GRD .GAPI   45 310 01 00:   GAMMA RAY FROM DENSITY LOG
~PARAMETER INFORMATION
#MNEM.UNIT          VALUE    DESCRIPTION
#----------   ------------   ------------------------------
 EKB .F         4995.0000:   Kelly bushing
 EGL .F         4985.0000:   Ground level
 EDF .F            0.0000:   Drilling floor
 EPD .F         4985.0000:   Permanent datum
 TD  .F         2978.0000:   Total depth
 DATE.        29-JUL-1977:   Date logged
 CLNT.            A2DTECH:   Client Code
 SL  . 1040' FNL & 1500' FWL:   Surface Location
 PD  .                 GL:   Permanent Datum
 LMF .                 KB:   Log Measured From
 DMF .                 KB:   Drilling Measured From
 DAPD.F                10:   Feet Above Permanent Datum
 DD  .F              2972:   Depth driller
 DL  .F              2978:   Depth logger
 BLI .F              2976:   Bottom log interval
 TLI .F               120:   Top log interval
 CS1 .IN            8.625:   Casing size
 CBD1.      8.625" @ 205':   Casing driller 1
 CBL1.F               220:   Casing logger 1
 BS1 .IN            7.875:   Bit size
 BSD1.F              2972:   Depth drilled with bit1
 DFT .                KCL:   Type fluid in hole
 DFD .                9.2:   Density
 DFV .                 43:   Viscosity
 DFPH.                 10:   pH
 DFL .                  8:   Fluid loss
 MSS .            MUD PIT:   Source of sample
 RMS .OHMM            .21:   Rm
 MST .F                91:   Rm Meas. temp.
 RMF .OHMM            .18:   Rmf
 MFST.F                91:   Rmf Meas. temp.
 RMC .OHMM            .23:   Rmc
 MCST.F                91:   Rmc Meas. temp.
 MFSS.               MEAS:   Source Rmf.
 MCSS.               MEAS:   Source Rmc.
 RMB .OHMM            .17:   Rm. at BHT
 BHT .F               110:   BHT.
 TCS .HRS               3:   Time Circ. stopped
 MRT .F               110:   Maximum recorded temp.
 LUN .               9685:   Logging unit number
 LUL .             CASPER:   Logging unit location
 ENGI.   T JOYNER/ E HOCH:   Recorded By
 WITN.         PETTINGILL:   Witnessed by
 ORIG.     2.5", 5" PRINT:   Origin of data
 UWI .     49025104050000:   Unique Well ID
 DICO. A2D TECHNOLOGIES, INC.:   Digitizing Company
~OTHER INFORMATION
~A   DEPT      SPR       RILM       RILD       SGRD       CALD       RHOB       DCOR         GRD  
# ...
  732.5000   -68.7930     7.2090     7.5460    10.2910     8.9800     2.5180     0.0530   104.7480
  733.0000   -68.6250     7.3220     7.5210    10.2490     8.9730     2.5210     0.0550   103.9540
  733.5000   -68.4600     7.4340     7.4950    10.2060     8.9660     2.5270     0.0580   103.0900
  734.0000   -68.3330     7.5470     7.4690    10.1640     8.9590     2.5330     0.0610   103.3380
  734.5000   -68.4490     7.6590     7.4440    10.1210     8.9520     2.5250     0.0630   103.7570
  735.0000   -68.6020     7.5230     7.4180    10.0790     8.9450     2.5230     0.0640   103.7860
  735.5000   -68.7570     7.3870     7.3920    10.0370     8.9430     2.5200     0.0640   104.0780
  736.0000   -68.9070     7.2510     7.3790     9.9940     8.9520     2.5200     0.0640   104.5710
  736.5000   -69.0660     7.1140     7.3730     9.9520     8.9620     2.5240     0.0640   104.3210
  737.0000   -69.1280     7.1350     7.3680     9.9180     8.9720     2.5340     0.0640   104.1330
  737.5000   -69.1230     7.1550     7.3620     9.9680     8.9820     2.5350     0.0620   103.8460
  738.0000   -69.1230     7.1750     7.3570    10.0100     8.9920     2.5340     0.0580   104.9560
  738.5000   -69.1210     7.1950     7.3510    10.0520     9.0020     2.5270     0.0570   106.5630
  739.0000   -69.0700     7.2160     7.3460    10.1030     9.0120     2.5240     0.0630   107.5000
  739.5000   -69.0190     7.2360     7.3400     9.9540     9.0220     2.5290     0.0680   107.3340
  740.0000   -68.9660     7.2560     7.3350     9.7690     9.0320     2.5300     0.0640   107.8040
  740.5000   -68.9140     7.2760     7.3300     9.5830     9.0420     2.5230     0.0600   109.1290
  741.0000   -68.8610     7.2970     7.3240     9.3980     9.0510     2.5130     0.0560   109.7920
  741.5000   -68.8080     7.3170     7.3190     9.2120     9.0600     2.5040     0.0530   109.5080
  742.0000   -68.7590     7.3370     7.3130     9.4350     9.0610     2.4990     0.0490   109.1600
  742.5000   -68.6520     7.3570     7.3080     9.6570     9.0630     2.5060     0.0520   108.4130
  743.0000   -68.4620     7.3810     7.3020     9.8800     9.0640     2.5120     0.0570   108.1740
  743.5000   -68.2770     7.3480     7.2970    10.1030     9.0660     2.5190     0.0610   108.2230
  744.0000   -68.0900     7.3060     7.2910    10.1030     9.0670     2.5260     0.0660   107.9750
  744.5000   -67.9030     7.2630     7.2860    10.1030     9.0680     2.5290     0.0670   107.4730
  745.0000   -67.7170     7.2460     7.2810    10.1030     9.0700     2.5280     0.0610   107.8440
  745.5000   -67.5300     7.2470     7.2750    10.1030     9.0710     2.5270     0.0570   108.6650
  746.0000   -67.3430     7.2470     7.2700     9.9970     9.0720     2.5250     0.0520   109.4060
  746.5000   -67.1570     7.2470     7.2640     9.8910     9.0740     2.5180     0.0480   110.2420
  747.0000   -66.9700     7.2470     7.2590     9.7850     9.0750     2.5080     0.0440   111.2540
  747.5000   -66.7830     7.2470     7.2540     9.6800     9.0770     2.5080     0.0440   112.2720
  748.0000   -66.5990     7.2470     7.2470     9.5740     9.0780     2.5100     0.0440   112.5880
  748.5000   -66.4040     7.2470     7.2470     9.4680     9.0790     2.5110     0.0450   110.9800
  749.0000   -66.3450     7.2470     7.2470     9.3840     9.0810     2.5130     0.0500   109.3640
  749.5000   -66.3850     7.3890     7.2470     9.5990     9.0820     2.5150     0.0550   107.7810
  750.0000   -66.4130     7.5660     7.2460     9.7780     9.0830     2.5140     0.0610   105.9340
  750.5000   -66.4430     7.7440     7.2470     9.9570     9.0850     2.5130     0.0640   104.8750
  751.0000   -66.4740     7.9210     7.2470    10.1030     9.0860     2.5140     0.0610   103.6250
  751.5000   -66.5030     8.0990     7.2470    10.3300     9.0870     2.5170     0.0580   102.4720
  752.0000   -66.5330     8.2460     7.3490    10.5220     9.0890     2.5120     0.0560   101.2700
  752.5000   -66.5630     8.6590     7.5280    10.7140     9.0900     2.5100     0.0530   100.6010
  753.0000   -66.5930     9.0110     7.7070    10.8770     9.0910     2.5210     0.0520   100.2310
  753.5000   -66.6240     9.3840     7.8850    12.2940     9.0930     2.5320     0.0530    99.8830
  754.0000   -66.6540     9.0710     8.0640    14.3460     9.0940     2.5350     0.0540    99.4790
  754.5000   -66.6840     8.7400     8.2430    14.0120     9.0960     2.5370     0.0540   100.4670
  755.0000   -66.7150     8.4090     8.4000    13.0030     9.0970     2.5390     0.0550   100.9970
  755.5000   -66.7490     8.0780     8.4000    11.9930     9.0980     2.5380     0.0560   101.0240
  756.0000   -66.7890     7.7460     8.4000    11.4960     9.1000     2.5370     0.0560   101.3010
  756.5000   -66.8300     7.4150     8.4000    11.6130     9.1030     2.5330     0.0550   105.1040
  757.0000   -66.8720     7.2470     8.4000    11.7100     9.1080     2.5260     0.0540   108.3850
  757.5000   -66.9130     7.3620     8.4000    11.5470     9.1120     2.5250     0.0530   109.6640
  758.0000   -66.9540     7.7720     8.4000    11.3960     9.1160     2.5270     0.0530   110.0790
  758.5000   -66.9960     8.1810     8.4000    11.3110     9.1210     2.5390     0.0560   111.2000
  759.0000   -67.0380     8.5910     8.4000    11.4070     9.1250     2.5490     0.0580   110.5770
  759.5000   -67.0770     9.0000     8.4000    11.5030     9.1290     2.5480     0.0600   110.9520
  760.0000   -67.1200     9.4100     8.4000    11.5980     9.1340     2.5470     0.0620   110.2730
  760.5000   -67.0990     9.6740     8.4000    11.7100     9.1380     2.5420     0.0640   109.4910
  761.0000   -67.0500     9.8560     8.4000    11.7100     9.1420     2.5360     0.0590   109.9790
  761.5000   -67.0030    10.0370     8.4000    11.7100     9.1470     2.5210     0.0520   110.5620
  762.0000   -66.9560    10.2190     8.4000    11.7100     9.1510     2.5050     0.0460   111.2560
  762.5000   -66.9080    10.4010     8.4000    11.7100     9.1550     2.4990     0.0420   111.0410
  763.0000   -66.8620    10.5820     8.4000    11.7100     9.1600     2.4950     0.0370   110.3930
  763.5000   -66.8150    10.8770     8.4000    11.7100     9.1640     2.4890     0.0380   109.8510
  764.0000   -66.7640    10.8520     8.4000    11.7100     9.1680     2.4910     0.0400   108.7280
  764.5000   -66.7650    10.7870     8.4000    11.7100     9.1730     2.4940     0.0430   107.5700
  765.0000   -66.8770    10.7220     8.4000    11.7100     9.1770     2.4950     0.0450   106.6490
  765.5000   -66.9840    10.6570     8.4000    11.7100     9.1800     2.4960     0.0480   106.0330
  766.0000   -67.0950    10.5910     8.3990    11.4760     9.1800     2.4990     0.0500   105.4090
  766.5000   -67.2060    10.5260     8.4000    11.2730     9.1800     2.5020     0.0520   105.4400
  767.0000   -67.3150    10.4830     8.3300    11.0700     9.1800     2.5050     0.0530   105.0820
  767.5000   -67.4270    10.1670     8.2350    10.8670     9.1800     2.5090     0.0540   104.0970
  768.0000   -67.5320     9.8260     8.1400    10.6640     9.1800     2.5080     0.0550   104.7830
  768.5000   -67.6470     9.3840     8.0450    10.4830     9.1800     2.4980     0.0560   106.5990
  769.0000   -67.7560     9.4040     7.9500    10.4390     9.1800     2.5010     0.0590   106.1560
  769.5000   -67.8670     9.4330     7.8560    10.3990     9.1800     2.5060     0.0610   107.2070
  770.0000   -67.9760     9.4620     7.7610    10.3600     9.1800     2.5110     0.0640   109.2430
  770.5000   -68.0890     9.4910     7.6660    10.3200     9.1800     2.5170     0.0670   109.4280
  771.0000   -68.1950     9.5200     7.5710    10.2910     9.1800     2.5190     0.0660   109.3060
  771.5000   -68.3150     9.5580     7.5190    10.2910     9.1800     2.5170     0.0610   110.5030
  772.0000   -68.3270     9.3650     7.5190    10.2910     9.1800     2.5100     0.0560   109.6190
  772.5000   -68.3280     9.2880     7.5190    10.2910     9.1800     2.5030     0.0510   108.4190
