~VERSION INFORMATION
 VERS.                2.0:   CWLS LOG ASCII STANDARD - VERSION 2.0
 WRAP.                 NO:   ONE LINE PER DEPTH STEP
~WELL INFORMATION
#MNEM.UNIT      DATA TYPE    INFORMATION
#----------   ------------   ------------------------------
 STRT.F            0.0000:   START DEPTH
 STOP.F         4000.0000:   STOP DEPTH
 STEP.F            0.5000:   STEP LENGTH
 NULL.          -999.2500:   NO VALUE
 COMP. LAWRENCE &  ALLISON ASSOC.:   COMPANY
 WELL. LAWRENCE NPR 3 "TX" #14-28:   WELL
 FLD .              N P R:   FIELD
 LOC .      S28 T39N R78W:   LOCATION
 CNTY.            NATRONA:   COUNTY
 STAT.            WYOMING:   STATE
 CTRY. UNITED STATES OF AMERICA:   COUNTRY
 SRVC.      DRESSER ATLAS:   SERVICE COMPANY
 DATE.        11-APR-1984:   LOGDATE
 API .     49025109710000:   API NUMBER
~CURVE INFORMATION
#MNEM.UNIT       API CODE    CURVE DESCRIPTION
#----------   ------------   ------------------------------
 DEPT.F                  :   
 RHOB.G/C3   45 350 01 00:   BULK DENSITY
 CORR.G/C3   45 356 01 00:   DENSITY CORRECTION
 TEND.LBS    45 635 01 00:   TENSION FROM DENSITY LOG
 CNC .DEC    42 890 03 00:   NEUTRON PORISITY SANDSTONE
 DT  .US/F   60 520 00 00:   DELTA TIME
 TENS.LBS    60 635 01 00:   TENSION FROM SONIC LOG
 GRR .GAPI   07 310 01 00:   GAMMA RAY FROM RESISTIVITY
 SPR .MV     07 010 01 00:   SPONTANEOUS POTENTIAL
 CALR.IN     07 280 01 00:   CALIPER FROM RESISTIVITY
 TENR.LBS    07 635 01 00:   TENSION
 RILD.OHMM   07 120 46 00:   INDUCTION LOG DEEP RESISTIVITY
 RILM.OHMM   07 120 44 00:   INDUCTION LOG MEDIUM RESISTIVITY
 RFOC.OHMM   07 220 01 00:   RESISTIVITY FOCUSED LOG RES.
~PARAMETER INFORMATION
#MNEM.UNIT          VALUE    DESCRIPTION
#----------   ------------   ------------------------------
 EKB .F         5024.0000:   Kelly bushing
 EGL .F         5014.0000:   Ground level
 TD  .F         3996.0000:   Total depth
 DATE.        11-APR-1984:   Date logged
 CLNT.            A2DTECH:   Client Code
 SL  . 250' FWL & 2100' FNL:   Surface Location
 PD  .                 GL:   Permanent Datum
 EPD .F              5014:   Elevation Permanent Datum
 LMF .                 KB:   Log Measured From
 DMF .                 KB:   Drilling Measured From
 DD  .F              3996:   Depth driller
 DL  .F              3994:   Depth logger
 BLI .F              3992:   Bottom log interval
 CS1 .IN            8.625:   Casing size
 CBD1.      8.625" @ 404':   Casing driller 1
 CBL1.F               404:   Casing logger 1
 BS1 .IN            7.875:   Bit size
 DFT .            GEL/KCL:   Type fluid in hole
 DFD .                9.1:   Density
 DFV .                 38:   Viscosity
 DFPH.                  8:   pH
 DFL .                 14:   Fluid loss
 MSS .           FLOWLINE:   Source of sample
 RMS .OHMM           .417:   Rm
 MST .F                90:   Rm Meas. temp.
 RMF .OHMM           .313:   Rmf
 MFST.F                90:   Rmf Meas. temp.
 RMC .OHMM           .521:   Rmc
 MCST.F                90:   Rmc Meas. temp.
 MFSS.               CALC:   Source Rmf.
 RMB .OHMM            .25:   Rm. at BHT
 BHT .F               150:   BHT.
 TCS .HRS               3:   Time Circ. stopped
 MRT .F               150:   Maximum recorded temp.
 LUN .               6307:   Logging unit number
 LUL .               GLTE:   Logging unit location
 ENGI.           FAHLSING:   Recorded By
 WITN.             STRONG:   Witnessed by
 ORIG.           5" PRINT:   Origin of data
 UWI .     49025109710000:   Unique Well ID
 DICO. A2D TECHNOLOGIES, INC.:   Digitizing Company
 DAPD.F                10:   Feet Above Permanent Datum
 BSD1.F              3996:   Depth drilled with bit1
 MCSS.               CALC:   Source Rmc.
~OTHER INFORMATION
~A    DEPT    RHOB       CORR       TEND        CNC         DT       TENS         GRR       SPR       CALR       TENR       RILD       RILM       RFOC   
# ...
 3016.0000     2.4800    -0.0250    22.2770     0.2010    81.0400    22.2770   101.9730   -32.1440     8.6570   -49.6380     5.5790     5.3850     5.1980
 3016.5000     2.4950    -0.0010    22.2770     0.1970    81.0400    22.2770   107.2730   -31.7310     8.6570   -49.4900     5.6570     5.4830     5.2850
 3017.0000     2.5100     0.0260    22.2770     0.2010    81.2690    22.2770   107.7270   -31.3000     8.6570   -49.3420     5.7360     5.5810     5.3710
 3017.5000     2.5210     0.0510    22.2770     0.2110    81.4550    22.2770   107.1870   -31.3310     8.6570   -49.1940     5.8150     5.6790     5.4580
 3018.0000     2.5240     0.0510    22.2770     0.2110    81.6340    22.2770   102.9860   -31.5090     8.6580   -49.0460     5.8930     5.7760     5.5450
 3018.5000     2.5210     0.0380    22.2770     0.2070    81.6340    22.2770   100.8870   -31.5960     8.6580   -48.8980     5.9720     5.8740     5.6320
 3019.0000     2.5180     0.0340    22.2770     0.2050    81.6340    22.2770   102.5360   -31.7620     8.6580   -48.7500     6.0510     5.9720     5.7190
 3019.5000     2.5160     0.0310    22.2770     0.2040    81.3250    22.2770   105.3450   -31.9400     8.6590   -48.6020     6.1290     6.0700     5.8060
 3020.0000     2.5070     0.0230    22.2770     0.2000    80.9640    22.2770   106.8500   -32.1180     8.6590   -48.4540     6.2100     6.1680     5.9780
 3020.5000     2.4980     0.0030    22.2770     0.1950    79.9650    22.2770   104.9050   -32.2960     8.6590   -48.3060     6.2100     6.2660     6.5440
 3021.0000     2.4940    -0.0090    22.2770     0.1910    78.4650    22.2770   102.1230   -32.4730     8.6590   -48.1580     6.1870     6.3640     6.9960
 3021.5000     2.4950    -0.0210    22.2770     0.1860    77.8180    22.2770   101.0280   -32.5660     8.6600   -48.0100     6.1580     6.3830     7.0610
 3022.0000     2.5000    -0.0180    22.2770     0.1870    77.1780    22.2770   102.3920   -32.5290     8.6600   -47.8620     5.9670     6.2760     6.8450
 3022.5000     2.5000    -0.0140    22.2770     0.1910    77.4160    22.2770   109.3260   -32.4950     8.6600   -47.7140     5.7400     6.0580     6.4970
 3023.0000     2.4900    -0.0210    22.2770     0.1960    78.2960    22.2770   111.6250   -32.4600     8.6600   -47.5660     5.5130     5.8410     6.1490
 3023.5000     2.4780    -0.0300    22.2770     0.2010    79.5710    22.2770   108.9340   -32.4250     8.6610   -47.4180     5.2870     5.6230     5.8230
 3024.0000     2.4650    -0.0390    22.2770     0.2070    80.8290    22.2770   105.9230   -32.3900     8.6610   -47.2700     5.1100     5.4060     5.6070
 3024.5000     2.4620    -0.0460    22.2770     0.2130    82.0860    22.2770   107.6110   -32.3550     8.6610   -47.1220     5.0660     5.1210     5.3620
 3025.0000     2.4690    -0.0280    22.2770     0.2170    83.2180    22.2770   110.2890   -32.3200     8.6610   -46.9740     5.0220     5.1550     5.2720
 3025.5000     2.4810     0.0040    22.2770     0.2250    83.1190    22.2770   107.8130   -32.2850     8.6620   -46.8260     4.9820     5.2030     5.3330
 3026.0000     2.4920     0.0370    22.2770     0.2270    83.0020    22.2770   105.2630   -32.2500     8.6620   -46.6780     4.9370     5.2640     5.4100
 3026.5000     2.4960     0.0470    22.2770     0.2190    82.8220    22.2770   105.3010   -32.2150     8.6620   -46.5300     4.8130     5.2030     5.4610
 3027.0000     2.4960     0.0420    22.2770     0.2200    82.9210    22.2770   107.1240   -32.1720     8.6630   -46.3820     4.6730     5.0190     5.2950
 3027.5000     2.4930     0.0300    22.2770     0.2200    83.2180    22.2770   110.5140   -32.0840     8.6630   -46.2340     4.5170     4.8360     5.1410
 3028.0000     2.4800     0.0210    22.2770     0.2190    83.6210    22.2770   111.9180   -31.9950     8.6630   -46.0860     4.3170     4.6520     5.0050
 3028.5000     2.4610    -0.0020    22.2770     0.2140    84.1090    22.2770   112.8480   -31.9060     8.6630   -45.9380     4.1180     4.4680     4.8690
 3029.0000     2.4550    -0.0270    22.2770     0.2200    85.0990    22.2770   113.7480   -31.8180     8.6640   -45.7900     3.9180     4.2840     4.7320
 3029.5000     2.4570    -0.0140    22.2770     0.2350    85.9820    22.2770   114.5680   -31.7290     8.6640   -45.6420     3.7190     4.1000     4.5960
 3030.0000     2.4570    -0.0020    22.2770     0.2490    86.9280    22.2770   115.3550   -31.6410     8.6640   -45.4940     3.5190     3.9160     4.4600
 3030.5000     2.4540    -0.0070    22.2770     0.2470    87.8750    22.2770   117.8700   -31.5510     8.6640   -45.4730     3.3200     3.7320     4.3060
 3031.0000     2.4510    -0.0230    22.2770     0.2430    88.8220    22.2770   120.7030   -31.4640     8.6650   -45.6220     3.2080     3.5490     4.1290
 3031.5000     2.4470    -0.0370    22.2770     0.2410    89.8040    22.2770   122.5400   -31.4600     8.6650   -45.7700     3.1790     3.4840     3.9610
 3032.0000     2.4470    -0.0250    22.2770     0.2450    90.4460    22.2770   121.7260   -31.7610     8.6650   -45.9190     3.2290     3.5480     3.8190
 3032.5000     2.4490    -0.0050    22.2770     0.2480    90.3530    22.2770   117.6580   -32.0520     8.6650   -46.0680     3.4210     3.7130     3.8540
 3033.0000     2.4540    -0.0050    22.2770     0.2430    89.7790    22.2770   115.6010   -32.3430     8.6660   -46.2170     3.6130     3.9030     4.0350
 3033.5000     2.4690    -0.0050    22.2770     0.2340    88.4870    22.2770   113.5330   -32.6330     8.6660   -46.3660     3.8040     4.1350     4.2400
 3034.0000     2.4940     0.0210    22.2770     0.2220    86.8190    22.2410   109.2260   -32.9240     8.6660   -46.5150     3.9960     4.4090     4.7750
 3034.5000     2.5130     0.0440    22.2770     0.2080    84.5150    22.1430   104.9710   -33.2140     8.6670   -46.6630     4.1880     4.6830     5.3100
 3035.0000     2.5120     0.0450    22.2770     0.2040    82.6240    22.0450   102.3750   -33.5050     8.6670   -46.8120     4.3790     4.9580     5.8770
 3035.5000     2.5050     0.0290    22.2770     0.2000    81.3370    21.9470   101.7760   -33.7960     8.6670   -46.9610     4.6280     5.1040     6.0970
 3036.0000     2.4970     0.0140    22.2770     0.2000    81.3370    21.8480   104.8650   -34.0950     8.6660   -47.1100     4.8030     5.1690     5.9860
 3036.5000     2.4960     0.0140    22.2770     0.2120    82.3050    21.7500   110.4750   -34.1060     8.6860   -47.2590     4.8030     5.1100     5.6660
 3037.0000     2.4960     0.0250    22.2770     0.2220    83.5330    21.6520   112.3770   -34.0440     8.6850   -47.4080     4.7720     5.0460     5.3340
 3037.5000     2.4970     0.0300    22.2770     0.2240    84.7610    21.5540   111.8750   -33.9810     8.6850   -47.5570     4.7410     4.9810     5.1210
 3038.0000     2.4970     0.0300    22.2770     0.2190    85.4950    21.4560   110.9830   -33.9190     8.6840   -47.7050     4.7090     4.9170     5.0750
 3038.5000     2.4970     0.0200    22.2770     0.2140    85.6930    21.3580   110.0870   -33.8570     8.6830   -47.8540     4.6730     4.8920     5.0750
 3039.0000     2.4990     0.0070    22.2770     0.2140    85.4950    21.2600   109.1920   -33.7920     8.6820   -48.0030     4.6820     5.0070     5.2980
 3039.5000     2.5020    -0.0050    22.2770     0.2260    84.1690    21.1620   108.3000   -33.5800     8.6810   -48.1520     4.6960     5.2730     5.5690
 3040.0000     2.4990    -0.0180    22.2770     0.2230    82.6240    21.0630   107.4310   -33.1670     8.6800   -48.3010     4.7110     5.3620     5.8230
 3040.5000     2.4840    -0.0290    22.2770     0.2190    82.5250    20.9650   107.0720   -32.7590     8.6790   -48.4500     4.7160     4.9700     5.6190
 3041.0000     2.4680    -0.0320    22.2770     0.2190    83.7100    20.8670   107.4870   -32.3690     8.6780   -48.5980     4.4810     4.7000     5.4270
 3041.5000     2.4530    -0.0260    22.2770     0.2220    84.6790    20.7690   108.2740   -32.0560     8.6770   -48.7470     4.3220     4.4310     5.2340
