~VERSION INFORMATION
 VERS.                2.0:   CWLS LOG ASCII STANDARD - VERSION 2.0
 WRAP.                 NO:   ONE LINE PER DEPTH STEP
~WELL INFORMATION
#MNEM.UNIT      DATA TYPE    INFORMATION
#----------   ------------   ------------------------------
 STRT.F          517.0000:   START DEPTH
 STOP.F         3222.0000:   STOP DEPTH
 STEP.F            0.5000:   STEP LENGTH
 NULL.          -999.2500:   NO VALUE
 COMP.    FENIX & SCISSON:   COMPANY
 WELL.  FENIX "TX" #53-33:   WELL
 FLD .             NPR #3:   FIELD
 LOC .      S33 T39N R78W:   LOCATION
 CNTY.            NATRONA:   COUNTY
 STAT.            WYOMING:   STATE
 CTRY. UNITED STATES OF AMERICA:   COUNTRY
 SRVC.              WELEX:   SERVICE COMPANY
 DATE.        24-AUG-1980:   LOGDATE
 API .     49025108460000:   API NUMBER
~CURVE INFORMATION
#MNEM.UNIT       API CODE    CURVE DESCRIPTION
#----------   ------------   ------------------------------
 DEPT.F                  :   
 CALD.IN     45 280 60 00:   CALIPER FROM DENSITY LOG
 GRD .GAPI   45 310 01 00:   GAMMA RAY FROM DENSITY LOG
 CORR.G/C3   45 356 01 00:   DENSITY CORRECTION
 RHOB.G/C3   45 350 01 00:   BULK DENSITY
 SPR .MV     07 010 01 00:   SPONTANEOUS POTENTIAL
 ILD .OHMM   07 120 46 00:   DEEP INDUCTION RESISTIVITY
 ILM .OHMM   07 120 44 00:   INDUCTION LOG MEDIUM RESISTIVITY
 SGRD.OHMM   07 220 05 00:   SHALLOW SHORT GUARD RESISTIVITY
~PARAMETER INFORMATION
#MNEM.UNIT          VALUE    DESCRIPTION
#----------   ------------   ------------------------------
 EKB .F         5173.0000:   Kelly bushing
 EGL .F         5163.0000:   Ground level
 EDF .F            0.0000:   Drilling floor
 EPD .F            0.0000:   Permanent datum
 TD  .F         3224.0000:   Total depth
 CLNT.            A2DTECH:   Client Code
 SL  . 1650' FNL & 2500' FEL:   Surface Location
 PD  .                 GL:   Permanent Datum
 DAPD.F                10:   Feet Above Permanent Datum
 DATE.        24-AUG-1980:   Date Logged [DD-MMM-YYYY]
 DD  .F              3190:   Depth driller
 DL  .F              3224:   Depth logger
 BLI .F              3222:   Bottom log interval
 TLI .F               528:   Top log interval
 CS1 .IN            8.625:   Casing size
 CBD1.      8.625" @ 532':   Casing driller 1
 CBL1.F               528:   Casing logger 1
 BS1 .IN            7.875:   Bit size
 BSD1.F              3190:   Depth drilled with bit1
 DFT .     WATER BASE MUD:   Type fluid in hole
 DFD .                8.8:   Density
 DFV .                 45:   Viscosity
 DFL .                9.4:   Fluid loss
 MSS .            MUD PIT:   Source of sample
 RMS .OHMM           2.10:   Rm
 MST .F                65:   Rm Meas. temp.
 RMF .OHMM           1.68:   Rmf
 MFST.F                65:   Rmf Meas. temp.
 MFSS.               CALC:   Source Rmf.
 RMC .OHMM           2.52:   Rmc
 MCST.F                65:   Rmc Meas. temp.
 MCSS.               CALC:   Source Rmc.
 RMB .OHMM           1.14:   Rm. at BHT
 BHT .F               120:   BHT.
 TCS .HRS               3:   Time Circ. stopped
 MRT .F               120:   Maximum recorded temp.
 LUN .               1892:   Logging unit number
 LUL .             CASPER:   Logging unit location
 ENGI.           WACHTEIL:   Recorded By
 ORIG.         2.5" PRINT:   Origin of data
 UWI .     49025108460000:   Unique Well ID
 DICO. A2D TECHNOLOGIES, INC.:   Digitizing Company
~OTHER INFORMATION
~A   DEPT     CALD         GRD      CORR       RHOB        SPR        ILD        ILM       SGRD   
# ...
 1408.0000    12.1039    93.8859     0.1325     2.5601   -25.3220     5.9823     6.2151     6.0858
 1408.5000    12.0878    94.3484     0.1387     2.5616   -25.3277     5.9791     6.2105     6.1688
 1409.0000    12.0399    93.1530     0.1433     2.5522   -25.3335     5.9758     6.3803     6.3398
 1409.5000    12.0075    90.4729     0.1370     2.5334   -25.6396     6.0695     6.4684     6.4261
 1410.0000    12.0058    89.0956     0.1399     2.5237   -25.6857     6.1373     6.5618     6.8025
 1410.5000    12.0344    88.9911     0.1519     2.5374   -25.9520     6.2483     6.7290     7.1743
 1411.0000    12.0930    90.8456     0.1426     2.5417   -25.9580     6.3902     6.8469     7.1716
 1411.5000    12.0912    91.7207     0.1181     2.5350   -26.2643     6.4757     6.9080     7.1369
 1412.0000    12.0894    92.6306     0.1057     2.5459   -26.2703     6.4721     7.0461     7.0681
 1412.5000    12.0876    93.0202     0.1056     2.5623   -26.5778     6.4680     7.1879     7.1149
 1413.0000    12.0858    92.4265     0.1054     2.5625   -26.5835     6.5547     7.2829     7.1617
 1413.5000    12.0840    91.4595     0.1007     2.5518   -26.5893     6.5512     7.2775     7.2587
 1414.0000    12.0822    89.8499     0.0918     2.5482   -26.5950     6.6673     7.2722     7.3577
 1414.5000    12.0804    87.9550     0.0836     2.5593   -26.6006     6.7280     7.2669     7.5616
 1415.0000    12.0782    87.4723     0.1002     2.5668   -26.6069     6.7770     7.2616     7.5591
 1415.5000    12.1067    87.9009     0.0870     2.5676   -26.6127     6.8143     7.2560     7.6641
 1416.0000    12.1351    88.7718     0.0769     2.5591   -26.3023     6.8105     7.2743     7.7777
 1416.5000    12.1334    89.6487     0.0707     2.5573   -25.7029     6.8068     7.3098     7.8719
 1417.0000    12.1317    90.5218     0.0766     2.5651   -25.3623     6.8180     7.3453     7.8690
 1417.5000    12.0695    90.4955     0.0978     2.5741   -25.0425     6.8802     7.3808     7.8662
 1418.0000    12.0338    90.0180     0.1068     2.5815   -24.7226     6.8902     7.4163     7.8635
 1418.5000    11.9690    89.4476     0.1158     2.5890   -24.4028     6.8864     7.4517     7.8608
 1419.0000    11.9432    88.9309     0.1186     2.6010   -24.5526     6.9363     7.4872     7.8576
 1419.5000    11.9414    88.5856     0.1146     2.5947   -24.8599     7.0191     7.5227     7.8553
 1420.0000    11.9094    89.2192     0.1061     2.5872   -25.1659     7.0681     7.5582     7.8526
 1420.5000    11.9378    91.0809     0.1029     2.5526   -25.4720     7.1155     7.5937     7.8498
 1421.0000    12.0263    93.0090     0.1027     2.5525   -25.7781     7.1590     7.6292     7.8472
 1421.5000    12.0550    92.9784     0.0934     2.5521   -26.0841     7.1547     7.6647     7.8380
 1422.0000    12.0530    92.5021     0.0658     2.5436   -26.4125     7.1508     7.7002     7.7339
 1422.5000    12.0816    92.0257     0.0351     2.5272   -26.6967     7.1468     7.7356     7.7312
 1423.0000    12.0495    91.9998     0.0563     2.5437   -26.7027     7.1429     7.7705     7.7285
 1423.5000    12.0477    91.9730     0.0439     2.5391   -26.7087     7.1389     7.7639     7.7259
 1424.0000    12.0459    91.4955     0.0407     2.5390   -26.7147     7.1349     7.7575     7.6708
 1424.5000    12.0441    91.4685     0.0533     2.5434   -26.7207     7.1310     7.7511     7.6143
 1425.0000    12.0423    90.9910     0.0709     2.5584   -26.7279     7.1268     7.7446     7.6113
 1425.5000    12.0278    90.9640     0.1004     2.5649   -26.7337     7.1230     7.7382     7.6277
 1426.0000    12.0085    90.2583     0.1102     2.5598   -26.7395     7.1661     7.6995     7.6766
 1426.5000    12.0063    89.5533     0.1151     2.5748   -26.7452     7.2141     7.6182     7.7255
 1427.0000    12.0046    89.5274     0.1358     2.5928   -26.4507     7.2104     7.6121     7.7745
 1427.5000    12.0028    89.0510     0.1432     2.6018   -26.4564     7.2504     7.6064     7.8234
 1428.0000    11.9709    89.0251     0.1613     2.6047   -26.1619     7.3037     7.6001     7.8723
 1428.5000    11.9691    89.0000     0.1551     2.5909   -26.1147     7.2985     7.5938     7.9213
 1429.0000    11.9372    88.9730     0.1366     2.5676   -25.8731     7.3041     7.5875     7.9702
 1429.5000    11.9051    88.9459     0.1212     2.5300   -25.5786     7.3918     7.5812     8.0191
 1430.0000    11.9033    88.9189     0.0905     2.5225   -25.5856     7.3879     7.5749     8.0681
 1430.5000    11.9015    88.8926     0.0779     2.5206   -25.5916     7.4015     7.5686     8.1170
 1431.0000    11.8997    90.6685     0.0877     2.5303   -25.5987     7.4404     7.5623     8.1659
 1431.5000    11.8979    90.7439     0.0969     2.5423   -25.6045     7.4790     7.5550     8.2149
 1432.0000    11.9291    92.7026     0.1041     2.5648   -25.9106     7.4748     7.5490     8.2360
 1432.5000    12.0151    93.7440     0.1111     2.5798   -26.2166     7.4707     7.5430     8.2313
 1433.0000    12.0735    94.1622     0.1155     2.5873   -26.2224     7.4666     7.5370     8.2267
 1433.5000    12.1322    94.1298     0.1199     2.5918   -26.5285     7.4624     7.5309     8.2221
 1434.0000    12.1304    94.5543     0.1105     2.5932   -26.5685     7.4583     7.5247     8.2176
 1434.5000    12.0683    94.9789     0.0982     2.5771   -26.8408     7.5579     7.6240     8.2130
 1435.0000    12.0020    94.9530     0.0919     2.5783   -26.8468     7.5532     7.6170     8.0948
 1435.5000    11.9392    94.4767     0.0887     2.5778   -26.9634     7.5497     7.6106     7.9792
 1436.0000    11.9118    93.9878     0.0916     2.5947   -27.1592     7.5456     7.6043     7.9750
 1436.5000    11.9198    92.9683     0.0983     2.6079   -27.1652     7.5412     7.6404     7.9708
 1437.0000    11.9509    91.9612     0.1126     2.6110   -26.8720     7.6423     7.6966     7.8570
 1437.5000    11.9970    90.1839     0.1040     2.5941   -26.8777     7.6381     7.6905     7.8526
 1438.0000    12.0250    89.0451     0.0747     2.5638   -26.2829     7.6339     7.7085     7.8166
 1438.5000    12.0837    88.0090     0.0590     2.5441   -25.9883     7.6296     7.7582     7.7559
 1439.0000    12.1424    89.4353     0.0570     2.5410   -25.6938     7.6427     7.7790     7.7318
 1439.5000    12.2011    90.2072     0.0520     2.5301   -25.6997     7.7283     7.7726     7.7275
 1440.0000    12.2598    90.1767     0.0506     2.5183   -25.7057     7.7232     7.7661     7.7232
 1440.5000    12.2882    91.0517     0.0474     2.5292   -25.7117     7.7181     7.7596     7.7181
 1441.0000    12.3167    91.9279     0.0625     2.5459   -25.7177     7.7140     7.8026     7.7141
 1441.5000    12.3148    92.3513     0.0806     2.5620   -25.7237     7.7099     7.8548     7.7100
 1442.0000    12.2828    91.8348     0.0896     2.5662   -25.8719     7.7058     7.8483     7.7061
 1442.5000    12.2810    90.7884     0.0861     2.5597   -26.2037     7.5958     7.8410     7.7018
 1443.0000    12.2792    89.8995     0.0832     2.5690   -26.6437     7.5917     7.8352     7.6976
 1443.5000    12.2773    89.0901     0.1135     2.5931   -26.9497     7.5875     7.8037     7.6847
 1444.0000    12.2450    89.9098     0.1468     2.6096   -26.9555     7.5833     7.7409     7.5833
 1444.5000    12.2433    91.5263     0.1596     2.6050   -26.9613     7.5791     7.7082     7.5791
 1445.0000    12.2717    93.5086     0.1663     2.5959   -27.2673     7.5749     7.7018     7.5749
 1445.5000    12.2700    91.6809     0.1554     2.5833   -27.5736     7.5707     7.6954     7.5707
 1446.0000    12.2985    89.8532     0.1522     2.5678   -27.5336     7.5665     7.6890     7.5665
 1446.5000    12.3269    89.8273     0.1277     2.5580   -27.2137     7.5616     7.6827     7.5617
 1447.0000    12.3251    89.8014     0.1062     2.5352   -26.9901     7.5576     7.6763     7.5577
 1447.5000    12.3537    90.7019     0.0969     2.5412   -26.5741     7.5539     7.6699     7.6590
 1448.0000    12.3613    91.5514     0.0571     2.5206   -26.2542     7.5497     7.6635     7.6550
