~VERSION INFORMATION
 VERS.                2.0:   CWLS LOG ASCII STANDARD - VERSION 2.0
 WRAP.                 NO:   ONE LINE PER DEPTH STEP
~WELL INFORMATION
#MNEM.UNIT      DATA TYPE    INFORMATION
#----------   ------------   ------------------------------
 STRT.F           40.0000:   START DEPTH
 STOP.F         1336.0000:   STOP DEPTH
 STEP.F            0.5000:   STEP LENGTH
 NULL.          -999.2500:   NO VALUE
 COMP. LAWRENCE - ALLISON WEST:   COMPANY
 WELL. LAWRENCE NPR 3 "AX" #54-23:   WELL
 FLD .              N P R:   FIELD
 LOC .      S23 T38N R78W:   LOCATION
 CNTY.            NATRONA:   COUNTY
 STAT.            WYOMING:   STATE
 CTRY. UNITED STATES OF AMERICA:   COUNTRY
 SRVC.       SCHLUMBERGER:   SERVICE COMPANY
 DATE.        13-MAY-1982:   LOGDATE
 API .     49025108880000:   API NUMBER
~CURVE INFORMATION
#MNEM.UNIT       API CODE    CURVE DESCRIPTION
#----------   ------------   ------------------------------
 DEPT.F                  :   
 NPOR.DEC    42 890 03 00:   ALPHA PROCESSED NEUTRON POROSITY
 TEND.LBS    45 635 01 00:   TENSION FROM DENSITY LOG
 CORR.G/C3   45 356 01 00:   DENSITY CORRECTION
 RHOB.G/C3   45 350 01 00:   BULK DENSITY
 GRD .GAPI   45 310 01 00:   GAMMA RAY FROM DENSITY LOG
 CALD.IN     45 280 60 00:   CALIPER FROM DENSITY LOG
 SPR .MV     07 010 01 00:   SPONTANEOUS POTENTIAL
 TENR.LBS    07 635 01 00:   TENSION
 ILD .OHMM   07 120 46 00:   DEEP INDUCTION RESISTIVITY
 ILM .OHMM   07 120 44 00:   INDUCTION LOG MEDIUM RESISTIVITY
 SFL .OHMM   07 220 01 00:   SHALLOW FOCUSED LOG RESISTIVITY
~PARAMETER INFORMATION
#MNEM.UNIT          VALUE    DESCRIPTION
#----------   ------------   ------------------------------
 EKB .F         5342.0000:   Kelly bushing
 EGL .F         5332.0000:   Ground level
 EDF .F            0.0000:   Drilling floor
 TD  .F         1325.0000:   Total depth
 DATE.        13-MAY-1982:   Date logged
 CLNT.            A2DTECH:   Client Code
 SL  . 2278' FSL & 2665' FWL:   Surface Location
 PD  .                 GL:   Permanent Datum
 DD  .F              1325:   Depth driller
 DL  .F              1314:   Depth logger
 BLI .F              1308:   Bottom log interval
 CS1 .IN             15.5:   Casing size
 CBD1.        15.5" @ 40':   Casing driller 1
 CBL1.F                54:   Casing logger 1
 BS1 .IN            12.25:   Bit size
 DFT .             LT/GEL:   Type fluid in hole
 DFD .                8.9:   Density
 DFV .                 33:   Viscosity
 DFPH.                8.8:   pH
 DFL .                 16:   Fluid loss
 MSS .                PIT:   Source of sample
 RMS .OHMM           2.47:   Rm
 MST .F                61:   Rm Meas. temp.
 RMF .OHMM           2.12:   Rmf
 MFST.F                62:   Rmf Meas. temp.
 MFSS.               MEAS:   Source Rmf.
 RMB .OHMM           1.73:   Rm. at BHT
 BHT .F                87:   BHT.
 TCS .HRS            2300:   Time Circ. stopped
 MRT .F                87:   Maximum recorded temp.
 LUN .               8043:   Logging unit number
 LUL .               CSPR:   Logging unit location
 ENGI.        WAGNER/CSPR:   Recorded By
 WITN.           JENNINGS:   Witnessed by
 ORIG.           5" PRINT:   Origin of data
 UWI .     49025108880000:   Unique Well ID
 DICO. A2D TECHNOLOGIES, INC.:   Digitizing Company
 BSD1.F              1325:   Depth drilled with bit1
 EPD .F              5332:   Elevation Permanent Datum
 LMF .                 KB:   Log Measured From
 DMF .                 KB:   Drilling Measured From
 TLI .F                54:   Top log interval
 DAPD.F                10:   Feet Above Permanent Datum
~OTHER INFORMATION
~A   DEPT     NPOR       TEND       CORR       RHOB        GRD       CALD        SPR       TENR        ILD        ILM        SFL   
# ...
 1046.5000     0.1880   253.1710     0.0210     2.4930   128.8520    12.8950   -29.6620    68.0000     6.9990     6.7920     6.9890
 1047.0000     0.1850   252.9740     0.0260     2.5000   127.2900    12.8970   -29.5970    67.6780     7.0760     6.8200     7.0450
 1047.5000     0.1820   252.7770     0.0260     2.5020   123.5190    12.8990   -29.2610    67.3550     7.1540     6.8360     7.1000
 1048.0000     0.1780   252.5790     0.0180     2.4960   122.4980    12.9010   -28.1320    66.9730     7.2320     6.8350     7.1560
 1048.5000     0.1760   252.3820     0.0100     2.4950   123.8890    12.9030   -28.5490    67.2310     7.3090     6.8350     7.2330
 1049.0000     0.1770   252.1840     0.0080     2.5040   123.7000    12.9050   -29.1540    67.5460     7.3520     6.8340     7.1820
 1049.5000     0.1740   251.9870     0.0070     2.5160   123.8030    12.9040   -29.7930    67.8620     7.2650     6.8370     7.1000
 1050.0000     0.1700   251.7900     0.0050     2.5260   126.2200    12.9020   -30.4420    68.1770     7.1780     6.7950     7.0170
 1050.5000     0.1740   251.5920     0.0020     2.5140   134.0050    12.8990   -30.8170    68.4930     7.0910     6.7260     6.9350
 1051.0000     0.1790   251.3950     0.0000     2.4960   132.3900    12.8970   -30.7840    68.8080     7.0040     6.6560     6.8360
 1051.5000     0.1850   251.1970     0.0000     2.4820   128.8850    12.8940   -30.3450    69.1240     6.9170     6.5870     6.8160
 1052.0000     0.1870   251.0000     0.0020     2.4840   127.2200    12.8920   -28.9090    69.4390     6.8300     6.5190     6.7910
 1052.5000     0.1830   250.8030     0.0040     2.4920   129.7320    12.8900   -29.0460    69.7550     6.7430     6.4500     6.7670
 1053.0000     0.1800   250.6050     0.0030     2.4930   132.5920    12.8870   -29.7010    70.0700     6.6380     6.3810     6.7420
 1053.5000     0.1860   250.4080     0.0020     2.4880   134.9870    12.8850   -30.0260    70.3860     6.5220     6.2590     6.7180
 1054.0000     0.1930   250.2100     0.0000     2.4830   135.6300    12.8870   -29.8740    70.7010     6.4070     6.0570     6.5700
 1054.5000     0.1850   250.0130     0.0010     2.4800   135.4920    12.8890   -27.6170    71.0170     6.2910     5.8560     6.3390
 1055.0000     0.1710   249.8160     0.0030     2.4840   133.8870    12.8910   -24.4050    71.3320     6.1750     5.6540     6.0370
 1055.5000     0.1570   249.6180     0.0100     2.4870   131.7640    12.8930   -24.2990    71.6480     5.9660     5.4530     5.7350
 1056.0000     0.1550   249.4210     0.0130     2.4790   129.5560    12.8950   -26.5770    71.9630     5.6170     5.0330     5.4330
 1056.5000     0.1660   249.2240     0.0020     2.4620   128.9770    12.8960   -28.8730    72.2790     5.2690     4.6140     5.0660
 1057.0000     0.1760   249.0260    -0.0030     2.4500   130.4130    12.8980   -28.0730    72.5940     4.9200     4.1110     4.6050
 1057.5000     0.1750   248.8290    -0.0010     2.4500   134.6210    12.9000   -25.0850    72.9100     4.5720     3.7370     4.1430
 1058.0000     0.1730   248.6310     0.0040     2.4540   138.1790    12.9020   -23.9010    73.2250     4.1440     3.2700     3.7060
 1058.5000     0.1700   248.4340     0.0140     2.4470   139.0910    12.9040   -23.7730    73.5410     3.6620     2.8030     3.2840
 1059.0000     0.1730   248.2370     0.0240     2.4330   136.5660    12.9060   -24.6210    73.8560     3.1300     2.5670     2.8630
 1059.5000     0.1860   248.0390     0.0500     2.4040   133.3730    12.9080   -25.4020    74.1720     2.5630     2.3210     2.4410
 1060.0000     0.2020   247.8420     0.0830     2.3640   132.0920    12.9100   -25.8110    74.4870     2.1860     2.1160     1.9350
 1060.5000     0.2120   247.6440     0.0690     2.2900   130.8300    12.9120   -26.0790    74.8030     1.9350     1.9110     1.6330
 1061.0000     0.2140   247.4470     0.0420     2.2370   129.5540    12.9140   -25.3790    75.1180     1.9350     1.8290     1.6180
 1061.5000     0.2090   247.2500     0.0120     2.1970   128.9490    12.9150   -24.0790    75.4340     2.0090     1.8990     1.7820
 1062.0000     0.2040   247.0520     0.0030     2.1950   130.8890    12.9170   -23.6690    75.7490     2.1260     2.1020     2.0060
 1062.5000     0.2030   246.8550     0.0140     2.2620   133.6970    12.9190   -24.0600    76.0650     2.2650     2.3050     2.2300
 1063.0000     0.2090   246.6570     0.0130     2.3070   137.6080    12.9210   -24.7870    76.3800     2.4720     2.5080     2.4540
 1063.5000     0.2140   246.4600     0.0050     2.3460   138.1700    12.9230   -25.4760    76.6960     2.9180     2.7120     2.6780
 1064.0000     0.2140   246.2630    -0.0050     2.3840   135.4680    12.9250   -26.1920    77.0110     3.4760     2.8740     3.6000
 1064.5000     0.1980   246.0650    -0.0050     2.4240   132.9680    12.9250   -26.8780    77.3270     4.0340     3.5780     4.8700
 1065.0000     0.1880   245.8680     0.0030     2.4570   133.6380    12.9240   -27.5930    77.6420     4.2350     3.9980     4.8700
 1065.5000     0.1840   245.6700     0.0050     2.4680   135.3840    12.9220   -27.6270    77.9580     4.4360     4.3080     4.8700
 1066.0000     0.1780   245.4730    -0.0040     2.4640   137.2580    12.9200   -27.6920    78.2740     4.5170     4.4320     4.9260
 1066.5000     0.1710   245.2760    -0.0040     2.4660   139.0610    12.9190   -27.2280    78.5890     4.4600     4.3500     5.0570
 1067.0000     0.1650   245.0780     0.0120     2.4720   138.0060    12.9170   -26.3590    78.9050     4.4320     4.2000     4.8740
 1067.5000     0.1710   244.8810     0.0260     2.4760   137.5440    12.9160   -25.5160    79.2200     4.2550     4.0510     4.1110
 1068.0000     0.1810   244.6840     0.0330     2.4700   138.9550    12.9140   -25.2940    79.5360     4.1070     3.9020     3.6030
 1068.5000     0.1860   244.4860     0.0240     2.4520   139.6700    12.9120   -25.3060    79.8510     3.9590     3.8120     3.6370
 1069.0000     0.1890   244.2890     0.0100     2.4330   139.0400    12.9110   -25.9500    80.1670     3.9960     3.8120     3.7410
 1069.5000     0.1910   244.0910    -0.0010     2.4260   137.1170    12.9090   -26.8450    80.4820     4.0340     3.8550     3.8760
 1070.0000     0.1860   243.8900    -0.0060     2.4320   135.1560    12.9070   -27.7340    80.7980     4.1890     3.9620     4.0450
 1070.5000     0.1800   244.0760    -0.0070     2.4430   134.4300    12.9060   -28.6160    81.1130     4.4470     4.0680     4.2140
 1071.0000     0.1790   244.2660    -0.0070     2.4540   134.6970    12.9040   -29.6700    81.4290     4.7050     4.2670     4.3500
 1071.5000     0.1820   244.4550    -0.0030     2.4610   135.3600    12.9020   -30.7610    81.7440     4.9630     4.5280     4.6830
 1072.0000     0.1850   244.6450     0.0000     2.4700   135.9580    12.9010   -31.9210    82.0600     5.2010     4.7880     4.9620
 1072.5000     0.1870   244.8350     0.0000     2.4780   135.5500    12.8990   -32.2220    82.3750     5.4390     5.0490     5.2400
 1073.0000     0.1840   245.0240    -0.0010     2.4870   133.5290    12.8980   -31.5280    82.6910     5.6770     5.3350     5.5890
 1073.5000     0.1740   245.2140    -0.0030     2.4960   131.7090    12.8960   -30.2190    83.0060     5.9150     5.6370     5.9850
 1074.0000     0.1700   245.4040    -0.0050     2.4970   131.8640    12.8940   -29.5660    83.3220     6.1050     5.8790     6.4600
 1074.5000     0.1650   245.5930    -0.0070     2.4920   132.6930    12.8930   -29.7790    83.6370     6.0790     6.1550     6.4950
 1075.0000     0.1610   245.7830    -0.0050     2.4920   132.5000    12.8910   -31.7240    83.9530     6.0570     6.3390     6.5390
 1075.5000     0.1560   245.9720    -0.0020     2.4950   129.2320    12.8890   -32.6760    84.2680     6.0350     6.2390     6.5830
 1076.0000     0.1530   246.1620     0.0030     2.5010   126.4360    12.8880   -32.6390    84.5840     6.0130     6.1550     6.5010
 1076.5000     0.1600   246.3520     0.0020     2.4970   125.7860    12.8860   -30.9540    84.8990     5.9910     6.0860     6.4180
