~VERSION INFORMATION
 VERS.                2.0:   CWLS LOG ASCII STANDARD - VERSION 2.0
 WRAP.                 NO:   ONE LINE PER DEPTH STEP
~WELL INFORMATION
#MNEM.UNIT      DATA TYPE    INFORMATION
#----------   ------------   ------------------------------
 STRT.F            0.0000:   START DEPTH
 STOP.F         4044.0000:   STOP DEPTH
 STEP.F            0.5000:   STEP LENGTH
 NULL.          -999.2500:   NO VALUE
 COMP. LAWRENCE-ALLISON & ASSOC.:   COMPANY
 WELL. LAWRENCE "X" #24-34:   WELL
 FLD .           N P R #3:   FIELD
 LOC .      S34 T39N R78W:   LOCATION
 CNTY.            NATRONA:   COUNTY
 STAT.            WYOMING:   STATE
 CTRY. UNITED STATES OF AMERICA:   COUNTRY
 SRVC.      DRESSER ATLAS:   SERVICE COMPANY
 DATE.        29-MAR-1984:   LOGDATE
 API .     49025109660000:   API NUMBER
~CURVE INFORMATION
#MNEM.UNIT       API CODE    CURVE DESCRIPTION
#----------   ------------   ------------------------------
 DEPT.F                  :   
 DT  .US/F   60 520 00 00:   DELTA TIME
 TENS.LBS    60 635 01 00:   TENSION FROM SONIC
 GRR .GAPI   07 310 01 00:   GAMMA RAY FROM RESISTIVITY
 SPR .MV     07 010 01 00:   SPONTANEOUS POTENTIAL
 CALR.IN     07 280 01 00:   CALIPER FROM RESISTIVITY
 TENR.LBS    07 635 01 00:   TENSION FROM RESISTIVITY
 RSFL.OHMM   07 221 01 00:   AMPPLIFIED SHALLOW FOCUSED LOG RESISTIVITY
 RILD.OHMM   07 120 46 00:   DEEP INDUCTION RESISTIVITY
 RILM.OHMM   07 120 44 00:   INDUCTION LOG MEDIUM RESISTIVITY
 RHOB.G/C3   45 350 01 00:   BULK DENSITY
 DRHO.G/C3   45 356 01 00:   DENSITY CORRECTION
 TEND.LBS    45 635 01 00:   TENSION FROM DENSITY LOG
 NPHI.DEC    42 890 03 00:   NEUTRON POROSITY SANDSTONE
~PARAMETER INFORMATION
#MNEM.UNIT          VALUE    DESCRIPTION
#----------   ------------   ------------------------------
 EKB .F         5101.0000:   Kelly bushing
 EGL .F         5089.0000:   Ground level
 EDF .F         5100.0000:   Drilling floor
 TD  .F         4050.0000:   Total depth
 DATE.        29-MAR-1984:   Date logged
 CLNT.            A2DTECH:   Client Code
 SL  . 2415' FNL & 839' FWL:   Surface Location
 PD  .                 GL:   Permanent Datum
 EPD .F              5089:   Elevation Permanent Datum
 LMF .                 KB:   Log Measured From
 DMF .                 KB:   Drilling Measured From
 DD  .F              4050:   Depth driller
 DL  .F              4043:   Depth logger
 BLI .F              4041:   Bottom log interval
 CS1 .IN            8.625:   Casing size
 CBD1.       8.625 @ 673':   Casing driller 1
 CBL1.F               671:   Casing logger 1
 BS1 .IN            7.875:   Bit size
 DFT .            GEL-KCL:   Type fluid in hole
 DFD .                8.9:   Density
 DFV .                 45:   Viscosity
 DFPH.                  8:   pH
 DFL .               12.8:   Fluid loss
 MSS .           MUD TANK:   Source of sample
 RMS .OHMM           0.46:   Rm
 MST .F                71:   Rm Meas. temp.
 RMF .OHMM           0.31:   Rmf
 MFST.F                71:   Rmf Meas. temp.
 RMC .OHMM           0.55:   Rmc
 MCST.F                71:   Rmc Meas. temp.
 MFSS.               MEAS:   Source Rmf.
 RMB .OHMM           0.25:   Rm. at BHT
 BHT .F               139:   BHT.
 TCS .HRS               4:   Time Circ. stopped
 MRT .F               139:   Maximum recorded temp.
 LUN .               6302:   Logging unit number
 LUL .               CODY:   Logging unit location
 ENGI.              GETTY:   Recorded By
 WITN.           JENNINGS:   Witnessed by
 ORIG.           5" PRINT:   Origin of data
 UWI .     49025109660000:   Unique Well ID
 DICO. A2D TECHNOLOGIES, INC.:   Digitizing Company
 DAPD.                 12:   Feet Above Permanent Datum
 BSD1.               4050:   Depth drilled with bit1
 MCSS.               MEAS:   Source Rmc.
~OTHER INFORMATION
~A  DEPTH       DT       TENS        GRR        SPR       CALR       TENR       RSFL       RILD       RILM       RHOB       DRHO       TEND       NPHI
# ...
 1794.0000  -999.2500  -999.2500   102.0830   -18.7460     9.4550  -218.0240    10.8030     8.4760     9.1100  -999.2500  -999.2500  -999.2500  -999.2500
 1794.5000  -999.2500  -999.2500    98.4410   -18.6910     9.4360  -216.1530    10.6740     8.5550     9.3050  -999.2500  -999.2500  -999.2500  -999.2500
 1795.0000  -999.2500  -999.2500    94.7250   -18.6350     9.4160  -214.5390    10.4070     8.3880     8.9590  -999.2500  -999.2500  -999.2500  -999.2500
 1795.5000  -999.2500  -999.2500    93.4410   -18.5800     9.3970  -214.5390     9.2780     8.2230     8.4720  -999.2500  -999.2500  -999.2500  -999.2500
 1796.0000  -999.2500  -999.2500    96.1240   -18.5230     9.3780  -214.5390     8.0770     8.0570     7.9850  -999.2500  -999.2500  -999.2500  -999.2500
 1796.5000  -999.2500  -999.2500   101.5890   -18.6390     9.3580  -214.5390     7.0990     7.8920     7.3000  -999.2500  -999.2500  -999.2500  -999.2500
 1797.0000  -999.2500  -999.2500   104.0590   -18.8820     9.3390  -214.5390     7.5040     7.7260     7.3100  -999.2500  -999.2500  -999.2500  -999.2500
 1797.5000  -999.2500  -999.2500   106.6290   -19.1270     9.3190  -214.5390     7.8450     7.5610     7.3250  -999.2500  -999.2500  -999.2500  -999.2500
 1798.0000  -999.2500  -999.2500   109.1780   -19.3710     9.3000  -214.5390     8.1870     7.3950     7.3410  -999.2500  -999.2500  -999.2500  -999.2500
 1798.5000  -999.2500  -999.2500   110.9770   -19.6160     9.2800  -214.5390     8.2420     7.3690     7.3570  -999.2500  -999.2500  -999.2500  -999.2500
 1799.0000  -999.2500  -999.2500   108.6480   -19.8600     9.2500  -214.5390     8.1310     7.5890     7.3690  -999.2500  -999.2500  -999.2500  -999.2500
 1799.5000  -999.2500  -999.2500   105.7920   -20.1050     9.2560  -214.5390     8.0530     7.7420     7.4450  -999.2500  -999.2500  -999.2500  -999.2500
 1800.0000  -999.2500  -999.2500   106.0530   -20.3490     9.2620  -214.5390     8.0140     7.8940     7.5160  -999.2500  -999.2500  -999.2500  -999.2500
 1800.5000  -999.2500  -999.2500   110.6400   -20.5940     9.2670  -214.5390     8.2840     8.0470     7.5870  -999.2500  -999.2500  -999.2500  -999.2500
 1801.0000  -999.2500  -999.2500   115.1410   -20.8410     9.2720  -214.5390     8.4930     8.2000     7.6590  -999.2500  -999.2500  -999.2500  -999.2500
 1801.5000  -999.2500  -999.2500   119.5910   -21.0870     9.2770  -214.5390     8.7010     8.2420     7.7210  -999.2500  -999.2500  -999.2500  -999.2500
 1802.0000  -999.2500  -999.2500   123.1970   -20.9850     9.2820  -214.5390     8.8810     8.1490     7.7690  -999.2500  -999.2500  -999.2500  -999.2500
 1802.5000  -999.2500  -999.2500   120.7370   -20.8570     9.2870  -214.5390     8.8170     8.0890     7.8660  -999.2500  -999.2500  -999.2500  -999.2500
 1803.0000  -999.2500  -999.2500   118.2930   -20.7300     9.2930  -215.9280     8.7600     8.0890     7.8440  -999.2500  -999.2500  -999.2500  -999.2500
 1803.5000  -999.2500  -999.2500   117.7230   -20.6040     9.2980  -217.3900     8.7040     8.0890     7.8210  -999.2500  -999.2500  -999.2500  -999.2500
 1804.0000  -999.2500  -999.2500   117.6150   -20.4780     9.3030  -218.8520     8.6360     8.0890     7.7980  -999.2500  -999.2500  -999.2500  -999.2500
 1804.5000  -999.2500  -999.2500   117.5200   -20.3500     9.3080  -220.3140     8.7100     8.0900     7.7740  -999.2500  -999.2500  -999.2500  -999.2500
 1805.0000  -999.2500  -999.2500   117.3980   -20.3440     9.3130  -221.7760     8.8040     8.0900     7.7510  -999.2500  -999.2500  -999.2500  -999.2500
 1805.5000  -999.2500  -999.2500   118.3090   -20.4150     9.3180  -223.2380     8.8990     8.0890     7.7280  -999.2500  -999.2500  -999.2500  -999.2500
 1806.0000  -999.2500  -999.2500   117.9720   -20.4870     9.3240  -224.6710     8.9940     8.0480     7.7050  -999.2500  -999.2500  -999.2500  -999.2500
 1806.5000  -999.2500  -999.2500   115.1810   -20.5590     9.3290  -223.7470     9.0480     7.9480     7.6820  -999.2500  -999.2500  -999.2500  -999.2500
 1807.0000  -999.2500  -999.2500   108.1390   -20.6310     9.3340  -222.8420     8.2740     7.8480     7.6580  -999.2500  -999.2500  -999.2500  -999.2500
 1807.5000  -999.2500  -999.2500   104.8660   -20.7040     9.3390  -221.9360     7.8660     7.7870     7.6350  -999.2500  -999.2500  -999.2500  -999.2500
 1808.0000  -999.2500  -999.2500   102.9140   -20.7760     9.3440  -221.0300     8.2540     7.7740     7.6120  -999.2500  -999.2500  -999.2500  -999.2500
 1808.5000  -999.2500  -999.2500   104.4220   -20.8480     9.3490  -220.1250     8.6240     7.7610     7.5890  -999.2500  -999.2500  -999.2500  -999.2500
 1809.0000  -999.2500  -999.2500   107.7750   -20.9200     9.3540  -219.2190     8.9640     7.7480     7.5650  -999.2500  -999.2500  -999.2500  -999.2500
 1809.5000  -999.2500  -999.2500   111.3640   -20.9920     9.3590  -218.3140     9.2180     7.7350     7.5420  -999.2500  -999.2500  -999.2500  -999.2500
 1810.0000  -999.2500  -999.2500   110.8030   -21.0640     9.3630  -217.4080     9.0830     7.7220     7.5080  -999.2500  -999.2500  -999.2500  -999.2500
 1810.5000  -999.2500  -999.2500   108.2540   -21.1360     9.3680  -216.5030     8.9310     7.8470     7.5690  -999.2500  -999.2500  -999.2500  -999.2500
 1811.0000  -999.2500  -999.2500   105.8570   -21.2090     9.3720  -215.5970     8.7780     7.9870     7.6890  -999.2500  -999.2500  -999.2500  -999.2500
 1811.5000  -999.2500  -999.2500   104.1650   -21.2810     9.3770  -214.6910     8.6260     8.1280     7.8100  -999.2500  -999.2500  -999.2500  -999.2500
 1812.0000  -999.2500  -999.2500   105.5390   -21.3530     9.3820  -213.7860     8.5550     8.1650     7.8990  -999.2500  -999.2500  -999.2500  -999.2500
 1812.5000  -999.2500  -999.2500   108.0320   -21.4250     9.3860  -212.8800     8.9170     8.1480     7.9620  -999.2500  -999.2500  -999.2500  -999.2500
 1813.0000  -999.2500  -999.2500   110.5170   -21.4970     9.3860  -211.9750     9.3050     8.1320     8.0140  -999.2500  -999.2500  -999.2500  -999.2500
 1813.5000  -999.2500  -999.2500   110.9620   -21.5690     9.3600  -211.0690     9.2720     8.1160     8.0140  -999.2500  -999.2500  -999.2500  -999.2500
 1814.0000  -999.2500  -999.2500   110.1980   -21.6410     9.3340  -210.1640     9.2130     8.1010     7.9390  -999.2500  -999.2500  -999.2500  -999.2500
 1814.5000  -999.2500  -999.2500   108.6080   -21.7140     9.3080  -209.2580     9.1540     8.0850     7.8840  -999.2500  -999.2500  -999.2500  -999.2500
 1815.0000  -999.2500  -999.2500   110.0530   -21.7860     9.2820  -208.3520     9.0950     8.0700     7.8290  -999.2500  -999.2500  -999.2500  -999.2500
 1815.5000  -999.2500  -999.2500   113.8190   -21.8580     9.2560  -207.4470     9.0480     8.0540     7.7740  -999.2500  -999.2500  -999.2500  -999.2500
 1816.0000  -999.2500  -999.2500   116.7730   -21.9300     9.2300  -206.5410     8.6440     8.0380     7.7190  -999.2500  -999.2500  -999.2500  -999.2500
 1816.5000  -999.2500  -999.2500   113.8010   -22.0020     9.2070  -205.6360     7.5080     8.0230     7.6640  -999.2500  -999.2500  -999.2500  -999.2500
 1817.0000  -999.2500  -999.2500   110.2020   -22.0740     9.1930  -204.7300     7.7860     8.0070     7.6080  -999.2500  -999.2500  -999.2500  -999.2500
 1817.5000  -999.2500  -999.2500   108.3630   -22.0480     9.1800  -206.6780     8.1210     7.9920     7.5780  -999.2500  -999.2500  -999.2500  -999.2500
 1818.0000  -999.2500  -999.2500   108.8020   -21.9310     9.1730  -210.2070     8.4560     7.9760     7.6570  -999.2500  -999.2500  -999.2500  -999.2500
 1818.5000  -999.2500  -999.2500   109.9800   -21.8150     9.1860  -213.7350     8.6800     7.9600     7.7200  -999.2500  -999.2500  -999.2500  -999.2500
 1819.0000  -999.2500  -999.2500   112.1150   -21.6980     9.1990  -217.2640     8.8460     7.9450     7.7830  -999.2500  -999.2500  -999.2500  -999.2500
 1819.5000  -999.2500  -999.2500   114.2230   -21.5820     9.2110  -220.7930     8.9640     7.9400     7.8470  -999.2500  -999.2500  -999.2500  -999.2500
