~VERSION INFORMATION
 VERS.                2.0:   CWLS LOG ASCII STANDARD - VERSION 2.0
 WRAP.                 NO:   ONE LINE PER DEPTH STEP
~WELL INFORMATION
#MNEM.UNIT      DATA TYPE    INFORMATION
#----------   ------------   ------------------------------
 STRT.F          742.0000:   START DEPTH
 STOP.F         3406.0000:   STOP DEPTH
 STEP.F            0.5000:   STEP LENGTH
 NULL.          -999.2500:   NO VALUE
 COMP. FENIX & SCISSON - US NAVY:   COMPANY
 WELL.   FENIX "AX" #85-4:   WELL
 FLD .      NPR - WILDCAT:   FIELD
 LOC .       S4 T38N R78W:   LOCATION
 CNTY.            NATRONA:   COUNTY
 STAT.            WYOMING:   STATE
 CTRY. UNITED STATES OF AMERICA:   COUNTRY
 SRVC.              WELEX:   SERVICE COMPANY
 DATE.        03-MAY-1977:   LOGDATE
 API .     49025103520000:   API NUMBER
~CURVE INFORMATION
#MNEM.UNIT       API CODE    CURVE DESCRIPTION
#----------   ------------   ------------------------------
 DEPT.F                  :   
 SNP .DEC    41 890 00 00:   SIDEWALL NEUTRON POROSITY
 GR  .GAPI   30 310 01 00:   GAMMA RAY
 SPR .MV     07 010 01 00:   SPONTANEOUS POTENTIAL
 RXO .OHMM   11 220 01 00:   FLUSHED ZONE RESISTIVITY
 GURD.OHMM   07 220 05 00:   GUARD LOG RESISTIVITY
 CALD.IN     45 280 60 00:   CALIPER FROM DENSITY LOG
 RHOB.G/C3   45 350 01 00:   BULK DENSITY
 GRD .GAPI   45 310 01 00:   GAMMA RAY FROM DENSITY LOG
 CORR.G/C3   45 356 01 00:   DENSITY CORRECTION
~PARAMETER INFORMATION
#MNEM.UNIT          VALUE    DESCRIPTION
#----------   ------------   ------------------------------
 EKB .F         5254.0000:   Kelly bushing
 EGL .F         5240.0000:   Ground level
 EDF .F            0.0000:   Drilling floor
 TD  .F         3467.0000:   Total depth
 DATE.        03-MAY-1977:   Date logged
 CLNT.            A2DTECH:   Client Code
 SL  . 2200' FSL & 100' FEL:   Surface Location
 PD  .                 GL:   Permanent Datum
 EPD .F              5240:   Elevation Permanent Datum
 LMF .                 KB:   Log Measured From
 DMF .                 KB:   Drilling Measured From
 DAPD.F                14:   Feet Above Permanent Datum
 DD  .F              3647:   Depth driller
 DL  .F              3404:   Depth logger
 BLI .F              3402:   Bottom log interval
 TLI .F               720:   Top log interval
 CS1 .IN            8.625:   Casing size
 CBD1.      8.625" @ 720':   Casing driller 1
 CBL1.F               760:   Casing logger 1
 BS1 .IN            7.875:   Bit size
 BSD1.F              3467:   Depth drilled with bit1
 DFT .            KCL/MUD:   Type fluid in hole
 DFD .                9.1:   Density
 DFV .                 36:   Viscosity
 DFPH.                  8:   pH
 DFL .                  5:   Fluid loss
 MSS .           FLOWLINE:   Source of sample
 RMS .OHMM            .30:   Rm
 MST .F                66:   Rm Meas. temp.
 RMF .OHMM            .21:   Rmf
 MFST.F                66:   Rmf Meas. temp.
 RMC .OHMM            .49:   Rmc
 MCST.F                66:   Rmc Meas. temp.
 MFSS.               FANN:   Source Rmf.
 MCSS.                KIT:   Source Rmc.
 RMB .OHMM            .18:   Rm. at BHT
 BHT .F               107:   BHT.
 TCS .HRS             2.5:   Time Circ. stopped
 MRT .F               107:   Maximum recorded temp.
 LUN .               8611:   Logging unit number
 LUL .             CASPER:   Logging unit location
 ENGI.            C. DOAK:   Recorded By
 WITN.      B. HARRINGTON:   Witnessed by
 ORIG.     2.5", 5" PRINT:   Origin of data
 UWI .     49025103520000:   Unique Well ID
 DICO. A2D TECHNOLOGIES, INC.:   Digitizing Company
~OTHER INFORMATION
~A   DEPT        SNP       GR        SPR        RXO       GURD         CALD       RHOB       GRD       CORR  
# ...
 3187.5000     0.1700   104.7510   -32.7350     9.3250     5.8150     8.6010     2.5010    81.7050     0.0280
 3188.0000     0.1720   108.1680   -33.3540     8.4680     5.8150     8.5950     2.4970    84.3240     0.0290
 3188.5000     0.1730   111.6140   -33.3720     6.6030     5.0280     8.5890     2.5010    86.8310     0.0290
 3189.0000     0.1740   115.3060   -33.6280     8.2120     5.0280     8.5820     2.5110    89.5190     0.0290
 3189.5000     0.1750   119.9760   -34.0530     7.6660     4.0430     8.5760     2.5200    92.0570     0.0290
 3190.0000     0.1680   124.4790   -34.4660     6.1410     4.1930     8.5690     2.5240    93.8550     0.0290
 3190.5000     0.1590   127.6120   -34.8710     6.5880     4.9380     8.5630     2.5110    92.6890     0.0300
 3191.0000     0.1430   130.3660   -35.2830     7.3640     5.1210     8.5570     2.5080    90.9380     0.0310
 3191.5000     0.1460   128.9890   -35.6910     7.1790     4.9110     8.5500     2.5100    89.0650     0.0320
 3192.0000     0.1550   125.6840   -36.1020     6.2530     4.7250     8.5440     2.5120    87.0580     0.0330
 3192.5000     0.1650   124.8080   -36.5110     6.3020     4.6760     8.5380     2.5080    87.3020     0.0300
 3193.0000     0.1670   126.0580   -36.9180     6.4070     4.8890     8.5310     2.5010    89.2590     0.0230
 3193.5000     0.1690   128.1740   -37.3360     6.4850     4.9380     8.5250     2.4940    90.9930     0.0220
 3194.0000     0.1710   129.7730   -37.7320     6.6030     4.4700     8.5190     2.4920    92.7900     0.0240
 3194.5000     0.1680   131.3080   -38.1520     5.6690     3.9760     8.5120     2.4950    94.2620     0.0260
 3195.0000     0.1640   131.2390   -38.5460     5.2140     3.5610     8.5050     2.4990    96.5230     0.0280
 3195.5000     0.1570   130.3310   -38.9040     6.3940     4.1850     8.5020     2.5020    99.7450     0.0300
 3196.0000     0.1610   131.2170   -38.8830     9.6480     4.4280     8.4830     2.5060   102.9710     0.0320
 3196.5000     0.1690   133.2500   -38.9310     4.7930     3.0240     8.4550     2.5080   105.9880     0.0320
 3197.0000     0.1690   134.2550   -38.9580     4.2700     2.9690     8.4270     2.5070   109.3820     0.0260
 3197.5000     0.1610   132.9050   -38.9850     4.9390     3.0090     8.4040     2.5050   109.6430     0.0190
 3198.0000     0.1550   133.8760   -39.0180     5.2140     3.1130     8.3540     2.5030   109.1440     0.0170
 3198.5000     0.1480   137.1610   -39.0470     4.5090     3.3010     8.3110     2.5020   106.9880     0.0190
 3199.0000     0.1510   137.7830   -39.0770     4.9550     3.5800     8.2990     2.5070   104.9740     0.0220
 3199.5000     0.1530   133.8230   -39.1070     5.4070     3.9710     8.2950     2.5120   102.8750     0.0250
 3200.0000     0.1560   130.6280   -39.1370     5.5060     3.7730     8.2910     2.5170   100.7930     0.0240
 3200.5000     0.1580   128.8360   -39.1670     5.1340     3.3110     8.2850     2.5180    98.6940     0.0200
 3201.0000     0.1550   128.9840   -39.1970     4.8050     3.4310     8.2810     2.5180    97.0630     0.0220
 3201.5000     0.1520   129.3130   -39.2270     5.2430     3.6300     8.2760     2.5160    96.8420     0.0240
 3202.0000     0.1500   125.5260   -39.2570     6.0300     3.8300     8.2700     2.5190    96.5920     0.0260
 3202.5000     0.1440   120.3510   -39.2870     5.1210     4.0290     8.2670     2.5250    96.4290     0.0270
 3203.0000     0.1370   118.7660   -39.3170     5.7150     4.2290     8.2480     2.5300    96.3700     0.0290
 3203.5000     0.1430   123.6880   -39.3470     6.7060     4.3480     8.2160     2.5350    97.5530     0.0310
 3204.0000     0.1480   125.9240   -39.3770     7.4990     4.3480     8.1870     2.5360    98.5600     0.0320
 3204.5000     0.1530   121.1540   -39.4070     4.9380     3.7990     8.1580     2.5220    99.6620     0.0240
 3205.0000     0.1590   117.7760   -39.4370     4.9830     3.4340     8.1280     2.5100   100.6330     0.0170
 3205.5000     0.1640   116.0300   -39.4670     5.1480     3.7180     8.0980     2.4970   101.8510     0.0090
 3206.0000     0.1560   115.8080   -39.4970     5.5060     3.9560     8.0690     2.5070   101.2070     0.0160
 3206.5000     0.1550   116.7670   -39.5270     7.1010     4.1930     8.0390     2.5190    98.8000     0.0320
 3207.0000     0.1570   114.2950   -39.5570     5.4070     4.1180     8.0280     2.5250    99.2700     0.0330
 3207.5000     0.1600   108.5700   -39.5870     6.2530     3.7980     8.0310     2.5280   101.4300     0.0330
 3208.0000     0.1620   106.3430   -39.6170     5.7600     3.3720     8.0330     2.5180   102.6210     0.0330
 3208.5000     0.1560   105.5640   -39.6470     4.9380     3.5960     8.0340     2.5130    99.4490     0.0330
 3209.0000     0.1480   103.3960   -39.6770     6.3680     4.2700     8.0360     2.5190    96.7140     0.0310
 3209.5000     0.1400   101.0020   -39.7070     6.1410     4.4280     8.0380     2.5220    93.7720     0.0270
 3210.0000     0.1330   102.0040   -39.7370    10.3990     4.4280     8.0400     2.5160    91.8400     0.0240
 3210.5000     0.1400   104.9640   -39.7670     5.7100     3.9430     8.0420     2.5110    94.5780     0.0200
 3211.0000     0.1470   107.9190   -39.7970     5.2360     3.5390     8.0440     2.5080    96.9040     0.0160
 3211.5000     0.1540   110.8580   -39.8270     4.7620     3.1350     8.0460     2.5080    99.4420     0.0130
 3212.0000     0.1520   113.7920   -39.8570     4.8490     3.3120     8.0480     2.5100   101.2870     0.0200
 3212.5000     0.1500   116.3690   -39.8870     5.2140     3.3720     8.0500     2.5200    99.9760     0.0280
 3213.0000     0.1470   117.8770   -39.9170     5.1010     3.2510     8.0510     2.5320    97.9750     0.0360
 3213.5000     0.1470   116.3740   -39.9470     4.9130     3.0500     8.0530     2.5450    97.7050     0.0450
 3214.0000     0.1500   115.6090   -39.9770     4.7620     2.9160     8.0550     2.5440   100.3450     0.0490
 3214.5000     0.1540   119.0190   -40.0060     4.9800     3.1740     8.0570     2.5370   100.5490     0.0400
 3215.0000     0.1530   117.3560   -40.0370     5.3090     3.5610     8.0590     2.5340    97.7130     0.0340
 3215.5000     0.1500   116.4070   -40.0390     5.6070     3.6260     8.0610     2.5360    95.4910     0.0260
 3216.0000     0.1550   118.2300   -40.0390     5.6070     3.5080     8.0630     2.5410    93.3480     0.0270
 3216.5000     0.1590   116.5540   -40.0390     5.3150     3.3110     8.0650     2.5470    95.5870     0.0300
 3217.0000     0.1530   115.7000   -40.0390     5.1210     3.4910     8.0670     2.5480    96.5010     0.0330
 3217.5000     0.1460   118.1580   -40.0390     5.7210     3.7900     8.0670     2.5470    95.1870     0.0360
 3218.0000     0.1380   120.3430   -40.0390     6.6170     4.0900     8.0670     2.5450    93.9930     0.0390
 3218.5000     0.1360   121.2970   -40.0390     7.7760     4.2700     8.0670     2.5530    92.8790     0.0420
 3219.0000     0.1380   121.3520   -40.0390     5.9210     4.1180     8.0670     2.5670    91.9560     0.0450
 3219.5000     0.1410   119.8440   -40.0390     6.0300     4.1930     8.0670     2.5750    92.6410     0.0430
 3220.0000     0.1480   116.3410   -40.0390     7.2310     4.2700     8.0670     2.5640    93.5040     0.0410
 3220.5000     0.1550   114.3570   -40.0390     7.0820     4.4280     8.0680     2.5530    94.4000     0.0380
 3221.0000     0.1590   116.4070   -40.0390     6.4850     4.4280     8.0690     2.5550    95.2800     0.0360
 3221.5000     0.1590   117.2350   -40.0390     6.7780     4.2700     8.0700     2.5580    96.1400     0.0330
 3222.0000     0.1590   115.3850   -40.0390     7.3640     3.8230     8.0710     2.5500    97.0560     0.0330
 3222.5000     0.1620   113.5070   -40.0390     5.0280     3.0790     8.0720     2.5380    97.9150     0.0300
 3223.0000     0.1660   113.2440   -40.0390     5.0740     3.1350     8.0740     2.5250    98.4800     0.0270
 3223.5000     0.1730   112.2680   -40.0390     5.1520     3.2230     8.0750     2.5160    97.0410     0.0250
