~VERSION INFORMATION
 VERS.                2.0:   CWLS LOG ASCII STANDARD - VERSION 2.0
 WRAP.                 NO:   ONE LINE PER DEPTH STEP
~WELL INFORMATION
#MNEM.UNIT      DATA TYPE    INFORMATION
#----------   ------------   ------------------------------
 STRT.F           81.0000:   START DEPTH
 STOP.F          910.0000:   STOP DEPTH
 STEP.F            0.5000:   STEP LENGTH
 NULL.          -999.2500:   NO VALUE
 COMP.         U. S. NAVY:   COMPANY
 WELL. US NAVY NPR 3 "S" #37-35:   WELL
 FLD .             TEAPOT:   FIELD
 LOC .      S35 T39N R78W:   LOCATION
 CNTY.            NATRONA:   COUNTY
 STAT.            WYOMING:   STATE
 CTRY. UNITED STATES OF AMERICA:   COUNTRY
 SRVC.       SCHLUMBERGER:   SERVICE COMPANY
 DATE.        22-JUL-1963:   LOGDATE
 API .     49025065040000:   API NUMBER
~CURVE INFORMATION
#MNEM.UNIT       API CODE    CURVE DESCRIPTION
#----------   ------------   ------------------------------
 DEPT.F                  :   
 SPR .MV     05 010 01 00:   SPONTANEOUS POTENTIAL FROM RES.
 ASN .OHMM   05 041 16 00:   AMPLIFIED SHORT NORMAL 16"
 ILD .OHMM   05 120 46 00:   INDUCTION LOG DEEP
~PARAMETER INFORMATION
#MNEM.UNIT          VALUE    DESCRIPTION
#----------   ------------   ------------------------------
 EKB .F         5113.0000:   Kelly bushing
 EGL .F         5108.0000:   Ground level
 TD  .F          900.0000:   Total depth
 DATE.        22-JUL-1963:   Date logged
 CLNT.            A2DTECH:   Client Code
 PD  .                 GL:   Permanent Datum
 EPD .F              5108:   Elevation Permanent Datum
 LMF .                 KB:   Log Measured From
 DMF .                 KB:   Drilling Measured From
 DAPD.F                 5:   Feet Above Permanent Datum
 DD  .F               900:   Depth driller
 DL  .F               900:   Depth logger
 BLI .F               899:   Bottom log interval
 TLI .F                81:   Top log interval
 BS1 .IN            7.875:   Bit size
 BSD1.F               900:   Depth drilled with bit1
 DFT .                GEL:   Type fluid in hole
 DFD .                9.6:   Density
 DFV .                 67:   Viscosity
 DFPH.                  9:   pH
 DFL .                4.8:   Fluid loss
 MSS .           FLOWLINE:   Source of sample
 RMS .OHMM            3.4:   Rm
 MST .F                77:   Rm Meas. temp.
 RMF .OHMM            3.3:   Rmf
 MFST.F                77:   Rmf Meas. temp.
 RMC .OHMM            3.8:   Rmc
 MCST.F                77:   Rmc Meas. temp.
 MFSS.                 FP:   Source Rmf.
 TCS .HRS               1:   Time Circ. stopped
 LUN .               2523:   Logging unit number
 LUL .               CSPR:   Logging unit location
 ENGI.            GIFFORD:   Recorded By
 WITN.          JORGENSON:   Witnessed by
 ORIG.           5" PRINT:   Origin of data
 UWI .     49025065040000:   Unique Well ID
 DICO. A2D TECHNOLOGIES, INC.:   Digitizing Company
~OTHER INFORMATION
~A   DEPT      SPR        ASN        ILD   
# ...
  172.0000   -53.3880     8.6780     8.0870
  172.5000   -53.4200     8.6650     8.0390
  173.0000   -53.4510     8.6370     7.9910
  173.5000   -53.4490     8.5430     7.9430
  174.0000   -53.3840     8.4460     7.8960
  174.5000   -53.3190     8.3500     7.8480
  175.0000   -53.2550     8.2530     7.8000
  175.5000   -53.1900     8.1560     7.7520
  176.0000   -53.1250     8.1240     7.7040
  176.5000   -53.0610     8.1040     7.6560
  177.0000   -52.9960     8.0250     7.6180
  177.5000   -52.9310     7.9180     7.5600
  178.0000   -52.8670     7.7810     7.4260
  178.5000   -52.8020     7.6770     7.2920
  179.0000   -52.7380     7.6790     7.1590
  179.5000   -52.6800     7.6820     7.0250
  180.0000   -52.6780     7.5790     6.8910
  180.5000   -52.6790     7.4350     6.7580
  181.0000   -52.6790     7.3140     6.6240
  181.5000   -52.6790     7.4000     6.4900
  182.0000   -52.6790     7.5020     6.3570
  182.5000   -52.6780     7.3430     6.2230
  183.0000   -52.6780     7.1340     6.0890
  183.5000   -52.6610     6.9090     5.9560
  184.0000   -52.5540     6.6560     5.8220
  184.5000   -52.4470     6.4030     5.6880
  185.0000   -52.3410     6.2490     5.5530
  185.5000   -52.2340     6.3180     5.5320
  186.0000   -52.1280     6.3820     5.6220
  186.5000   -52.0210     6.3390     5.7160
  187.0000   -51.9150     6.4430     5.8100
  187.5000   -51.8080     6.6250     5.9030
  188.0000   -51.7020     6.7640     5.9970
  188.5000   -51.7150     6.6990     6.0900
  189.0000   -51.7470     6.6430     6.1830
  189.5000   -51.7800     6.6870     6.2790
  190.0000   -51.8130     6.7790     6.3330
  190.5000   -51.8450     6.7290     6.2110
  191.0000   -51.8780     6.6660     6.1700
  191.5000   -51.9110     6.8220     6.1250
  192.0000   -51.9430     6.8980     6.0820
  192.5000   -51.9760     6.8240     6.0380
  193.0000   -52.0090     6.7440     5.9950
  193.5000   -52.0410     6.6240     5.9520
  194.0000   -52.0740     6.4960     5.9080
  194.5000   -52.1070     6.3680     5.8650
  195.0000   -52.1390     6.2390     5.8220
  195.5000   -52.1720     6.1090     5.7780
  196.0000   -52.2050     6.0820     5.7350
  196.5000   -52.2380     6.2220     5.7330
  197.0000   -52.2720     6.3850     5.7480
  197.5000   -52.3210     6.5490     5.7620
  198.0000   -52.4950     6.6990     5.7760
  198.5000   -52.6660     6.5990     5.7910
  199.0000   -52.8370     6.4800     5.8050
  199.5000   -53.0080     6.4860     5.8200
  200.0000   -53.1790     6.4920     5.8410
  200.5000   -53.3500     6.4450     5.8700
  201.0000   -53.5210     6.4100     5.8980
  201.5000   -53.6920     6.4660     5.9270
  202.0000   -53.8630     6.5140     5.9560
  202.5000   -54.0340     6.5610     5.9850
  203.0000   -54.2040     6.6080     6.0140
  203.5000   -54.3740     6.6260     6.0420
  204.0000   -54.4110     6.5470     6.0710
  204.5000   -54.3040     6.4640     6.1000
  205.0000   -54.1980     6.5840     6.1290
  205.5000   -54.0910     6.7990     6.1570
  206.0000   -53.9840     6.8350     6.1860
  206.5000   -53.8770     6.7840     6.2160
  207.0000   -53.7700     6.7590     6.2220
  207.5000   -53.6630     6.8380     6.1500
  208.0000   -53.5560     6.9140     6.0780
  208.5000   -53.4490     6.9610     6.0060
  209.0000   -53.3420     6.9700     5.9340
  209.5000   -53.2350     6.6820     5.8620
  210.0000   -53.1280     6.2980     5.7900
  210.5000   -53.0210     6.3700     5.7180
  211.0000   -52.9120     6.3790     5.6460
  211.5000   -52.9170     6.2540     5.5740
  212.0000   -53.0840     6.2160     5.5020
  212.5000   -53.2490     6.2630     5.4300
  213.0000   -53.4140     6.2510     5.3580
  213.5000   -53.5790     6.2350     5.3300
  214.0000   -53.7440     6.2810     5.3710
  214.5000   -53.9090     6.4670     5.4390
  215.0000   -54.0740     6.5210     5.5080
  215.5000   -54.2380     6.4060     5.5770
  216.0000   -54.4050     6.2970     5.6460
  216.5000   -54.4420     6.5280     5.7160
  217.0000   -54.3940     6.5460     5.7850
  217.5000   -54.3450     6.5280     5.8540
  218.0000   -54.2970     6.6610     5.9230
  218.5000   -54.2480     6.7130     5.9240
  219.0000   -54.2000     6.6970     5.9170
  219.5000   -54.1510     6.6720     5.9100
  220.0000   -54.1020     6.6440     5.9030
  220.5000   -54.0540     6.5980     5.8960
  221.0000   -54.0050     6.5500     5.8890
  221.5000   -53.9560     6.5020     5.8830
  222.0000   -53.9080     6.4540     5.8760
  222.5000   -53.8640     6.4060     5.8690
  223.0000   -53.7550     6.3570     5.8620
  223.5000   -53.6410     6.3450     5.8550
  224.0000   -53.5270     6.3510     5.8480
  224.5000   -53.4130     6.3590     5.8410
  225.0000   -53.3000     6.3770     5.8340
  225.5000   -53.1860     6.4220     5.8270
  226.0000   -53.0730     6.4810     5.8290
  226.5000   -52.9590     6.5550     5.9750
  227.0000   -52.8460     6.6290     6.1400
  227.5000   -52.7320     6.6910     6.3050
  228.0000   -52.6180     6.7140     6.4700
  228.5000   -52.5010     6.7360     6.6350
  229.0000   -52.5700     6.7610     6.8010
  229.5000   -52.6810     7.0220     6.9660
  230.0000   -52.7920     7.4310     7.1310
  230.5000   -52.9040     7.8590     7.2960
  231.0000   -53.0170     8.0980     7.4670
  231.5000   -53.1290     7.9030     7.4430
  232.0000   -53.2410     8.1880     7.2790
  232.5000   -53.3530     8.5930     7.1150
  233.0000   -53.4650     8.3700     6.9520
  233.5000   -53.5760     7.8660     6.8270
  234.0000   -53.6750     7.6140     6.7140
  234.5000   -53.6020     7.4170     6.6010
  235.0000   -53.5140     7.3110     6.4880
  235.5000   -53.4260     7.2430     6.3750
  236.0000   -53.3380     7.2580     6.2610
  236.5000   -53.2500     7.1880     6.1450
  237.0000   -53.1610     7.1150     6.1160
  237.5000   -53.0730     7.0430     6.2340
  238.0000   -52.9840     7.1060     6.4270
  238.5000   -52.8960     7.2230     6.6330
  239.0000   -52.8080     7.4000     6.8380
  239.5000   -52.7200     7.5810     7.0420
  240.0000   -52.6990     7.7620     7.2460
  240.5000   -52.8360     7.9420     7.4510
  241.0000   -52.9750     8.1230     7.6550
  241.5000   -53.1130     8.3030     7.8580
  242.0000   -53.2510     8.4830     8.0630
  242.5000   -53.3890     8.6640     8.2710
  243.0000   -53.5270     8.8090     8.3090
  243.5000   -53.6640     8.8200     8.1060
  244.0000   -53.8000     8.7310     7.8850
  244.5000   -53.8130     8.6320     7.6650
  245.0000   -53.6150     8.3020     7.4450
  245.5000   -53.4240     7.9490     7.2250
  246.0000   -53.2340     7.5910     7.0040
  246.5000   -53.0430     7.3700     6.7780
  247.0000   -52.8520     7.3020     6.7260
  247.5000   -52.6610     7.4780     6.7390
  248.0000   -52.4700     7.6710     6.7550
  248.5000   -52.2790     7.6630     6.7710
  249.0000   -52.0880     7.6590     6.7880
  249.5000   -51.8950     7.9060     6.8050
  250.0000   -51.6980     8.1840     6.8220
  250.5000   -51.7400     8.2450     6.8020
  251.0000   -51.8010     8.0170     6.7720
  251.5000   -51.8620     7.7610     6.7420
  252.0000   -51.9220     7.5040     6.7130
  252.5000   -51.9830     7.3290     6.6830
  253.0000   -52.0420     7.2230     6.6530
  253.5000   -52.0560     7.0730     6.6240
  254.0000   -51.9610     6.9190     6.5940
  254.5000   -51.8710     6.8820     6.5640
  255.0000   -51.7800     6.9700     6.5350
  255.5000   -51.6900     7.0870     6.5050
  256.0000   -51.5990     7.1410     6.4750
  256.5000   -51.5080     7.1060     6.4450
  257.0000   -51.4170     7.0230     6.4160
  257.5000   -51.3270     6.9380     6.3860
  258.0000   -51.2360     6.8530     6.3560
  258.5000   -51.1450     6.7680     6.3270
  259.0000   -51.0550     6.6800     6.2970
  259.5000   -50.9650     6.7220     6.2670
  260.0000   -50.8890     6.7940     6.2370
  260.5000   -50.9710     6.8680     6.2210
  261.0000   -51.0630     6.9430     6.1990
  261.5000   -51.1570     6.9890     6.1770
  262.0000   -51.2500     7.0220     6.1550
  262.5000   -51.3430     6.9680     6.1330
