~VERSION INFORMATION
 VERS.                2.0:   CWLS LOG ASCII STANDARD - VERSION 2.0
 WRAP.                 NO:   ONE LINE PER DEPTH STEP
~WELL INFORMATION
#MNEM.UNIT      DATA TYPE    INFORMATION
#----------   ------------   ------------------------------
 STRT.F          176.0000:   START DEPTH
 STOP.F         3400.0000:   STOP DEPTH
 STEP.F            0.5000:   STEP LENGTH
 NULL.          -999.2500:   NO VALUE
 COMP.    PENIX & SCISSON:   COMPANY
 WELL. FENIX NPR 3 "AX" #64-4:   WELL
 FLD .                NPR:   FIELD
 LOC .       S4 T38N R78W:   LOCATION
 CNTY.            NATRONA:   COUNTY
 STAT.            WYOMING:   STATE
 CTRY. UNITED STATES OF AMERICA:   COUNTRY
 SRVC.       SCHLUMBERGER:   SERVICE COMPANY
 DATE.        25-JAN-1981:   LOGDATE
 API .     49025108640000:   API NUMBER
~CURVE INFORMATION
#MNEM.UNIT       API CODE    CURVE DESCRIPTION
#----------   ------------   ------------------------------
 DEPT.F                  :   
 SPR .MV     07 010 01 00:   SPONTANEOUS POTENTIAL
 RFOC.OHMM   07 220 01 00:   RESISTIVITY FOCUSED LOG RES.
 ILD .OHMM   07 120 46 00:   DEEP INDUCTION RESISTIVITY
 TENR.LBS    07 635 01 00:   TENSION
 ILM .OHMM   07 120 44 00:   INDUCTION LOG MEDIUM RESISTIVITY
 GRD .GAPI   45 310 01 00:   GAMMA RAY FROM DENSITY LOG
 CALD.IN     45 280 60 00:   CALIPER FROM DENSITY LOG
 RHOB.G/C3   45 350 01 00:   BULK DENSITY
 TEND.LBS    45 635 01 00:   TENSION FROM DENSITY LOG
 CORR.G/C3   45 356 01 00:   DENSITY CORRECTION
~PARAMETER INFORMATION
#MNEM.UNIT          VALUE    DESCRIPTION
#----------   ------------   ------------------------------
 EKB .F         5257.0000:   Kelly bushing
 EGL .F         5247.0000:   Ground level
 EDF .F            0.0000:   Drilling floor
 TD  .F         3388.0000:   Total depth
 DATE.        25-JAN-1981:   Date logged
 CLNT.            A2DTECH:   Client Code
 SL  . 2289' FNL & 1495' FEL:   Surface Location
 PD  .                 GL:   Permanent Datum
 EPD .F              5247:   Elevation Permanent Datum
 LMF .                 KB:   Log Measured From
 DMF .                 KB:   Drilling Measured From
 DAPD.F                10:   Feet Above Permanent Datum
 DD  .F              3388:   Depth driller
 DL  .F              3386:   Depth logger
 BLI .F              3380:   Bottom log interval
 TLI .F               192:   Top log interval
 CS1 .IN            8.625:   Casing size
 CBD1.      8.625" @ 191':   Casing driller 1
 CBL1.F               192:   Casing logger 1
 BS1 .IN            7.875:   Bit size
 BSD1.F              3388:   Depth drilled with bit1
 DFT .                FGM:   Type fluid in hole
 DFD .                8.7:   Density
 DFV .                 32:   Viscosity
 DFPH.                9.5:   pH
 DFL .                 18:   Fluid loss
 MSS .           FLOWLINE:   Source of sample
 RMS .OHMM           1.60:   Rm
 MST .F                60:   Rm Meas. temp.
 RMF .OHMM           1.33:   Rmf
 MFST.F                60:   Rmf Meas. temp.
 MFSS.               MEAS:   Source Rmf.
 RMB .OHMM            .83:   Rm. at BHT
 BHT .F               115:   BHT.
 TCS .HRS            1700:   Time Circ. stopped
 TLAB.HRS            2200:   Time logger at bottom
 MRT .F               115:   Maximum recorded temp.
 LUN .               8039:   Logging unit number
 LUL .               CSPR:   Logging unit location
 ENGI.           C. PFARR:   Recorded By
 WITN.           L. FIVAS:   Witnessed by
 ORIG.           5" PRINT:   Origin of data
 UWI .     49025108640000:   Unique Well ID
 DICO. A2D TECHNOLOGIES, INC.:   Digitizing Company
~OTHER INFORMATION
~A   DEPT      SPR       RFOC        ILD       TENR        ILM         GRD      CALD         RHOB      TEND      CORR   
# ...
 1248.0000   -13.0780     8.8110     8.7040   526.0880     8.3350    95.2350     9.3850     2.5610   713.3900     0.0370
 1248.5000   -13.0850     8.9540     8.6500   526.3070     8.3360    98.2400     9.3860     2.5750   713.0380     0.0530
 1249.0000   -13.0910     9.0740     8.6500   526.5270     8.3370   101.2280     9.3870     2.5670   712.6860     0.0490
 1249.5000   -13.0980     9.1950     8.6500   526.7460     8.3370   102.2450     9.3880     2.5490   712.3340     0.0440
 1250.0000   -13.1050     9.3150     8.6500   526.9660     8.3370   101.0610     9.3890     2.5310   711.9820     0.0380
 1250.5000   -13.1120     9.4850     8.6500   527.1850     8.3370   100.1830     9.3890     2.5420   711.6300     0.0430
 1251.0000   -13.1190     9.4120     8.6500   527.4050     8.3370    98.7630     9.3900     2.5600   711.2780     0.0500
 1251.5000   -13.1260     9.2900     8.6500   527.6240     8.3370    96.7740     9.3910     2.5620   710.9260     0.0540
 1252.0000   -13.1320     9.1680     8.6500   527.8440     8.3370    96.7880     9.3910     2.5420   710.5740     0.0540
 1252.5000   -13.1390     9.1420     8.6500   528.0630     8.3370   100.0750     9.3940     2.5220   710.2220     0.0490
 1253.0000   -13.1460     9.1420     8.6500   528.2830     8.3370   103.1630     9.3790     2.5250   709.8700     0.0450
 1253.5000   -13.1530     9.1420     8.6500   528.5020     8.3370   105.5720     9.3530     2.5290   709.5180     0.0490
 1254.0000   -13.1600     9.1420     8.6500   528.7220     8.3370   106.6960     9.3280     2.5300   709.1660     0.0430
 1254.5000   -13.1670     9.2240     8.6500   528.9410     8.3370   107.6250     9.3040     2.5270   708.8140     0.0360
 1255.0000   -13.1740     9.3300     8.6500   529.1610     8.3380   108.6920     9.2760     2.5260   708.4620     0.0350
 1255.5000   -13.1800     9.4850     8.6500   529.3800     8.3370   107.6690     9.2750     2.5380   708.1100     0.0380
 1256.0000   -13.1870     9.4510     8.6500   529.6000     8.3380   105.2570     9.2760     2.5470   707.7590     0.0410
 1256.5000   -13.1680     9.3910     8.6510   529.8190     8.3370   102.3650     9.2780     2.5530   707.4070     0.0440
 1257.0000   -13.1400     9.3300     8.6520   530.0390     8.3370    99.1750     9.2790     2.5590   707.0550     0.0470
 1257.5000   -13.1120     9.2700     8.6480   530.2580     8.2570    97.6390     9.2800     2.5640   706.7030     0.0490
 1258.0000   -13.0840     9.2090     8.5810   530.4780     8.1870    96.6830     9.2810     2.5670   706.3510     0.0510
 1258.5000   -13.0560     9.1490     8.5090   530.6970     8.1170    96.4470     9.2820     2.5590   705.9990     0.0460
 1259.0000   -13.0280     9.0890     8.4360   530.9170     8.0460    97.6260     9.2840     2.5490   705.6470     0.0410
 1259.5000   -13.0000     9.0280     8.3630   531.1360     7.9760    99.7600     9.2850     2.5510   705.2950     0.0360
 1260.0000   -12.9720     8.9750     8.2910   531.3560     7.9060   101.2300     9.2860     2.5520   704.9430     0.0340
 1260.5000   -12.9430     8.9750     8.2170   531.5750     7.8360   100.8000     9.2870     2.5520   704.5910     0.0390
 1261.0000   -12.9170     8.9750     8.1440   531.7950     7.7660   100.6040     9.2890     2.5510   704.2390     0.0430
 1261.5000   -12.8870     8.9750     8.0710   532.0140     7.7450   101.5170     9.2900     2.5450   703.8870     0.0380
 1262.0000   -12.8580     8.8330     8.0350   532.2340     7.7450   102.1640     9.2910     2.5370   703.5350     0.0280
 1262.5000   -12.8400     8.5520     8.0350   532.4530     7.7450   103.6330     9.2930     2.5290   703.1830     0.0190
 1263.0000   -12.7820     8.2710     8.0360   532.6730     7.7450   105.4360     9.2940     2.5180   702.8310     0.0100
 1263.5000   -13.0320     8.1850     8.0360   532.8920     7.7450   110.4040     9.2950     2.5020   702.4790     0.0050
 1264.0000   -13.4660     8.1850     8.0360   533.1120     7.7450   110.7520     9.2960     2.4860   702.1270     0.0090
 1264.5000   -13.5930     8.3890     8.0360   533.3310     7.7450   109.5130     9.2980     2.4730   701.7750     0.0140
 1265.0000   -13.5790     8.5760     8.0360   533.5510     7.7450   108.0900     9.2990     2.4710   701.4230     0.0130
 1265.5000   -13.5830     8.7630     8.0360   533.7700     7.7450   109.1470     9.3000     2.4810   701.0710     0.0140
 1266.0000   -13.5830     8.9500     8.0360   533.9900     7.7450   110.3760     9.3010     2.5070   700.7190     0.0200
 1266.5000   -13.5820     9.1370     8.0360   534.2090     7.7450   109.4650     9.3030     2.5350   700.3670     0.0270
 1267.0000   -13.5830     9.3120     8.0360   534.4290     7.7450   108.0400     9.3040     2.5380   700.0150     0.0310
 1267.5000   -13.5830     9.0250     8.0360   534.6480     7.7450   107.2580     9.3050     2.5430   699.6640     0.0330
 1268.0000   -13.5830     8.7550     8.0360   534.8670     7.7450   107.6350     9.3060     2.5410   699.3120     0.0360
 1268.5000   -13.5830     8.4860     8.0360   535.0870     7.7460   107.2240     9.3080     2.5390   698.9600     0.0390
 1269.0000   -13.5830     8.3370     8.0350   535.3060     7.7600   105.8510     9.3090     2.5350   698.6080     0.0380
 1269.5000   -13.5830     8.4650     8.0470   535.5260     7.7780   104.7670     9.3100     2.5320   698.2560     0.0320
 1270.0000   -13.5830     8.5870     8.0670   535.7450     7.7960   105.5080     9.3110     2.5290   697.9040     0.0270
 1270.5000   -13.5820     8.7100     8.0850   535.9650     7.8140   106.7320     9.3130     2.5290   697.5520     0.0210
 1271.0000   -13.5960     8.8320     8.1030   536.1840     7.8320   103.7410     9.3140     2.5250   697.2110     0.0160
 1271.5000   -13.6320     8.9750     8.1220   536.4040     7.8500   100.4460     9.3150     2.5150   698.0240     0.0110
 1272.0000   -13.6650     8.9750     8.1410   536.6230     7.8680    94.8130     9.3170     2.5040   698.8110     0.0140
 1272.5000   -13.6990     8.9750     8.1590   536.8430     7.8890    96.3510     9.3180     2.5050   699.5980     0.0190
 1273.0000   -13.7330     8.9750     8.1780   537.0620     7.9350   100.5630     9.3190     2.5120   700.3860     0.0220
 1273.5000   -13.7660     8.9750     8.2100   537.2820     8.0450   102.8360     9.3200     2.5180   701.1730     0.0220
 1274.0000   -13.8000     8.9750     8.3270   537.5010     8.1540   104.0360     9.3220     2.5200   701.9600     0.0230
 1274.5000   -13.8340     8.9750     8.4440   537.7210     8.2640   103.7990     9.3230     2.5160   702.7480     0.0230
 1275.0000   -13.8680     8.9750     8.5610   537.9400     8.3740   103.0800     9.3240     2.5130   703.5350     0.0240
 1275.5000   -13.9020     8.9750     8.6780   538.1600     8.4830   100.4850     9.3250     2.5130   704.3220     0.0220
 1276.0000   -13.9350     9.1920     8.7940   538.3790     8.5930    98.3020     9.3270     2.5130   705.1100     0.0180
 1276.5000   -13.9690     9.4650     8.9110   538.5990     8.7030    95.9460     9.3280     2.5200   705.8970     0.0150
 1277.0000   -14.0030     9.7380     9.0280   538.8180     8.8120    93.6640     9.3290     2.5280   706.6840     0.0150
 1277.5000   -14.0370    10.0110     9.1450   539.0380     8.9220    91.5730     9.3300     2.5310   707.4720     0.0180
 1278.0000   -14.0710    10.4000     9.2620   539.2570     9.0320    92.0890     9.3320     2.5310   708.2590     0.0200
 1278.5000   -14.1040    10.3100     9.3330   539.4770     9.1410    95.1470     9.3330     2.5350   709.0460     0.0230
 1279.0000   -14.1380    10.1540     9.3710   539.6960     9.2510    98.4540     9.3340     2.5390   709.8340     0.0260
 1279.5000   -14.1720    10.0240     9.4090   539.9160     9.3610   101.5970     9.3350     2.5420   710.6210     0.0260
 1280.0000   -14.2060    10.0240     9.4470   540.1350     9.4700   105.2560     9.3370     2.5320   711.4080     0.0200
 1280.5000   -14.2400    10.2630     9.4850   540.3550     9.5800   104.6070     9.3380     2.5260   712.1960     0.0120
 1281.0000   -14.2730    10.6930     9.5230   540.5740     9.6900   104.4320     9.3390     2.5300   712.9830     0.0130
