~VERSION INFORMATION
 VERS.                2.0:   CWLS LOG ASCII STANDARD - VERSION 2.0
 WRAP.                 NO:   ONE LINE PER DEPTH STEP
~WELL INFORMATION
#MNEM.UNIT      DATA TYPE    INFORMATION
#----------   ------------   ------------------------------
 STRT.F          206.0000:   START DEPTH
 STOP.F         3080.5000:   STOP DEPTH
 STEP.F            0.5000:   STEP LENGTH
 NULL.          -999.2500:   NO VALUE
 COMP.    FENIX & SCISSON:   COMPANY
 WELL.   FENIX "A" #61-28:   WELL
 FLD .           N P R #3:   FIELD
 LOC .      S28 T39N R78W:   LOCATION
 CNTY.            NATRONA:   COUNTY
 STAT.            WYOMING:   STATE
 CTRY. UNITED STATES OF AMERICA:   COUNTRY
 SRVC.        SCHLUMBEGER:   SERVICE COMPANY
 DATE.        16-MAY-1977:   LOGDATE
 API .     49025103680000:   API NUMBER
~CURVE INFORMATION
#MNEM.UNIT       API CODE    CURVE DESCRIPTION
#----------   ------------   ------------------------------
 DEPT.F                  :   
 SPR .MV     07 010 01 00:   SPONTANEOUS POTENTIAL
 LL8 .OHMM   07 220 08 00:   LATEROLOG-8 RES.
 ILM .OHMM   07 120 44 00:   INDUCTION LOG MEDIUM RESISTIVITY
 ILD .OHMM   07 120 46 00:   DEEP INDUCTION RESISTIVITY
 CALD.IN     45 280 60 00:   CALIPER FROM DENSITY LOG
 GRD .GAPI   45 310 01 00:   GAMMA RAY FROM DENSITY LOG
 RHOB.G/C3   45 350 01 00:   BULK DENSITY
 CORR.G/C3   45 356 01 00:   DENSITY CORRECTION
~PARAMETER INFORMATION
#MNEM.UNIT          VALUE    DESCRIPTION
#----------   ------------   ------------------------------
 EKB .F         5019.0000:   Kelly bushing
 EGL .F         5009.0000:   Ground level
 EDF .F            0.0000:   Drilling floor
 TD  .F         3050.0000:   Total depth
 DATE.        16-MAY-1977:   Date logged
 CLNT.            A2DTECH:   Client Code
 SL  . 330' FNL & 1650' FEL:   Surface Location
 PD  .                 GL:   Permanent Datum
 DD  .F              3050:   Depth driller
 DL  .F              3079:   Depth logger
 BLI .F              3072:   Bottom log interval
 CS1 .IN            8.625:   Casing size
 CBD1.      8.625" @ 213':   Casing driller 1
 CBL1.F               213:   Casing logger 1
 BS1 .IN            7.875:   Bit size
 DFT .            KCL-MUD:   Type fluid in hole
 DFD .                9.2:   Density
 DFV .                 32:   Viscosity
 DFPH.                  8:   pH
 DFL .                7.6:   Fluid loss
 MSS .              CIRC.:   Source of sample
 RMS .OHMM          0.128:   Rm
 MST .F                62:   Rm Meas. temp.
 RMF .OHMM          0.126:   Rmf
 MFST.F                62:   Rmf Meas. temp.
 RMC .OHMM          0.192:   Rmc
 MCST.F                62:   Rmc Meas. temp.
 MFSS.               MEAS:   Source Rmf.
 RMB .OHMM           0.07:   Rm. at BHT
 BHT .F               112:   BHT.
 TCS .HRS            0900:   Time Circ. stopped
 MRT .F               112:   Maximum recorded temp.
 LUN .               7711:   Logging unit number
 LUL .               CSPR:   Logging unit location
 ENGI.             SAYLER:   Recorded By
 WITN.         PETTINGILL:   Witnessed by
 ORIG.           5" PRINT:   Origin of data
 UWI .     49025103680000:   Unique Well ID
 DICO. A2D TECHNOLOGIES, INC.:   Digitizing Company
 DAPD.                 10:   Feet Above Permanent Datum
 BSD1.               3050:   Depth drilled with bit1
 MCSS.               CALC:   Source Rmc.
 EPD .F              5009:   Elevation Permanent Datum
 LMF .                 KB:   Log Measured From
 DMF .                 KB:   Drilling Measured From
 TLI .F               213:   Top log interval
 TLAB.               1100:   Time logger at bottom
~OTHER INFORMATION
~A   DEPT      SPR        LL8        ILM        ILD       CALD         GRD      RHOB       CORR   
# ...
  408.5000   -61.8200     9.9460    13.4810    15.7710     9.1180    80.5600     2.3310    -0.0050
  409.0000   -62.1690     9.8980    13.5500    15.7550     9.1180    78.8160     2.3260    -0.0040
  409.5000   -62.5360     9.8080    13.6240    15.7200     9.1180    77.0920     2.3200    -0.0030
  410.0000   -62.8970     9.7650    13.7060    15.6320     9.1180    75.7650     2.3170     0.0010
  410.5000   -63.0500     9.9300    13.7890    15.5450     9.1180    76.1630     2.3240     0.0090
  411.0000   -63.1060    10.1600    13.8720    15.4670     9.1180    76.9030     2.3340     0.0130
  411.5000   -63.1680    10.3180    13.9550    15.5870     9.1180    78.0460     2.3320     0.0120
  412.0000   -63.2340    10.3180    14.0370    15.6940     9.1180    80.0730     2.3300     0.0050
  412.5000   -63.2900    10.1720    14.1200    15.8020     9.1180    82.0710     2.3330     0.0040
  413.0000   -63.3610     9.9730    14.2060    15.9100     9.1180    84.0630     2.3390     0.0060
  413.5000   -63.4120    10.0250    14.2890    16.0200     9.1170    85.7650     2.3440     0.0080
  414.0000   -63.6950    10.2950    14.3650    16.1290     9.1010    84.8020     2.3500     0.0030
  414.5000   -64.0260    10.5650    14.1040    16.2380     9.0850    83.2450     2.3550    -0.0020
  415.0000   -64.3620    10.7050    14.0340    16.3380     9.0690    82.5530     2.3550     0.0110
  415.5000   -64.6930    10.5560    13.9540    16.2660     9.0530    82.5700     2.3470     0.0100
  416.0000   -64.9990    10.4190    13.8750    16.1990     9.0380    82.6230     2.3400     0.0050
  416.5000   -65.2830    10.3180    13.7960    16.1330     9.0340    83.1350     2.3380     0.0050
  417.0000   -65.3670    10.3180    13.7170    16.0660     9.0290    84.3680     2.3450     0.0040
  417.5000   -65.2490    10.5100    13.6380    15.9990     9.0250    87.1060     2.3510    -0.0010
  418.0000   -65.1540    10.5100    13.5950    15.9320     9.0210    89.7680     2.3460    -0.0010
  418.5000   -65.0570    10.3100    13.6460    15.8660     9.0170    91.8640     2.3400     0.0000
  419.0000   -64.9530    10.1300    13.8500    15.7650     9.0130    91.3450     2.3340    -0.0020
  419.5000   -64.8560    10.2310    14.0530    15.8430     9.0090    90.4660     2.3290     0.0020
  420.0000   -64.7600    10.3180    14.2570    16.2270     9.0050    89.3200     2.3350     0.0080
  420.5000   -64.6410    10.1570    14.4610    16.6120     9.0000    88.1820     2.3350     0.0050
  421.0000   -64.7230    10.0030    14.6650    16.9970     8.9960    87.0510     2.3320     0.0000
  421.5000   -65.0570     9.9460    14.9030    17.3810     8.9920    85.9840     2.3300    -0.0010
  422.0000   -65.3650    11.2470    14.7170    17.9110     8.9880    85.2860     2.3380     0.0050
  422.5000   -65.6800    13.1040    14.2780    17.8610     8.9840    84.5710     2.3470     0.0050
  423.0000   -65.9940    12.7570    13.8470    17.7790     8.9800    83.8550     2.3480     0.0040
  423.5000   -66.3120    11.9280    13.5830    17.6980     8.9780    83.1400     2.3480     0.0080
  424.0000   -66.6200    11.1060    13.5270    17.6170     8.9780    82.3360     2.3680     0.0020
  424.5000   -66.9800    10.7560    13.4720    17.5850     8.9780    81.2160     2.3690    -0.0020
  425.0000   -67.4190    10.5130    13.4160    17.1480     8.9780    80.5250     2.3680     0.0060
  425.5000   -67.9620    10.3180    13.3610    16.6030     8.9780    80.1100     2.3610     0.0060
  426.0000   -68.4890    10.5100    13.3050    16.0590     8.9790    79.6860     2.3520     0.0050
  426.5000   -69.0190    10.6720    13.2490    15.5140     8.9840    79.2080     2.3470     0.0110
  427.0000   -69.5560    10.8350    13.1940    15.1530     8.9880    80.9350     2.3460     0.0070
  427.5000   -70.0870    10.9030    13.1040    15.0820     8.9930    83.1230     2.3530     0.0100
  428.0000   -70.8330    10.6760    13.1330    15.0120     8.9980    83.7250     2.3580     0.0110
  428.5000   -71.6500    10.4840    13.2080    14.9410     9.0020    83.9460     2.3520     0.0000
  429.0000   -72.4660    10.2910    13.2860    14.8710     9.0070    84.1840     2.3460    -0.0040
  429.5000   -73.2930    10.1300    13.3620    14.8000     9.0120    85.1380     2.3460     0.0010
  430.0000   -74.3360    10.3710    13.4380    14.7300     9.0160    86.1040     2.3510     0.0050
  430.5000   -75.6970    10.6850    13.5120    14.6590     9.0210    87.8660     2.3530     0.0020
  431.0000   -77.0750    11.0000    13.5970    14.5890     9.0260    89.7860     2.3520     0.0010
  431.5000   -78.5740    11.3150    13.5920    14.5180     9.0300    91.7150     2.3650     0.0060
  432.0000   -79.6620    11.5220    13.5590    14.4480     9.0350    93.4150     2.3800     0.0070
  432.5000   -80.1240    11.5220    13.5320    14.3770     9.0370    94.6940     2.3960     0.0030
  433.0000   -80.6970    11.5220    13.5030    14.3060     9.0330    95.3120     2.4120    -0.0010
  433.5000   -81.2530    11.5220    13.4730    14.2360     9.0300    93.9660     2.4260    -0.0020
  434.0000   -81.6950    11.4790    13.4440    14.1660     9.0260    93.6240     2.4350     0.0050
  434.5000   -82.1040    11.3510    13.4140    14.1050     9.0230    93.3280     2.4440     0.0130
  435.0000   -82.5070    11.2230    13.3850    14.0630     9.0190    93.0280     2.4530     0.0150
  435.5000   -82.9140    11.0940    13.3560    14.0040     9.0170    92.7310     2.4540     0.0130
  436.0000   -83.3190    10.9030    13.2960    13.9440     9.0140    92.8510     2.4490     0.0100
  436.5000   -83.7260    10.9770    13.2250    13.8850     9.0120    93.8010     2.4500     0.0100
  437.0000   -84.1320    11.1230    13.1530    13.8470     9.0090    94.7390     2.4520     0.0110
  437.5000   -84.5340    11.2680    13.0820    13.8470     9.0070    95.6920     2.4470     0.0120
  438.0000   -84.9480    11.3120    13.0110    13.8470     9.0040    96.2230     2.4450     0.0110
  438.5000   -85.3410    11.2220    12.9390    13.7350     9.0020    95.5530     2.4450     0.0060
  439.0000   -85.7730    11.0400    12.8680    13.6110     8.9990    94.5750     2.4460     0.0020
  439.5000   -85.9320    10.8590    12.7970    13.4860     8.9970    95.1860     2.4210     0.0010
  440.0000   -86.0930    10.6770    12.7250    13.3470     8.9940    95.8580     2.4280    -0.0010
  440.5000   -86.2400    10.5100    12.6330    13.3300     8.9920    96.5040     2.4360    -0.0030
  441.0000   -86.3960    10.5500    12.6490    13.3100     8.9900    97.3460     2.4440    -0.0020
  441.5000   -86.5490    10.6990    12.6770    13.2900     8.9870    98.8320     2.4520     0.0030
  442.0000   -86.7020    10.8470    12.7050    13.2710     8.9850    99.5720     2.4570     0.0080
  442.5000   -86.8560    10.9950    12.7330    13.2520     8.9820    99.7160     2.4620     0.0100
  443.0000   -87.0090    11.0890    12.7600    13.2320     8.9800    99.8910     2.4680     0.0060
  443.5000   -87.1620    11.0260    12.7880    13.2130     8.9800    98.8960     2.4630     0.0030
  444.0000   -87.3150    10.9630    12.8160    13.1930     8.9850    96.6300     2.4570     0.0070
  444.5000   -87.4680    10.9030    12.8580    13.1740     8.9910    93.9650     2.4620     0.0100
  445.0000   -87.6210    10.8700    12.8230    13.1540     8.9970    93.9230     2.4690     0.0070
  445.5000   -87.7750    10.7300    12.6470    13.1340     8.9970    94.7140     2.4620     0.0030
  446.0000   -87.9280    10.5900    12.4710    13.1150     8.9960    94.9010     2.4550     0.0050
  446.5000   -88.0800    10.5100    12.2940    13.0530     8.9940    94.3140     2.4510     0.0080
  447.0000   -88.2600    10.4280    12.1180    12.9350     8.9930    93.9050     2.4570     0.0110
  447.5000   -88.5210    10.3490    11.9420    12.8180     8.9920    95.2590     2.4630     0.0100
  448.0000   -88.7810    10.3180    11.7660    12.7000     8.9900    98.3650     2.4640     0.0090
  448.5000   -89.0440    10.3180    11.5900    12.6310     8.9890   101.9880     2.4590     0.0120
