~VERSION INFORMATION
 VERS.                2.0:   CWLS LOG ASCII STANDARD - VERSION 2.0
 WRAP.                 NO:   ONE LINE PER DEPTH STEP
~WELL INFORMATION
#MNEM.UNIT      DATA TYPE    INFORMATION
#----------   ------------   ------------------------------
 STRT.F          450.0000:   START DEPTH
 STOP.F         3098.0000:   STOP DEPTH
 STEP.F            0.5000:   STEP LENGTH
 NULL.          -999.2500:   NO VALUE
 COMP. FENIX & SCISSON - U.S NAVY:   COMPANY
 WELL. FENIX NPR 3 "AX" #11-33:   WELL
 FLD .              N P R:   FIELD
 LOC .      S33 T39N R78W:   LOCATION
 CNTY.            NATRONA:   COUNTY
 STAT.            WYOMING:   STATE
 CTRY. UNITED STATES OF AMERICA:   COUNTRY
 SRVC.              WELEX:   SERVICE COMPANY
 DATE.        12-MAR-1977:   LOGDATE
 API .     49025103210000:   API NUMBER
~CURVE INFORMATION
#MNEM.UNIT       API CODE    CURVE DESCRIPTION
#----------   ------------   ------------------------------
 DEPT.F                  :   
 CALD.IN     45 280 60 00:   CALIPER FROM DENSITY LOG
 GRD .GAPI   45 310 01 00:   GAMMA RAY FROM DENSITY LOG
 RHOB.G/C3   45 350 01 00:   BULK DENSITY
 CORR.G/C3   45 356 01 00:   DENSITY CORRECTION
 SPR .MV     07 010 01 00:   SPONTANEOUS POTENTIAL
 SGRD.MV     07 010 01 00:   SHALLOW GUARD RESISTIVITY
 ILD .OHMM   07 120 46 00:   DEEP INDUCTION RESISTIVITY
 ILM .OHMM   07 120 44 00:   INDUCTION LOG MEDIUM RESISTIVITY
~PARAMETER INFORMATION
#MNEM.UNIT          VALUE    DESCRIPTION
#----------   ------------   ------------------------------
 EKB .F         5133.0000:   Kelly bushing
 EGL .F         5122.0000:   Ground level
 TD  .F         3130.0000:   Total depth
 DATE.        12-MAR-1977:   Date logged
 CLNT.            A2DTECH:   Client Code
 SL  . 331' FNL & 430' FWL:   Surface Location
 PD  .                 GL:   Permanent Datum
 DD  .F              3130:   Depth driller
 DL  .F              3102:   Depth logger
 BLI .F              3100:   Bottom log interval
 CS1 .IN            8.625:   Casing size
 CBD1.      8.625" @ 459':   Casing driller 1
 CBL1.F               455:   Casing logger 1
 BS1 .IN            7.875:   Bit size
 DFT .                KCL:   Type fluid in hole
 DFD .                9.3:   Density
 DFV .                 36:   Viscosity
 DFL .               16.2:   Fluid loss
 MSS .           FLOWLINE:   Source of sample
 RMS .OHMM           0.37:   Rm
 MST .F                50:   Rm Meas. temp.
 RMF .OHMM           0.32:   Rmf
 MFST.F                55:   Rmf Meas. temp.
 RMC .OHMM           0.58:   Rmc
 MCST.F                55:   Rmc Meas. temp.
 MFSS.               MEAS:   Source Rmf.
 RMB .OHMM           .168:   Rm. at BHT
 BHT .F               110:   BHT.
 TCS .HRS               4:   Time Circ. stopped
 MRT .F               110:   Maximum recorded temp.
 LUN .               0716:   Logging unit number
 LUL .             VERNAT:   Logging unit location
 ENGI.        E. CALLAHAN:   Recorded By
 WITN.            K. JAPP:   Witnessed by
 ORIG.           5" PRINT:   Origin of data
 UWI .     49025103210000:   Unique Well ID
 DICO. A2D TECHNOLOGIES, INC.:   Digitizing Company
 DAPD.F                11:   Feet Above Permanent Datum
 BSD1.               3950:   Depth drilled with bit1
 MCSS.               CALC:   Source Rmc.
 EPD .F              5122:   Elevation Permanent Datum
 LMF .                 KB:   Log Measured From
 DMF .                 KB:   Drilling Measured From
 TLI .F               455:   Top log interval
~OTHER INFORMATION
~A   DEPT       CALD       GRD        RHOB      CORR       SPR       SGRD        ILD        ILM   
# ...
 1665.0000     9.7164   120.2502     2.5448     0.0714   -52.1082     9.3329     6.9821     8.5119
 1665.5000     9.7166   119.2589     2.5410     0.0734   -52.1092    10.5195     6.9777     8.5117
 1666.0000     9.7168   118.4680     2.5528     0.0794   -52.3084    10.8138     6.9734     8.5115
 1666.5000     9.7368   118.4684     2.5639     0.0774   -52.3094    10.0456     6.9690     8.5112
 1667.0000     9.7370   120.5605     2.5619     0.0734   -52.1123     9.1616     6.9647     8.5897
 1667.5000     9.7372   123.0368     2.5510     0.0694   -52.1133     8.6690     6.9603     8.6690
 1668.0000     9.7176   123.2372     2.5310     0.0654   -51.9162     9.3314     6.9560     8.6687
 1668.5000     9.6979   125.4218     2.5400     0.0594   -51.7191     9.5925     6.7579     8.6685
 1669.0000     9.7180   126.8123     2.5529     0.0554   -51.7201     9.3309     6.6344     8.5888
 1669.5000     9.7182   127.6080     2.5450     0.0495   -51.5233     9.1604     6.6343     8.5099
 1670.0000     9.6787   128.8005     2.5310     0.0495   -51.5240     9.3304     6.5130     8.4316
 1670.5000     9.6987   129.0009     2.5290     0.0455   -51.7232     9.5915     6.5128     8.3541
 1671.0000     9.7188   129.3997     2.5290     0.0475   -51.9224     9.4162     6.5127     8.3538
 1671.5000     9.7388   130.1954     2.5330     0.0654   -51.9234     8.7473     6.5124     8.3536
 1672.0000     9.7390   130.9911     2.5390     0.0754   -51.9244     8.5087     6.5122     8.3535
 1672.5000     9.7591   127.0251     2.5609     0.1054   -52.3221     8.4305     6.5121     8.3532
 1673.0000     9.7393   125.4393     2.5550     0.0954   -52.5213     8.5870     6.5119     8.3529
 1673.5000     9.7793   123.8544     2.5500     0.0754   -52.7205     8.8273     6.5118     8.3527
 1674.0000     9.7597   123.8559     2.5500     0.0674   -52.1270     9.0743     6.5115     8.3525
 1674.5000     9.7599   125.2469     2.5675     0.0694   -51.9298    10.0413     6.6323     8.4295
 1675.0000     9.7402   125.0504     2.5779     0.0714   -52.3272    10.0411     6.6321     8.4294
 1675.5000     9.7206   126.0445     2.5623     0.0674   -52.3283     9.6777     6.7552     8.4291
 1676.0000     9.7208   126.2449     2.5470     0.0674   -52.1311     9.0733     6.7551     8.4289
 1676.5000     9.7408   125.8501     2.5679     0.0754   -52.1321     8.6647     6.3354     8.4286
 1677.0000     9.7410   127.2410     2.5604     0.0734   -51.9349     8.6646     6.3352     8.4285
 1677.5000     9.7412   128.8304     2.5529     0.0714   -51.5395     8.6642     6.3350     8.4281
 1678.0000     9.7612   129.2300     2.5639     0.0894   -51.3423     8.6640     6.2768     8.3507
 1678.5000     9.7416   130.0248     2.5639     0.0914   -51.3433     8.6638     6.2766     8.3505
 1679.0000     9.7616   131.9948     2.5430     0.0714   -51.3441     8.7438     6.2764     8.2736
 1679.5000     9.7420   133.9647     2.5534     0.0694   -51.3453     8.9884     6.2762     8.4241
 1680.0000     9.7620   135.9834     2.5629     0.0614   -51.3461     9.1553     6.2761     8.4239
 1680.5000     9.7424   137.7707     2.5629     0.0475   -51.5454     9.1550     6.3340     8.4438
 1681.0000     9.7426   137.1775     2.5305     0.0275   -51.7449     9.3249     6.4515     8.4638
 1681.5000     9.7230   136.1874     2.5305     0.0295   -51.5479     9.6707     6.5111     8.4838
 1682.0000     9.7033   134.8004     2.5759     0.0455   -51.7470     9.7600     6.6318     8.5038
 1682.5000     9.6638   132.2234     2.5789     0.0574   -51.7478     9.7597     6.6929     8.5239
 1683.0000     9.6243   130.8364     2.5869     0.0634   -51.7490     9.7595     6.6928     8.5440
 1683.5000     9.5849   130.4416     2.5490     0.0475   -51.7500     9.6697     6.6313     8.5642
 1684.0000     9.5652   130.0468     2.5400     0.0455   -52.1476     9.5809     6.6311     8.1955
 1684.5000     9.5456   130.4456     2.5400     0.0495   -52.3470     9.4094     6.6309     8.1953
 1685.0000     9.5656   131.8373     2.5573     0.0554   -52.3480     9.3229     6.6308     8.1951
 1685.5000     9.5658   131.3401     2.5779     0.0614   -52.3490     9.3227     6.5697     8.1948
 1686.0000     9.5660   131.0464     2.5569     0.0614   -52.3500     9.3224     6.5696     8.1948
 1686.5000     9.5861   132.4079     2.5619     0.0634   -52.3511     9.3223     6.5694     8.1945
 1687.0000     9.6061   133.8287     2.5769     0.0654   -52.3521     9.3219     6.5693     8.2857
 1687.5000     9.6063   134.0287     2.5679     0.0634   -52.1555     9.3217     6.5690     8.3463
 1688.0000     9.6462   134.8243     2.5619     0.0594   -51.9576     9.3213     6.5688     8.3491
 1688.5000     9.6265   135.2232     2.5579     0.0574   -51.9586     9.3212     6.5687     8.3518
 1689.0000     9.6267   134.8283     2.5490     0.0574   -51.7613     9.3476     6.5684     8.3545
 1689.5000     9.6269   135.0287     2.5669     0.0614   -51.1680     9.3741     6.5682     8.3572
 1690.0000     9.6271   136.2212     2.5709     0.0495   -51.1682     9.4007     6.5681     8.3599
 1690.5000     9.6274   135.6280     2.5529     0.0455   -51.1694     9.4274     6.5076     8.3627
 1691.0000     9.6275   134.4394     2.5649     0.0395   -51.5671     9.4541     6.5075     8.3654
 1691.5000     9.6277   134.0446     2.5510     0.0345   -51.7683     9.4809     6.5072     8.3681
 1692.0000     9.6081   133.4513     2.5684     0.0465   -51.1739     9.5078     6.5673     8.3708
 1692.5000     9.6083   133.0565     2.5929     0.0634   -50.9767     9.5347     6.6279     8.3735
 1693.0000     9.6085   133.2569     2.5879     0.0714   -50.7794     9.5618     6.6277     8.3763
 1693.5000     9.6285   132.2668     2.5939     0.0714   -50.7804     9.5889     6.6889     8.3790
 1694.0000     9.6287   131.8720     2.5809     0.0674   -50.7814     9.6161     6.6886     8.3817
 1694.5000     9.6289   130.8818     2.5849     0.0654   -50.7822     9.6434     6.6885     8.5735
 1695.0000     9.6490   130.2886     2.5814     0.0654   -50.7828     9.6707     6.7501     8.5734
 1695.5000     9.6492   129.8937     2.5669     0.0634   -50.7525     9.6981     6.7500     8.4947
 1696.0000     9.6692   129.4989     2.5490     0.0475   -50.7221     9.7256     6.7497     8.5005
 1696.5000     9.6496   129.1048     2.5490     0.0475   -50.6918     9.7532     6.7496     8.5064
 1697.0000     9.6498   127.7171     2.5628     0.0495   -50.6614     9.7809     6.8119     8.5122
 1697.5000     9.6301   129.1080     2.5767     0.0574   -50.6311     9.8086     6.8117     8.5180
 1698.0000     9.6502   130.4989     2.5859     0.0554   -50.6007     9.8457     6.8114     8.5239
 1698.5000     9.6107   129.3104     2.5721     0.0534   -50.5704     9.8456     6.8112     8.5298
 1699.0000     9.6307   129.3124     2.5582     0.0495   -50.5400     9.5769     6.8110     8.5356
 1699.5000     9.6309   129.5128     2.5444     0.0415   -50.5097     9.5767     6.8109     8.5415
 1700.0000     9.6311   129.3164     2.5320     0.0415   -50.4794     9.5764     6.8107     8.5474
 1700.5000     9.6481   130.4111     2.5383     0.0396   -50.1978     9.5762     6.8104     8.5532
 1701.0000     9.6506   130.9002     2.5455     0.0415   -50.1929     9.5788     6.8121     8.5602
 1701.5000     9.6504   132.0887     2.5550     0.0355   -50.3893     9.3181     6.8128     8.5672
 1702.0000     9.7097   132.4835     2.5308     0.0256   -50.3874     9.3191     6.8136     8.5742
 1702.5000     9.7293   132.2831     2.5170     0.0216   -50.1870     9.3199     6.7518     8.5755
 1703.0000     9.7291   132.4796     2.5296     0.0316   -50.1850     9.2358     6.6905     8.3459
 1703.5000     9.7091   132.6760     2.5421     0.0376   -50.1830     9.1522     6.5693     8.1199
 1704.0000     9.7089   133.0708     2.5550     0.0436   -49.9826     8.9859     6.5098     8.1203
 1704.5000     9.7285   133.0688     2.5449     0.0536   -49.9807     8.8230     6.6295     8.1208
 1705.0000     9.7283   133.0669     2.5348     0.0377   -49.9787     8.8242     6.6298     8.1221
