~VERSION INFORMATION
 VERS.                2.0:   CWLS LOG ASCII STANDARD - VERSION 2.0
 WRAP.                 NO:   ONE LINE PER DEPTH STEP
~WELL INFORMATION
#MNEM.UNIT      DATA TYPE    INFORMATION
#----------   ------------   ------------------------------
 STRT.F           60.0000:   START DEPTH
 STOP.F         3758.0000:   STOP DEPTH
 STEP.F            0.5000:   STEP LENGTH
 NULL.          -999.2500:   NO VALUE
 COMP. LAWRENCE ALLISON & ASSOCIATES:   COMPANY
 WELL. LAWRENCE "MX" #72-10:   WELL
 FLD .            N P R 3:   FIELD
 LOC .      S10 T38N R78W:   LOCATION
 CNTY.            NATRONA:   COUNTY
 STAT.            WYOMING:   STATE
 CTRY. UNITED STATES OF AMERICA:   COUNTRY
 SRVC.       SCHLUMBERGER:   SERVICE COMPANY
 DATE.        03-JUL-1982:   LOGDATE
 API .     49025108910000:   API NUMBER
~CURVE INFORMATION
#MNEM.UNIT       API CODE    CURVE DESCRIPTION
#----------   ------------   ------------------------------
 DEPT.F                  :   
 GRD .GAPI   45 310 01 00:   GAMMA RAY FROM DENSITY LOG
 NPHI.DEC    42 890 03 00:   NEUTRON POROSITY SANDSTONE
 CALD.IN     45 280 60 00:   CALIPER FROM DENSITY LOG
 RHOB.G/C3   45 350 01 00:   BULK DENSITY
 DRHO.G/C3   45 356 01 00:   DENSITY CORRECTION
 TEND.LBS    45 635 01 00:   TENSION FROM DENSITY LOG
 SPR .MV     07 010 01 00:   SPONTANEOUS POTENTIAL
 SFL .OHMM   07 220 01 00:   SHALLOW FOCUSED LOG RESISTIVITY
 ILD .OHMM   07 120 46 00:   DEEP INDUCTION RESISTIVITY
 ILM .OHMM   07 120 44 00:   INDUCTION LOG MEDIUM RESISTIVITY
 TENR.LBS    07 635 01 00:   TENSION FROM RESISTIVITY
~PARAMETER INFORMATION
#MNEM.UNIT          VALUE    DESCRIPTION
#----------   ------------   ------------------------------
 EKB .F         5182.0000:   Kelly bushing
 EGL .F         5172.0000:   Ground level
 EDF .F            0.0000:   Drilling floor
 EPD .F            0.0000:   Permanent datum
 TD  .F         3770.0000:   Total depth
 DATE.        03-JUL-1982:   Date logged
 CLNT.            A2DTECH:   Client Code
 SL  . 1119' FNL & 21' FEL:   Surface Location
 PD  .                 GL:   Permanent Datum
 DD  .F              3770:   Depth driller
 DL  .F              3750:   Depth logger
 BLI .F              3744:   Bottom log interval
 CS1 .IN            9.625:   Casing size
 CBD1.      9.625" @ 473':   Casing driller 1
 CBL1.F               482:   Casing logger 1
 BS1 .IN            7.875:   Bit size
 DFT .                GEL:   Type fluid in hole
 DFD .                9.1:   Density
 DFV .                 34:   Viscosity
 DFPH.               10.5:   pH
 DFL .                 12:   Fluid loss
 MSS .            MUD PIT:   Source of sample
 RMS .OHMM           1.50:   Rm
 MST .F                84:   Rm Meas. temp.
 RMF .OHMM           1.37:   Rmf
 MFST.F                83:   Rmf Meas. temp.
 RMC .OHMM           1.20:   Rmc
 MCST.F                83:   Rmc Meas. temp.
 MFSS.               MEAS:   Source Rmf.
 RMB .OHMM              1:   Rm. at BHT
 BHT .F               130:   BHT.
 TCS .HRS            1500:   Time Circ. stopped
 MRT .F               130:   Maximum recorded temp.
 LUN .               8039:   Logging unit number
 LUL .               CSPR:   Logging unit location
 ENGI. CONOSCENTI/PIRAKIS:   Recorded By
 WITN.             STRONG:   Witnessed by
 ORIG.       2.5"5" PRINT:   Origin of data
 UWI .     49025108910000:   Unique Well ID
 DICO. A2D TECHNOLOGIES, INC.:   Digitizing Company
 DAPD.                 10:   Feet Above Permanent Datum
 BSD1.               3770:   Depth drilled with bit1
 MCSS.               CALC:   Source Rmc.
 TLI .                482:   Top log interval
 TLAB.HR             1800:   Time logger at bottom
~OTHER INFORMATION
~A   DEPT      GRD       NPHI       CALD       RHOB       DRHO       TEND        SPR        SFL        ILD        ILM       TENR   
# ...
  914.0000   100.7360     0.2970    11.8420     2.5120     0.0180   946.7820   -71.7260     9.5670     9.7760     8.6760   954.8880
  914.5000    99.3280     0.2940    11.8410     2.5330     0.0270   947.0960   -71.7760     9.6380     9.8040     8.6670   954.9670
  915.0000    97.9620     0.2930    11.8390     2.5370     0.0370   947.4100   -71.8260     9.7100     9.8650     8.6430   955.0460
  915.5000    93.3870     0.2950    11.8370     2.5360     0.0400   947.7240   -71.8760     9.7820     9.9640     8.6200   955.1250
  916.0000    90.2790     0.2970    11.8360     2.5350     0.0380   948.0380   -71.9260     9.7260     9.9480     8.5960   955.2050
  916.5000    87.6520     0.2880    11.8340     2.5340     0.0370   948.3520   -71.9750     9.6690     9.9080     8.5720   955.2840
  917.0000    86.2250     0.2720    11.8330     2.5320     0.0350   948.6660   -71.9690     9.6130     9.8680     8.5490   955.3630
  917.5000    89.1260     0.2720    11.8310     2.5250     0.0320   948.9800   -71.8900     9.5570     9.8270     8.5250   955.4420
  918.0000    91.3390     0.2760    11.8300     2.5120     0.0250   949.2940   -71.8110     9.5010     9.7870     8.4850   955.5220
  918.5000    91.0390     0.2840    11.8280     2.4990     0.0180   949.6080   -71.7320     9.4450     9.7470     8.4380   955.6010
  919.0000    91.1970     0.2820    11.8270     2.4880     0.0130   949.9220   -71.6520     9.3890     9.7070     8.3900   955.6800
  919.5000    91.0840     0.2770    11.8250     2.4970     0.0180   950.2350   -71.5730     9.3330     9.6670     8.3430   955.7590
  920.0000    91.2030     0.2740    11.8240     2.5010     0.0210   950.5490   -71.4940     9.2760     9.6270     8.2950   955.8390
  920.5000    91.0070     0.2740    11.8270     2.5010     0.0240   950.8630   -71.4150     9.2200     9.5870     8.2480   955.9180
  921.0000    92.4310     0.2710    11.8300     2.5010     0.0260   951.1770   -71.3360     9.1640     9.5470     8.2000   955.9970
  921.5000    94.9200     0.2670    11.8340     2.5010     0.0260   951.4910   -71.2560     9.1080     9.5070     8.1520   956.0760
  922.0000    97.0180     0.2720    11.8370     2.5020     0.0260   951.8050   -71.1770     9.0520     9.4670     8.1050   956.1560
  922.5000    99.3280     0.2810    11.8410     2.5090     0.0310   952.1190   -71.0960     8.9960     9.4270     8.0580   956.2350
  923.0000   100.1720     0.2900    11.8440     2.5170     0.0380   952.4330   -71.0290     8.9250     9.3870     8.1740   956.3140
  923.5000   100.0700     0.2950    11.8480     2.5220     0.0350   952.7470   -71.2130     8.9720     9.3470     8.2880   956.3930
  924.0000   100.1020     0.2960    11.8510     2.5200     0.0270   953.0610   -71.4030     9.0540     9.3070     8.4020   956.4720
  924.5000    99.7870     0.2970    11.8550     2.5160     0.0200   953.3750   -71.5890     9.1370     9.2670     8.5160   956.5520
  925.0000    99.4200     0.2980    11.8590     2.5120     0.0150   953.6890   -71.5620     9.2190     9.2550     8.5960   956.6310
  925.5000    99.0040     0.2980    11.8630     2.5110     0.0190   954.0030   -71.5070     9.3400     9.2550     8.3850   956.7100
  926.0000    98.7020     0.2880    11.8750     2.5150     0.0220   954.3170   -71.4510     9.2510     9.2550     8.2640   956.7890
  926.5000    98.1610     0.2790    11.8900     2.5190     0.0290   954.6310   -71.3960     9.0810     9.2550     8.2080   956.8690
  927.0000    99.0450     0.2870    11.9060     2.5230     0.0310   954.9450   -71.3400     8.8370     9.2550     8.2340   956.9480
  927.5000   101.0410     0.2970    11.9200     2.5250     0.0290   955.2590   -71.2850     8.8720     9.2550     8.2570   957.0270
  928.0000   100.6650     0.3020    11.9390     2.5200     0.0240   955.5730   -71.2290     8.9640     9.2500     8.2800   957.1060
  928.5000    97.1180     0.2950    11.9190     2.5080     0.0130   955.8870   -71.1740     9.0560     9.2420     8.2990   957.1860
  929.0000    93.1750     0.2910    11.8780     2.4960     0.0060   956.2010   -71.1180     9.1480     9.2340     8.3240   957.2650
  929.5000    91.4570     0.2890    11.8410     2.4980     0.0080   956.5150   -71.0630     9.2550     9.2260     8.3480   957.3440
  930.0000    93.4460     0.2990    11.8200     2.5020     0.0140   956.8290   -71.0070     9.2030     9.2180     8.3610   957.4230
  930.5000    94.8840     0.3040    11.8180     2.5070     0.0180   957.1430   -70.9520     9.1420     9.2100     8.3410   957.5020
  931.0000    94.8090     0.2960    11.8130     2.5060     0.0240   957.4570   -70.8970     9.0810     9.2020     8.3110   957.5820
  931.5000    94.3660     0.2900    11.8100     2.4970     0.0240   957.7710   -70.8390     9.0020     9.1940     8.2820   957.6610
  932.0000    93.9800     0.2780    11.8060     2.4880     0.0230   958.0850   -70.8530     9.0450     9.1860     8.2590   957.7400
  932.5000    93.6030     0.2640    11.8020     2.4970     0.0230   958.3990   -70.8910     9.1060     9.1780     8.2350   957.8190
  933.0000    93.1920     0.2650    11.7980     2.5060     0.0230   958.7130   -70.9300     9.1700     9.1700     8.2120   957.8990
  933.5000    92.8330     0.2730    11.7940     2.5150     0.0220   959.0270   -70.9690     9.0950     9.1490     8.1880   957.9780
  934.0000    92.3860     0.3090    11.7900     2.5100     0.0220   959.3410   -71.0080     9.0170     9.1270     8.1650   958.0570
  934.5000    92.4320     0.3100    11.7850     2.5010     0.0170   959.6550   -71.0470     8.9400     9.1050     8.1410   958.1360
  935.0000    94.6810     0.3130    11.7920     2.4910     0.0140   959.9690   -71.0850     8.8620     9.0830     8.1180   958.2160
  935.5000    98.7290     0.3100    11.8080     2.4870     0.0150   960.2830   -71.1240     8.7840     9.0610     8.0940   958.2950
  936.0000    99.1220     0.3010    11.8210     2.4920     0.0150   960.5970   -71.1630     8.7540     9.0390     8.0710   958.3740
  936.5000    99.1220     0.2930    11.8360     2.4920     0.0150   960.9110   -71.2020     8.7480     9.0170     8.0510   958.4530
  937.0000    99.0760     0.3000    11.8500     2.4900     0.0160   961.2240   -71.2400     8.7420     8.9950     8.0220   958.5320
  937.5000    99.1420     0.3060    11.8580     2.4900     0.0170   961.5380   -71.2790     8.7370     8.9730     7.9940   958.6120
  938.0000    99.0390     0.3120    11.8180     2.4990     0.0200   961.8520   -71.3180     8.7310     8.9500     7.9650   958.6910
  938.5000    99.2540     0.3100    11.7880     2.5060     0.0240   962.1660   -71.3570     8.7250     8.9280     7.9370   958.7700
  939.0000    97.5710     0.3080    11.8020     2.5150     0.0270   962.4800   -71.3950     8.7200     8.9060     7.9080   958.8490
  939.5000    94.0330     0.3120    11.8180     2.5140     0.0310   962.7940   -71.4340     8.7140     8.8840     7.8800   958.9290
  940.0000    92.7550     0.3070    11.8350     2.5080     0.0270   963.1080   -71.4730     8.7080     8.8620     7.8510   959.0080
  940.5000    91.4780     0.3020    11.8510     2.5020     0.0220   963.4220   -71.5120     8.7030     8.8400     7.8220   959.0870
  941.0000    93.8610     0.2980    11.8670     2.4980     0.0160   963.7360   -71.5500     8.6970     8.8180     7.7940   959.1660
  941.5000    97.0280     0.2950    11.8830     2.5080     0.0180   964.0500   -71.5880     8.6910     8.7960     7.7660   959.2460
  942.0000    97.7390     0.2940    11.8990     2.5280     0.0260   964.3640   -71.5640     8.6860     8.7740     7.7270   959.3250
  942.5000    97.6770     0.2980    11.9150     2.5350     0.0330   964.6780   -71.4550     8.6800     8.7520     7.6370   959.4040
  943.0000    95.5400     0.3000    11.9310     2.5230     0.0340   964.9920   -71.3470     8.6590     8.7300     7.5950   959.4830
  943.5000    95.4440     0.3020    11.9480     2.5130     0.0290   965.3060   -71.2380     8.5980     8.7080     7.5510   959.5620
  944.0000    97.8410     0.3050    11.9630     2.5000     0.0470   965.6200   -71.1300     8.5360     8.6860     7.5070   959.6420
