~VERSION INFORMATION
 VERS.                2.0:   CWLS LOG ASCII STANDARD - VERSION 2.0
 WRAP.                 NO:   ONE LINE PER DEPTH STEP
~WELL INFORMATION
#MNEM.UNIT      DATA TYPE    INFORMATION
#----------   ------------   ------------------------------
 STRT.F          470.0000:   START DEPTH
 STOP.F         3791.5000:   STOP DEPTH
 STEP.F            0.5000:   STEP LENGTH
 NULL.          -999.2500:   NO VALUE
 COMP.    FENIX & SCISSON:   COMPANY
 WELL.   FENIX MDX #44-10:   WELL
 FLD .                NPR:   FIELD
 LOC .      S10 T38N R78W:   LOCATION
 CNTY.            NATRONA:   COUNTY
 STAT.            WYOMING:   STATE
 CTRY. UNITED STATES OF AMERICA:   COUNTRY
 SRVC.       SCHLUMBERGER:   SERVICE COMPANY
 DATE.        25-OCT-1977:   LOGDATE
 API .     49025104310000:   API NUMBER
~CURVE INFORMATION
#MNEM.UNIT       API CODE    CURVE DESCRIPTION
#----------   ------------   ------------------------------
 DEPT.F                  :   
 DT  .US/F   60 520 00 00:   DELTA TIME
 SPR .MV     11 010 01 00:   SPONTANEOUS POTENTIAL FROM RES.
 LLS .OHMM   11 220 09 00:   LATEROLOG LOG SHALLOW
 LLD .OHMM   11 220 10 00:   LATEROLOG LOG DEEP
 MSFL.OHMM   11 270 04 00:   MICRO SPHERICALLY FOCUSED
 NPOR.DEC    42 890 03 00:   ALPHA PROCESSED NEUTRON POROSITY
 RHOB.G/C3   45 350 01 00:   BULK DENSITY
 CORR.G/C3   45 356 01 00:   DENSITY CORRECTION
 GRD .GAPI   45 310 01 00:   GAMMA RAY FROM DENSITY LOG
 CALD.IN     45 280 60 00:   CALIPER FROM DENSITY LOG
~PARAMETER INFORMATION
#MNEM.UNIT          VALUE    DESCRIPTION
#----------   ------------   ------------------------------
 EKB .F         5239.0000:   Kelly bushing
 EGL .F         5229.0000:   Ground level
 EDF .F            0.0000:   Drilling floor
 EPD .F           10.0000:   Permanent datum
 TD  .F         3802.0000:   Total depth
 DATE.        25-OCT-1977:   Date logged
 CLNT.            A2DTECH:   Client Code
 SL  . 2640' FNL & 2640' FEL:   Surface Location
 PD  .                 GL:   Permanent Datum
 DD  .F              3802:   Depth driller
 DL  .F              3791:   Depth logger
 BLI .F              3789:   Bottom log interval
 TLI .F               505:   Top log interval
 CS1 .IN            8.625:   Casing size
 CBD1.       8.625 @ 505':   Casing driller 1
 CBL1.F               505:   Casing logger 1
 BS1 .IN            7.875:   Bit size
 DFT .            KCL MUD:   Type fluid in hole
 DFD .                9.1:   Density
 DFV .                 45:   Viscosity
 DFPH.               10.5:   pH
 DFL .                  8:   Fluid loss
 MSS .             MUDPIT:   Source of sample
 RMS .OHMM           .209:   Rm
 MST .F                72:   Rm Meas. temp.
 RMF .OHMM           .179:   Rmf
 MFST.F                72:   Rmf Meas. temp.
 RMC .OHMM           .314:   Rmc
 MCST.F                72:   Rmc Meas. temp.
 MFSS.               MEAS:   Source Rmf.
 RMB .OHMM           .122:   Rm. at BHT
 BHT .F               123:   BHT.
 TCS .HRS            1400:   Time Circ. stopped
 MRT .F               123:   Maximum recorded temp.
 LUN .               5642:   Logging unit number
 LUL .               CSPR:   Logging unit location
 ENGI.             SAYLER:   Recorded By
 WITN.         PETTINGILL:   Witnessed by
 ORIG.           5" PRINT:   Origin of data
 UWI .     49025104310000:   Unique Well ID
 DICO. A2D TECHNOLOGIES, INC.:   Digitizing Company
 DAPD.                 10:   Feet Above Permanent Datum
 BSD1.               3802:   Depth drilled with bit1
 MCSS.               CALC:   Source Rmc.
~OTHER INFORMATION
~A   DEPT        DT       SPR        LLS        LLD       MSFL       NPOR       RHOB       CORR        GRD       CALD   
# ...
 2011.0000    92.8500   -53.5640    15.1530    12.7940    17.5810     0.3340     2.4460     0.0120   127.5340     9.7930
 2011.5000    92.7420   -53.5290    15.6710    13.2160    18.1560     0.3320     2.4410     0.0160   127.6840     9.7740
 2012.0000    91.8210   -53.4930    16.1080    13.3980    18.1190     0.3290     2.4360     0.0010   131.5560     9.7560
 2012.5000    91.8000   -53.4580    15.7370    13.6470    18.0160     0.3240     2.4360     0.0070   133.7910     9.7380
 2013.0000    92.1500   -53.4230    15.4170    13.3950    17.6900     0.3230     2.4440    -0.0020   133.4660     9.7200
 2013.5000    91.8110   -53.3880    15.0970    13.2090    17.2900     0.3240     2.4510     0.0050   130.8980     9.7020
 2014.0000    91.7820   -53.3530    14.7770    13.0230    17.0230     0.3290     2.4390     0.0090   128.3750     9.6840
 2014.5000    92.0580   -53.3170    14.6900    12.8370    17.9900     0.3460     2.4380    -0.0100   126.0210     9.6780
 2015.0000    91.9770   -53.2820    14.8260    12.6510    18.4940     0.3470     2.4450     0.0040   124.5320     9.6740
 2015.5000    91.6050   -53.2470    14.8260    12.2160    16.6400     0.3380     2.4520     0.0010   123.0180     9.6690
 2016.0000    91.9300   -53.2120    13.5840    11.5470    15.2380     0.3280     2.4570     0.0070   121.5940     9.6640
 2016.5000    92.3760   -53.1760    12.9130    11.2470    14.8260     0.3140     2.4620     0.0130   118.0030     9.6650
 2017.0000    92.0360   -53.1680    12.7950    11.1440    14.6900     0.3030     2.4690     0.0050   114.1670     9.6800
 2017.5000    91.6500   -53.1680    13.4650    11.3910    15.6260     0.3030     2.4630     0.0040   110.3380     9.6810
 2018.0000    92.0380   -53.1680    13.9680    12.2380    16.3470     0.3040     2.4600     0.0080   107.1170     9.6810
 2018.5000    91.5160   -53.1680    14.4710    12.7000    16.9760     0.3040     2.4650     0.0030   109.4680     9.6810
 2019.0000    90.9940   -53.1680    14.9740    12.7470    17.2640     0.3010     2.4720     0.0120   114.5090     9.6810
 2019.5000    90.4720   -53.1680    15.3830    12.7940    17.4400     0.2990     2.4740     0.0060   119.5790     9.6810
 2020.0000    90.1120   -53.1680    15.3830    12.8400    17.5000     0.3040     2.4510     0.0090   126.3270     9.6810
 2020.5000    89.8640   -53.1680    15.3830    12.8870    16.9230     0.3120     2.4440    -0.0060   131.2170     9.6810
 2021.0000    89.3680   -53.1680    15.3830    12.9130    16.2920     0.3190     2.4490     0.0030   129.9200     9.6810
 2021.5000    89.1670   -53.1680    14.5360    12.4290    15.8140     0.3230     2.4360    -0.0090   127.6290     9.6830
 2022.0000    89.9500   -53.1680    13.3980    12.1070    16.0540     0.3240     2.4380     0.0030   125.2780     9.6860
 2022.5000    90.9370   -53.1310    13.6470    12.2190    16.4300     0.3270     2.4440    -0.0010   122.9180     9.6880
 2023.0000    92.0500   -53.0610    13.8020    12.4460    16.8050     0.3310     2.4340     0.0020   120.5580     9.6910
 2023.5000    93.4500   -52.9910    13.9300    12.4460    17.0230     0.3310     2.4410     0.0070   118.2100     9.6940
 2024.0000    92.5500   -52.9200    14.0580    12.4460    16.2570     0.3230     2.4590    -0.0020   116.1490     9.6970
 2024.5000    92.8530   -52.8500    14.1590    12.3320    16.4650     0.3310     2.4660     0.0030   115.1200     9.6990
 2025.0000    93.1500   -52.7790    14.1050    12.1940    16.7120     0.3170     2.4660     0.0180   117.1890     9.7020
 2025.5000    91.9380   -52.7090    13.8340    11.9640    16.6110     0.3230     2.4810     0.0050   115.1260     9.7050
 2026.0000    92.4340   -52.6380    13.5640    11.7350    16.4430     0.3400     2.4740     0.0150   115.8660     9.7070
 2026.5000    92.1610   -52.5680    13.3190    11.5060    16.0200     0.3270     2.4730     0.0160   119.3100     9.7100
 2027.0000    91.7200   -52.4970    12.8910    10.6630    14.4190     0.3120     2.4690     0.0130   122.7610     9.7130
 2027.5000    91.2790   -52.4280    11.4770     9.6170    12.0130     0.3190     2.4540     0.0030   126.2790     9.7160
 2028.0000    91.1030   -52.3990    10.7410     9.6170    11.4560     0.3130     2.4490     0.0160   127.0320     9.7180
 2028.5000    91.7050   -52.5020    11.7530     9.7060    13.8080     0.3210     2.4630     0.0090   122.9450     9.7210
 2029.0000    92.3080   -52.6010    13.0800    10.8040    16.8920     0.3210     2.4520     0.0200   119.7390     9.7260
 2029.5000    92.7110   -52.6990    14.4070    11.9510    18.0150     0.3210     2.4530     0.0080   116.5350     9.7300
 2030.0000    92.8500   -52.7980    15.8140    13.5220    18.3240     0.3150     2.4630     0.0170   113.2640     9.7340
 2030.5000    91.8380   -52.8970    15.3560    13.3350    17.7150     0.3010     2.4510    -0.0040   112.5270     9.7380
 2031.0000    90.8460   -53.0010    14.6900    12.9870    16.5810     0.2890     2.4660     0.0010   113.3800     9.7520
 2031.5000    90.4510   -53.1350    14.6900    12.6390    15.8140     0.2860     2.4790     0.0080   114.9670     9.7730
 2032.0000    90.2500   -53.2670    14.1780    12.2950    16.1370     0.2970     2.4680     0.0010   116.5530     9.7930
 2032.5000    90.1270   -53.3980    13.6220    11.9780    16.4070     0.3070     2.4770     0.0100   118.1450     9.8150
 2033.0000    90.0030   -53.5300    13.0670    11.6600    15.8420     0.3160     2.4870     0.0020   118.8350     9.8190
 2033.5000    90.0500   -53.6610    12.6770    11.3430    15.0450     0.3150     2.4800     0.0180   117.9240     9.8190
 2034.0000    91.4100   -53.7470    12.9130    11.0420    14.9630     0.3110     2.4800     0.0110   116.5950     9.8190
 2034.5000    92.2870   -53.6530    13.2920    11.0420    16.0490     0.3040     2.4810     0.0110   115.2480     9.8190
 2035.0000    92.5350   -53.5630    13.6380    11.7360    16.7970     0.2950     2.4820     0.0210   113.8970     9.8190
 2035.5000    92.1560   -53.4730    13.9850    12.2760    17.3390     0.2890     2.4770     0.0100   112.5510     9.8190
 2036.0000    91.2350   -53.3820    14.1590    12.5610    16.5100     0.2820     2.4760     0.0150   111.3390     9.8180
 2036.5000    90.3140   -53.3410    13.4910    12.1070    15.5610     0.2930     2.4820     0.0060   110.9130     9.8160
 2037.0000    89.8140   -53.3090    13.0370    11.4260    14.6110     0.2970     2.4790     0.0080   112.5140     9.8140
 2037.5000    89.4500   -53.2780    12.5830    10.7450    13.9000     0.2960     2.4840     0.0010   114.4880     9.8120
 2038.0000    89.9650   -53.2460    12.2670    10.5450    13.9000     0.3040     2.4950     0.0060   116.4120     9.8100
 2038.5000    90.5370   -53.2150    12.1220    10.5080    14.9630     0.3100     2.4860    -0.0040   116.4770     9.8080
 2039.0000    90.7430   -53.1830    11.9770    10.4640    14.9630     0.3150     2.4780     0.0060   116.4820     9.8050
 2039.5000    89.9990   -53.1520    11.8310    10.4480    14.4080     0.3210     2.4710    -0.0030   115.6460     9.8030
 2040.0000    90.1530   -53.1200    11.8860    10.1020    13.8700     0.3270     2.4750     0.0070   114.2750     9.8020
 2040.5000    90.7600   -53.0890    11.7540     9.7060    13.7730     0.3230     2.4680     0.0090   112.3210     9.8130
 2041.0000    91.3660   -53.0580    11.5930     9.6170    13.5450     0.3180     2.4580     0.0100   112.6180     9.8550
 2041.5000    91.9500   -53.0260    11.4790     9.6010    13.0410     0.3190     2.4620     0.0170   113.1720     9.8790
 2042.0000    92.2660   -52.9950    11.3430     9.5820    12.4530     0.3200     2.4660     0.0250   113.6780     9.9040
 2042.5000    92.5720   -52.9630    11.2070     9.5630    12.3320     0.3220     2.4750     0.0330   113.9090     9.9190
 2043.0000    92.6370   -52.9320    11.0710     9.5440    13.2120     0.3230     2.4800     0.0600   114.2270     9.9150
 2043.5000    92.3640   -52.9000    11.0420     9.5290    13.5220     0.3250     2.4600     0.0400   114.2280     9.8160
 2044.0000    92.0910   -52.8690    11.3340     9.5290    13.5220     0.3270     2.4680     0.0160   113.0640     9.7460
