~VERSION INFORMATION
 VERS.                2.0:   CWLS LOG ASCII STANDARD - VERSION 2.0
 WRAP.                 NO:   ONE LINE PER DEPTH STEP
~WELL INFORMATION
#MNEM.UNIT      DATA TYPE    INFORMATION
#----------   ------------   ------------------------------
 STRT.F           54.0000:   START DEPTH
 STOP.F         5201.0000:   STOP DEPTH
 STEP.F            0.5000:   STEP LENGTH
 NULL.          -999.2500:   NO VALUE
 COMP.   TESORO PETROLEUM:   COMPANY
 WELL. TESORO DX NPR-3 #51-26:   WELL
 FLD .        TEAPOT DOME:   FIELD
 LOC .      S26 T38N R78W:   LOCATION
 CNTY.            NATRONA:   COUNTY
 STAT.            WYOMING:   STATE
 CTRY. UNITED STATES OF AMERICA:   COUNTRY
 SRVC.      DRESSER ATLAS:   SERVICE COMPANY
 DATE.        27-AUG-1976:   LOGDATE
 API .     49025102680000:   API NUMBER
~CURVE INFORMATION
#MNEM.UNIT       API CODE    CURVE DESCRIPTION
#----------   ------------   ------------------------------
 DEPT.F                  :   
 GRD .GAPI   45 310 01 00:   GAMMA RAY FROM DENSITY LOG
 CALD.IN     45 280 60 00:   CALIPER FROM DENSITY LOG
 CORR.G/C3   45 356 01 00:   DENSITY CORRECTION
 RHOB.G/C3   45 350 01 00:   BULK DENSITY
 SPR .MV     07 010 01 00:   SPONTANEOUS POTENTIAL
 ILD .OHMM   07 120 46 00:   DEEP INDUCTION RESISTIVITY
 ILM .OHMM   07 120 44 00:   INDUCTION LOG MEDIUM RESISTIVITY
 RFOC.OHMM   07 220 04 00:   RESISTIVITY FOCUSED LOG RES.
 TEND.LBS    45 635 01 00:   TENSION FORM DENSITY LOG
 NPHI.DEC    42 890 03 00:   NEUTRON POROSITY SANDSTONE
~PARAMETER INFORMATION
#MNEM.UNIT          VALUE    DESCRIPTION
#----------   ------------   ------------------------------
 EKB .F         5453.5000:   Kelly bushing
 EGL .F         5442.0000:   Ground level
 EDF .F         5452.0000:   Drilling floor
 EPD .F            0.0000:   Permanent datum
 TD  .F         5193.0000:   Total depth
 CLNT.            A2DTECH:   Client Code
 SL  . 2000' FEL & 600' FNL:   Surface Location
 PD  .                 GL:   Permanent Datum
 DAPD.F              11.5:   Feet Above Permanent Datum
 DATE.        27-AUG-1976:   Date Logged [DD-MMM-YYYY]
 DD  .F              5193:   Depth driller
 DL  .F              5193:   Depth logger
 BLI .F              5191:   Bottom log interval
 TLI .F              1726:   Top log interval
 CS1 .IN            8.625:   Casing size
 CBD1.     8.625" @ 1724':   Casing driller 1
 CBL1.F              1726:   Casing logger 1
 BS1 .IN            7.875:   Bit size
 BSD1.F              5193:   Depth drilled with bit1
 DFT .           CHEM GEL:   Type fluid in hole
 DFD .                9.2:   Density
 DFV .                 65:   Viscosity
 DFPH.                 10:   pH
 DFL .                5.8:   Fluid loss
 MSS .           FLOWLINE:   Source of sample
 RMS .OHMM           1.70:   Rm
 MST .F                71:   Rm Meas. temp.
 RMF .OHMM              1:   Rmf
 MFST.F                68:   Rmf Meas. temp.
 MFSS.               MEAS:   Source Rmf.
 RMC .OHMM           1.30:   Rmc
 MCST.F                66:   Rmc Meas. temp.
 MCSS.               MEAS:   Source Rmc.
 RMB .OHMM           0.85:   Rm. at BHT
 BHT .F               142:   BHT.
 TCS .HRS               6:   Time Circ. stopped
 MRT .F               142:   Maximum recorded temp.
 LUN .               6145:   Logging unit number
 LUL .              GLTTE:   Logging unit location
 ENGI.        GOULD-HOYER:   Recorded By
 WITN.        WOLF-CARTER:   Witnessed by
 ORIG.           5" PRINT:   Origin of data
 UWI .     49025102680000:   Unique Well ID
 DICO. A2D TECHNOLOGIES, INC.:   Digitizing Company
~OTHER INFORMATION
~A   DEPT      GRD       CALD       CORR       RHOB        SPR         ILD        ILM      RFOC       TEND       NPHI   
# ...
 2198.0000    81.4074     9.5934    -0.0160     2.5285   -42.7726     8.3412     8.4475     8.8645    71.6068     0.2163
 2198.5000    82.1577     9.5960    -0.0132     2.5377   -42.5513     8.3480     8.3364     8.5655    70.5928     0.2175
 2199.0000    81.9541     9.5982    -0.0085     2.5438   -42.2946     8.3549     8.2298     8.2869    69.5654     0.2212
 2199.5000    81.9977     9.6004     0.0006     2.5544   -41.9803     8.2469     8.0672     8.3514    75.8073     0.2301
 2200.0000    81.5557     9.6026    -0.0053     2.5440   -41.8155     8.0842     7.9626     8.2996    74.7938     0.2222
 2200.5000    80.1599     9.6048    -0.0128     2.5303   -41.6341     7.9797     7.8053     8.2467    73.7798     0.2180
 2201.0000    78.2785     9.6070    -0.0185     2.5207   -41.4706     7.9260     7.7560     8.4263    72.7658     0.2219
 2201.5000    77.8452     9.6092    -0.0214     2.5187   -41.1512     7.7670     7.7097     8.6084    79.5012     0.2209
 2202.0000    78.3570     9.6114    -0.0182     2.5233   -41.1294     7.8403     7.7157     8.6142    78.2340     0.2200
 2202.5000    80.2995     9.6136    -0.0181     2.5174   -41.1076     7.8478     7.7214     8.2705    77.2113     0.2241
 2203.0000    82.4805     9.6309    -0.0150     2.5137   -41.0858     7.7471     7.6740     8.2178    75.9522     0.2283
 2203.5000    82.7538     9.6392    -0.0118     2.5153   -41.3617     7.5431     7.6800     8.2248    97.7417     0.2292
 2204.0000    81.3272     9.6569    -0.0105     2.5327   -41.6375     7.4982     7.6698     8.1736    96.4703     0.2328
 2204.5000    81.8785     9.6824    -0.0070     2.5366   -41.9133     7.4536     7.6461     7.9567   103.2039     0.2399
 2205.0000    81.4278     9.6846    -0.0054     2.5344   -42.1891     7.5142     7.6224     7.8529   109.4452     0.2435
 2205.5000    81.7099     9.6868    -0.0038     2.5375   -42.4650     7.5213     7.5987     7.8042   108.3956     0.2393
 2206.0000    80.5525     9.6891     0.0024     2.5460   -42.5920     7.5807     7.5750     7.9742   107.1396     0.2329
 2206.5000    80.1018     9.6762     0.0077     2.5514   -42.7190     7.5879     7.5513     8.2597   106.1224     0.2328
 2207.0000    80.8608     9.6940     0.0132     2.5486   -42.6917     7.7008     7.5258     8.4381   105.1051     0.2326
 2207.5000    80.8956     9.6962     0.0086     2.5396   -42.6699     7.7081     7.5845     8.5041   104.0878     0.2369
 2208.0000    79.9767     9.6981     0.0035     2.5322   -42.6482     7.7154     7.6966     8.2475   103.0705     0.2430
 2208.5000    77.8656     9.7003     0.0015     2.5308   -42.4776     7.7763     7.7034     7.9182    94.5570     0.2385
 2209.0000    78.9186     9.7025     0.0032     2.5340   -42.3065     7.7300     7.8715     8.3767    93.5397     0.2312
 2209.5000    81.0439     9.7050     0.0039     2.5386   -42.1101     7.7374     7.7081     7.8251    85.0077     0.2246
 2210.0000    82.2711     9.7070     0.0056     2.5319   -41.6627     7.7449     7.5654     8.6262    83.7548     0.2186
 2210.5000    83.0213     9.7242     0.0087     2.5268   -41.3433     7.6456     7.5737     8.7537    82.7375     0.2203
 2211.0000    83.7716     9.7265     0.0059     2.5231   -40.8750     7.6001     7.5803     8.2909    81.7203     0.2231
 2211.5000    84.9987     9.7287     0.0016     2.5225   -40.7044     7.5548     7.5870     8.0168    80.7030     0.2200
 2212.0000    80.5031     9.7459     0.0017     2.5346   -40.5393     7.5638     7.4896     8.3630    79.6857     0.2165
 2212.5000    79.1058     9.7519     0.0034     2.5292   -40.8096     7.5170     7.3410     8.2464    86.2067     0.2202
 2213.0000    78.1878     9.7654     0.0035     2.5199   -40.9375     7.4225     7.1985     7.8749    85.1474     0.2292
 2213.5000    78.2389     9.7829     0.0052     2.5177   -41.2128     7.3766     7.2546     7.7203    84.1081     0.2324
 2214.0000    80.1669     9.7851     0.0085     2.5261   -41.7859     7.2837     7.5159     7.6196    90.6091     0.2369
 2214.5000    81.6401     9.7873     0.0133     2.5262   -41.9327     7.1412     7.5224     7.8413    97.0880     0.2459
 2215.0000    83.1057     9.8042     0.0207     2.5308   -42.1833     7.0498     7.3257     8.0123   103.5670     0.2501
 2215.5000    81.2330     9.8214     0.0329     2.5497   -42.3158     7.0078     7.2316     8.0193   102.2952     0.2506
 2216.0000    80.0669     9.8388     0.0285     2.5566   -42.2885     7.0161     7.2881     8.0264   101.2784     0.2521
 2216.5000    82.2565     9.8490     0.0197     2.5522   -42.2667     7.0227     7.3450     8.0334   100.2611     0.2406
 2217.0000    82.7683     9.8731     0.0154     2.5463   -41.9473     7.0294     7.2992     8.0405    99.2438     0.2358
 2217.5000    81.3725     9.8903     0.0155     2.5374   -41.7767     7.0361     7.1576     7.9194    98.2009     0.2376
 2218.0000    82.8381     9.8988     0.0162     2.5127   -41.4573     7.0899     7.1130     7.5192    96.9547     0.2399
 2218.5000    81.6734     9.9165     0.0203     2.5090   -41.2867     7.0477     7.1208     7.6832    88.4411     0.2426
 2219.0000    80.4607     9.9268     0.0235     2.5006   -40.9673     7.0074     7.1764     7.7431    88.4554     0.2450
 2219.5000    79.6045     9.9290     0.0312     2.4965   -40.7961     6.9655     7.1828     7.3845    89.9145     0.2486
 2220.0000    81.5506     9.9312     0.0405     2.5109   -40.6206     6.9723     7.1395     7.2881    91.3735     0.2527
 2220.5000    80.5327     9.9336     0.0450     2.5185   -40.5988     6.9790     7.0479     7.6571    92.0380     0.2522
 2221.0000    79.7350     9.9454     0.0347     2.5209   -40.4282     6.9858     7.0556     7.8782    90.7666     0.2467
 2221.5000    80.4967     9.9529     0.0273     2.5233   -40.4064     7.0410     7.2095     7.7771    89.7493     0.2472
 2222.0000    78.4086     9.9552     0.0215     2.5219   -40.3847     7.0490     7.3160     7.4650    88.7321     0.2508
 2222.5000    78.2049     9.9577     0.0201     2.5205   -40.5171     7.1047     7.2705     7.4837    87.7061     0.2538
 2223.0000    78.9781     9.9748     0.0233     2.5251   -40.6786     7.1114     7.1772     8.0729    86.6565     0.2489
 2223.5000    80.4552    10.0069     0.0295     2.5274   -40.7664     7.1761     7.1354     8.3061    85.4256     0.2468
 2224.0000    82.4091    10.0241     0.0342     2.5268   -40.8929     7.2241     7.1419     8.0315    84.4084     0.2483
 2224.5000    82.9324    10.0108     0.0298     2.5344   -41.0197     7.2309     7.1977     7.8739    83.3911     0.2500
 2225.0000    80.9935    10.0135     0.0240     2.5357   -41.3446     7.1876     7.2541     7.6662    82.3738     0.2465
 2225.5000    80.6405     9.9859     0.0227     2.5316   -42.0124     7.1450     7.3120     7.5661    81.3565     0.2503
 2226.0000    83.0714     9.9731     0.0231     2.5288   -42.1448     7.0537     7.2665     7.8403    80.3397     0.2601
 2226.5000    79.3141     9.9753     0.0290     2.5289   -42.1176     6.9634     7.1254     7.9015    79.3102     0.2682
 2227.0000    76.9759     9.9776     0.0367     2.5328   -42.0570     6.9220     7.0811     7.9085    85.8014     0.2652
 2227.5000    78.9299     9.9648     0.0413     2.5449   -41.9252     6.8808     7.0889     7.8522    84.5296     0.2579
 2228.0000    83.2683     9.9675     0.0130     2.5368   -41.6058     6.9367     7.1442     7.7599    91.2631     0.2588
 2228.5000    86.1760     9.9847     0.0057     2.5260   -41.2863     6.9915     7.1999     7.7684    89.9912     0.2534
 2229.0000    85.0074     9.9865     0.0088     2.5138   -40.9669     6.9981     7.1075     7.8291    88.9740     0.2484
 2229.5000    86.0419     9.9891     0.0165     2.5006   -40.7190     7.0533     7.0648     7.5182    95.7075     0.2446
 2230.0000    88.6996     9.9913     0.0211     2.5181   -40.4762     7.1090     7.1267     7.4714    94.4357     0.2407
 2230.5000    81.6002     9.9933     0.0213     2.5189   -40.3009     7.1157     7.3272     7.6888    85.9072     0.2349
 2231.0000    79.0237    10.0106     0.0199     2.5100   -40.2791     7.1225     7.2816     7.8025    84.6508     0.2424
