~VERSION INFORMATION
 VERS.                2.0:   CWLS LOG ASCII STANDARD - VERSION 2.0
 WRAP.                 NO:   ONE LINE PER DEPTH STEP
~WELL INFORMATION
#MNEM.UNIT      DATA TYPE    INFORMATION
#----------   ------------   ------------------------------
 STRT.F           57.0000:   START DEPTH
 STOP.F         5817.0000:   STOP DEPTH
 STEP.F            0.5000:   STEP LENGTH
 NULL.          -999.2500:   NO VALUE
 COMP. DEPARTMENT OF ENERGY:   COMPANY
 WELL. DEPARTMENT NPR 371 "X" #1-4:   WELL
 FLD .              NPR-3:   FIELD
 LOC .       S4 T38N R78W:   LOCATION
 CNTY.            NATRONA:   COUNTY
 STAT.            WYOMING:   STATE
 CTRY. UNITED STATES OF AMERICA:   COUNTRY
 SRVC.       SCHLUMBERGER:   SERVICE COMPANY
 DATE.        25-AUG-2002:   LOGDATE
 API .     49025230480000:   API NUMBER
~CURVE INFORMATION
#MNEM.UNIT       API CODE    CURVE DESCRIPTION
#----------   ------------   ------------------------------
 DEPT.F                  :   
 HCAL.IN     07 280 01 00:   HRLT CALIPER
 RLA1.OHMM   06 120 01 00:   HRLT RESISTIVITY 1
 RLA2.OHMM   06 120 02 00:   HRLT RESISTIVITY 2
 RLA3.OHMM   06 120 03 00:   HRLT RESISTIVITY 3
 RXOZ.OHMM   06 270 04 00:   STAN RES. MICROCFL RESISTIVITY
 TENR.LBS    06 635 01 00:   TENSION FROM RESITIVITY
 GRR .GAPI   07 310 01 00:   GAMMA RAY FROM RESISTIVITY
 SPHI.DEC    60 890 22 00:   SONIC POROSITY SANDSTONE
 DT  .US/F   60 520 00 00:   DELTA TIME
 TENS.LBS    60 635 01 00:   TENSION FROM SONIC
 RT  .OHMM   06 120 00 00:   HRLT TRUE RESISTIVITY
~PARAMETER INFORMATION
#MNEM.UNIT          VALUE    DESCRIPTION
#----------   ------------   ------------------------------
 EKB .F         5196.0000:   Kelly bushing
 EGL .F         5186.0000:   Ground level
 EDF .F         5194.0000:   Drilling floor
 TD  .F         5803.0000:   Total depth
 CLNT.            A2DTECH:   Client Code
 SL  . 794' FEL & 333' FNL:   Surface Location
 PD  .                 GL:   Permanent Datum
 EPD .F              5186:   Elevation Permanent Datum
 LMF .                 KB:   Log Measured From
 DMF .                 KB:   Drilling Measured From
 DAPD.F                10:   Feet Above Permanent Datum
 DATE.        25-AUG-2002:   Date Logged [DD-MMM-YYYY]
 DD  .F              5800:   Depth driller
 DL  .F              5803:   Depth logger
 BLI .F              5803:   Bottom log interval
 TLI .F               656:   Top log interval
 CS1 .IN            9.625:   Casing size
 CBD1.      9.625" @ 660':   Casing driller 1
 CBL1.F               656:   Casing logger 1
 BS1 .IN            8.750:   Bit size
 BSD1.F              5800:   Depth drilled with bit1
 DFT .           GEL CHEM:   Type fluid in hole
 DFD .                  9:   Density
 DFV .                 36:   Viscosity
 DFPH.                8.5:   pH
 DFL .                7.6:   Fluid loss
 MSS .           FLOWLINE:   Source of sample
 RMS .OHMM          0.846:   Rm
 MST .F                90:   Rm Meas. temp.
 RMF .OHMM          0.670:   Rmf
 MFST.F                90:   Rmf Meas. temp.
 MFSS.               MEAS:   Source Rmf.
 RMC .OHMM          1.075:   Rmc
 MCST.F                90:   Rmc Meas. temp.
 MCSS.               CALC:   Source Rmc.
 TCS .HRS            0300:   Time Circ. stopped
 TLAB.HRS            0915:   Time logger at bottom
 MRT .F               156:   Maximum recorded temp.
 LUN .               2211:   Logging unit number
 LUL .             CASPER:   Logging unit location
 ENGI.        J.L. FLORES:   Recorded By
 WITN.        STEVE HARDY:   Witnessed by
 ORIG.        2" 5" PRINT:   Origin of data
 UWI .     49025230480000:   Unique Well ID
 DICO. A2D TECHNOLOGIES, INC.:   Digitizing Company
~OTHER INFORMATION
~A   DEPT     HCAL       RLA1       RLA2       RLA3       RXOZ       TENR         GRR      SPHI         DT       TENS         RT   
# ...
 1338.0000    10.7765     7.5810     7.3585     7.2767     6.5807  1366.6666    97.1646     0.2935    91.6139   881.3253     7.3582
 1338.5000    11.3193     7.3746     7.4088     7.2264     6.0092  1366.6666    95.1016     0.2932    91.6161   881.6324     7.5647
 1339.0000    11.3943     7.7424     7.9382     7.6912     5.3470  1366.6666    92.5894     0.2932    91.5424   881.9868     7.8310
 1339.5000    10.7438     8.1850     8.2166     8.4157     5.2733  1366.6666    88.9482     0.2938    92.1474   882.2703     8.2197
 1340.0000    10.7280     8.3003     8.4462     8.8951     7.6069  1366.6666    85.9907     0.2999    93.5071   882.5537     8.2767
 1340.5000    10.7272     8.3015     8.2147     8.6521     7.5528  1366.6666    92.3154  -999.2500    94.6400   882.8372     7.9953
 1341.0000    10.7719     8.1880     8.0450     8.2999     7.2465  1366.6666    98.8666  -999.2500    95.6222   883.1325     7.8854
 1341.5000    10.7711     8.0765     8.0442     8.1293     7.0483  1366.6666   102.2496  -999.2500    95.5489   883.4750     7.8854
 1342.0000    10.7551     8.0778     8.0991     8.2427     7.0968  1366.6666    98.8350  -999.2500    94.0424   883.7349     7.9401
 1342.5000    10.7242     8.0790     8.0981     8.2999     7.0963  1366.6666    95.8696  -999.2500    92.6867   877.1309     8.0508
 1343.0000    10.6932     8.0800     8.1534     8.1858     7.0957  1366.6666    94.2677  -999.2500    92.6888   869.2653     8.1067
 1343.5000    10.7227     7.9150     7.9300     7.9520     7.0464  1366.6666    93.1229  -999.2500    93.1431   869.5782     7.6172
 1344.0000    10.7371     7.6449     7.5545     7.7984     6.3517  1366.6666    97.8575  -999.2500    93.2956   869.9031     7.6701
 1344.5000    10.7212     7.8625     7.5017     7.9651     6.2209  1366.6666    97.1620  -999.2500    92.6945   870.1807     7.9401
 1345.0000    10.7206     8.3156     8.0377     8.4742     6.3508  1366.6666    97.8259  -999.2500    91.1125   870.5410     8.2767
 1345.5000    10.7498     8.5466     8.6120     8.7735     6.8050  1366.6666    94.8645     0.2888    91.1143   870.7831     8.6875
 1346.0000    10.7644     8.5479     8.8529     8.5331     6.9473  1366.6666    91.4459     0.2981    93.0018   871.0843     8.4504
 1346.5000    10.7635     8.5490     8.6100     8.1858     6.9949  1366.6666    91.2035  -999.2500    93.8331   871.4151     8.3921
 1347.0000    10.7477     8.3165     8.4909     8.0732     7.1410  1366.6666    90.7346  -999.2500    94.4382   871.7458     8.2197
 1347.5000    10.7166     7.8146     8.0285     8.1293     7.1901  1372.8042    89.5819  -999.2500    94.8928   872.0293     7.7703
 1348.0000    10.7008     7.6548     7.7057     8.0175     7.0908  1384.4865    88.4331  -999.2500    95.0454   872.3127     7.6172
 1348.5000    10.7153     7.6559     7.6509     7.5854     6.9448  1396.1688    85.4717  -999.2500    94.6701   879.4913     7.5851
 1349.0000    10.7143     7.7640     8.0302     7.7446     6.8964  1407.8512    89.9671  -999.2500    93.5410   887.9518     7.6505
 1349.5000    10.6985     7.9832     8.4861     8.4157     7.1386  1419.5336    87.4700  -999.2500    92.5624   888.2530     7.8214
 1350.0000    10.6978     8.3232     8.7837     9.0191     7.2375  1431.2159    90.4063     0.2973    91.6591   903.6381     8.2206
 1350.5000    10.6517     8.3232     8.3676     8.6521     7.1871  1442.8983    90.8532     0.2925    91.2029   903.9216     8.4042
 1351.0000    10.5904     8.0957     8.0103     8.1570     7.1866  1454.5807    90.6189     0.2916    91.1986   889.2156     8.1857
 1351.5000    10.5746     7.7574     7.7582     7.4826     7.0386  1466.2631    90.1595     0.2928    91.9494   896.5685     7.5257
 1352.0000    10.5890     7.3471     7.4439     7.5876     6.6593  1477.9454    90.8330  -999.2500    92.9255   904.8193     7.2464
 1352.5000    10.6335     7.9842     7.8322     7.9100     6.5675  1489.6278    91.7315  -999.2500    93.6762   905.1263     7.6716
 1353.0000    10.6781     7.9291     8.0342     7.8017     6.8452  1499.0909    92.4082  -999.2500    94.3565   905.4807     7.7326
 1353.5000    10.6927     7.8743     7.8159     7.6949     6.6121  1490.9849    87.8671  -999.2500    94.8751   905.7642     7.3793
 1354.0000    10.7091     8.0957     8.0360     8.1339     6.7501  1482.8788    89.6736  -999.2500    94.1175   906.0477     7.9185
 1354.5000    10.7258     8.6766     8.3773     8.7176     6.8913  1474.7727    92.3848  -999.2500    92.5295   906.3312     8.3814
 1355.0000    10.7255     7.8743     8.4044     7.9126     6.5199  1466.6666    98.2698  -999.2500    91.9982   920.5681     7.8306
 1355.5000    10.7253     7.9888     8.0387     8.0235     6.6103  1458.5605    99.8497     0.3000    91.9193   920.7454     8.0055
 1356.0000    10.7099     7.2964     8.2081     7.4356     6.7483  1450.4546    98.4824     0.2961    92.1413   905.8575     7.0797
 1356.5000    10.7097     7.3982     7.7137     7.8056     6.9371  1442.3485    99.6075  -999.2500    93.7216   906.0759     7.2379
 1357.0000    10.6339     7.8765     7.6086     8.0253     6.9848  1434.2424    99.1481  -999.2500    96.6585   906.2507     7.8751
 1357.5000    10.5884     7.6591     8.0983     7.4372     7.0815  1426.1364    95.5155  -999.2500    96.8068   906.4692     7.8899
 1358.0000    10.6485     7.4497     7.8239     7.6658     7.3809  1418.0303    94.3779  -999.2500    96.2645   906.6440     7.4709
 1358.5000    10.6785     7.9007     7.7685     8.2524     7.4318  1409.9242    97.7704  -999.2500    94.6866   906.8148     7.3780
 1359.0000    10.6329     8.6766     8.3437     8.4848     7.2284  1401.8182    97.9908  -999.2500    94.0798   907.0030     8.1987
 1359.5000    10.5873     8.4394     8.6821     8.4714     7.0308  1393.7122    97.7564  -999.2500    93.7739   907.2120     8.6142
 1360.0000    10.6023     7.7123     8.3880     7.6488     6.5153  1385.6061   101.8272  -999.2500    93.5709   907.3868     8.1545
 1360.5000    10.6171     7.3471     7.7745     7.3889     6.0797  1377.5000   105.2182  -999.2500    93.3183   907.5678     7.7610
 1361.0000    10.6621     7.1959     7.4080     7.1359     5.9957  1369.3939   104.3056  -999.2500    93.7707   907.7560     7.3074
 1361.5000    10.6467     7.4497     7.1570     6.9916     6.3363  1366.6666    99.5411  -999.2500    94.1052   907.9548     7.2070
 1362.0000    10.6465     7.9291     7.2176     8.0309     6.8841  1366.6666    92.7357  -999.2500    96.1387   908.1325     7.4093
 1362.5000    10.6462     8.5572     7.9963     8.0872     6.8362  1366.6666    91.8231  -999.2500    96.2882   908.3207     8.0094
 1363.0000    10.6309     7.9842     8.2215     7.8126     6.8379  1366.6666    97.7066  -999.2500    95.9743   908.5229     8.3921
 1363.5000    10.6004     7.8743     7.9981     7.7590     6.8866  1366.6666   101.0991  -999.2500    95.2255   908.6976     7.8854
 1364.0000    10.5850     7.8743     7.9437     7.8136     6.9358  1366.6666   100.1865  -999.2500    94.6192   908.9161     7.9401
 1364.5000    10.5848     8.0398     7.9999     8.0493     7.0337  1366.6666    97.0065  -999.2500    94.6163   909.0737     7.9953
 1365.0000    10.5846     8.3232     8.1685     8.2599     7.2327  1366.6666   101.3055  -999.2500    94.7660   909.2620     8.1630
 1365.5000    10.6146     8.3811     8.2922     8.2034     7.1347  1366.6666   101.7524  -999.2500    94.4613   909.4841     8.3921
 1366.0000    10.6294     7.7660     8.5166     7.4977     6.9414  1366.6666   102.6541  -999.2500    93.4773   909.6385     8.5090
 1366.5000    10.6443     7.5536     8.0592     7.6028     6.5242  1366.6666    96.3003  -999.2500    92.4928   909.8337     7.5125
 1367.0000    10.6439     7.9842     7.3672     7.9809     6.8491  1366.6666   100.3726  -999.2500    92.3396   910.0150     7.8854
 1367.5000    10.6286     8.0957     7.2165     8.0370     6.9940  1366.6666   101.4978  -999.2500    93.1684   910.2269     8.1630
 1368.0000    10.5679     7.9291     8.0619     7.8180     6.8048  1366.6666   103.3042  -999.2500    94.2231   910.4017     7.8310
