~VERSION INFORMATION
 VERS.                2.0:   CWLS LOG ASCII STANDARD - VERSION 2.0
 WRAP.                 NO:   ONE LINE PER DEPTH STEP
~WELL INFORMATION
#MNEM.UNIT      DATA TYPE    INFORMATION
#----------   ------------   ------------------------------
 STRT.F          640.0000:   START DEPTH
 STOP.F         2792.0000:   STOP DEPTH
 STEP.F            0.5000:   STEP LENGTH
 NULL.          -999.2500:   NO VALUE
 COMP.    FENIX & SCISSON:   COMPANY
 WELL.   FENIX SHX #41-11:   WELL
 FLD .        TEAPOT DOME:   FIELD
 LOC .      S11 T38N R78W:   LOCATION
 CNTY.            NATRONA:   COUNTY
 STAT.            WYOMING:   STATE
 CTRY. UNITED STATES OF AMERICA:   COUNTRY
 SRVC.           BIRDWELL:   SERVICE COMPANY
 DATE.        07-JUL-1979:   LOGDATE
 API .     49025107880000:   API NUMBER
~CURVE INFORMATION
#MNEM.UNIT       API CODE    CURVE DESCRIPTION
#----------   ------------   ------------------------------
 DEPT.F                  :   
 CALD.IN     45 280 60 00:   CALIPER FROM DENSITY LOG
 RHOB.G/C3   45 350 01 00:   BULK DENSITY
 CORR.G/C3   45 356 01 00:   DENSITY CORRECTION
 GRD .GAPI   45 310 01 00:   GAMMA RAY FROM DENSITY LOG
~PARAMETER INFORMATION
#MNEM.UNIT          VALUE    DESCRIPTION
#----------   ------------   ------------------------------
 EKB .F         5168.0000:   Kelly bushing
 EGL .F         5158.0000:   Ground level
 EDF .F            0.0000:   Drilling floor
 EPD .F            0.0000:   Permanent datum
 TD  .F         2801.0000:   Total depth
 DATE.        07-JUL-1979:   Date logged
 CLNT.            A2DTECH:   Client Code
 SL  . 95' FNL & 2414' FWL:   Surface Location
 PD  .                 GL:   Permanent Datum
 DAPD.F                10:   Feet Above Permanent Datum
 DD  .F              2801:   Depth driller
 DL  .F              2791:   Depth logger
 BLI .F              2790:   Bottom log interval
 TLI .F               640:   Top log interval
 CS1 .IN            9.625:   Casing size
 CBD1.      9.625" @ 909':   Casing driller 1
 CBL1.F               910:   Casing logger 1
 BS1 .IN             8.75:   Bit size
 BSD1.F              2801:   Depth drilled with bit1
 DFT .                AIR:   Type fluid in hole
 LUN .               2959:   Logging unit number
 LUL .             CASPER:   Logging unit location
 ENGI.         B. RULLINS:   Recorded By
 WITN.           GINSMORE:   Witnessed by
 ORIG.           5" PRINT:   Origin of data
 UWI .     49025107880000:   Unique Well ID
 DICO. A2D TECHNOLOGIES, INC.:   Digitizing Company
~OTHER INFORMATION
~A   DEPT     CALD       RHOB       CORR         GRD  
# ...
 2100.0000     9.8230     2.3980     0.0320   132.1380
 2100.5000     9.7960     2.4520     0.0350   138.0470
 2101.0000     9.7690     2.4500     0.0380   143.9310
 2101.5000     9.7420     2.4500     0.0130   143.7480
 2102.0000     9.7150     2.4520     0.0140   142.3280
 2102.5000     9.6880     2.4610     0.0240   141.8310
 2103.0000     9.6580     2.4620     0.0350   140.9840
 2103.5000     9.5670     2.4680     0.0420   135.5070
 2104.0000     9.4750     2.4900     0.0440   130.0170
 2104.5000     9.3840     2.5010     0.0360   124.5090
 2105.0000     9.3410     2.5020     0.0290   122.5530
 2105.5000     9.3430     2.4940     0.0280   124.8540
 2106.0000     9.3450     2.4850     0.0280   129.0590
 2106.5000     9.3470     2.4750     0.0200   133.2660
 2107.0000     9.3500     2.4670     0.0120   137.4720
 2107.5000     9.3520     2.4740     0.0160   141.6740
 2108.0000     9.3540     2.4840     0.0260   145.8880
 2108.5000     9.3570     2.4930     0.0360   148.4850
 2109.0000     9.3590     2.4920     0.0320   149.4660
 2109.5000     9.3610     2.4780     0.0240   150.4430
 2110.0000     9.3610     2.4650     0.0170   151.4090
 2110.5000     9.3610     2.4560     0.0170   152.5050
 2111.0000     9.3610     2.4570     0.0310   156.5400
 2111.5000     9.3980     2.4660     0.0440   158.3830
 2112.0000     9.4820     2.4720     0.0480   153.5050
 2112.5000     9.5660     2.4700     0.0480   146.3640
 2113.0000     9.6510     2.4600     0.0450   144.3420
 2113.5000     9.7350     2.4580     0.0390   143.0830
 2114.0000     9.8190     2.4570     0.0330   148.7280
 2114.5000     9.8530     2.4550     0.0270   148.2860
 2115.0000     9.8840     2.4550     0.0220   146.2910
 2115.5000     9.9160     2.4550     0.0180   144.5670
 2116.0000     9.9470     2.4620     0.0230   147.5770
 2116.5000     9.9780     2.4720     0.0300   151.5760
 2117.0000    10.0040     2.4740     0.0320   151.5780
 2117.5000    10.0290     2.4690     0.0320   146.8070
 2118.0000    10.0530     2.4640     0.0320   142.4860
 2118.5000    10.0780     2.4610     0.0320   139.3730
 2119.0000    10.1020     2.4660     0.0370   139.4480
 2119.5000    10.1020     2.4790     0.0480   141.3670
 2120.0000    10.0990     2.4890     0.0570   140.7870
 2120.5000    10.0960     2.4810     0.0560   143.3960
 2121.0000    10.0930     2.4690     0.0300   153.6850
 2121.5000    10.0890     2.4560     0.0260   153.2520
 2122.0000    10.0860     2.4500     0.0260   151.6160
 2122.5000    10.0830     2.4610     0.0380   150.0360
 2123.0000    10.0800     2.4630     0.0460   151.7880
 2123.5000    10.0770     2.4640     0.0380   154.8000
 2124.0000    10.0740     2.4640     0.0250   157.8220
 2124.5000    10.0700     2.4660     0.0120   159.8370
 2125.0000    10.0670     2.4720     0.0160   156.7150
 2125.5000    10.0640     2.4790     0.0250   153.3260
 2126.0000    10.0780     2.4810     0.0340   153.3740
 2126.5000    10.1280     2.4740     0.0390   155.8740
 2127.0000    10.1780     2.4660     0.0280   160.2560
 2127.5000    10.2270     2.4580     0.0180   164.6710
 2128.0000    10.2770     2.4500     0.0130   168.7400
 2128.5000    10.3180     2.4430     0.0120   168.5670
 2129.0000    10.2260     2.4400     0.0120   161.6610
 2129.5000    10.1340     2.4440     0.0190   157.3380
 2130.0000    10.0430     2.4530     0.0340   158.0710
 2130.5000    10.0380     2.4590     0.0500   158.4560
 2131.0000    10.1410     2.4590     0.0580   154.7440
 2131.5000    10.2290     2.4510     0.0510   148.3710
 2132.0000    10.2380     2.4440     0.0380   145.9720
 2132.5000    10.2300     2.4360     0.0350   149.6470
 2133.0000    10.2210     2.4290     0.0480   150.9690
 2133.5000    10.2120     2.4220     0.0610   150.4120
 2134.0000    10.2060     2.4290     0.0630   151.5710
 2134.5000    10.0680     2.4430     0.0610   155.3800
 2135.0000     9.8880     2.4570     0.0500   155.8790
 2135.5000     9.7070     2.4690     0.0390   150.6450
 2136.0000     9.5810     2.4660     0.0280   145.1260
 2136.5000     9.5960     2.4540     0.0170   140.9990
 2137.0000     9.6090     2.4570     0.0220   143.5850
 2137.5000     9.6210     2.4620     0.0320   145.3610
 2138.0000     9.6340     2.4670     0.0380   142.4690
 2138.5000     9.6470     2.4710     0.0380   138.3830
 2139.0000     9.6590     2.4710     0.0380   134.9060
 2139.5000     9.6720     2.4750     0.0380   134.6990
 2140.0000     9.6820     2.4780     0.0460   139.7860
 2140.5000     9.6810     2.4750     0.0530   146.2020
 2141.0000     9.6800     2.4710     0.0600   146.0390
 2141.5000     9.6790     2.4740     0.0600   146.5900
 2142.0000     9.6780     2.4780     0.0500   147.4500
 2142.5000     9.6770     2.4800     0.0290   148.2490
 2143.0000     9.6760     2.4800     0.0270   146.4150
 2143.5000     9.6750     2.4830     0.0340   144.1460
 2144.0000     9.6750     2.4850     0.0380   143.0070
 2144.5000     9.6740     2.4870     0.0370   146.2880
 2145.0000     9.6730     2.4870     0.0310   145.5350
 2145.5000     9.6720     2.4880     0.0250   147.4540
 2146.0000     9.6710     2.4920     0.0180   149.5450
 2146.5000     9.6700     2.4950     0.0120   150.7040
 2147.0000     9.6690     2.4990     0.0060   152.9390
 2147.5000     9.6680     2.5030     0.0010   155.0490
 2148.0000     9.6670     2.5050     0.0120   160.9080
 2148.5000     9.6670     2.4970     0.0140   167.8700
 2149.0000     9.6660     2.4840     0.0120   174.9010
 2149.5000     9.6650     2.4700     0.0110   181.7610
 2150.0000     9.6640     2.4590     0.0600   192.4720
 2150.5000     9.6630     2.4520     0.1100  -999.2500
 2151.0000     9.6620     2.4400     0.1060  -999.2500
 2151.5000     9.6610     2.4270     0.0890  -999.2500
 2152.0000     9.6250     2.4280     0.0710  -999.2500
 2152.5000     9.5860     2.4420     0.0530  -999.2500
 2153.0000     9.5480     2.4500     0.0350  -999.2500
 2153.5000     9.5100     2.4500     0.0210  -999.2500
 2154.0000     9.4710     2.4440     0.0200  -999.2500
 2154.5000     9.4330     2.4360     0.0200  -999.2500
 2155.0000     9.3940     2.4270     0.0200  -999.2500
 2155.5000     9.3600     2.4180     0.0170  -999.2500
 2156.0000     9.3610     2.4170     0.0130  -999.2500
 2156.5000     9.3610     2.4250     0.0250  -999.2500
 2157.0000     9.3610     2.4290     0.0360  -999.2500
 2157.5000     9.3610     2.4300     0.0360  -999.2500
 2158.0000     9.3610     2.4320     0.0360  -999.2500
 2158.5000     9.3610     2.4320     0.0290  -999.2500
 2159.0000     9.3610     2.4250     0.0220  -999.2500
 2159.5000     9.3610     2.4160     0.0160  -999.2500
 2160.0000     9.3610     2.4080     0.0090  -999.2500
 2160.5000     9.3610     2.4020     0.0090  -999.2500
 2161.0000     9.3610     2.4070     0.0310  -999.2500
 2161.5000     9.3610     2.4120     0.0520  -999.2500
 2162.0000     9.3600     2.3980     0.0550  -999.2500
 2162.5000     9.3240     2.3760     0.0480  -999.2500
 2163.0000     9.2860     2.3700     0.0440  -999.2500
 2163.5000     9.2480     2.3940     0.0440  -999.2500
 2164.0000     9.2110     2.3950     0.0440  -999.2500
 2164.5000     9.1730     2.3940     0.0450  -999.2500
 2165.0000     9.1360     2.3910     0.0460  -999.2500
 2165.5000     9.0980     2.3880     0.0450   197.0370
 2166.0000     9.0820     2.3880     0.0380   187.6930
 2166.5000     9.0840     2.3970     0.0410   178.3130
 2167.0000     9.0870     2.4060     0.0440   175.4200
 2167.5000     9.0890     2.4150     0.0450   172.7640
 2168.0000     9.0920     2.4170     0.0370   170.0790
 2168.5000     9.0940     2.4160     0.0290   167.9980
 2169.0000     9.0970     2.4150     0.0200   169.4070
 2169.5000     9.0990     2.4130     0.0120   175.8450
 2170.0000     9.1140     2.4110     0.0080   182.1040
 2170.5000     9.1320     2.4100     0.0080   188.3260
 2171.0000     9.1520     2.4100     0.0100   193.8390
 2171.5000     9.1710     2.4170     0.0150   193.6200
 2172.0000     9.1900     2.4270     0.0200   189.6560
 2172.5000     9.2090     2.4370     0.0220   175.3860
