~VERSION INFORMATION
 VERS.                2.0:   CWLS LOG ASCII STANDARD - VERSION 2.0
 WRAP.                 NO:   ONE LINE PER DEPTH STEP
~WELL INFORMATION
#MNEM.UNIT      DATA TYPE    INFORMATION
#----------   ------------   ------------------------------
 STRT.F            0.0000:   START DEPTH
 STOP.F         3205.0000:   STOP DEPTH
 STEP.F            0.5000:   STEP LENGTH
 NULL.          -999.2500:   NO VALUE
 COMP. LAWRENCE-ALLISON AND ASSOCIATES:   COMPANY
 WELL. LAWRENCE "X" #64-28:   WELL
 FLD .          N.P.R. #3:   FIELD
 LOC .      S28 T39N R78W:   LOCATION
 CNTY.            NATRONA:   COUNTY
 STAT.            WYOMING:   STATE
 CTRY. UNITED STATES OF AMERICA:   COUNTRY
 SRVC.      DRESSER ATLAS:   SERVICE COMPANY
 DATE.        25-MAY-1986:   LOGDATE
 API .     49025110730000:   API NUMBER
~CURVE INFORMATION
#MNEM.UNIT       API CODE    CURVE DESCRIPTION
#----------   ------------   ------------------------------
 DEPT.F                  :   
 GRR .GAPI   07 310 01 00:   GAMMA RAY FROM RESISTIVITY
 SPR .MV     07 010 01 00:   SPONTANEOUS POTENTIAL
 RILD.OHMM   07 120 46 00:   DEEP INDUCTION RESISTIVITY
 RILM.OHMM   07 120 44 00:   INDUCTION LOG MEDIUM RESISTIVITY
 RSFL.OHMM   07 221 01 00:   AMPPLIFIED SHALLOW FOCUSED LOG RESISTIVITY
 TENR.LBS    07 635 01 00:   TENSION FROM RESISTIVITY
 CNC .DEC    42 890 03 00:   NEUTRON POROSITY SANDSTONE
 CALD.IN     45 280 60 00:   CALIPER FROM DENSITY LOG
 DEN .G/C3   45 350 01 00:   BULK DENSITY
 CORR.G/C3   45 356 01 00:   DENSITY CORRECTION
 TEND.LBS    45 635 01 00:   TENSION FROM DENSITY LOG
~PARAMETER INFORMATION
#MNEM.UNIT          VALUE    DESCRIPTION
#----------   ------------   ------------------------------
 EKB .F         5070.0000:   Kelly bushing
 EGL .F         5058.0000:   Ground level
 TD  .F         3205.0000:   Total depth
 DATE.        25-MAY-1986:   Date logged
 CLNT.            A2DTECH:   Client Code
 SL  . 2248' FNL & 1636' FEL:   Surface Location
 PD  .                 GL:   Permanent Datum
 EPD .F              5058:   Elevation Permanent Datum
 LMF .                 KB:   Log Measured From
 DMF .                 KB:   Drilling Measured From
 DAPD.F                12:   Feet Above Permanent Datum
 DD  .F              3205:   Depth driller
 DL  .F              3203:   Depth logger
 BLI .F              3201:   Bottom log interval
 CS1 .IN            8.625:   Casing size
 CBD1.      8.625" @ 476':   Casing driller 1
 CBL1.F               478:   Casing logger 1
 BS1 .IN            7.875:   Bit size
 BSD1.F              3205:   Depth drilled with bit1
 DFT .        POLYMER-KCL:   Type fluid in hole
 DFD .                  9:   Density
 DFV .                 37:   Viscosity
 DFPH.                8.5:   pH
 DFL .                 10:   Fluid loss
 MSS .           FLOWLINE:   Source of sample
 RMS .OHMM           0.31:   Rm
 MST .F                69:   Rm Meas. temp.
 RMF .OHMM           0.25:   Rmf
 MFST.F                69:   Rmf Meas. temp.
 RMC .OHMM           0.39:   Rmc
 MCST.F                69:   Rmc Meas. temp.
 MFSS.               MEAS:   Source Rmf.
 MCSS.               CALC:   Source Rmc.
 RMB .OHMM           0.19:   Rm. at BHT
 BHT .F               115:   BHT.
 TCS .HRS               4:   Time Circ. stopped
 MRT .F               115:   Maximum recorded temp.
 LUN .            HL-6274:   Logging unit number
 LUL .           GILLETTE:   Logging unit location
 ENGI.             RAUTIO:   Recorded By
 WITN.             STRONG:   Witnessed by
 ORIG.           5" PRINT:   Origin of data
 UWI .     49025110730000:   Unique Well ID
 DICO. A2D TECHNOLOGIES, INC.:   Digitizing Company
~OTHER INFORMATION
~A    DEPT     GRR        SPR       RILD       RILM       RSFL       TENR        CNC       CALD        DEN       CORR       TEND   
# ...
 2287.5000   114.8620   -54.9550     2.7580     2.9110     4.0590    44.2640     0.3130    10.0370     2.4630     0.0270   -41.0560
 2288.0000   116.3440   -54.9950     2.4940     2.7070     3.9850    54.3910     0.3170    10.0400     2.4720     0.0290   -31.7630
 2288.5000   119.2620   -54.9600     2.4800     2.5170     3.3500    45.3470     0.3140    10.0410     2.4780     0.0240   -22.4710
 2289.0000   123.0990   -54.9150     2.4630     2.5600     2.7840    34.8470     0.3110    10.0420     2.4670     0.0200   -13.1050
 2289.5000   124.3570   -54.8900     2.4470     2.6000     2.7090    24.3470     0.2940    10.0440     2.4520     0.0260   -23.7800
 2290.0000   121.7600   -54.8340     2.4310     2.6400     3.0350    13.8470     0.2830    10.0450     2.4430     0.0370   -34.5390
 2290.5000   119.7230   -54.8220     2.4150     2.6740     3.3740     4.4910     0.2960    10.0460     2.4530     0.0280   -45.2990
 2291.0000   118.9010   -54.9400     2.4240     2.7030     3.8060    20.9290     0.3170    10.0480     2.4700     0.0140   -53.4270
 2291.5000   118.4950   -55.0930     2.4940     2.7340     3.8060    35.7520     0.3400    10.0490     2.4840     0.0010   -39.1530
 2292.0000   119.2960   -55.2120     2.5690     2.7920     3.5180    54.3910     0.3480    10.0510     2.4860    -0.0170   -25.5240
 2292.5000   118.7300   -55.3460     2.6500     2.8550     3.3050    48.2920     0.3300    10.0520     2.4820    -0.0330   -13.1050
 2293.0000   118.4590   -55.5370     2.7340     2.9170     3.3540    37.0920     0.3210    10.0530     2.4810    -0.0390   -24.2340
 2293.5000   120.0020   -55.7410     2.7340     2.9700     3.5480    25.8930     0.3240    10.0550     2.4840    -0.0090   -34.4560
 2294.0000   119.6640   -55.9960     2.7340     2.9560     3.6270    14.4710     0.3200    10.0560     2.4870     0.0160   -42.3490
 2294.5000   120.4360   -56.1950     2.7370     2.9440     3.5170    24.8450     0.3170    10.0580     2.4820     0.0230   -34.6820
 2295.0000   123.6160   -56.1320     2.7440     2.9320     3.5010    38.1080     0.3290    10.0630     2.4760     0.0150   -27.0160
 2295.5000   122.8880   -56.0140     2.7520     2.9200     3.5740    51.3710     0.3400    10.0710     2.4740     0.0140   -19.3500
 2296.0000   117.3650   -55.9280     2.7590     2.9420     3.5850    64.3710     0.3310    10.0800     2.4860     0.0160   -13.7820
 2296.5000   112.0490   -55.8140     2.7670     2.9320     3.5570    55.3010     0.3240    10.0880     2.4970     0.0110   -17.4320
 2297.0000   110.8630   -55.7580     2.7740     2.9220     3.5360    46.4070     0.3280    10.0970     2.4980     0.0040   -21.0830
 2297.5000   113.1810   -55.7080     2.7820     2.9130     3.5040    37.5130     0.3240    10.1050     2.4960     0.0010   -26.0120
 2298.0000   115.8570   -55.6400     2.7840     2.9030     3.6340    28.3310     0.3090    10.1140     2.4940     0.0010   -32.6790
 2298.5000   118.1450   -55.5830     2.7840     2.8930     3.6130    18.9950     0.3030    10.1200     2.5010     0.0120   -39.3450
 2299.0000   120.7750   -55.5280     2.7840     2.8830     3.4940     9.6600     0.3120    10.1240     2.5090     0.0230   -46.0120
 2299.5000   122.3740   -55.4570     2.7740     2.8730     3.4090     0.3240     0.3180    10.1270     2.5140     0.0310   -52.6780
 2300.0000   121.2900   -55.4190     2.7590     2.8620     3.3770    -9.0120     0.3150    10.1310     2.5110     0.0180   -56.3590
 2300.5000   120.0150   -55.4800     2.7950     2.9310     3.5040   -15.4690     0.3020    10.1350     2.5100     0.0050   -60.6070
 2301.0000   121.0880   -55.5610     2.8450     3.0080     3.4790    17.5650     0.3100    10.1380     2.5090     0.0030   -60.1120
 2301.5000   121.9190   -55.6270     2.8960     3.0850     3.2550    42.8140     0.3260    10.1320     2.5050     0.0130   -49.3950
 2302.0000   118.7930   -55.6940     2.9470     3.1610     3.3160    74.3510     0.3280    10.1260     2.5010     0.0240   -38.6780
 2302.5000   112.7210   -55.7710     2.9410     3.2260     3.7860    65.7320     0.3030    10.1200     2.4950     0.0350   -27.9610
 2303.0000   108.2560   -55.7230     2.8890     3.1220     4.1950    54.2550     0.2970    10.1140     2.4980     0.0470   -27.8900
 2303.5000   107.0200   -55.4830     2.8370     3.0320     4.4090    42.7780     0.2990    10.1080     2.5020     0.0520   -36.3740
 2304.0000   107.6940   -55.2520     2.7840     2.9420     3.9990    31.3010     0.3050    10.1030     2.5000     0.0400   -44.8590
 2304.5000   109.9250   -54.9900     2.7230     2.8530     3.4770    30.5590     0.3190    10.0970     2.4930     0.0240   -53.4270
 2305.0000   113.7190   -54.8270     2.6600     2.7630     2.8620    45.7090     0.3320    10.0910     2.4740     0.0090   -34.5260
 2305.5000   117.8500   -54.9840     2.5980     2.6730     2.7590    47.9240     0.3420    10.0850     2.4560     0.0010   -28.8210
 2306.0000   121.1260   -55.1750     2.4850     2.5840     2.9340    32.7740     0.3230    10.0790     2.4460    -0.0040   -42.7050
 2306.5000   122.6900   -55.3110     2.3170     2.5170     3.2550    30.1400     0.3060    10.0720     2.4530    -0.0020   -50.1150
 2307.0000   122.1330   -55.4050     2.3380     2.5170     3.2850    42.7640     0.2980    10.0650     2.4690     0.0090   -35.5700
 2307.5000   121.6090   -55.3790     2.3600     2.5170     3.0410    55.3890     0.2900    10.0600     2.4840     0.0180   -21.0250
 2308.0000   121.8610   -55.3530     2.3880     2.5460     2.7840    64.3710     0.2900    10.1210     2.4820     0.0230   -16.0030
 2308.5000   121.5930   -55.3360     2.4210     2.6110     2.8960    55.4980     0.2930    10.1430     2.4690     0.0090   -22.3660
 2309.0000   120.6230   -55.3090     2.4530     2.6800     3.0930    48.6120     0.2990    10.0800     2.4620    -0.0180   -28.7300
 2309.5000   118.1420   -55.2890     2.4940     2.7560     3.2300    41.7260     0.3020    10.0600     2.4660    -0.0190   -35.0930
 2310.0000   116.9960   -55.2660     2.6370     2.8360     3.2440    34.4310     0.3070    10.0750     2.4670    -0.0040   -41.4570
 2310.5000   119.4930   -55.2440     2.8330     3.0460     3.2550    36.9310     0.3010    10.0940     2.4700     0.0120   -41.9150
 2311.0000   120.1520   -55.2200     3.0290     3.2700     3.3770    39.5890     0.2890    10.1130     2.4760     0.0260   -39.8790
 2311.5000   116.3330   -55.3000     3.2250     3.4940     3.6180    42.2470     0.2840    10.1330     2.4840     0.0340   -37.8430
 2312.0000   110.0670   -55.3680     3.4200     3.7170     3.9430    44.4110     0.2980    10.1530     2.4920     0.0210   -35.8060
 2312.5000   103.9100   -55.2400     3.6160     3.9850     4.3910    40.6690     0.3040    10.1580     2.4990    -0.0020   -33.7700
 2313.0000   102.1440   -55.1190     3.7710     3.9850     4.8340    37.5120     0.2790    10.1580     2.5040    -0.0160   -38.0540
 2313.5000   103.8520   -55.0050     3.8770     3.9850     4.8780    34.3560     0.2730    10.1600     2.5150    -0.0130   -44.4180
 2314.0000   105.8530   -54.8030     3.8570     3.9780     4.7890    31.2000     0.2860    10.1750     2.5180    -0.0060   -50.7810
 2314.5000   109.1790   -54.6190     3.8340     3.9620     4.3450    28.0440     0.2980    10.1780     2.5120     0.0010   -52.5340
 2315.0000   113.0360   -54.4300     3.8100     3.9460     3.9160    24.4510     0.2960    10.1780     2.5020    -0.0020   -50.2200
 2315.5000   115.0210   -54.2720     3.7860     3.9300     3.6020    22.8400     0.2870    10.1780     2.4930    -0.0050   -47.9060
 2316.0000   114.2390   -54.0550     3.7630     3.9120     3.8500    20.9690     0.2790    10.1780     2.4870    -0.0040   -45.5920
 2316.5000   111.4500   -53.8320     3.7370     3.9780     4.2990    19.0990     0.2710    10.1780     2.4950     0.0200   -43.3470
 2317.0000   108.5690   -53.8570     3.7880     4.0530     4.7890    17.2290     0.2630    10.1780     2.5110     0.0210   -50.0320
 2317.5000   106.1690   -53.9520     3.8460     4.1270     4.7070    15.3580     0.2570    10.1780     2.5240     0.0130   -58.0700
