~VERSION INFORMATION
 VERS.                2.0:   CWLS LOG ASCII STANDARD - VERSION 2.0
 WRAP.                 NO:   ONE LINE PER DEPTH STEP
~WELL INFORMATION
#MNEM.UNIT      DATA TYPE    INFORMATION
#----------   ------------   ------------------------------
 STRT.F          224.0000:   START DEPTH
 STOP.F         2912.0000:   STOP DEPTH
 STEP.F            0.5000:   STEP LENGTH
 NULL.          -999.2500:   NO VALUE
 COMP.    FENIX & SCISSON:   COMPANY
 WELL. FENIX & SCISSON NPR 34 "A" #3-21:   WELL
 FLD .             NPR #3:   FIELD
 LOC .      S21 T39N R78W:   LOCATION
 CNTY.            NATRONA:   COUNTY
 STAT.            WYOMING:   STATE
 CTRY. UNITED STATES OF AMERICA:   COUNTRY
 SRVC.              WELEX:   SERVICE COMPANY
 DATE.        15-JUL-1977:   LOGDATE
 API .     49025103970000:   API NUMBER
~CURVE INFORMATION
#MNEM.UNIT       API CODE    CURVE DESCRIPTION
#----------   ------------   ------------------------------
 DEPT.F                  :   
 CALD.IN     45 280 60 00:   CALIPER FROM DENSITY LOG
 CORR.G/C3   45 356 01 00:   DENSITY CORRECTION
 RHOB.G/C3   45 350 01 00:   BULK DENSITY
 GRD .GAPI   45 310 01 00:   GAMMA RAY FROM DENSITY LOG
 SPR .MV     07 010 01 00:   SPONTANEOUS POTENTIAL
 ILD .OHMM   07 120 46 00:   DEEP INDUCTION RESISTIVITY
 ILM .OHMM   07 120 44 00:   INDUCTION LOG MEDIUM RESISTIVITY
 SGRD.OHMM   07 220 05 00:   SHALLOW SHORT GUARD RESISTIVITY
~PARAMETER INFORMATION
#MNEM.UNIT          VALUE    DESCRIPTION
#----------   ------------   ------------------------------
 EKB .F         4921.0000:   Kelly bushing
 EGL .F         4911.0000:   Ground level
 TD  .F         2914.0000:   Total depth
 CLNT.            A2DTECH:   Client Code
 SL  . 2310' FNL & 1650' FWL:   Surface Location
 DATE.        15-JUL-1977:   Date Logged [DD-MMM-YYYY]
 DD  .F              2900:   Depth driller
 DL  .F              2914:   Depth logger
 BLI .F              2912:   Bottom log interval
 TLI .F               218:   Top log interval
 CS1 .              8.625:   Casing size
 CBD1.      8.625" @ 230':   Casing driller 1
 CBL1.IN              226:   Casing logger 1
 BS1 .IN            7.875:   Bit size
 BSD1.F              2900:   Depth drilled with bit1
 DFT .                KCL:   Type fluid in hole
 DFD .                8.9:   Density
 DFV .               1.42:   Viscosity
 DFPH.                7.5:   pH
 DFL .               19.6:   Fluid loss
 MSS .            MUD PIT:   Source of sample
 RMS .OHMM           3.75:   Rm
 MST .F                83:   Rm Meas. temp.
 RMF .OHMM           3.40:   Rmf
 MFST.F                83:   Rmf Meas. temp.
 MFSS.           MEASURED:   Source Rmf.
 RMC .OHMM            9.0:   Rmc
 MCST.F                83:   Rmc Meas. temp.
 MCSS.           MEASURED:   Source Rmc.
 RMB .OHMM           2.80:   Rm. at BHT
 BHT .F               111:   BHT.
 TCS .HRS               3:   Time Circ. stopped
 MRT .F               111:   Maximum recorded temp.
 LUN .               8766:   Logging unit number
 LUL .             CASPER:   Logging unit location
 ENGI.          T. JOYNER:   Recorded By
 WITN.     MR. PETTINGILL:   Witnessed by
 ORIG.           5" PRINT:   Origin of data
 UWI .     49025103970000:   Unique Well ID
 DICO. A2D TECHNOLOGIES, INC.:   Digitizing Company
 PD  .                 GL:   Permanent Datum
 EPD .F              4911:   Elevation Permanent Datum
 LMF .                 KB:   Log Measured From
 DMF .                 KB:   Drilling Measured From
 DAPD.F                10:   Feet Above Permanent Datum
~OTHER INFORMATION
~A   DEPT      CALD        CORR       RHOB       GRD       SPR        ILD        ILM       SGRD   
# ...
  912.5000     9.2107     0.0352     2.4679    99.8860   -62.9269     6.4178     6.7011     7.5814
  913.0000     9.2129     0.0443     2.4829   101.0989   -62.9121     6.3763     6.5665     7.5846
  913.5000     9.2002     0.0505     2.4950   100.8206   -62.7487     6.3340     6.5229     7.5877
  914.0000     9.2024     0.0536     2.4988    96.5243   -62.7340     6.2930     6.3919     7.6964
  914.5000     9.1897     0.0493     2.4885    95.2043   -62.7192     6.2952     6.3495     7.8066
  915.0000     9.1771     0.0434     2.4809    95.2235   -62.7043     6.2538     6.2645     7.9184
  915.5000     9.1793     0.0406     2.4774    95.5404   -62.6895     6.2561     6.2241     7.9766
  916.0000     9.1816     0.0377     2.4761    95.5597   -62.6737     6.2524     6.2262     8.0352
  916.5000     9.1987     0.0334     2.4725    95.5789   -62.6597     6.2604     6.2284     8.0385
  917.0000     9.2009     0.0320     2.4674    95.2987   -62.4963     6.2626     6.3610     8.0418
  917.5000     9.2180     0.0277     2.4615    94.2732   -62.4814     6.3520     6.4518     8.1008
  918.0000     9.2246     0.0263     2.4571    92.6447   -62.3180     6.4428     6.5892     8.2169
  918.5000     9.2222     0.0220     2.4475    90.7238   -62.1516     6.5802     6.6832     8.3923
  919.0000     9.2250     0.0207     2.4371    89.8716   -61.9882     6.6742     6.7785     8.5715
  919.5000     9.2272     0.0223     2.4261    91.0174   -61.9734     6.8165     6.9229     8.5750
  920.0000     9.2140     0.0227     2.4366    92.9068   -61.9587     6.8662     6.9733     8.5785
  920.5000     9.2168     0.0273     2.4464    92.8835   -61.9439     6.9643     6.9757     8.5821
  921.0000     9.2190     0.0320     2.4562    91.8068   -61.9291     6.9667     6.9781     8.4660
  921.5000     9.2212     0.0349     2.4646    90.2376   -62.0666     6.9691     6.9805     8.3552
  922.0000     9.2235     0.0291     2.4505    89.8383   -62.2004     6.9715     6.9829     8.3588
  922.5000     9.2257     0.0172     2.4386    90.7552   -62.1820     6.9739     6.9853     8.3670
  923.0000     9.2279     0.0099     2.4335    91.9649   -62.1672     7.0249     6.9877     8.4938
  923.5000     9.2450     0.0055     2.4358    92.8770   -62.1524     7.0532     6.9901     8.6701
  924.0000     9.2472     0.0117     2.4509    93.7891   -62.1377     7.0890     6.9925     8.8480
  924.5000     9.2643     0.0193     2.4599    94.5524   -61.9743     7.1249     6.9950     8.8517
  925.0000     9.2666     0.0240     2.4615    94.8645   -61.9595     7.1607     7.0265     8.9167
  925.5000     9.2688     0.0256     2.4497    93.8469   -61.9447     7.1965     7.1213     8.9205
  926.0000     9.2859     0.0228     2.4364    92.8244   -61.7814     7.2134     7.1232     8.9249
  926.5000     9.3030     0.0124     2.4327    91.8020   -61.7666     7.2164     7.1746     8.9285
  927.0000     9.3201     0.0051     2.4381    90.7796   -61.7518     7.2194     7.2263     8.9322
  927.5000     9.3223     0.0022     2.4412    89.0131   -61.7371     7.2725     7.2921     8.9978
  928.0000     9.2799     0.0129     2.4435    88.1395   -61.7223     7.3261     7.3818     9.0639
  928.5000     9.2522     0.0355     2.4556    88.0052   -61.7075     7.3287     7.5385     9.2574
  929.0000     9.2247     0.0506     2.4699    89.5173   -61.6928     7.3830     7.6455     9.3900
  929.5000     9.2120     0.0642     2.4894    91.0247   -61.6780     7.4374     7.7006     9.3939
  930.0000     9.2144     0.0734     2.5037    91.9368   -61.6632     7.4921     7.8099     9.3331
  930.5000     9.2166     0.0735     2.5015    90.7655   -61.6484     7.5997     7.8121     9.2079
  931.0000     9.2188     0.0706     2.4882    89.1431   -61.6337     7.6556     7.8684     9.2127
  931.5000     9.2210     0.0678     2.4786    90.6552   -61.6189     7.7655     7.9251     9.2165
  932.0000     9.2232     0.0635     2.4697    89.9304   -61.6041     7.8770     7.9823     9.2203
  932.5000     9.2255     0.0532     2.4531    89.2008   -61.5893     7.9900     7.9845     9.2880
  933.0000     9.2277     0.0413     2.4375    88.9225   -61.5746     8.0488     7.8765     9.2918
  933.5000     9.2299     0.0355     2.4259    89.3929   -61.8570     8.0522     7.8245     9.2957
  934.0000     9.2321     0.0326     2.4215    90.9003   -61.6936     8.0555     7.8272     9.4941
  934.5000     9.2343     0.0373     2.4224    91.2171   -61.5303     8.0588     7.8293     9.6968
  935.0000     9.2366     0.0434     2.4248    90.6412   -61.5155     8.0057     7.9405     9.8357
  935.5000     9.2239     0.0496     2.4354    89.4699   -61.6493     8.0655     8.0532     9.9766
  936.0000     9.2262     0.0557     2.4489    89.6380   -61.6345     8.0688     8.2241    10.0499
  936.5000     9.2135     0.0603     2.4505    91.2941   -61.6196     8.1282     8.2834    10.0540
  937.0000     9.2008     0.0635     2.4633    89.6765   -61.6048     8.2449     8.3432     9.9879
  937.5000     9.1882     0.0636     2.4731    88.3565   -61.7508     8.3056     8.3455     9.9931
  938.0000     9.1728     0.0578     2.4762    89.0138   -61.8880     8.3667     8.3478     9.8601
  938.5000     9.1187     0.0505     2.4614    87.0557   -62.0064     8.3702     8.3501     9.8642
  939.0000     9.0906     0.0416     2.4510    86.6122   -61.9911     8.3159     8.2943     9.8682
  939.5000     9.0934     0.0358     2.4489    87.2555   -62.1255     8.3193     8.2971     9.9407
  940.0000     9.1403     0.0359     2.4654    86.2206   -62.1070     8.3233     8.2994     9.8754
  940.5000     9.2020     0.0451     2.4850    85.0493   -62.0922     8.3268     8.3017     9.9489
  941.0000     9.2489     0.0527     2.4955    84.7710   -62.2260     8.2719     8.3616     9.9530
  941.5000     9.2511     0.0588     2.5001    83.7486   -62.0627     8.1624     8.4219     9.9571
  942.0000     9.2533     0.0635     2.5017    85.2579   -62.0479     8.1658     8.5414    10.0303
  942.5000     9.2401     0.0651     2.4966    84.3673   -62.0331     8.1120     8.6629    10.1039
  943.0000     9.2429     0.0653     2.4907    83.2111   -61.8698     8.1162     8.7251    10.1081
  943.5000     9.2302     0.0654     2.4848    83.2303   -61.8550     8.1759     8.7881    10.1823
  944.0000     9.2176     0.0626     2.4782    82.0179   -61.8402     8.2361     8.9128    10.2571
  944.5000     9.2198     0.0610     2.4761    80.5902   -61.8255     8.3543     9.1020    10.4040
  945.0000     9.2220     0.0599     2.4747    81.9494   -61.8107     8.4158     9.2312    10.4804
  945.5000     9.2088     0.0585     2.4681    81.7517   -61.7959     8.4778     9.4271    10.4847
  946.0000     9.2116     0.0587     2.4622    80.7462   -61.7811     8.5401     9.5610    10.4890
  946.5000     9.1984     0.0588     2.4608    80.0442   -61.7664     8.5437     9.6299    10.4934
  947.0000     9.2011     0.0605     2.4617    79.7936   -61.7516     8.4883     9.6326    10.4254
  947.5000     9.2034     0.0607     2.4662    79.6641   -61.7368     8.4323     9.5689    10.2159
  948.0000     9.2056     0.0593     2.4738    80.7298   -61.7220     8.3777     9.4402     9.9418
  948.5000     9.2078     0.0565     2.4799    82.2371   -61.8596     8.2668     9.2490     9.8774
  949.0000     9.2100     0.0521     2.4807    82.8516   -61.8411     8.1557     9.0618     9.6790
  949.5000     9.2122     0.0448     2.4756    82.7172   -61.9786     8.1028     8.8783     9.6830
  950.0000     9.2139     0.0374     2.4653    83.1877   -61.9601     7.9947     8.6986     9.6870
  950.5000     9.2013     0.0316     2.4616    83.8022   -61.9454     7.9429     8.5810     9.6921
  951.0000     9.1904     0.0333     2.4558    84.2679   -61.9306     7.8914     8.4662     9.7621
  951.5000     9.1796     0.0364     2.4499    82.4939   -61.9158     7.8402     8.2948     9.7662
  952.0000     9.1934     0.0410     2.4455    80.5767   -62.0533     7.8442     8.1268     9.7703
  952.5000     9.1957     0.0442     2.4418    80.1433   -62.1871     7.8475     8.0175     9.7742
