~VERSION INFORMATION
 VERS.                2.0:   CWLS LOG ASCII STANDARD - VERSION 2.0
 WRAP.                 NO:   ONE LINE PER DEPTH STEP
~WELL INFORMATION
#MNEM.UNIT      DATA TYPE    INFORMATION
#----------   ------------   ------------------------------
 STRT.F          482.0000:   START DEPTH
 STOP.F         4000.0000:   STOP DEPTH
 STEP.F            0.5000:   STEP LENGTH
 NULL.          -999.2500:   NO VALUE
 COMP.    FENIX & SCISSON:   COMPANY
 WELL. FENIX  NPR 3 "LX" #56-10:   WELL
 FLD .              N P R:   FIELD
 LOC .      S10 T38N R78W:   LOCATION
 CNTY.            NATRONA:   COUNTY
 STAT.            WYOMING:   STATE
 CTRY. UNITED STATES OF AMERICA:   COUNTRY
 SRVC.       SCHLUMBERGER:   SERVICE COMPANY
 DATE.        11-JUL-1978:   LOGDATE
 API .     49025107100000:   API NUMBER
~CURVE INFORMATION
#MNEM.UNIT       API CODE    CURVE DESCRIPTION
#----------   ------------   ------------------------------
 DEPT.F                  :   
 GRD .GAPI   45 310 01 00:   GAMMA RAY FROM DENSITY LOG
 CALD.IN     45 280 60 00:   CALIPER FROM DENSITY LOG
 RHOB.G/C3   45 350 01 00:   BULK DENSITY
 NPHI.DEC    42 890 03 00:   NEUTRON POROSITY SANDSTONE
 DRHO.G/C3   45 356 01 00:   DENSITY CORRECTION
 TEND.LBS    45 635 01 00:   TENSION FROM DENSITY LOG
 SPR .MV     07 010 01 00:   SPONTANEOUS POTENTIAL
 TENR.LBS    07 635 01 00:   TENSION FROM RESISTIVITY
 ILD .OHMM   07 120 46 00:   DEEP INDUCTION RESISTIVITY
 ILM .OHMM   07 120 44 00:   INDUCTION LOG MEDIUM RESISTIVITY
 SFLU.OHMM   07 220 01 00:   SPHERICALLY FOCUSED LOG UNAVERAGED RESISTIVITY
~PARAMETER INFORMATION
#MNEM.UNIT          VALUE    DESCRIPTION
#----------   ------------   ------------------------------
 EKB .F         5212.0000:   Kelly bushing
 EGL .F         5202.0000:   Ground level
 EDF .F            0.0000:   Drilling floor
 TD  .F         4000.0000:   Total depth
 DATE.        11-JUL-1978:   Date logged
 CLNT.            A2DTECH:   Client Code
 SL  . 1144' FSL & 2183' FEL:   Surface Location
 PD  .                 GL:   Permanent Datum
 EPD .F              5202:   Elevation Permanent Datum
 LMF .                 KB:   Log Measured From
 DMF .                 KB:   Drilling Measured From
 DD  .F              4000:   Depth driller
 DL  .F              3990:   Depth logger
 BLI .F              3985:   Bottom log interval
 TLI .F               501:   Top log interval
 CS1 .IN            9.625:   Casing size
 CBD1.      9.625" @ 500':   Casing driller 1
 CBL1.F               501:   Casing logger 1
 BS1 .IN            7.875:   Bit size
 DFT .                FGM:   Type fluid in hole
 DFD .                9.1:   Density
 DFV .                 50:   Viscosity
 DFPH.                 12:   pH
 DFL .                4.4:   Fluid loss
 MSS .           MUD/TANK:   Source of sample
 RMS .OHMM           .714:   Rm
 MST .F                83:   Rm Meas. temp.
 RMF .OHMM           .585:   Rmf
 MFST.F                83:   Rmf Meas. temp.
 MFSS.               MEAS:   Source Rmf.
 RMB .OHMM            .42:   Rm. at BHT
 BHT .F               140:   BHT.
 TCS .HRS            1000:   Time Circ. stopped
 MRT .F               140:   Maximum recorded temp.
 LUN .               8035:   Logging unit number
 LUL .       ROCK SPRINGS:   Logging unit location
 ENGI.             MARTIN:   Recorded By
 WITN.           MCCINLEY:   Witnessed by
 ORIG.           5" PRINT:   Origin of data
 UWI .     49025107100000:   Unique Well ID
 DICO. A2D TECHNOLOGIES, INC.:   Digitizing Company
 DAPD.F                10:   Feet Above Permanent Datum
 BSD1.F              4000:   Depth drilled with bit1
 TLAB.HRS            1300:   Time logger at bottom
~OTHER INFORMATION
~A   DEPT       GRD      CALD       RHOB         NPHI     DRHO       TEND        SPR       TENR        ILD        ILM       SFLU   
# ...
  726.0000   104.6140    10.6290     2.5100     0.3620     0.0170   650.2160   -53.7360   475.6320     5.8180     5.2940     6.0060
  726.5000   105.5970    10.6470     2.5150     0.3540     0.0230   650.5060   -54.0710   476.7660     5.7780     5.2470     5.9400
  727.0000   104.4090    10.6650     2.5120     0.3450     0.0230   650.7970   -54.2120   477.8990     5.7290     5.1990     5.8750
  727.5000   102.2800    10.6820     2.5040     0.3370     0.0200   651.0870   -54.1990   479.0330     5.7510     5.1520     5.8360
  728.0000   100.2850    10.7000     2.5020     0.3430     0.0190   651.3770   -54.2020   480.1670     5.7780     5.1040     5.9140
  728.5000    98.3370    10.7180     2.5040     0.3530     0.0200   651.6680   -54.1940   481.3000     5.8050     5.0380     5.9920
  729.0000    96.2460    10.7360     2.5020     0.3610     0.0210   651.9580   -54.1970   482.4340     5.8310     5.0760     6.0540
  729.5000    95.0740    10.7540     2.5010     0.3600     0.0210   652.2480   -53.6520   483.5670     5.8580     5.1400     5.9990
  730.0000    96.3200    10.7720     2.4990     0.3580     0.0230   652.5390   -53.4540   484.7010     5.8850     5.2040     5.9440
  730.5000    98.2710    10.7900     2.4930     0.3550     0.0210   652.8290   -53.6150   485.8350     5.9120     5.2680     6.0180
  731.0000    99.9940    10.8050     2.4910     0.3510     0.0180   653.1190   -53.7500   486.9680     5.9440     5.3310     6.1670
  731.5000   101.3580    10.8140     2.4970     0.3480     0.0140   653.4090   -53.8770   488.1020     6.0970     5.3950     6.1190
  732.0000   100.4670    10.8240     2.5020     0.3440     0.0110   653.7000   -54.0130   489.2350     6.2880     5.4590     6.0010
  732.5000   100.2950    10.8320     2.5180     0.3410     0.0130   653.9900   -54.1510   490.3690     6.4790     5.5230     5.8830
  733.0000    99.3820    10.8380     2.5340     0.3400     0.0550   654.2800   -54.1840   491.5030     6.6700     5.5870     5.8360
  733.5000    97.6370    10.7810     2.5520     0.3360     0.0930   654.5710   -54.1390   492.6360     6.8610     5.7890     5.7290
  734.0000    95.8250    10.7140     2.5400     0.3340     0.1060   654.7620   -54.1020   493.7700     7.0140     6.2000     6.3090
  734.5000    93.9520    10.6430     2.5080     0.3050     0.0510   655.4050   -54.0650   494.9030     7.4510     6.6100     6.8880
  735.0000    92.9330    10.6010     2.4800     0.2920     0.0170   656.0870   -54.0260   496.0370     7.8150     7.0210     7.4670
  735.5000    95.2990    10.5980     2.5010     0.2930     0.0160   656.7680   -53.9890   497.1700     8.1790     7.4310     8.0460
  736.0000    94.5800    10.5610     2.5180     0.2960     0.0220   657.4490   -53.9510   498.3040     8.5430     7.8420     8.6250
  736.5000    93.0010    10.5670     2.5340     0.3130     0.0290   658.1300   -53.9130   499.4380     8.9070     8.2520     9.2040
  737.0000    91.4330    10.5650     2.5490     0.3190     0.0370   658.8120   -53.8750   500.5710     9.0010     8.7450     9.7830
  737.5000    90.9230    10.5620     2.5470     0.3140     0.0330   659.4930   -53.8380   501.7050     9.0960     8.7450    10.1300
  738.0000    90.4550    10.5570     2.5460     0.3090     0.0300   660.1740   -53.8000   502.8380     9.1900     8.7450     9.9080
  738.5000    90.5270    10.5510     2.5360     0.3010     0.0270   660.8550   -53.7620   503.9720     9.2850     8.5850     9.5370
  739.0000    90.5180    10.5450     2.5270     0.2880     0.0240   661.5370   -53.7250   505.1060     9.3790     8.6320     9.2410
  739.5000    90.5150    10.5400     2.5200     0.2840     0.0210   662.2180   -53.6870   506.2390     9.4730     8.7110     8.9970
  740.0000    90.8450    10.5340     2.5220     0.2910     0.0170   662.8990   -53.6490   507.3730     9.5870     8.7890     8.7940
  740.5000    91.2400    10.5290     2.5280     0.2970     0.0200   663.5800   -53.6110   508.5060     9.5870     8.8670     8.5910
  741.0000    91.6430    10.5260     2.5330     0.3020     0.0260   664.2620   -53.5740   509.6400     9.5870     8.9450     8.4290
  741.5000    92.0400    10.5420     2.5390     0.3080     0.0310   664.9430   -53.5350   510.7740     9.7650     9.0240     8.5310
  742.0000    92.4400    10.5560     2.5370     0.3060     0.0360   665.6240   -53.4980   511.9070     9.7650     9.1020     8.6150
  742.5000    92.8400    10.5730     2.5240     0.3020     0.0310   666.3050   -53.4610   513.0410     9.8040     9.1800     8.7000
  743.0000    93.2380    10.5880     2.5130     0.2980     0.0190   666.9870   -53.4140   514.1740     9.9020     9.2580     8.7840
  743.5000    93.6750    10.6000     2.5010     0.2960     0.0090   667.6680   -53.4700   515.3080    10.0000     9.3360     8.8690
  744.0000    94.5890    10.6440     2.5010     0.2920     0.0030   668.3490   -53.6710   516.4420    10.0980     9.4150     8.9530
  744.5000    95.5290    10.6880     2.5090     0.2880     0.0150   669.0300   -53.8610   517.5750    10.1960     9.4930     9.0380
  745.0000    96.5260    10.6830     2.5160     0.2840     0.0180   669.7120   -54.0530   518.7090    10.2940     9.5870     9.1220
  745.5000    95.0750    10.6840     2.5200     0.2790     0.0200   670.3930   -54.2460   519.8420    10.3920     9.5870     9.2410
  746.0000    92.1990    10.6840     2.5180     0.2760     0.0190   671.0740   -54.4380   520.9760    10.5100     9.7650     9.2030
  746.5000    89.5800    10.6840     2.5150     0.2790     0.0190   671.7550   -54.6310   522.1090    10.4390     9.6250     9.1410
  747.0000    88.0100    10.6840     2.5170     0.2850     0.0160   672.4370   -54.8220   523.2430    10.3500     9.5090     9.0790
  747.5000    91.3440    10.6840     2.5350     0.2980     0.0220   673.1180   -55.0180   524.3770    10.2610     9.3930     9.0170
  748.0000    92.4240    10.6840     2.5500     0.3050     0.0320   673.7990   -55.2060   525.5100    10.1730     9.2770     8.9560
  748.5000    94.1210    10.6840     2.5680     0.3080     0.0420   674.4800   -55.3910   526.6440    10.0840     9.1610     8.8940
  749.0000    95.0260    10.6840     2.5700     0.3080     0.0490   675.1620   -55.3980   527.7770     9.9950     9.0440     8.8320
  749.5000    97.2210    10.6840     2.5600     0.3070     0.0430   675.8430   -55.4050   528.9110     9.9070     8.9280     8.7700
  750.0000    98.9530    10.6840     2.5520     0.3060     0.0380   676.5240   -55.3990   530.0450     9.8180     8.8120     8.7450
  750.5000    97.7240    10.6830     2.5440     0.2980     0.0320   677.2050   -55.4000   531.1780     9.7650     8.6960     8.6970
  751.0000    96.8550    10.6850     2.5360     0.2990     0.0260   677.8870   -55.4120   532.3120     9.7100     8.5800     8.6570
  751.5000    95.9970    10.6830     2.5270     0.3050     0.0230   678.5680   -55.2620   533.4450     9.6560     8.4640     8.6180
  752.0000    95.2630    10.6840     2.5240     0.3040     0.0220   679.2490   -54.8650   534.5790     9.6020     8.3470     8.5860
  752.5000    95.2430    10.6920     2.5290     0.3030     0.0220   679.9300   -54.4830   535.7130     9.5470     8.2760     8.5850
  753.0000    95.5640    10.7180     2.5350     0.3070     0.0220   680.6120   -54.0960   536.8460     9.4930     8.2760     8.5850
  753.5000    96.1970    10.6930     2.5310     0.3080     0.0230   681.2930   -53.7110   537.9800     9.4390     8.2760     8.5840
  754.0000    96.7700    10.6780     2.5260     0.3060     0.0230   681.9740   -53.3220   538.9220     9.3840     8.2620     8.6050
  754.5000    97.3370    10.6600     2.5260     0.3040     0.0240   682.6550   -52.9370   536.9360     9.3300     8.2470     8.6450
  755.0000    97.9610    10.6420     2.5250     0.3000     0.0250   683.3370   -52.6110   535.2370     9.2410     8.2330     8.6830
  755.5000    98.4710    10.6250     2.5210     0.2960     0.0250   684.0180   -52.6000   533.5380     9.2720     8.2180     8.7210
  756.0000    99.0920    10.6070     2.5110     0.2900     0.0260   684.6990   -52.5980   531.8390     9.3580     8.2040     8.7580
