~VERSION INFORMATION
 VERS.                2.0:   CWLS LOG ASCII STANDARD - VERSION 2.0
 WRAP.                 NO:   ONE LINE PER DEPTH STEP
~WELL INFORMATION
#MNEM.UNIT      DATA TYPE    INFORMATION
#----------   ------------   ------------------------------
 STRT.F          545.0000:   START DEPTH
 STOP.F         3193.0000:   STOP DEPTH
 STEP.F            0.5000:   STEP LENGTH
 NULL.          -999.2500:   NO VALUE
 COMP. FENIX & SCISSON-U.S. NAVY:   COMPANY
 WELL.   FENIX "A" #47-34:   WELL
 FLD .          N.P.R. #3:   FIELD
 LOC .      S34 T39N R78W:   LOCATION
 CNTY.            NATRONA:   COUNTY
 STAT.            WYOMING:   STATE
 CTRY. UNITED STATES OF AMERICA:   COUNTRY
 SRVC.       SCHLUMBERGER:   SERVICE COMPANY
 DATE.        26-MAR-1977:   LOGDATE
 API .     49025103260000:   API NUMBER
~CURVE INFORMATION
#MNEM.UNIT       API CODE    CURVE DESCRIPTION
#----------   ------------   ------------------------------
 DEPT.F                  :   
 SPR .MV     07 010 01 00:   SPONTANEOUS POTENTIAL FROM RES.
 ILM .OHMM   07 120 44 00:   INDUCTION LOG MEDIUM RESISTIVITY
 ILD .OHMM   07 120 46 00:   DEEP INDUCTION RESISTIVITY
 LL8 .OHMM   07 220 08 00:   LATEROLOG-8 RES.
 CALD.IN     45 280 60 00:   CALIPER FROM DENSITY LOG
 GRD .GAPI   45 310 01 00:   GAMMA RAY FROM DENSITY LOG
 RHOB.G/C3   45 350 01 00:   BULK DENSITY
 CORR.G/C3   45 356 01 00:   DENSITY CORRECTION
~PARAMETER INFORMATION
#MNEM.UNIT          VALUE    DESCRIPTION
#----------   ------------   ------------------------------
 EKB .F         5144.0000:   Kelly bushing
 EGL .F         5132.0000:   Ground level
 TD  .F         3194.0000:   Total depth
 CLNT.            A2DTECH:   Client Code
 SL  . 2310' FWL & 990' FSL:   Surface Location
 PD  .                 GL:   Permanent Datum
 EPD .F              5132:   Elevation Permanent Datum
 LMF .                 KB:   Log Measured From
 DMF .                 KB:   Drilling Measured From
 DAPD.F                12:   Feet Above Permanent Datum
 DATE.        26-MAR-1977:   Date Logged [DD-MMM-YYYY]
 DD  .F              3188:   Depth driller
 DL  .F              3194:   Depth logger
 BLI .F              3188:   Bottom log interval
 TLI .F               564:   Top log interval
 CS1 .IN            8.625:   Casing size
 CBD1.      8.625" @ 570':   Casing driller 1
 CBL1.F               564:   Casing logger 1
 BS1 .IN            7.875:   Bit size
 BSD1.F              3188:   Depth drilled with bit1
 DFT .                KCL:   Type fluid in hole
 DFD .                9.2:   Density
 DFV .                 30:   Viscosity
 DFL .                9.2:   Fluid loss
 MSS .                PIT:   Source of sample
 RMS .OHMM          0.354:   Rm
 MST .F                70:   Rm Meas. temp.
 RMF .OHMM          0.326:   Rmf
 MFST.F                70:   Rmf Meas. temp.
 MFSS.               MEAS:   Source Rmf.
 RMC .OHMM          0.531:   Rmc
 MCST.F                70:   Rmc Meas. temp.
 MCSS.               CALC:   Source Rmc.
 RMB .OHMM          0.205:   Rm. at BHT
 BHT .F               121:   BHT.
 TLAB.HRS            1900:   Time logger at bottom
 MRT .F               121:   Maximum recorded temp.
 LUN .               5642:   Logging unit number
 LUL .               CSPR:   Logging unit location
 ENGI.             MARTIN:   Recorded By
 WITN.         PETTINGILL:   Witnessed by
 ORIG.           5" PRINT:   Origin of data
 UWI .     49025103260000:   Unique Well ID
 DICO. A2D TECHNOLOGIES, INC.:   Digitizing Company
~OTHER INFORMATION
~A   DEPT      SPR        ILM        ILD        LL8       CALD         GRD      RHOB       CORR   
# ...
 2610.5000   -59.9275     7.1116     6.4525    16.0067     8.2239   139.9740     2.5446     0.0093
 2611.0000   -59.7263     7.3661     6.6843    17.0478     8.2247   135.2365     2.5590     0.0011
 2611.5000   -59.6231     7.6827     6.8787    19.0819     8.2255   131.7864     2.5782     0.0253
 2612.0000   -59.6568     7.9079     7.0276    21.0317     8.2263   129.4763     2.5659     0.0176
 2612.5000   -59.7986     8.1866     7.1803    21.7842     8.2271   132.9156     2.5637     0.0269
 2613.0000   -59.9359     8.4210     7.2859    21.6303     8.2279   140.5110     2.5848     0.0255
 2613.5000   -60.0763     8.6024     7.3930    19.1333     8.2287   143.9459     2.5774     0.0193
 2614.0000   -60.1856     8.7270     7.3989    17.0251     8.2295   142.1802     2.5872     0.0303
 2614.5000   -60.6422     8.7923     7.4797    16.6840     8.2302   140.4145     2.5993     0.0427
 2615.0000   -60.6123     8.7971     7.5173    16.6972     8.2310   141.4720     2.5809     0.0364
 2615.5000   -60.6189     8.8029     7.5212    17.1757     8.2318   145.3527     2.5523     0.0281
 2616.0000   -60.4088     8.8688     7.4740    18.4151     8.2326   147.0046     2.5471     0.0119
 2616.5000   -60.1500     8.8735     7.4815    19.4818     8.2334   146.5776     2.5525     0.0097
 2617.0000   -59.8105     8.8783     7.4874    18.5691     8.2342   144.8120     2.5615     0.0159
 2617.5000   -59.8231     8.8830     7.5453    17.7042     8.2350   141.5604     2.5691     0.0269
 2618.0000   -59.8214     8.8877     7.5513    17.4697     8.2358   138.1527     2.5625     0.0254
 2618.5000   -59.8215     8.8311     7.5575    18.2230     8.2366   137.8804     2.5459     0.0184
 2619.0000   -59.8210     8.7760     7.5638    18.7452     8.2374   139.2395     2.5445     0.0121
 2619.5000   -59.8598     8.7189     7.5174    19.2823     8.2382   138.2167     2.5530     0.0078
 2620.0000   -59.9218     8.6036     7.4717    20.5412     8.2390   137.4868     2.5693     0.0055
 2620.5000   -59.9843     8.4898     7.4262    21.5652     8.2397   138.1029     2.5809     0.0265
 2621.0000   -60.0469     8.3208     7.3613    19.0570     8.2405   140.4977     2.5885     0.0312
 2621.5000   -60.1095     8.1540     7.2872    16.8406     8.2413   145.2699     2.5916     0.0375
 2622.0000   -60.1696     8.0462     7.2429    15.2986     8.2421   145.4530     2.5744     0.0205
 2622.5000   -60.2119     7.9397     7.1508    15.5212     8.2429   141.1442     2.5528     0.0190
 2623.0000   -60.3172     7.9450     7.1058    16.1879     8.2431   139.2175     2.5469     0.0181
 2623.5000   -60.6030     7.9492     7.0155    16.1982     8.2431   140.2918     2.5447     0.0130
 2624.0000   -60.6176     8.0088     7.0211    15.9862     8.2431   142.3894     2.5733     0.0224
 2624.5000   -60.6170     8.0130     7.0265    16.4468     8.2431   140.6237     2.5891     0.0356
 2625.0000   -60.5717     8.0175     7.0323    17.5123     8.2431   139.1552     2.5840     0.0380
 2625.5000   -60.5229     8.0784     7.0381    18.6439     8.2431   138.8711     2.5736     0.0303
 2626.0000   -60.4740     8.1389     7.0449    17.4139     8.2431   139.4872     2.5564     0.0265
 2626.5000   -60.4252     8.1432     7.0994    16.6028     8.2431   139.6531     2.5632     0.0383
 2627.0000   -60.3764     8.2042     7.1045    16.0337     8.2431   139.5215     2.5738     0.0421
 2627.5000   -60.3272     8.2656     7.1112    16.3984     8.2431   138.7940     2.5574     0.0290
 2628.0000   -60.2752     8.3337     7.1471    18.1993     8.2431   138.9652     2.5755     0.0353
 2628.5000   -60.2543     8.4492     7.1714    19.2450     8.2431   139.8741     2.5779     0.0439
 2629.0000   -59.7950     8.5125     7.1776    18.4757     8.2431   141.0802     2.5922     0.0525
 2629.5000   -59.8271     8.5170     7.2841    17.4940     8.2431   141.8405     2.6087     0.0541
 2630.0000   -59.9800     8.5808     7.3404    16.3372     8.2431   141.2636     2.5961     0.0410
 2630.5000   -60.4114     8.5854     7.3966    19.3568     8.2431   141.2810     2.5774     0.0347
 2631.0000   -60.8429     8.5307     7.4030    21.8642     8.2431   143.3073     2.5554     0.0249
 2631.5000   -61.0093     8.5363     7.5119    20.7024     8.2431   144.7340     2.5476     0.0312
 2632.0000   -61.0122     8.5409     7.5700    19.6024     8.2431   143.4177     2.5650     0.0359
 2632.5000   -61.0122     8.6048     7.6300    18.8188     8.2427   140.0175     2.5733     0.0390
 2633.0000   -61.0126     8.6692     7.5820    18.3149     8.2417   137.0632     2.5674     0.0352
 2633.5000   -61.0145     8.7948     7.4856    19.5045     8.2407   135.0003     2.5515     0.0407
 2634.0000   -60.9996     8.7995     7.3889    21.9975     8.2397   135.9092     2.5743     0.0221
 2634.5000   -60.7105     8.8656     7.2434    22.2667     8.2387   141.8701     2.5932     0.0411
 2635.0000   -60.5214     8.6289     7.1498    20.5125     8.2378   146.6423     2.5880     0.0301
 2635.5000   -60.4742     8.0003     7.0575    18.1268     8.2368   150.3750     2.5589     0.0224
 2636.0000   -60.3858     7.7311     7.0145    14.9499     8.2358   150.8380     2.5477     0.0155
 2636.5000   -60.3356     7.7363     6.8777    12.0770     8.2348   150.1164     2.5485     0.0295
 2637.0000   -60.2897     7.7942     6.7889    14.9688     8.2338   145.9733     2.5645     0.0226
 2637.5000   -60.2415     7.8526     6.6999    22.0485     8.2329   143.9104     2.5855     0.0215
 2638.0000   -60.4202     7.8025     6.5692    16.7410     8.2319   144.2250     2.5683     0.0390
 2638.5000   -60.8199     7.7003     6.5292    13.5239     8.2309   146.4712     2.5609     0.0196
 2639.0000   -61.2198     7.4939     6.4404    12.8920     8.2299   150.4221     2.5745     0.0283
 2639.5000   -61.6190     7.1431     6.3616    13.8245     8.2289   156.7023     2.5828     0.0369
 2640.0000   -62.0212     6.8561     6.2363    14.8221     8.2280   161.5336     2.5619     0.0277
 2640.5000   -62.1997     6.6712     6.1570    14.6281     8.2270   163.0369     2.5477     0.0200
 2641.0000   -62.2028     6.6298     6.0775    11.4350     8.2260   163.3471     2.5441     0.0185
 2641.5000   -62.1724     6.7735     6.0405     8.8494     8.2250   158.9112     2.5532     0.0108
 2642.0000   -61.9705     6.8716     6.0872    12.1653     8.2240   142.2867     2.5750     0.0249
 2642.5000   -61.7699     7.0196     6.2196    16.1560     8.2233   140.0738     2.6014     0.0389
 2643.0000   -61.5698     7.2206     6.3559    16.3884     8.2233   141.4328     2.6247     0.0467
 2643.5000   -61.3698     7.4790     6.5389    14.0901     8.2233   141.7430     2.6251     0.0545
 2644.0000   -61.1698     7.6402     6.7738    16.0754     8.2233   137.4557     2.6082     0.0476
 2644.5000   -60.9698     7.8124     6.9210    18.1351     8.2233   134.0555     2.5971     0.0345
 2645.0000   -60.7698     7.9852     7.0228    19.8032     8.2233   135.2616     2.5906     0.0284
 2645.5000   -60.5689     8.1455     7.1754    20.0912     8.2233   138.6965     2.5802     0.0269
 2646.0000   -60.3719     8.2635     7.2311    18.8928     8.2233   140.2229     2.5668     0.0285
 2646.5000   -60.2408     8.4415     7.2882    16.6954     8.2233   137.3940     2.5504     0.0268
 2647.0000   -59.8134     8.5048     7.2424    15.1668     8.2233   134.5882     2.5437     0.0147
 2647.5000   -59.8254     8.5695     7.1983    17.1847     8.2233   136.5680     2.5430     0.0117
 2648.0000   -59.8937     8.5741     7.2055    19.2292     8.2233   140.8680     2.5439     0.0133
 2648.5000   -60.2209     8.5194     7.2113    18.9557     8.2233   143.1142     2.5440     0.0141
 2649.0000   -60.5370     8.4648     7.2171    18.1980     8.2233   144.3203     2.5441     0.0150
 2649.5000   -60.8528     8.3532     7.2243    18.4627     8.2233   144.0405     2.5411     0.0174
 2650.0000   -61.0132     8.2427     7.2300    18.2210     8.2233   141.9777     2.5348     0.0190
 2650.5000   -61.0157     8.1814     7.2351    16.7829     8.2233   139.7619     2.5342     0.0209
