~VERSION INFORMATION
 VERS.                2.0:   CWLS LOG ASCII STANDARD - VERSION 2.0
 WRAP.                 NO:   ONE LINE PER DEPTH STEP
~WELL INFORMATION
#MNEM.UNIT      DATA TYPE    INFORMATION
#----------   ------------   ------------------------------
 STRT.F           14.0000:   START DEPTH
 STOP.F         3030.0000:   STOP DEPTH
 STEP.F            0.5000:   STEP LENGTH
 NULL.          -999.2500:   NO VALUE
 COMP. LAWRENCE ALLISON & ASSOC. WEST:   COMPANY
 WELL. LAWRENCE "X" #37-28:   WELL
 FLD .          N.P.R. #3:   FIELD
 LOC .      S28 T39N R78W:   LOCATION
 CNTY.            NATRONA:   COUNTY
 STAT.            WYOMING:   STATE
 CTRY. UNITED STATES OF AMERICA:   COUNTRY
 SRVC.      DRESSER ATLAS:   SERVICE COMPANY
 DATE.        22-SEP-1986:   LOGDATE
 API .     49025111090000:   API NUMBER
~CURVE INFORMATION
#MNEM.UNIT       API CODE    CURVE DESCRIPTION
#----------   ------------   ------------------------------
 DEPT.F                  :   
 GRR .GAPI   07 310 01 00:   GAMMA RAY FROM RESISTIVITY
 SPR .MV     07 010 01 00:   SPONTANEOUS POTENTIAL
 TENR.LBS    07 635 01 00:   TENSION FROM RESISTIVITY
 RILD.OHMM   07 120 46 00:   DEEP INDUCTION RESISTIVITY
 RILM.OHMM   07 120 44 00:   INDUCTION LOG MEDIUM RESISTIVITY
 RFOC.OHMM   07 220 04 00:   RESISTIVITY FOCUSED LOG RES.
 CNC .DEC    42 890 03 00:   NEUTRON PORISITY SANDSTONE
 RHOB.G/C3   45 350 01 00:   BULK DENSITY
 CORR.G/C3   45 356 01 00:   DENSITY CORRECTION
 TEND.LBS    45 635 01 00:   TENSION FROM DENSITY LOG
 CALD.IN     45 280 60 00:   CALIPER FROM DENSITY LOG
~PARAMETER INFORMATION
#MNEM.UNIT          VALUE    DESCRIPTION
#----------   ------------   ------------------------------
 EKB .F         5124.0000:   Kelly bushing
 EGL .F         5113.0000:   Ground level
 EDF .F         5123.0000:   Drilling floor
 TD  .F         3026.0000:   Total depth
 DATE.        22-SEP-1986:   Date logged
 CLNT.            A2DTECH:   Client Code
 SL  . 1097' FSL & 1722' FWL:   Surface Location
 PD  .                 GL:   Permanent Datum
 EPD .F              5113:   Elevation Permanent Datum
 LMF .                 KB:   Log Measured From
 DMF .                 KB:   Drilling Measured From
 DAPD.F                11:   Feet Above Permanent Datum
 DD  .F              3026:   Depth driller
 DL  .F              3023:   Depth logger
 BLI .F              3020:   Bottom log interval
 CS1 .IN            8.625:   Casing size
 CBD1.      8.625" @ 517':   Casing driller 1
 CBL1.F               518:   Casing logger 1
 BS1 .IN            7.875:   Bit size
 BSD1.F              3026:   Depth drilled with bit1
 DFT .            KCL-GEL:   Type fluid in hole
 DFD .                8.6:   Density
 DFV .                 41:   Viscosity
 DFPH.                9.5:   pH
 DFL .                6.8:   Fluid loss
 MSS .           FLOWLINE:   Source of sample
 RMS .OHMM           0.37:   Rm
 MST .F                58:   Rm Meas. temp.
 RMF .OHMM           0.33:   Rmf
 MFST.F                63:   Rmf Meas. temp.
 RMC .OHMM           0.59:   Rmc
 MCST.F                58:   Rmc Meas. temp.
 MFSS.               MEAS:   Source Rmf.
 MCSS.               CALC:   Source Rmc.
 RMB .OHMM           0.16:   Rm. at BHT
 BHT .F               131:   BHT.
 TCS .HRS               3:   Time Circ. stopped
 MRT .F               131:   Maximum recorded temp.
 LUN .            HL 6426:   Logging unit number
 LUL .                 RS:   Logging unit location
 ENGI.               RALL:   Recorded By
 WITN.             STRONG:   Witnessed by
 ORIG.           5" PRINT:   Origin of data
 UWI .     49025111090000:   Unique Well ID
 DICO. A2D TECHNOLOGIES, INC.:   Digitizing Company
~OTHER INFORMATION
~A   DEPT      GRR        SPR       TENR       RILD       RILM       RFOC        CNC       RHOB       CORR       TEND       CALD   
# ...
 2972.5000   108.6570    -6.1990   -19.1070     4.1800     5.0350     5.2250     0.2250     2.4760     0.0190   -50.9530     8.2910
 2973.0000   110.6420    -5.9560   -18.3490     4.1240     4.9430     5.2880     0.2330     2.4750     0.0220   -54.8960     8.2590
 2973.5000   112.4890    -5.7590   -17.5920     4.0610     4.8490     5.2300     0.2340     2.4730     0.0250   -58.8390     8.2270
 2974.0000   114.3830    -5.5350   -16.8340     3.9980     4.7510     4.9760     0.2350     2.4710     0.0280   -62.7820     8.1870
 2974.5000   116.1510    -5.1080   -16.0770     3.9360     4.6330     4.7190     0.2370     2.4690     0.0310   -62.2380     8.0740
 2975.0000   115.6390    -4.6740   -15.3190     3.8860     4.5480     4.5900     0.2400     2.4670     0.0350   -60.3390     8.0520
 2975.5000   114.5220    -4.3080   -14.5620     3.8710     4.5480     4.6710     0.2460     2.4660     0.0380   -58.4410     8.0510
 2976.0000   115.4240    -3.9660   -13.8190     3.8560     4.6000     4.7380     0.2500     2.4700     0.0350   -56.5420     8.0510
 2976.5000   117.1470    -3.7080   -43.9700     3.8500     4.5900     4.7170     0.2490     2.4680     0.0240   -54.6440     8.0510
 2977.0000   119.3120    -3.4290   -31.9100     3.8780     4.5480     4.6080     0.2440     2.4690     0.0160   -54.4740     8.0510
 2977.5000   119.9840    -3.0880   -23.8690     3.9010     4.5480     4.5480     0.2390     2.4760     0.0280   -56.3050     8.0510
 2978.0000   118.4220    -2.7060   -23.8690     3.9220     4.5480     4.6620     0.2350     2.4840     0.0520   -58.1360     8.0510
 2978.5000   117.5580    -2.3220   -23.8690     3.8810     4.5480     4.9430     0.2320     2.4910     0.0640   -59.9660     8.0510
 2979.0000   117.9500    -2.1160   -23.8690     3.8340     4.5030     4.8980     0.2340     2.4990     0.0650   -61.7970     8.0510
 2979.5000   120.0350    -2.0940   -23.8690     3.7860     4.4650     4.5060     0.2450     2.5030     0.0600   -63.6960     8.0510
 2980.0000   121.8700    -2.0820   -23.8690     3.7390     4.4010     4.4650     0.2490     2.4970     0.0550   -58.2130     8.0510
 2980.5000   121.0290    -2.0560   -23.8690     3.6920     4.3550     4.5580     0.2440     2.4910     0.0540   -52.5180     8.0510
 2981.0000   120.6310    -2.0470   -23.8690     3.6440     4.3090     4.6330     0.2440     2.4880     0.0550   -46.8220     8.0510
 2981.5000   123.2710    -2.0200   -23.8690     3.5970     4.2630     4.4700     0.2520     2.4860     0.0550   -41.1270     8.0510
 2982.0000   128.0760    -2.0100   -23.8690     3.5570     4.2230     4.3210     0.2530     2.4830     0.0560   -35.4310     8.0510
 2982.5000   131.7610    -1.9900   -23.8690     3.5030     4.1940     4.2420     0.2500     2.4790     0.0550   -36.0790     8.0510
 2983.0000   133.4480    -1.9630   -23.8690     3.4490     4.1680     4.2970     0.2460     2.4750     0.0520   -40.0220     8.0510
 2983.5000   134.5980    -1.9680   -23.8690     3.3820     4.1460     4.3420     0.2460     2.4660     0.0080   -43.9650     8.0510
 2984.0000   134.9300    -1.9110   -23.8690     3.3820     4.1640     4.1150     0.2460     2.4460    -0.0630   -47.9080     8.0510
 2984.5000   135.0840    -1.9500   -23.8690     3.3820     4.1800     4.0550     0.2430     2.4820    -0.1400   -51.8510     8.0510
 2985.0000   134.9960    -2.0230   -23.8690     3.3820     4.1950     4.2090     0.2430     2.4600    -0.0880   -52.3990     8.0510
 2985.5000   133.7510    -1.9500   -23.8690     3.3310     4.2110     4.3640     0.2460     2.5100     0.0300   -50.1710     8.0510
 2986.0000   130.1930    -2.0710   -23.8690     3.2660     4.1840     4.4090     0.2480     2.5000     0.0870   -47.9420     8.0510
 2986.5000   126.5660    -2.3300   -23.8690     3.2020     4.1080     4.3830     0.2480     2.4900     0.0870   -45.7130     8.0510
 2987.0000   126.2620    -2.5200   -23.3500     3.1410     3.9560     4.1310     0.2540     2.4910     0.0850   -43.5550     8.0510
 2987.5000   126.1210    -2.7500   -22.9270     3.0820     3.8140     3.9230     0.2630  -999.2500     0.0820   -40.5340     8.0510
 2988.0000   124.5630    -2.9650   -22.5040     3.0120     3.7490     3.7620     0.2650  -999.2500  -999.2500   -37.6050     8.0510
 2988.5000   123.2400    -3.1780   -22.0810     2.9420     3.6480     3.6760     0.2720  -999.2500  -999.2500   -34.6760     8.0510
 2989.0000   123.7310    -3.4000   -21.6580     2.8720     3.5750     3.6370     0.2820  -999.2500  -999.2500   -31.7470     8.0510
 2989.5000   125.1470    -3.6130   -21.2350     2.8140     3.5400     3.6080     0.2910  -999.2500  -999.2500   -28.8170     8.0510
 2990.0000   125.6610    -3.8320   -20.8120     2.7680     3.5130     3.6080     0.2900  -999.2500  -999.2500   -25.8880     8.0510
 2990.5000   125.9410    -3.9390   -20.3890     2.7080     3.4860     3.6080     0.2700  -999.2500  -999.2500   -23.5560     8.0510
 2991.0000   126.3780    -3.9390   -19.9660     2.7080     3.4580     3.6080     0.2560  -999.2500  -999.2500   -24.4710     8.0510
 2991.5000   126.0600    -3.9380   -19.5440     2.7080     3.4420     3.6080     0.2560  -999.2500  -999.2500   -25.3870     8.0510
 2992.0000   116.7010    -3.9400   -19.1210     2.7080     3.4310     3.6580     0.2670  -999.2500  -999.2500   -26.3020     8.0510
 2992.5000   104.6390    -3.9380   -18.6980     2.7080     3.4200     3.6760     0.2760  -999.2500  -999.2500   -27.2170     8.0510
 2993.0000   108.0140    -3.9400   -18.2750     2.6820     3.4000     3.6760     0.2740  -999.2500  -999.2500   -28.1330     8.0510
 2993.5000   119.6100    -3.9380   -17.8520     2.6590     3.3630     3.5550     0.2700  -999.2500  -999.2500   -29.0480     8.0510
 2994.0000   126.3650    -3.9390   -17.4290     2.6360     3.3260     3.4280     0.2680  -999.2500  -999.2500   -29.9630     8.0510
 2994.5000   127.5430    -3.9390   -17.0060     2.6130     3.2890     3.3510     0.2710  -999.2500  -999.2500   -30.8790     8.0510
 2995.0000  -999.2500    -3.9380   -16.5830     2.5860     3.2590     3.3510     0.2760  -999.2500  -999.2500   -31.7940     8.0510
 2995.5000  -999.2500    -3.9410   -16.1600     2.5740     3.2680     3.3880     0.2790  -999.2500  -999.2500   -32.7090     8.0510
 2996.0000  -999.2500    -3.9370   -15.7370     2.5590     3.2800     3.4770     0.2810  -999.2500  -999.2500   -32.8300     8.0510
 2996.5000  -999.2500    -3.9420   -15.3140     2.5440     3.2890     4.1840     0.2810  -999.2500  -999.2500   -28.5580     8.0510
 2997.0000  -999.2500    -3.9370   -14.8910     2.5290     3.2890     3.9300     0.2760  -999.2500  -999.2500   -24.2870     8.0510
 2997.5000  -999.2500    -3.8840   -14.4680     2.5150     3.2890     3.7500     0.2720  -999.2500  -999.2500   -20.0150     8.0510
 2998.0000  -999.2500    -3.8350   -14.0450     2.4950     3.1980     3.6050     0.2920  -999.2500  -999.2500   -15.7440     8.0510
 2998.5000  -999.2500    -3.7900   -13.8190     2.4750     3.0900     3.4610     0.2980  -999.2500  -999.2500   -13.8820     8.0510
 2999.0000  -999.2500    -3.7380   -18.0190     2.4400     3.0550     3.3200     0.2650  -999.2500  -999.2500   -16.1120     8.0510
 2999.5000  -999.2500    -3.7010   -21.3340     2.3810     2.9800     3.1800     0.2120  -999.2500  -999.2500   -18.3420     8.0500
 3000.0000  -999.2500    -3.6590   -24.6480     2.3210     2.9160     3.0550     0.2010  -999.2500  -999.2500   -20.5720     8.0490
 3000.5000  -999.2500    -3.6210   -27.9620     2.2930     2.9200     3.0060     0.2390  -999.2500  -999.2500   -22.8020     8.0480
 3001.0000  -999.2500    -3.5750   -31.2770     2.2930     2.9280     2.9990  -999.2500  -999.2500  -999.2500   -23.4140     8.0470
 3001.5000  -999.2500    -3.5390   -33.9200     2.2930     2.9350     3.0700  -999.2500  -999.2500  -999.2500   -23.4140     8.0470
 3002.0000  -999.2500    -3.5750   -31.5100     2.2960     2.9440     3.1410  -999.2500  -999.2500  -999.2500   -23.4140     8.0460
 3002.5000  -999.2500    -3.6240   -29.5070     2.3020     2.9520     3.1660  -999.2500  -999.2500  -999.2500   -23.4140     8.0450
