~VERSION INFORMATION
 VERS.                2.0:   CWLS LOG ASCII STANDARD - VERSION 2.0
 WRAP.                 NO:   ONE LINE PER DEPTH STEP
~WELL INFORMATION
#MNEM.UNIT      DATA TYPE    INFORMATION
#----------   ------------   ------------------------------
 STRT.F          404.0000:   START DEPTH
 STOP.F         2919.0000:   STOP DEPTH
 STEP.F            0.5000:   STEP LENGTH
 NULL.          -999.2500:   NO VALUE
 COMP.    FENIX & SCISSON:   COMPANY
 WELL. FENIX & SCISSON "AX" #27-21:   WELL
 FLD .             NPR #3:   FIELD
 LOC .      S21 T39N R78W:   LOCATION
 CNTY.            NATRONA:   COUNTY
 STAT.            WYOMING:   STATE
 CTRY. UNITED STATES OF AMERICA:   COUNTRY
 SRVC.       SCHLUMBERGER:   SERVICE COMPANY
 DATE.        21-APR-1977:   LOGDATE
 API .     49025103730000:   API NUMBER
~CURVE INFORMATION
#MNEM.UNIT       API CODE    CURVE DESCRIPTION
#----------   ------------   ------------------------------
 DEPT.F                  :   
 SPR .MV     07 010 01 00:   SPONTANEOUS POTENTIAL
 ILM .OHMM   07 120 44 00:   INDUCTION LOG MEDIUM RESISTIVITY
 ILD .OHMM   07 120 46 00:   DEEP INDUCTION RESISTIVITY
 LL8 .OHMM   07 220 08 00:   LATEROLOG-8 RES.
 GRN .GAPI   35 310 01 00:   GAMMA RAY
 CALD.IN     45 280 60 00:   CALIPER FROM DENSITY LOG
 GRD .GAPI   45 310 01 00:   GAMMA RAY FROM DENSITY LOG
 CORR.G/C3   45 356 01 00:   DENSITY CORRECTION
 RHOB.G/C3   45 350 01 00:   BULK DENSITY
~PARAMETER INFORMATION
#MNEM.UNIT          VALUE    DESCRIPTION
#----------   ------------   ------------------------------
 EKB .F         5004.0000:   Kelly bushing
 EGL .F         4994.0000:   Ground level
 TD  .F         2920.0000:   Total depth
 CLNT.            A2DTECH:   Client Code
 SL  . 991' FWL & 1090' FSL:   Surface Location
 DATE.        21-APR-1977:   Date Logged [DD-MMM-YYYY]
 DD  .F              2920:   Depth driller
 DL  .F              2920:   Depth logger
 BLI .F              2914:   Bottom log interval
 TLI .F               419:   Top log interval
 CS1 .              8.625:   Casing size
 CBD1.      8.625" @ 425':   Casing driller 1
 CBL1.IN              419:   Casing logger 1
 BS1 .IN            7.875:   Bit size
 BSD1.F              2920:   Depth drilled with bit1
 DFT .                FGM:   Type fluid in hole
 DFD .                9.0:   Density
 DFV .                 34:   Viscosity
 DFPH.                8.0:   pH
 DFL .                8.0:   Fluid loss
 MSS .                PIT:   Source of sample
 RMS .OHMM          0.158:   Rm
 MST .F                72:   Rm Meas. temp.
 RMF .OHMM          0.158:   Rmf
 MFST.F                72:   Rmf Meas. temp.
 MFSS.               MEAS:   Source Rmf.
 RMB .OHMM          0.102:   Rm. at BHT
 BHT .F               112:   BHT.
 TCS .HRS            0500:   Time Circ. stopped
 TLAB.HRS            0700:   Time logger at bottom
 MRT .F               112:   Maximum recorded temp.
 LUN .               5642:   Logging unit number
 LUL .               CSPR:   Logging unit location
 ENGI.             TAYLOR:   Recorded By
 WITN.          PETTINGIL:   Witnessed by
 ORIG.      2.5" 5" PRINT:   Origin of data
 UWI .     49025103730000:   Unique Well ID
 DICO. A2D TECHNOLOGIES, INC.:   Digitizing Company
 PD  .                 GL:   Permanent Datum
 EPD .F              4994:   Elevation Permanent Datum
 LMF .                 KB:   Log Measured From
 DMF .                 KB:   Drilling Measured From
 DAPD.F                10:   Feet Above Permanent Datum
~OTHER INFORMATION
~A   DEPT      SPR        ILM        ILD        LL8        GRN       CALD         GRD      CORR       RHOB   
# ...
 1572.0000   -69.0832     6.3496     6.0616     7.7884   156.1084     8.2172    90.3931     0.0100     2.4996
 1572.5000   -69.0772     6.4390     6.0629     7.7911   152.8958     8.2165    91.2875     0.0160     2.5026
 1573.0000   -68.7736     6.4403     6.0641     7.7938   154.1019     8.2156    93.6699     0.0176     2.5041
 1573.5000   -68.7677     6.4416     5.9825     7.7964   155.1866     8.2147    95.7547     0.0101     2.4936
 1574.0000   -68.4641     6.4430     5.9838     7.7991   151.9308     8.2139    96.6490     0.0026     2.4801
 1574.5000   -68.4581     6.3562     5.9032     7.8018   145.3370     8.2130    94.5671     0.0026     2.4906
 1575.0000   -68.1545     6.2706     5.7444     7.8045   140.8832     8.2121    94.5687     0.0056     2.5161
 1575.5000   -68.1486     6.1861     5.7456     7.8072   139.9923     8.2112    94.5701     0.0072     2.5130
 1576.0000   -67.8450     6.1028     5.6682     7.8099   142.2758     8.2104    93.3811     0.0102     2.5056
 1576.5000   -67.8390     5.9383     5.4405     7.8126   139.6039     8.2095    89.2159     0.0117     2.5059
 1577.0000   -67.8330     5.6992     5.3673     7.9238   138.0241     8.2086    86.2412     0.0147     2.5166
 1577.5000   -67.8271     5.6222     5.2951     7.9266   139.4246     8.2077    84.7546     0.0178     2.5266
 1578.0000   -67.8211     5.4709     5.2962     7.7137   143.0401     8.2069    84.7561     0.0209     2.5206
 1578.5000   -68.1131     5.4720     5.2973     7.2023   144.1855     8.2060    87.1385     0.0239     2.5221
 1579.0000   -68.7020     5.6259     5.3717     6.8182   143.9836     8.2051    89.8185     0.0284     2.5169
 1579.5000   -69.2917     5.8644     5.4472     6.8148   142.8834     8.2042    89.8200     0.0314     2.5072
 1580.0000   -69.2853     5.9962     5.6002     7.1110   135.7205     8.2034    87.4405     0.0194     2.5287
 1580.5000   -69.3210     6.2497     5.7575     7.3124   135.9677     8.2025    87.4420     0.0211     2.5242
 1581.0000   -69.2734     6.5140     5.9192     7.6238   134.1939     8.2016    92.5030     0.0224     2.5203
 1581.5000   -68.9698     6.6966     6.0855     7.9486   129.7255     8.2007    96.0759     0.0170     2.5101
 1582.0000   -68.3686     6.8843     6.0867     8.1736   132.2182     8.1998    97.5674     0.0101     2.5008
 1582.5000   -68.0650     6.9262     6.2577     8.1764   132.0163     8.1990    97.5520     0.0071     2.4958
 1583.0000   -68.0590     6.8746     6.3456     8.1793   128.8952     8.1981    95.6795     0.0060     2.4849
 1583.5000   -67.4578     6.6898     6.3469     8.1821   131.3879     8.1972    89.1999     0.0099     2.4753
 1584.0000   -67.1542     6.6004     6.3482     8.4138   129.3840     8.1963    89.2856     0.0150     2.4839
 1584.5000   -66.8507     6.5120     6.2627     8.5335   130.9841     8.1955    90.7570     0.0126     2.4893
 1585.0000   -66.5471     6.3371     6.0943     8.5365   133.2523     8.1946    91.6915     0.0061     2.4962
 1585.5000   -66.5411     6.2976     6.0955     8.5394   134.3977     8.1937    92.5565     0.0087     2.4943
 1586.0000   -67.1304     6.2989     6.0134     7.8642   135.0940     8.1928    93.1130     0.0169     2.4891
 1586.5000   -68.0173     6.2560     6.0148     7.5481   133.5448     8.1919    92.4683     0.0233     2.5026
 1587.0000   -68.3089     6.2154     6.0160     7.5507   131.9899     8.1920    90.8630     0.0235     2.5080
 1587.5000   -68.6012     6.3028     6.0173     7.5533   129.8414     8.1922    89.6577     0.0183     2.5133
 1588.0000   -68.8928     6.3041     6.0185     7.7672   125.4941     8.1923    88.5199     0.0152     2.5261
 1588.5000   -69.1846     6.3480     6.0198     7.9871   125.8158     8.1925    87.3200     0.0198     2.5313
 1589.0000   -69.1779     6.4367     6.0210     8.1008   128.0539     8.1926    86.1201     0.0267     2.5281
 1589.5000   -69.1719     6.5740     6.1056     8.2161   128.9594     8.1928    84.9201     0.0303     2.5221
 1590.0000   -69.1660     6.6665     6.1914     8.3331   127.1856     8.1929    83.8095     0.0280     2.5178
 1590.5000   -69.1600     6.6679     6.2784     8.4517   127.6574     8.1931    82.9127     0.0225     2.5163
 1591.0000   -68.8564     6.6693     6.3666     8.4546   128.3537     8.1932    82.7111     0.0139     2.5148
 1591.5000   -68.8504     6.6707     6.4561     8.4575   127.9272     8.1933    83.5195     0.0154     2.5148
 1592.0000   -68.5469     6.6319     6.4574     8.3443   127.0517     8.1935    84.8334     0.0184     2.5163
 1592.5000   -68.2433     6.5432     6.3706     8.2332   127.5234     8.1936    86.8700     0.0244     2.5208
 1593.0000   -68.2373     6.4556     6.2849     8.2360   129.5670     8.1938    89.4552     0.0260     2.5253
 1593.5000   -67.9337     6.4061     6.2001     8.1258   132.0597     8.1939    91.3070     0.0215     2.5283
 1594.0000   -67.6301     6.4074     6.1168     8.1289   133.8788     8.1941    92.6430     0.0170     2.5328
 1594.5000   -67.0289     6.4087     6.1182     8.1317   136.5960     8.1942    93.4360     0.0170     2.5314
 1595.0000   -66.7253     6.4100     6.1195     8.0227   138.6396     8.1944    93.8789     0.0215     2.5224
 1595.5000   -67.0170     6.4113     6.1208     8.0259   140.0096     8.1945    94.0342     0.0246     2.5059
 1596.0000   -67.9039     6.4127     6.1220     7.9183   141.1550     8.1947    92.5357     0.0063     2.5057
 1596.5000   -68.1955     6.5029     6.1233     7.9215   141.3965     8.1948    91.3358     0.0261     2.5194
 1597.0000   -68.4872     6.5379     6.2093     7.9242   136.7092     8.1950    90.4673     0.0082     2.5134
 1597.5000   -68.7797     6.6293     6.2966     8.0370   133.3636     8.1951    92.1725    -0.0009     2.5089
 1598.0000   -69.0705     6.6886     6.3850     8.0398   130.6916     8.1952    94.2736     0.0074     2.5060
 1598.5000   -69.0645     6.8496     6.4748     8.1542   130.2595     8.1954    95.8291     0.0256     2.5120
 1599.0000   -68.7609     7.0702     6.4761     8.1570   134.1052     8.1955    95.2354     0.0425     2.5404
 1599.5000   -68.7550     7.2035     6.5671     8.3880   136.3734     8.1957    91.0714     0.0508     2.5389
 1600.0000   -68.7490     7.4736     6.7515     8.6255   137.5187     8.1958    90.7738     0.0518     2.5614
 1600.5000   -68.7430     7.6130     6.8464     8.8698   137.0923     8.1960    88.3929     0.0472     2.5704
 1601.0000   -68.4395     7.8264     7.0387     9.1209   138.6895     8.2011    88.6905     0.0359     2.5644
 1601.5000   -68.1923     7.9016     7.1376     9.1241   142.3071     8.2071    90.1786     0.0298     2.5360
 1602.0000   -67.8937     7.9031     7.2379     8.6375   143.2239     8.2131    92.8571     0.0429     2.5465
 1602.5000   -67.5952     7.8724     7.1809     8.1768   142.5751     8.2191    94.0476     0.0324     2.5480
 1603.0000   -67.2966     7.6609     7.0037     8.1796   145.9744     8.2251    94.9405     0.0159     2.5420
 1603.5000   -66.9980     7.4550     6.8265     7.9599   148.6938     8.2311    94.6429     0.0069     2.5031
 1604.0000   -67.2540     7.1555     6.6493     7.8536   152.9851     8.2371    89.2857     0.0014     2.4941
 1604.5000   -67.8358     6.9633     6.4721     7.7488   154.1327     8.2431    87.2024     0.0189     2.5091
 1605.0000   -68.4176     6.6835     6.2949     7.7509   153.7084     8.2491    87.5000     0.0414     2.5346
 1605.5000   -68.9995     6.4150     6.1177     7.7536   149.9159     8.2552    87.5000     0.0505     2.5481
 1606.0000   -69.5813     6.2001     5.9405     7.7563   144.1024     8.2612    87.5000     0.0415     2.5511
 1606.5000   -70.1631     5.6332     5.7633     7.8214   140.7589     8.2672    87.5000     0.0265     2.5391
 1607.0000   -70.7449     5.0394     4.8775     7.8694   140.1039     8.2732    87.5000     0.0160     2.4867
 1607.5000   -71.3267     4.5569     3.9158     7.4251   141.4822     8.2792    88.3929     0.0070     2.4344
 1608.0000   -71.8580     4.0743     3.1438     6.7467   144.2017     8.2852    89.8809     0.0520     2.4239
