~VERSION INFORMATION
 VERS.                2.0:   CWLS LOG ASCII STANDARD - VERSION 2.0
 WRAP.                 NO:   ONE LINE PER DEPTH STEP
~WELL INFORMATION
#MNEM.UNIT      DATA TYPE    INFORMATION
#----------   ------------   ------------------------------
 STRT.F          517.0000:   START DEPTH
 STOP.F         3222.0000:   STOP DEPTH
 STEP.F            0.5000:   STEP LENGTH
 NULL.          -999.2500:   NO VALUE
 COMP.    FENIX & SCISSON:   COMPANY
 WELL.  FENIX "TX" #53-33:   WELL
 FLD .             NPR #3:   FIELD
 LOC .      S33 T39N R78W:   LOCATION
 CNTY.            NATRONA:   COUNTY
 STAT.            WYOMING:   STATE
 CTRY. UNITED STATES OF AMERICA:   COUNTRY
 SRVC.              WELEX:   SERVICE COMPANY
 DATE.        24-AUG-1980:   LOGDATE
 API .     49025108460000:   API NUMBER
~CURVE INFORMATION
#MNEM.UNIT       API CODE    CURVE DESCRIPTION
#----------   ------------   ------------------------------
 DEPT.F                  :   
 CALD.IN     45 280 60 00:   CALIPER FROM DENSITY LOG
 GRD .GAPI   45 310 01 00:   GAMMA RAY FROM DENSITY LOG
 CORR.G/C3   45 356 01 00:   DENSITY CORRECTION
 RHOB.G/C3   45 350 01 00:   BULK DENSITY
 SPR .MV     07 010 01 00:   SPONTANEOUS POTENTIAL
 ILD .OHMM   07 120 46 00:   DEEP INDUCTION RESISTIVITY
 ILM .OHMM   07 120 44 00:   INDUCTION LOG MEDIUM RESISTIVITY
 SGRD.OHMM   07 220 05 00:   SHALLOW SHORT GUARD RESISTIVITY
~PARAMETER INFORMATION
#MNEM.UNIT          VALUE    DESCRIPTION
#----------   ------------   ------------------------------
 EKB .F         5173.0000:   Kelly bushing
 EGL .F         5163.0000:   Ground level
 EDF .F            0.0000:   Drilling floor
 EPD .F            0.0000:   Permanent datum
 TD  .F         3224.0000:   Total depth
 CLNT.            A2DTECH:   Client Code
 SL  . 1650' FNL & 2500' FEL:   Surface Location
 PD  .                 GL:   Permanent Datum
 DAPD.F                10:   Feet Above Permanent Datum
 DATE.        24-AUG-1980:   Date Logged [DD-MMM-YYYY]
 DD  .F              3190:   Depth driller
 DL  .F              3224:   Depth logger
 BLI .F              3222:   Bottom log interval
 TLI .F               528:   Top log interval
 CS1 .IN            8.625:   Casing size
 CBD1.      8.625" @ 532':   Casing driller 1
 CBL1.F               528:   Casing logger 1
 BS1 .IN            7.875:   Bit size
 BSD1.F              3190:   Depth drilled with bit1
 DFT .     WATER BASE MUD:   Type fluid in hole
 DFD .                8.8:   Density
 DFV .                 45:   Viscosity
 DFL .                9.4:   Fluid loss
 MSS .            MUD PIT:   Source of sample
 RMS .OHMM           2.10:   Rm
 MST .F                65:   Rm Meas. temp.
 RMF .OHMM           1.68:   Rmf
 MFST.F                65:   Rmf Meas. temp.
 MFSS.               CALC:   Source Rmf.
 RMC .OHMM           2.52:   Rmc
 MCST.F                65:   Rmc Meas. temp.
 MCSS.               CALC:   Source Rmc.
 RMB .OHMM           1.14:   Rm. at BHT
 BHT .F               120:   BHT.
 TCS .HRS               3:   Time Circ. stopped
 MRT .F               120:   Maximum recorded temp.
 LUN .               1892:   Logging unit number
 LUL .             CASPER:   Logging unit location
 ENGI.           WACHTEIL:   Recorded By
 ORIG.         2.5" PRINT:   Origin of data
 UWI .     49025108460000:   Unique Well ID
 DICO. A2D TECHNOLOGIES, INC.:   Digitizing Company
~OTHER INFORMATION
~A   DEPT     CALD         GRD      CORR       RHOB        SPR        ILD        ILM       SGRD   
# ...
 1772.5000    10.7633   111.2688     0.0581     2.4945   -22.7928     6.0393     6.1457     7.0217
 1773.0000    10.7609   111.0405     0.0610     2.5011   -22.7999     6.0718     6.1403     7.0183
 1773.5000    10.7584   110.5557     0.0639     2.5116   -23.1060     6.0675     6.2215     6.9179
 1774.0000    10.6955   111.8791     0.0637     2.5175   -23.4122     6.0639     6.2156     6.8195
 1774.5000    10.6882   112.7520     0.0666     2.5220   -23.4181     6.0603     6.2104     6.7226
 1775.0000    10.6601   113.6261     0.0881     2.5143   -23.4239     6.0567     6.1189     6.6271
 1775.5000    10.6273   114.9533     0.0864     2.5063   -23.7301     6.0457     6.2866     6.6240
 1776.0000    10.6248   115.3709     0.0889     2.4955   -23.7359     5.8698     6.2807     6.6208
 1776.5000    10.6222   115.3401     0.1003     2.4899   -23.7418     5.7786     6.2757     6.6176
 1777.0000    10.6192   115.3108     0.1008     2.4957   -23.7477     5.7160     6.2708     6.6144
 1777.5000    10.6167   115.2815     0.0943     2.5055   -23.7538     5.6003     6.2657     6.6112
 1778.0000    10.6143   114.5826     0.0806     2.5069   -23.7598     5.4373     6.2605     6.6080
 1778.5000    10.6118   113.8658     0.0745     2.5016   -23.7658     5.3972     6.2553     6.5562
 1779.0000    10.6094   113.3874     0.0683     2.4970   -23.7718     5.2466     6.2501     6.4206
 1779.5000    10.6068   113.8099     0.0923     2.4924   -23.7778     5.1002     6.1804     6.4177
 1780.0000    10.6042   115.5837     0.1042     2.4817   -23.7838     5.0972     5.6331     6.2394
 1780.5000    10.6017   117.8080     0.1167     2.4693   -23.7898     5.0941     5.2326     6.2365
 1781.0000    10.5991   118.2305     0.1281     2.4456   -23.4955     5.0910     5.0601     6.2336
 1781.5000    10.5965   118.1322     0.1279     2.4201   -23.5015     5.0878     5.1266     6.3592
 1782.0000    10.5940   117.7207     0.1195     2.3921   -23.5075     5.0847     5.3398     7.5046
 1782.5000    10.5910   118.2957     0.1070     2.3641   -23.5135     5.1528     5.5619     7.7692
 1783.0000    10.5281   119.6035     0.0592     2.4039   -23.5206     5.1492     5.7136     7.7298
 1783.5000    10.4955   130.5311     0.0445     2.4705   -23.5265     5.1460     5.8762     7.4630
 1784.0000    10.4628   138.7696     0.0607     2.4735   -23.5323     5.1829     6.0295     7.2379
 1784.5000    10.4284   142.7957     0.0666     2.4734   -23.5382     5.2112     5.9810     6.9398
 1785.0000    10.3625   146.3713     0.0695     2.4612   -23.8443     5.2076     5.6402     6.6543
 1785.5000    10.3343   149.0461     0.0845     2.4385   -24.1505     5.1329     5.3833     6.3805
 1786.0000    10.3215   153.9336     0.0973     2.4245   -24.4567     5.0592     5.4584     6.4665
 1786.5000    10.2687   159.0353     0.1155     2.4125   -24.7628     5.0562     6.7065     7.7386
 1787.0000    10.2360   162.0225     0.1203     2.4096   -25.3794     5.0531     7.2819     8.8978
 1787.5000    10.2027   162.8941     0.0967     2.4286   -25.9760     5.0499     7.4804     9.6660
 1788.0000    10.2003   162.9374     0.0478     2.4499   -26.3223     5.0827     7.5787    10.0835
 1788.5000    10.1978   166.3401     0.0446     2.4491   -26.5886     5.3818     7.8940    10.4184
 1789.0000    10.1954   172.2692     0.0592     2.4122   -26.8949     5.6986     8.2286    10.8226
 1789.5000    10.1929   171.3356     0.0530     2.4108   -26.9860     5.9907     8.4979    11.2097
 1790.0000    10.1873   170.8559     0.0408     2.4241   -27.2072     6.2823     8.9488    11.4560
 1790.5000    10.1576   172.4411     0.0374     2.4257   -27.2132     6.6362     9.3321    11.8418
 1791.0000    10.1248   174.4009     0.0496     2.4194   -27.2192     7.0101     9.7319    12.0021
 1791.5000    10.1106   176.1695     0.0457     2.4116   -27.2252     7.2027    10.1487    12.1631
 1792.0000    10.0894   177.4929     0.0402     2.4057   -27.0711     7.4007    10.4959    12.1574
 1792.5000    10.0566   178.8163     0.0470     2.4056   -26.7618     7.7134    10.7821    11.9846
 1793.0000    10.0537   183.3057     0.0520     2.4011   -26.6426     7.8388    10.9248    11.9788
 1793.5000    10.0814   192.5836     0.0474     2.3603   -26.3493     8.1623    11.0680    11.9730
 1794.0000    10.0790   199.6097     0.0362     2.3370   -26.3551     8.2480    10.9064    12.1349
 1794.5000    10.1068   199.2227     0.0183     2.3449   -26.0601     8.4013    10.3062    12.2984
 1795.0000    10.1042   195.0976     0.0272     2.3614   -26.0666     8.4683    10.0207    12.3685
 1795.5000    10.0973   191.2932     0.0421     2.3688   -26.0724     8.5811    10.1806    12.6305
 1796.0000    10.0387   188.9071     0.0511     2.3868   -26.3786     8.6953    10.6605    12.7993
 1796.5000     9.9958   179.4796     0.0631     2.4231   -26.6847     8.6892    11.1310    12.6174
 1797.0000     9.9429   165.0372     0.0696     2.4369   -27.0009     8.6840    11.4706    12.4381
 1797.5000     9.9705   156.4507     0.0754     2.4469   -27.3224     8.6788    11.4611    12.0927
 1798.0000     9.9982   150.5669     0.0777     2.4589   -27.6036     8.7946    11.4499    11.9208
 1798.5000    10.0258   144.6785     0.0805     2.4459   -27.6096     8.7892    11.4408    11.7402
 1799.0000    10.0230   144.2000     0.0699     2.4339   -27.9159     8.6629    11.4317    11.5840
 1799.5000    10.0509   144.1721     0.0413     2.4267   -27.8367     8.6575    11.2655    11.4191
 1800.0000    10.1088   144.1441     0.0166     2.4248   -27.6266     8.6124    11.1017    11.2566
 1800.5000    10.1365   142.6778     0.0150     2.4260   -27.5185     8.4105    11.0791    11.2511
 1801.0000    10.1338   140.2250     0.0344     2.4350   -27.0390     8.2896    10.9043    11.1668
 1801.5000    10.1399   136.9145     0.0494     2.4501   -26.7447     8.1695    10.7715    10.9321
 1802.0000    10.1594   130.5852     0.0675     2.4746   -26.4505     8.1646    10.7103    10.9270
 1802.5000    10.1866   121.7343     0.0703     2.4931   -26.1562     8.1597    10.6057    10.7717
 1803.0000    10.1840   119.3873     0.0640     2.5042   -25.8619     8.3839    10.5969    10.6186
 1803.5000    10.1810   118.2588     0.0688     2.5184   -25.5781     8.4958    10.7358    10.7617
 1804.0000    10.1181   116.8795     0.0873     2.5370   -25.2853     8.6091    10.8765    11.2450
 1804.5000    10.0855   111.8966     0.0968     2.5565   -24.9932     8.6037    10.7171    12.5212
 1805.0000    10.0528   106.9137     0.0725     2.5618   -25.0004     8.5983    10.5613    12.4406
 1805.5000    10.0201   105.0833     0.0602     2.5527   -25.0075     8.7135    10.1234    11.7359
 1806.0000    10.0175   110.1983     0.0692     2.5406   -24.7144     8.5435     9.8306    11.0710
 1806.5000    10.0150   112.8943     0.0751     2.5315   -24.7222     8.2950     9.5620    10.5129
 1807.0000    10.0430   113.5587     0.0719     2.5285   -24.7297     8.1147     9.5230    10.2082
 1807.5000    10.1005   113.9077     0.0656     2.5084   -24.7372     7.8872     9.2853    10.0021
 1808.0000    10.1281   116.6666     0.0587     2.4880   -24.7447     7.6671     9.0980     9.9975
 1808.5000    10.1855   117.9653     0.0459     2.4749   -24.7523     7.5572     9.0166     9.8554
 1809.0000    10.2136   119.2887     0.0350     2.4661   -24.7611     7.3463     8.8838     9.8508
 1809.5000    10.2108   121.0626     0.0319     2.4592   -24.7683     7.2409     8.6342     9.8462
 1810.0000    10.2387   122.3860     0.0529     2.4680   -25.0758     7.0323     8.6273     9.8415
 1810.5000    10.2663   122.8086     0.0648     2.4785   -25.0830     6.8422     8.5019     9.8367
 1811.0000    10.2637   121.4279     0.0707     2.4740   -25.0902     6.8154     8.4951     9.6967
 1811.5000    10.2310   121.5654     0.0826     2.4800   -25.0976     6.7094     8.4883     9.6920
 1812.0000    10.1982   123.4236     0.0794     2.4981   -25.0570     6.5515     8.4812     9.6269
 1812.5000    10.1956   125.2818     0.0823     2.4982   -24.8114     6.5024     8.4499     9.4783
