~VERSION INFORMATION
 VERS.                2.0:   CWLS LOG ASCII STANDARD - VERSION 2.0
 WRAP.                 NO:   ONE LINE PER DEPTH STEP
~WELL INFORMATION
#MNEM.UNIT      DATA TYPE    INFORMATION
#----------   ------------   ------------------------------
 STRT.F          629.0000:   START DEPTH
 STOP.F         4090.0000:   STOP DEPTH
 STEP.F            0.5000:   STEP LENGTH
 NULL.          -999.2500:   NO VALUE
 COMP. LAWRENCE ALLISON & ASSOCIATES:   COMPANY
 WELL. LAWRENCE NPR 3 "SHX" #36-10:   WELL
 FLD .      NPR - WILDCAT:   FIELD
 LOC .      S10 T38N R78W:   LOCATION
 CNTY.            NATRONA:   COUNTY
 STAT.            WYOMING:   STATE
 CTRY. UNITED STATES OF AMERICA:   COUNTRY
 SRVC.      DRESSER ATLAS:   SERVICE COMPANY
 DATE.        24-DEC-1981:   LOGDATE
 API .     49025108310000:   API NUMBER
~CURVE INFORMATION
#MNEM.UNIT       API CODE    CURVE DESCRIPTION
#----------   ------------   ------------------------------
 DEPT.F                  :   
 DT  .US/F   60 520 00 00:   DELTA TIME
 TENS.LBS    60 635 01 00:   TENSION FROM SONIC
 GRR .GAPI   07 310 01 00:   GAMMA RAY FROM RESISTIVITY
 SPR .MV     07 010 01 00:   SPONTANEOUS POTENTIAL
 RFOC.OHMM   07 220 04 00:   RESISTIVITY FOCUSED LOG RES.
 RILM.OHMM   07 120 44 00:   INDUCTION LOG MEDIUM RESISTIVITY
 RILD.OHMM   07 120 46 00:   DEEP INDUCTION RESISTIVITY
 TENR.LBS    07 635 01 00:   TENSION FROM RESISTIVITY
 NPHI.DEC    42 890 03 00:   NEUTRON POROSITY SANDSTONE
 RHOB.G/C3   45 350 01 00:   BULK DENSITY
 CORR.G/C3   45 356 01 00:   DENSITY CORRECTION
 TEND.LBS    45 635 01 00:   TENSION FROM DENSITY LOG
 CALD.IN     45 280 60 00:   CALIPER FROM DENSITY LOG
~PARAMETER INFORMATION
#MNEM.UNIT          VALUE    DESCRIPTION
#----------   ------------   ------------------------------
 EKB .F         5234.0000:   Kelly bushing
 EGL .F         5224.0000:   Ground level
 EDF .F         5233.0000:   Drilling floor
 EPD .F            0.0000:   Permanent datum
 TD  .F         4100.0000:   Total depth
 DATE.        24-DEC-1981:   Date logged
 CLNT.            A2DTECH:   Client Code
 SL  . 1798' FSL & 1455' FWL:   Surface Location
 PD  .                 GL:   Permanent Datum
 DAPD.F                10:   Feet Above Permanent Datum
 DD  .F              4100:   Depth driller
 DL  .F              4082:   Depth logger
 BLI .F              4074:   Bottom log interval
 TLI .F              2300:   Top log interval
 CS1 .IN            9.625:   Casing size
 CBD1.      9.625" @ 650':   Casing driller 1
 BS1 .IN            7.875:   Bit size
 BSD1.F              4100:   Depth drilled with bit1
 DFT .            KCL/GEL:   Type fluid in hole
 DFD .                9.1:   Density
 DFV .                 60:   Viscosity
 DFPH.                  8:   pH
 DFL .                 12:   Fluid loss
 MSS .           FLOWLINE:   Source of sample
 RMS .OHMM           .536:   Rm
 RMF .OHMM           .402:   Rmf
 RMC .OHMM            067:   Rmc
 MFSS.               CALC:   Source Rmf.
 MCSS.               CALC:   Source Rmc.
 RMB .OHMM            .35:   Rm. at BHT
 BHT .F               135:   BHT.
 TCS .HRS               6:   Time Circ. stopped
 MRT .F               141:   Maximum recorded temp.
 LUL .               GLT1:   Logging unit location
 UWI .     49025108310000:   Unique Well ID
 DICO. A2D TECHNOLOGIES, INC.:   Digitizing Company
~OTHER INFORMATION
~A   DEPT       DT       TENS         GRR       SPR       RFOC       RILM       RILD       TENR       NPHI       RHOB       CORR       TEND       CALD   
# ...
 3229.0000    87.4690   -89.2660   117.8950   -32.3830     5.0170     3.7050     3.1380   -90.8630     0.2680     2.4540     0.0180   -72.6410     8.2580
 3229.5000    88.1040   -89.4810   120.6840   -32.7170     5.0170     3.6080     3.0870   -90.8190     0.2700     2.4580     0.0490   -71.8750     8.2590
 3230.0000    89.2510   -89.6960   126.1930   -33.0510     4.6100     3.5110     3.0150   -90.7760     0.2800     2.4600     0.0460   -71.1090     8.2600
 3230.5000    90.3970   -89.9120   131.1610   -33.4030     4.2890     3.4140     2.9430   -90.7330     0.2870     2.4550     0.0420   -70.3430     8.2610
 3231.0000    91.5430   -90.1270   130.4390   -33.2830     3.9840     3.3170     2.8710   -90.6890     0.2950     2.4540     0.0390   -69.5770     8.2620
 3231.5000    92.6900   -90.3420   129.5370   -32.9620     3.9840     3.2200     2.7990   -90.6460     0.3020     2.4590     0.0400   -68.8110     8.2630
 3232.0000    93.8040   -90.5580   131.7280   -32.6360     3.9840     3.1230     2.7270   -90.6030     0.3100     2.4640     0.0420   -68.0450     8.2640
 3232.5000    93.8520   -90.7730   135.1650   -32.3090     3.9840     3.0260     2.6550   -90.5600     0.3180     2.4650     0.0430   -67.2790     8.2650
 3233.0000    93.9290   -90.9890   134.4160   -31.9820     3.9840     2.9300     2.5830   -90.5160     0.3210     2.4510     0.0720   -66.5130     8.2660
 3233.5000    94.0040   -91.2040   136.5380   -31.6560     3.8600     2.8330     2.5110   -90.4730     0.3140     2.4410     0.1060   -65.7470     8.2670
 3234.0000    95.1790   -91.4190   142.2810   -31.3290     3.7120     2.7360     2.4390   -90.4300     0.3100     2.4280     0.1330   -64.9810     8.2680
 3234.5000    96.3160   -91.6350   148.0190   -31.0010     3.5340     2.6630     2.3670   -90.3870     0.3200     2.4260     0.0990   -64.2150     8.2690
 3235.0000    97.4070   -91.8500   153.4120   -30.6990     3.5690     2.6240     2.2960   -90.3430     0.3420     2.4290     0.0640   -63.4490     8.2700
 3235.5000    96.9510   -92.0660   152.2840   -30.9160     3.6520     2.5850     2.2240   -90.3000     0.3810     2.4330     0.0510   -62.6830     8.2710
 3236.0000    96.5120   -92.2810   150.9070   -31.1510     3.7350     2.5450     2.1520   -90.2570     0.3780     2.4360     0.0370   -61.9170     8.2720
 3236.5000    96.0730   -92.4960   151.5860   -31.3820     3.6670     2.5060     2.0800   -90.2130     0.3690     2.4270     0.0230   -61.1510     8.2730
 3237.0000    96.6980   -92.7120   155.5460   -31.6140     3.5560     2.4670     2.0510   -90.1700     0.3600     2.4140     0.0100   -60.3850     8.2740
 3237.5000    97.6120   -92.9270   159.4720   -31.8490     3.5340     2.4900     2.0510   -90.1270     0.3510     2.4100    -0.0030   -59.6190     8.2750
 3238.0000    98.5270   -93.1420   161.2980   -31.8550     3.5340     2.4900     2.1090   -90.0840     0.3420     2.4070    -0.0010   -58.8530     8.2760
 3238.5000    99.4410   -93.3580   162.8960   -31.8120     3.4840     2.5130     2.1680   -90.0400     0.3210     2.4040     0.0290   -58.0870     8.2770
 3239.0000   100.3560   -93.5730   169.7730   -31.7670     3.3990     2.7010     2.4880   -89.9970     0.2990     2.4090     0.0670   -57.3210     8.2780
 3239.5000   101.2700   -93.7890   177.9460   -31.7220     3.3130     3.3270     2.8110   -89.9540     0.2720     2.4220     0.1080   -56.5550     8.2790
 3240.0000   102.1850   -94.0040   182.7680   -31.6780     3.4380     3.9530     3.1340   -89.9110     0.2450     2.4430     0.1180   -55.7890     8.2800
 3240.5000    97.6530   -94.2190   170.1310   -31.6330     5.2210     4.5790     3.4570   -89.8670     0.2290     2.4800     0.1040   -55.0230     8.2810
 3241.0000    92.2370   -94.4350   150.7040   -31.5890     7.0420     5.0170     3.7800   -89.8240     0.2340     2.5190     0.0830   -54.2570     8.2810
 3241.5000    86.8200   -94.6500   130.3600   -31.5440     8.8620     5.1100     4.0210   -89.7810     0.2530     2.5370     0.0590   -53.4910     8.2830
 3242.0000    80.8090   -94.8660   104.3680   -31.4920    10.2030     5.1100     4.1720   -89.7370     0.2760     2.5170     0.0540   -52.7260     8.2980
 3242.5000    82.5270   -95.0810   102.7010   -31.7270     8.0430     5.1970     4.5730   -89.6940     0.2730     2.4930     0.0640   -51.9600     8.2960
 3243.0000    87.1120   -95.2960   110.5810   -32.0300     5.5520     5.3100     5.0170   -89.6510     0.2660     2.4870     0.0940   -51.1940     8.2930
 3243.5000    91.6970   -95.5120   121.0660   -32.3410     5.3020     5.4230     5.1100   -89.6080     0.2640     2.4870     0.1100   -50.4280     8.2900
 3244.0000    93.9060   -95.7270   124.4950   -32.5820     5.6040     5.5370     5.1580   -89.5640     0.2590     2.4880     0.0970   -49.6620     8.2870
 3244.5000    92.5540   -95.9430   123.6730   -32.8330     6.4070     5.6500     5.1580   -89.5210     0.2480     2.4890     0.0710   -48.8960     8.2840
 3245.0000    88.7700   -96.1580   118.1120   -33.0840     7.8110     5.7630     5.2050   -89.4780     0.2340     2.4840     0.0550   -48.1300     8.2820
 3245.5000    85.2950   -96.3730   111.0630   -33.3000     9.3050     5.8760     5.2960   -89.4350     0.2380     2.4780     0.0850   -47.3640     8.2580
 3246.0000    84.1940   -96.5890   108.9220   -33.3000     8.4750     5.9900     5.4220   -89.3910     0.2480     2.4830     0.1060   -46.5980     8.2310
 3246.5000    83.6150   -96.8040   108.1410   -33.3000     7.1220     6.1070     5.5490   -89.3480     0.2530     2.5010     0.0960   -45.8320     8.2030
 3247.0000    83.8660   -97.0190   105.4110   -33.3000     7.2240     6.2020     5.6750   -89.3050     0.2450     2.5190     0.0880   -49.0180     8.1760
 3247.5000    84.0940   -97.2350   102.4370   -33.2930     7.2540     6.3170     5.7610   -89.2610     0.2370     2.5240     0.0810   -57.0660     8.1620
 3248.0000    82.5910   -97.4500   100.7340   -33.6020     7.3210     6.2550     5.7610   -89.2180     0.2340     2.5230     0.0670   -65.1140     8.1630
 3248.5000    82.0900   -97.6660   100.2510   -34.0150     6.8640     6.1870     5.7610   -89.1750     0.2390     2.5270     0.0430   -73.1620     8.1640
 3249.0000    82.4910   -97.8810   102.5990   -34.3110     6.8640     6.1190     5.5780   -89.1320     0.2490     2.5350     0.0360   -81.2100     8.1640
 3249.5000    82.5100   -98.0960   106.6860   -34.3080     6.9280     6.0510     5.3780   -89.0880     0.2590     2.5440     0.0370   -85.3290     8.1650
 3250.0000    82.2310   -98.3120   111.3580   -34.3100     6.9920     5.9830     5.1580   -89.0450     0.2670     2.5390     0.0650   -84.0670     8.1660
 3250.5000    81.9410   -98.5270   116.0340   -34.7090     6.9920     5.9160     5.1580   -89.0020     0.2680     2.5270     0.0900   -82.9110     8.1670
 3251.0000    82.3340   -98.7430   120.7090   -35.3830     6.4390     5.8680     5.1580   -88.9590     0.2550     2.5190     0.0960   -81.7550     8.1680
 3251.5000    83.4060   -98.9580   124.8490   -36.0460     6.0130     6.0940     5.1580   -88.9150     0.2450     2.5240     0.0980   -80.5990     8.1690
 3252.0000    84.9950   -99.1730   124.5360   -36.5300     5.5880     6.2670     5.1580   -88.8720     0.2350     2.5340     0.0860   -79.4420     8.1700
 3252.5000    84.2020   -99.3890   124.0910   -36.6090     5.2050     6.4410     5.1580   -88.8290     0.2260     2.5450     0.0740   -78.2860     8.1710
 3253.0000    82.6720   -99.6040   120.6660   -36.7100     6.9240     6.6150     5.1580   -88.7850     0.2250     2.5470     0.0630   -77.1300     8.1720
 3253.5000    81.1420   -99.8190   116.7010   -36.8110     8.3690     6.7880     5.3540   -88.7420     0.2340     2.5370     0.0510   -75.9730     8.1730
 3254.0000    79.6110  -100.0350   115.2970   -36.9120     8.4070     6.9620     5.5340   -88.6990     0.2470     2.5310     0.0400   -74.8170     8.1730
 3254.5000    78.3090  -100.2500   114.1340   -37.0140     8.1250     7.1880     5.7130   -88.6560     0.2590     2.5280     0.0280   -73.6610     8.1740
