~VERSION INFORMATION
 VERS.                2.0:   CWLS LOG ASCII STANDARD - VERSION 2.0
 WRAP.                 NO:   ONE LINE PER DEPTH STEP
~WELL INFORMATION
#MNEM.UNIT      DATA TYPE    INFORMATION
#----------   ------------   ------------------------------
 STRT.F          200.5000:   START DEPTH
 STOP.F         3118.5000:   STOP DEPTH
 STEP.F            0.5000:   STEP LENGTH
 NULL.          -999.2500:   NO VALUE
 COMP.    FENIX & SCISSON:   COMPANY
 WELL. FENIX SCISSON "A" #16-27:   WELL
 FLD .                NPR:   FIELD
 LOC .      S27 T39N R78W:   LOCATION
 CNTY.            NATRONA:   COUNTY
 STAT.            WYOMING:   STATE
 CTRY. UNITED STATES OF AMERICA:   COUNTRY
 SRVC.       SCHLUMBERGER:   SERVICE COMPANY
 DATE.        31-AUG-1977:   LOGDATE
 API .     49025104180000:   API NUMBER
~CURVE INFORMATION
#MNEM.UNIT       API CODE    CURVE DESCRIPTION
#----------   ------------   ------------------------------
 DEPT.F                  :   
 CALD.IN     45 280 60 00:   CALIPER FROM DENSITY LOG
 GRD .GAPI   45 310 01 00:   GAMMA RAY FROM DENSITY LOG
 DPHI.DEC    42 890 03 00:   DENSITY POROSITY SANDSTONE
 RHOB.G/C3   45 350 01 00:   BULK DENSITY
 CORR.G/C3   45 356 01 00:   DENSITY CORRECTION
 SPR .MV     07 010 01 00:   SPONTANEOUS POTENTIAL
 GURD.OHMM   07 220 05 00:   GUARD LOG RESISTIVITY
 ILD .OHMM   07 120 46 00:   DEEP INDUCTION RESISTIVITY
 ILM .OHMM   07 120 44 00:   INDUCTION LOG MEDIUM RESISTIVITY
~PARAMETER INFORMATION
#MNEM.UNIT          VALUE    DESCRIPTION
#----------   ------------   ------------------------------
 EKB .F         5095.0000:   Kelly bushing
 EGL .F         5085.0000:   Ground level
 EDF .F            0.0000:   Drilling floor
 TD  .F         3121.0000:   Total depth
 DATE.        31-AUG-1977:   Date logged
 CLNT.            A2DTECH:   Client Code
 SL  . 1430' FSL & 330' FNL:   Surface Location
 PD  .                 GL:   Permanent Datum
 EPD .F              5085:   Elevation Permanent Datum
 LMF .                 KB:   Log Measured From
 DMF .                 KB:   Drilling Measured From
 DAPD.F                10:   Feet Above Permanent Datum
 DD  .F              3120:   Depth driller
 DL  .F              3121:   Depth logger
 BLI .F              3119:   Bottom log interval
 TLI .F               200:   Top log interval
 CS1 .IN            8.625:   Casing size
 CBD1.      8.625" @ 206':   Casing driller 1
 CBL1.F               215:   Casing logger 1
 BS1 .IN            7.875:   Bit size
 BSD1.F              3120:   Depth drilled with bit1
 DFT .            KCL/MUD:   Type fluid in hole
 DFD .                  9:   Density
 DFV .                 36:   Viscosity
 DFPH.                 11:   pH
 DFL .                8.4:   Fluid loss
 MSS .           FLOWLINE:   Source of sample
 RMS .OHMM            2.5:   Rm
 MST .F                89:   Rm Meas. temp.
 RMF .OHMM           2.45:   Rmf
 MFST.F                89:   Rmf Meas. temp.
 RMC .OHMM           3.30:   Rmc
 MCST.F                89:   Rmc Meas. temp.
 MFSS.               FANN:   Source Rmf.
 MCSS.                KIT:   Source Rmc.
 RMB .OHMM           1.91:   Rm. at BHT
 BHT .F               116:   BHT.
 TCS .HRS              12:   Time Circ. stopped
 MRT .F               116:   Maximum recorded temp.
 LUN .               9585:   Logging unit number
 LUL .             CASPEN:   Logging unit location
 ENGI.         G. BENTSEN:   Recorded By
 WITN.      W. PETTINGILL:   Witnessed by
 ORIG.           5" PRINT:   Origin of data
 UWI .     49025104180000:   Unique Well ID
 DICO. A2D TECHNOLOGIES, INC.:   Digitizing Company
~OTHER INFORMATION
~A   DEPT     CALD         GRD      DPHI       RHOB        CORR       SPR       GURD        ILD        ILM   
# ...
  383.0000     9.6033    44.3343     0.1925     2.3333     0.0434   -32.4870    12.9167     9.7189     8.7187
  383.5000     9.6037    44.9312     0.1925     2.3324     0.0414   -32.4804    13.1603     9.8111     8.7216
  384.0000     9.6041    44.9351     0.1929     2.3314     0.0415   -32.4737    13.4085     9.9049     8.8051
  384.5000     9.5848    44.9391     0.1933     2.3314     0.0395   -33.2576    13.9144     9.9995     8.8894
  385.0000     9.5852    44.5478     0.1925     2.3304     0.0416   -33.4489    14.1767    10.0035     9.0568
  385.5000     9.5856    43.9588     0.1925     2.3304     0.0416   -33.6402    14.1814     9.8243     9.1441
  386.0000     9.5860    43.5675     0.1937     2.3305     0.0397   -33.6335    13.9273     9.8276     9.3169
  386.5000     9.5863    43.3738     0.1944     2.3305     0.0377   -33.8248    15.4124    10.0136     9.3194
  387.0000     9.5867    43.3778     0.1921     2.3315     0.0397   -33.8181    15.8456    10.0163     9.1521
  387.5000     9.6069    43.3818     0.1905     2.3355     0.0418   -33.8115    13.6885    10.2066     9.1564
  388.0000     9.5875    43.1881     0.1897     2.3365     0.0458   -33.8048    13.0782    10.2093     9.1595
  388.5000     9.5879    43.3889     0.1885     2.3385     0.0498   -33.9961    15.7185     9.8447     9.1632
  389.0000     9.5883    44.1835     0.1873     2.3405     0.0498   -34.1873    17.1238    10.0304     9.2509
  389.5000     9.5887    44.7804     0.1864     2.3415     0.0538   -34.1807    16.9694    10.0338     9.2528
  390.0000     9.6089    45.3772     0.1860     2.3435     0.0559   -34.5671    14.6206    10.1297     8.9243
  390.5000     9.5895    45.1836     0.1868     2.3426     0.0579   -34.7610    13.8422    10.1337     8.8439
  391.0000     9.5899    45.1875     0.1900     2.3376     0.0559   -34.7544    12.2900     9.5066     8.7659
  391.5000     9.6101    44.4009     0.1940     2.3347     0.0560   -35.5393    11.4242     9.2516     8.6092
  392.0000     9.6105    44.0096     0.1960     2.3307     0.0501   -35.7305    11.4280     9.0023     8.6127
  392.5000     9.5911    43.4207     0.1971     2.3208     0.0461   -36.5153    11.4318     9.0066     8.6945
  393.0000     9.5915    43.4246     0.1963     2.3238     0.0422   -37.1022    11.4356     9.0096     8.7778
  393.5000     9.5919    43.4286     0.1920     2.3278     0.0402   -37.4912    12.1981     9.0120     8.8624
  394.0000     9.5923    43.4326     0.1888     2.3358     0.0403   -37.4845    13.6221     9.0157     8.8648
  394.5000     9.5927    44.0295     0.1838     2.3417     0.0423   -37.8749    14.3976     9.0187     8.9496
  395.0000     9.5931    44.2303     0.1772     2.3467     0.0404   -38.0646    14.0114     9.2735     9.0353
  395.5000     9.5935    44.2343     0.1776     2.3537     0.0384   -39.0253    12.9054     9.5354     9.2065
  396.0000     9.5346    44.2390     0.1756     2.3547     0.0385   -39.6299    13.1487     9.6259     9.2946
  396.5000     9.5350    44.4398     0.1696     2.3607     0.0385   -39.4294    14.2850     9.6297     9.2978
  397.0000     9.5552    44.8391     0.1684     2.3707     0.0445   -39.8183    15.5194     9.6323     9.3009
  397.5000     9.5556    45.0415     0.1656     2.3757     0.0465   -40.0080    15.9576     9.7250     9.3040
  398.0000     9.5559    45.0439     0.1656     2.3717     0.0446   -40.1990    16.1100     9.8172     9.3065
  398.5000     9.5366    44.8518     0.1664     2.3727     0.0406   -40.1922    16.1153     9.9117     9.4830
  399.0000     9.5370    44.6581     0.1656     2.3747     0.0367   -41.1746    16.4190    10.0057     9.6621
  399.5000     9.5571    44.2668     0.1640     2.3757     0.0367   -41.7613    16.2745    10.0097    10.0271
  400.0000     9.5378    43.8755     0.1636     2.3757     0.0368   -41.7544    16.2798    10.0124    10.2164
  400.5000     9.5041    43.7002     0.1604     2.3807     0.0311   -42.4468    15.7178    10.0166    10.3863
  401.0000     9.4793    43.6858     0.1568     2.3857     0.0289   -42.5358    16.1380    10.0171    10.4101
  401.5000     9.4599    43.4921     0.1533     2.3957     0.0329   -42.5309    17.6916    10.0187    10.4121
  402.0000     9.4603    43.4953     0.1521     2.4027     0.0349   -42.7238    18.1888    10.0211    10.2246
  402.5000     9.4212    43.5001     0.1540     2.3947     0.0369   -42.9167    17.2184    10.0230    10.0404
  403.0000     9.4018    43.7009     0.1608     2.3878     0.0389   -42.9118    16.0041     9.8428     9.8596
  403.5000     9.4022    44.1001     0.1636     2.3858     0.0369   -43.1047    15.4307     9.4901     9.8615
  404.0000     9.3828    44.6978     0.1664     2.3788     0.0370   -43.2976    15.4338     9.4053     9.8635
  404.5000     9.3635    44.7018     0.1667     2.3749     0.0370   -43.2927    15.2959     9.3213     9.8650
  405.0000     9.3639    44.5081     0.1663     2.3749     0.0390   -43.4856    15.1593     9.3227     9.8666
  405.5000     9.3840    44.7098     0.1655     2.3759     0.0410   -43.6785    15.1623     9.3249     9.6896
  406.0000     9.3647    45.1090     0.1647     2.3779     0.0410   -43.8714    15.0269     9.3268     9.6029
  406.5000     9.3847    44.3224     0.1651     2.3779     0.0411   -43.8665    15.0299     9.3286     9.6044
  407.0000     9.3654    44.3264     0.1663     2.3779     0.0411   -43.8616    15.1714     9.4160     9.6067
  407.5000     9.3658    44.3304     0.1663     2.3750     0.0411   -44.0536    15.0359     9.4186     9.6973
  408.0000     9.3464    44.3343     0.1659     2.3740     0.0391   -44.2465    15.0389     9.4205     9.7891
  408.5000     9.3468    44.3383     0.1615     2.3760     0.0411   -44.4394    15.1805     9.4223     9.8810
  409.0000     9.3274    44.9344     0.1603     2.3800     0.0392   -44.6323    15.4646     9.4242     9.8826
  409.5000     9.3278    44.9384     0.1591     2.3839     0.0392   -44.8252    15.6103     9.4257     9.8849
  410.0000     9.3282    45.7329     0.1583     2.3879     0.0372   -45.2159    16.0490     9.3411     9.7968
  410.5000     9.2891    46.1322     0.1552     2.3899     0.0373   -45.8045    16.6521     9.1734     9.7984
  411.0000     9.3093    46.7291     0.1528     2.3969     0.0393   -46.1952    15.7636     9.5185     9.4478
  411.5000     9.2899    47.5228     0.1512     2.3979     0.0413   -46.3881    15.3388     9.4331     9.6799
  412.0000     9.2903    47.5276     0.1496     2.3999     0.0453   -46.5810    15.2017     9.2634     9.5068
  412.5000     9.2907    46.9378     0.1504     2.3989     0.0413   -46.9718    15.0659     9.0968     9.3367
  413.0000     9.2911    46.5465     0.1523     2.3970     0.0394   -46.9668    14.9313     9.0152     9.2534
  413.5000     9.2717    45.5631     0.1539     2.3950     0.0374   -47.1598    14.7986     8.9353     9.1718
  414.0000     9.2721    44.9741     0.1595     2.3880     0.0374   -47.1549    14.8015     8.9371     9.1736
  414.5000     9.2725    45.7687     0.1551     2.3900     0.0394   -46.9521    14.8045     8.9385     9.1751
  415.0000     9.2926    46.5632     0.1531     2.3970     0.0414   -46.9443    14.8074     8.9406     9.1772
  415.5000     9.2931    46.7648     0.1515     2.3980     0.0415   -46.9423    14.6751     8.9420     9.1787
  416.0000     9.2935    48.1523     0.1503     2.4010     0.0455   -47.1352    14.6781     8.9441     9.1808
  416.5000     9.2938    46.7728     0.1487     2.4030     0.0475   -46.9325    14.4141     8.8641     9.0992
  417.0000     9.2943    46.3815     0.1491     2.4040     0.0515   -46.9266    14.1549     8.7047     8.9364
  417.5000     9.2947    45.5949     0.1487     2.4050     0.0515   -46.7239    14.2882     8.7064     8.9382
  418.0000     9.3148    45.0059     0.1499     2.4050     0.0515   -46.5212    14.4227     8.7085     8.9403
  418.5000     9.3152    44.6146     0.1499     2.4051     0.0515   -46.5163    14.5585     8.7898     9.0233
  419.0000     9.3156    44.6186     0.1507     2.4041     0.0515   -46.3135    14.9678     8.8732     9.1084
