~VERSION INFORMATION
 VERS.                2.0:   CWLS LOG ASCII STANDARD - VERSION 2.0
 WRAP.                 NO:   ONE LINE PER DEPTH STEP
~WELL INFORMATION
#MNEM.UNIT      DATA TYPE    INFORMATION
#----------   ------------   ------------------------------
 STRT.F          176.0000:   START DEPTH
 STOP.F         3380.0000:   STOP DEPTH
 STEP.F            0.5000:   STEP LENGTH
 NULL.          -999.2500:   NO VALUE
 COMP.    PENIX & SCISSON:   COMPANY
 WELL.  FENIX "AX" #85-15:   WELL
 FLD .             NPR #3:   FIELD
 LOC .      S15 T38N R78W:   LOCATION
 CNTY.            NATRONA:   COUNTY
 STAT.            WYOMING:   STATE
 CTRY. UNITED STATES OF AMERICA:   COUNTRY
 SRVC.       SCHLUMBERGER:   SERVICE COMPANY
 DATE.        28-APR-1981:   LOGDATE
 API .     49025108700000:   API NUMBER
~CURVE INFORMATION
#MNEM.UNIT       API CODE    CURVE DESCRIPTION
#----------   ------------   ------------------------------
 DEPT.F                  :   
 TEND.LBS    45 635 01 00:   TENSION FROM DENSITY LOG
 CALD.IN     45 280 60 00:   CALIPER FROM DENSITY LOG
 CORR.G/C3   45 356 01 00:   DENSITY CORRECTION
 GRD .GAPI   45 310 01 00:   GAMMA RAY FROM DENSITY LOG
 RHOB.G/C3   45 350 01 00:   BULK DENSITY
 SFL .OHMM   07 220 01 00:   SHALLOW FOCUSED LOG RESISTIVITY
 ILD .OHMM   07 120 46 00:   INDUCTIONLOG DEEP RESISTIVITY
 ILM .OHMM   07 120 44 00:   INDUCTION LOG MEDIUM RESISTIVITY
 TENR.LBS    07 635 01 00:   TENSION FROM RESISTIVITY
 SPR .MV     07 010 01 00:   SPONTANEOUS POTENTIAL
~PARAMETER INFORMATION
#MNEM.UNIT          VALUE    DESCRIPTION
#----------   ------------   ------------------------------
 EKB .F         5259.0000:   Kelly bushing
 EGL .F         5249.0000:   Ground level
 EDF .F            0.0000:   Drilling floor
 TD  .F         3333.0000:   Total depth
 DATE.        28-APR-1981:   Date logged
 CLNT.            A2DTECH:   Client Code
 SL  . 1927' FSL & 140' FEL:   Surface Location
 PD  .                 GL:   Permanent Datum
 DD  .F              3333:   Depth driller
 DL  .F              3382:   Depth logger
 BLI .F              3376:   Bottom log interval
 TLI .F               182:   Top log interval
 CS1 .IN            8.625:   Casing size
 CBD1.      8.625" @ 181':   Casing driller 1
 CBL1.F               182:   Casing logger 1
 BS1 .IN            7.875:   Bit size
 BSD1.F              3333:   Depth drilled with bit1
 DFT .                GEL:   Type fluid in hole
 DFD .                8.7:   Density
 DFV .                 35:   Viscosity
 DFPH.                9.5:   pH
 DFL .                  7:   Fluid loss
 MSS .               TANK:   Source of sample
 RMS .OHMM           1.79:   Rm
 MST .F                58:   Rm Meas. temp.
 RMF .OHMM           1.43:   Rmf
 MFST.F                58:   Rmf Meas. temp.
 MFSS.               MEAS:   Source Rmf.
 RMB .OHMM            .93:   Rm. at BHT
 BHT .F               112:   BHT.
 TCS .HRS             800:   Time Circ. stopped
 TLAB.HRS             200:   Time logger at bottom
 MRT .F               112:   Maximum recorded temp.
 LUN .               8039:   Logging unit number
 LUL .               CAPR:   Logging unit location
 ENGI.           HARRINER:   Recorded By
 WITN.              SCOTT:   Witnessed by
 ORIG.           5" PRINT:   Origin of data
 UWI .     49025108700000:   Unique Well ID
 DICO. A2D TECHNOLOGIES, INC.:   Digitizing Company
 EPD .               5249:   Elevation Permanent Datum
 LMF .                 KB:   Log Measured From
 DMF .                 KB:   Drilling Measured From
 DAPD.                 10:   Feet Above Permanent Datum
~OTHER INFORMATION
~A   DEPT     TEND       CALD       CORR         GRD      RHOB        SFL        ILD        ILM       TENR        SPR   
  176.0000  -999.2500  -999.2500  -999.2500    73.1000  -999.2500  -999.2500  -999.2500  -999.2500  -999.2500  -999.2500
  176.5000  -999.2500  -999.2500  -999.2500    72.6630  -999.2500  -999.2500  -999.2500  -999.2500  -999.2500  -999.2500
  177.0000  -999.2500  -999.2500  -999.2500    72.2250  -999.2500  -999.2500  -999.2500  -999.2500  -999.2500  -999.2500
  177.5000  -999.2500  -999.2500  -999.2500    70.2540  -999.2500  -999.2500  -999.2500  -999.2500  -999.2500  -999.2500
  178.0000  -999.2500  -999.2500  -999.2500    67.3440  -999.2500  -999.2500  -999.2500  -999.2500  -999.2500  -999.2500
  178.5000  -999.2500  -999.2500  -999.2500    64.4330  -999.2500  -999.2500  -999.2500  -999.2500  -999.2500  -999.2500
  179.0000  -999.2500  -999.2500  -999.2500    61.5230  -999.2500  -999.2500  -999.2500  -999.2500  -999.2500  -999.2500
  179.5000  -999.2500  -999.2500  -999.2500    60.9770  -999.2500  -999.2500  -999.2500  -999.2500  -999.2500  -999.2500
  180.0000  -999.2500  -999.2500  -999.2500    61.3080  -999.2500  -999.2500  -999.2500  -999.2500  -999.2500  -999.2500
  180.5000  -999.2500  -999.2500  -999.2500    66.8640  -999.2500  -999.2500  -999.2500  -999.2500  -999.2500  -999.2500
  181.0000  -999.2500  -999.2500  -999.2500    71.7870  -999.2500  -999.2500  -999.2500  -999.2500  -999.2500  -999.2500
  181.5000  -999.2500  -999.2500  -999.2500    76.5170  -999.2500  -999.2500  -999.2500  -999.2500  -999.2500  -999.2500
  182.0000   695.0690  -999.2500    -0.2130    76.8990     2.0030  -999.2500  -999.2500  -999.2500  -999.2500  -999.2500
  182.5000   695.7210     8.9220    -0.1160    74.3500     2.0030     0.2170  -999.2500  -999.2500   751.8330    -8.7951
  183.0000   696.3720     8.9610    -0.0190    68.9220     2.0030     1.7240  -999.2500  -999.2500   754.2290   -20.0488
  183.5000   696.8350     9.3220     0.0130    63.3430     2.0440     3.0930  -999.2500  -999.2500   756.6250   -25.7870
  184.0000   697.3490    10.0550     0.0460    62.3350     2.1940     5.1480   996.4970  -999.2500   759.0210   -27.7200
  184.5000   698.0000    10.7890     0.0410    66.9520     2.3090     5.0800  1052.0870  -999.2500   761.4160   -29.7540
  185.0000   698.6510    11.5220     0.0330    70.8300     2.3240     4.8760     2.0090  -999.2500   763.8120   -31.7890
  185.5000   699.3020    12.1760     0.0240    74.8180     2.3470     5.5700     5.5360  -999.2500   766.2080   -33.8240
  186.0000   699.9530    12.2860     0.0190    75.7450     2.3660     6.2660     9.4540     7.3850   766.2080   -35.6300
  186.5000   700.6050    12.4350     0.0260    74.3840     2.3820     7.6510   319.2520     6.2830   766.2080   -35.7830
  187.0000   701.2560    12.5000     0.0340    71.3760     2.3650     9.0390   996.4970     6.5130   766.2080   -36.0870
  187.5000   701.9070    12.5320     0.0410    68.7700     2.3290    10.4260   792.6170     7.1280   766.2080   -36.4870
  188.0000   702.5580    12.5260     0.0490    66.9430     2.2920    10.7130   483.2080     7.8120   766.2080   -36.8900
  188.5000   703.2100    12.5130     0.0450    67.0970     2.2760    10.0380   125.3460     8.7000   766.2080   -37.2660
  189.0000   703.8610    12.4410     0.0340    68.4430     2.2850     8.5930     5.7170     7.8520   766.2080   -37.6720
  189.5000   704.5120    12.3730     0.0320    69.8310     2.2920     7.1480     5.1480     8.0330   766.2080   -38.0100
  190.0000   705.1630    12.3030     0.0420    71.2170     2.2960     5.7030     4.7370     6.0350   766.2080   -38.3750
  190.5000   705.8140    12.2320     0.0610    74.6030     2.2730     4.2580     4.3250     4.8230   766.2080   -38.6940
  191.0000   706.4660    12.1620     0.0570    78.6700     2.2540     3.1020     3.9960     3.8540   766.2080   -39.0200
  191.5000   707.1170    12.1010     0.0490    83.0820     2.2540     3.1020     4.1630     3.7170   766.2080   -39.3600
  192.0000   707.7680    12.0920     0.0400    85.9390     2.2620     3.4440     4.7650     4.0100   766.2080   -39.7260
  192.5000   708.4190    12.0850     0.0350    84.0690     2.2700     4.0150     5.6740     4.4970   766.2080   -40.1070
  193.0000   709.0700    12.0790     0.0350    81.0330     2.2780     4.5850     6.5840     4.9850   766.2080   -40.5590
  193.5000   709.7220    12.0730     0.0340    78.2360     2.2850     5.1560     7.1300     5.4730   766.2080   -40.8310
  194.0000   710.3730    12.0670     0.0330    75.7680     2.2930     5.7260     7.1300     6.0590   766.2080   -41.6180
  194.5000   711.0240    12.0600     0.0390    78.1550     2.3110     6.2970     7.6440     6.4170   766.2080   -42.2790
  195.0000   711.6750    12.0540     0.0510    78.6010     2.3290     6.8780     8.2860     6.7570   766.2080   -42.3220
  195.5000   712.3260    12.0480     0.0610    77.4330     2.3290     7.0020     8.9280     7.0960   766.2080   -42.3310
  196.0000   712.9780    12.0420     0.0710    76.5140     2.3060     7.1300     9.6980     7.4350   766.2080   -42.3050
  196.5000   713.6290    12.0360     0.0610    75.6080     2.2820     7.5690     9.9660     7.7740   766.2080   -42.4780
  197.0000   714.2800    12.0300     0.0490    74.4720     2.2590     7.9350    10.1920     8.1130   766.2080   -42.8420
  197.5000   714.9310    12.0230     0.0360    74.4560     2.2530     8.3000    10.4180     8.4520   766.2080   -43.1920
  198.0000   715.5820    12.0190     0.0280    74.8930     2.2480     8.6660    10.6440     8.8590   766.2080   -43.5660
  198.5000   716.2340    12.0200     0.0330    74.6120     2.2460     9.0320    10.8710     9.1860   766.2080   -43.8380
  199.0000   716.8850    12.0200     0.0380    73.0210     2.2430     9.3970    11.0970     9.2700   766.2080   -44.2070
  199.5000   717.5360    12.0200     0.0440    71.6080     2.2380     9.7630    11.3230     9.3530   766.2080   -44.2040
  200.0000   718.1870    12.0200     0.0500    69.7790     2.2290    10.0560    11.4130     9.3530   766.2080   -44.0870
  200.5000   718.8380    12.0200     0.0560    70.5970     2.2200    10.0240    11.4130     9.3530   766.2080   -43.9590
  201.0000   719.4900    12.0200     0.0600    72.9450     2.2100     9.9830    11.4130     9.3530   766.2080   -43.8540
  201.5000   720.1410    12.0200     0.0600    75.2550     2.2030     9.9430    11.4130     9.3530   766.2080   -43.7330
  202.0000   720.7920    12.0200     0.0810    77.7130     2.1990     9.9030    11.4130     9.3530   766.2080   -43.6210
  202.5000   721.4430    12.0200     0.1050    79.7070     2.1900     9.8750    11.7400     9.4890   766.2080   -43.5030
  203.0000   722.0940    12.0200     0.1160    79.5410     2.1610     9.8750    12.0310     9.6090   766.2080   -43.3870
  203.5000   722.7460    12.0190     0.0870    78.0420     2.1420    10.0560    12.3220     9.8370   766.2080   -43.2820
  204.0000   723.3970    12.0300     0.0660    76.6180     2.1860    10.7200    12.6130    10.3610   766.2080   -43.1320
  204.5000   724.0480    12.0560     0.1050    75.1790     2.2630    11.4950    12.9040    10.8840   766.2080   -43.3490
  205.0000   724.6990    12.0810     0.1490    73.6270     2.3010    12.2700    13.1950    11.6220   766.2080   -43.8330
  205.5000   725.3510    12.0950     0.1410    73.8660     2.2820    11.7680    13.4320    11.3950   766.2080   -44.2770
  206.0000   726.0020    12.1040     0.1260    74.0730     2.1470    11.2660    13.4320    11.0110   766.2080   -44.7230
  206.5000   726.6530    12.0310     0.1100    73.0870     2.0370    10.4260    13.4320    10.6270   766.2080   -45.1650
  207.0000   727.3040    11.9040     0.0990    72.0610     1.9800    10.6160    13.4320    10.0560   766.2080   -45.6440
  207.5000   727.9550    11.7900     0.0820    71.3130     1.9740    10.8680    13.4320    10.1480   766.2080   -45.9010
  208.0000   728.6070    11.6750     0.0530    70.5170     2.0760    11.1410    13.4320    10.4260   766.2080   -46.0930
  208.5000   729.2580    11.5940     0.0600    74.7090     2.0710    11.4150    13.4320    10.3180   766.2080   -46.3160
  209.0000   729.9090    11.5970     0.0890    77.9450     2.1820    11.6220    13.4880    10.0890   766.2080   -46.5440
