~VERSION INFORMATION
 VERS.                2.0:   CWLS LOG ASCII STANDARD - VERSION 2.0
 WRAP.                 NO:   ONE LINE PER DEPTH STEP
~WELL INFORMATION
#MNEM.UNIT      DATA TYPE    INFORMATION
#----------   ------------   ------------------------------
 STRT.F          330.0000:   START DEPTH
 STOP.F         2880.0000:   STOP DEPTH
 STEP.F            0.5000:   STEP LENGTH
 NULL.          -999.2500:   NO VALUE
 COMP.   TESORO PETROLEUM:   COMPANY
 WELL. TESORO NPR "AX" #3-21:   WELL
 FLD .        TEAPOT DOME:   FIELD
 LOC .      S21 T39N R78W:   LOCATION
 CNTY.            NATRONA:   COUNTY
 STAT.            WYOMING:   STATE
 CTRY. UNITED STATES OF AMERICA:   COUNTRY
 SRVC.       SCHLUMBERGER:   SERVICE COMPANY
 DATE.        17-AUG-1972:   LOGDATE
 API .     49025102150000:   API NUMBER
~CURVE INFORMATION
#MNEM.UNIT       API CODE    CURVE DESCRIPTION
#----------   ------------   ------------------------------
 DEPT.F                  :   
 GRD .GAPI   45 310 01 00:   GAMMA RAY FROM DENSITY LOG
 CALD.IN     45 280 60 00:   CALIPER FROM DENSITY LOG
 CORR.G/C3   45 356 01 00:   DENSITY CORRECTION
 RHOB.G/C3   45 350 01 00:   BULK DENSITY
 SPR .MV     05 010 01 00:   SPONTANEOUS POTENTIAL FROM RES.
 ILD .OHMM   05 120 46 00:   INDUCTION LOG DEEP
 ASN .OHMM   05 041 16 00:   AMPLIFIED SHORT NORMAL 16"
~PARAMETER INFORMATION
#MNEM.UNIT          VALUE    DESCRIPTION
#----------   ------------   ------------------------------
 EKB .F         4985.0000:   Kelly bushing
 EGL .F         4975.0000:   Ground level
 EDF .F            0.0000:   Drilling floor
 EPD .F         4975.0000:   Permanent datum
 TD  .F         2880.0000:   Total depth
 CLNT.            A2DTECH:   Client Code
 DATE.        17-AUG-1972:   Date Logged [DD-MMM-YYYY]
 DD  .F              2875:   Depth driller
 DL  .F              2880:   Depth logger
 BLI .F              2879:   Bottom log interval
 TLI .F               330:   Top log interval
 CS1 .              10.75:   Casing size
 CBD1.       10.75" @ 327:   Casing driller 1
 CBL1.IN              330:   Casing logger 1
 BS1 .IN                9:   Bit size
 BSD1.F              2875:   Depth drilled with bit1
 DFT .           CHEM-GEL:   Type fluid in hole
 DFD .                9.3:   Density
 DFV .                 61:   Viscosity
 DFPH.                9.0:   pH
 DFL .                 66:   Fluid loss
 MSS .           FLOWLINE:   Source of sample
 RMS .OHMM           1.86:   Rm
 MST .F                76:   Rm Meas. temp.
 RMF .OHMM           1.58:   Rmf
 MFST.F                76:   Rmf Meas. temp.
 MFSS.               MEAS:   Source Rmf.
 RMB .OHMM           1.25:   Rm. at BHT
 BHT .F               113:   BHT.
 TCS .HRS               3:   Time Circ. stopped
 MRT .F               113:   Maximum recorded temp.
 LUN .               7037:   Logging unit number
 LUL .               CSPR:   Logging unit location
 ENGI.              GOLAS:   Recorded By
 WITN.                MAY:   Witnessed by
 ORIG.      1" 2.5" PRINT:   Origin of data
 UWI .     49025102150000:   Unique Well ID
 DICO. A2D TECHNOLOGIES, INC.:   Digitizing Company
~OTHER INFORMATION
~A   DEPT      GRD       CALD       CORR       RHOB        SPR          ILD        ASN 
# ...
 1558.5000   121.5973     9.6472     0.0521     2.5620   -21.1052     6.8919     8.9345
 1559.0000   125.5522     9.6475     0.0416     2.5614   -21.1084     6.7545     8.7799
 1559.5000   127.0101     9.6492     0.0229     2.5343   -21.1114     6.7570     8.6562
 1560.0000   119.0154     9.6790     0.0074     2.5153   -21.1152     6.6047     8.6254
 1560.5000   119.3739     9.7102     0.0182     2.5144   -21.1182     6.6073     8.5946
 1561.0000   123.5789     9.7105     0.0337     2.5352   -21.1212     6.6513     8.5950
 1561.5000   124.3444     9.7147     0.0461     2.5528   -21.1243     6.7662     8.6598
 1562.0000   121.8189     9.7420     0.0507     2.5505   -21.1273     6.8210     8.7862
 1562.5000   120.3654     9.7423     0.0338     2.5329   -20.8208     6.9830     8.9125
 1563.0000   119.2125     9.7426     0.0334     2.5417   -20.8238     7.2361     9.1008
 1563.5000   117.5824     9.7429     0.0338     2.5453   -20.8268     7.3927     9.2582
 1564.0000   116.1907     9.7432     0.0153     2.5295   -20.8299     7.3951     9.4155
 1564.5000   115.9800     9.7435     0.0030     2.5184   -20.5232     7.5517     9.5419
 1565.0000   118.1769     9.7438     0.0012     2.5106   -20.5263     7.7083     9.6176
 1565.5000   124.7594     9.7441     0.0123     2.4960   -20.5294     7.7106     9.4920
 1566.0000   126.6101     9.7445     0.0262     2.5067   -20.5325     7.7134     9.3337
 1566.5000   127.0762     9.7448     0.0370     2.5289   -20.5356     7.5609     9.1446
 1567.0000   127.5423     9.7451     0.0355     2.5378   -20.5387     7.5636     8.9864
 1567.5000   126.6237     9.7454     0.0108     2.5098   -20.5418     7.4113     8.7972
 1568.0000   123.3975     9.7457     0.0091     2.4966   -20.8545     7.4139     8.5292
 1568.5000   120.6329     9.7585     0.0155     2.4904   -20.8576     7.2618     8.2950
 1569.0000   118.3297     9.7771     0.0047     2.4849   -20.8607     6.9554     8.1638
 1569.5000   116.4881     9.7775    -0.0030     2.4855   -20.5537     6.3404     8.0401
 1570.0000   115.1081     9.7778    -0.0027     2.4906   -20.5573     5.5711     7.9474
 1570.5000   113.2665     9.7781     0.0098     2.5006   -20.5604     4.4931     7.6689
 1571.0000   113.7326     9.7784     0.0203     2.5094   -20.4262     3.8781     6.9879
 1571.5000   120.6602     9.7787     0.0184     2.5141   -20.2570     3.4174     6.1831
 1572.0000   120.6955     9.7790     0.0157     2.4933   -19.7895     3.2592     5.6570
 1572.5000   121.5924     9.7618     0.0276     2.4810   -19.1614     3.1133     5.2547
 1573.0000   121.6047     9.7488     0.0548     2.4687   -19.0279     3.1157     4.8523
 1573.5000   118.3398     9.7182     0.0698     2.4395   -18.7214     3.2948     4.6977
 1574.0000   112.3133     9.6877     0.0355     2.4117   -18.7250     3.4568     4.6980
 1574.5000   112.4878     9.6880     0.0312     2.4072   -19.0376     3.7400     4.9610
 1575.0000   116.2311     9.6574     0.0359     2.4950   -19.0406     3.9352     5.7971
 1575.5000   118.8508     9.6269     0.0236     2.5305   -19.3533     4.3394     6.7052
 1576.0000   118.3935     9.5963     0.0282     2.5274   -19.3563     5.1296     7.5864
 1576.5000   118.8600     9.5657     0.0144     2.5197   -19.6689     6.2283     8.0110
 1577.0000   118.6953     9.5352     0.0072     2.5213   -19.9816     6.9583     8.2811
 1577.5000   117.7540     9.5355     0.0036     2.5259   -19.9846     7.3688     8.4706
 1578.0000   117.0272     9.5358     0.0021     2.5290   -19.9876     7.6142     8.6503
 1578.5000   118.4327     9.5361     0.0123     2.5291   -19.9964     7.7708     8.8077
 1579.0000   120.9908     9.5364     0.0294     2.5374   -20.3034     7.9275     8.9771
 1579.5000   121.6562     9.5059     0.0167     2.5522   -20.3065     7.9298     9.1224
 1580.0000   117.6613     9.5062     0.0052     2.5381   -20.3509     7.9326     9.2343
 1580.5000   116.4238     9.5065     0.0076     2.5306   -20.9319     7.7805     9.3131
 1581.0000   117.1243     9.5068     0.0068     2.5273   -20.9350     7.4741     9.3917
 1581.5000   119.4715     9.5071     0.0029     2.5228   -20.6281     7.3221     9.4859
 1582.0000   122.2799     9.5074     0.0024     2.5184   -20.5428     7.1700     9.5920
 1582.5000   123.7422     9.4769     0.0129     2.5238   -20.3246     7.6350     9.6541
 1583.0000   126.2740     9.4772     0.0239     2.5298   -20.7502     7.6374     9.6852
 1583.5000   128.6247     9.5083     0.0193     2.5354   -21.3844     7.6397     9.6935
 1584.0000   129.0831     9.5086     0.0070     2.5287   -21.4366     7.6420     9.6545
 1584.5000   129.3455     9.5089     0.0240     2.5229   -20.9566     7.6443     9.6547
 1585.0000   133.0932     9.5092     0.0225     2.5331   -20.7997     7.6466     9.6858
 1585.5000   129.0978     9.5096     0.0117     2.5355   -20.6532     7.6490     9.7788
 1586.0000   127.2562     9.5099     0.0086     2.5267   -20.6570     7.6512     9.8718
 1586.5000   126.3377     9.5102     0.0071     2.5194   -21.2792     7.6535     9.9649
 1587.0000   125.4192     9.5105     0.0040     2.5152   -21.2822     7.6559    10.0269
 1587.5000   125.4237     9.5160     0.0038     2.5110   -21.2853     7.6582    10.0219
 1588.0000   125.4283     9.5419     0.0102     2.5166   -21.5979     7.6605     9.7746
 1588.5000   125.4329     9.5423     0.0303     2.5292   -21.6009     7.6628     9.6522
 1589.0000   123.5913     9.5426     0.0412     2.5526   -21.2941     7.5108     9.5893
 1589.5000   121.2881     9.5429     0.0350     2.5182   -20.9878     7.5136     9.5633
 1590.0000   123.1388     9.5432     0.0042     2.5136   -20.9909     7.5158     9.5634
 1590.5000   124.9896     9.5435     0.0057     2.5127   -20.9939     7.3634     9.5636
 1591.0000   124.0710     9.5438     0.0166     2.5213   -20.6873     7.2118     9.5638
 1591.5000   127.3064     9.5441     0.0104     2.5284   -20.6904     7.2140     9.5114
 1592.0000   129.6186     9.5444     0.0103     2.5183   -20.6935     7.0617     9.3734
 1592.5000   127.7770     9.5448     0.0336     2.5413   -20.6966     7.0643     9.1974
 1593.0000   125.4739     9.5331     0.0335     2.5483   -20.3899     6.9120     9.0713
 1593.5000   124.0938     9.5019     0.0290     2.5392   -20.7028     6.9145     8.9452
 1594.0000   127.8528     9.4708     0.0323     2.5328   -20.7059     6.9168     8.8502
 1594.5000   129.6414     9.4534     0.0383     2.5452   -20.7090     6.9190     8.7551
 1595.0000   129.1844     9.4228     0.0205     2.5296   -20.4020     6.7670     8.6363
 1595.5000   130.6738     9.4231     0.0054     2.5119   -20.4056     6.6149     8.5435
 1596.0000   134.2705     9.4235     0.0116     2.4997   -20.4086     6.4548     8.4198
 1596.5000   130.7526     9.4238     0.0364     2.5078   -20.4118     6.2974     8.2342
 1597.0000   128.1107     9.4241     0.0465     2.5121   -20.4149     6.1399     8.1725
 1597.5000   126.8995     9.4244     0.0442     2.5066   -20.4180     6.0068     8.1107
 1598.0000   130.5357     9.4066     0.0246     2.4899   -20.4211     6.0092     7.9251
 1598.5000   132.4471     9.3941     0.0340     2.4764   -20.4241     6.1659     7.8324
 1599.0000   128.9596     9.3945     0.0447     2.4853   -20.4272     6.2088     7.9254
 1599.5000   127.2378     9.3948     0.0316     2.4807   -20.4309     6.3709     8.0803
 1600.0000   124.6156     9.3951     0.0087     2.4515   -20.4339     6.6358     8.2972
 1600.5000   122.1469     9.3954     0.0031     2.4777   -20.4370     6.7924     8.5498
 1601.0000   121.2170     9.3957     0.0263     2.4856   -20.4400     6.9491     8.7667
 1601.5000   120.0138     9.3960     0.0168     2.4993   -20.4431     6.9514     8.8930
 1602.0000   118.6952     9.3654     0.0096     2.4883   -20.4461     7.0268     9.0147
 1602.5000   120.1963     9.3658     0.0040     2.4720   -20.4491     6.6434     9.0410
 1603.0000   123.9125     9.3661     0.0023     2.4601   -20.7430     6.6451     8.9960
 1603.5000   125.7896     9.3664     0.0184     2.4853   -20.7430     6.6466     8.8616
