~VERSION INFORMATION
 VERS.                2.0:   CWLS LOG ASCII STANDARD - VERSION 2.0
 WRAP.                 NO:   ONE LINE PER DEPTH STEP
~WELL INFORMATION
#MNEM.UNIT      DATA TYPE    INFORMATION
#----------   ------------   ------------------------------
 STRT.F          192.0000:   START DEPTH
 STOP.F         3016.0000:   STOP DEPTH
 STEP.F            0.5000:   STEP LENGTH
 NULL.          -999.2500:   NO VALUE
 COMP. FENIX & SCISSON U.S. NAVY:   COMPANY
 WELL.  FENIX "AX" #81-33:   WELL
 FLD .              NPR-3:   FIELD
 LOC .      S33 T39N R78W:   LOCATION
 CNTY.            NATRONA:   COUNTY
 STAT.            WYOMING:   STATE
 CTRY. UNITED STATES OF AMERICA:   COUNTRY
 SRVC.              WELEX:   SERVICE COMPANY
 DATE.        12-MAY-1977:   LOGDATE
 API .     49025109850000:   API NUMBER
~CURVE INFORMATION
#MNEM.UNIT       API CODE    CURVE DESCRIPTION
#----------   ------------   ------------------------------
 DEPT.F                  :   
 SPR .MV     07 010 01 00:   SPONTANEOUS POTENTIAL
 RILM.OHMM   07 120 44 00:   INDUCTION LOG MEDIUM RESISTIVITY
 RILD.OHMM   07 120 46 00:   DEEP INDUCTION RESISTIVITY
 SGRD.OHMM   07 220 05 00:   SHALLOW GUARD LOG RESISTIVITY
 NPHI.DEC    42 890 03 00:   NEUTRON POROSITY SANDSTONE
 GRD .GAPI   45 310 01 00:   GAMMA RAY FROM DENSITY LOG
 CALD.IN     45 280 60 00:   CALIPER FROM DENSITY LOG
 RHOB.G/C3   45 350 01 00:   BULK DENSITY
 DCOR.G/C3   45 356 01 00:   DENSITY CORRECTION
~PARAMETER INFORMATION
#MNEM.UNIT          VALUE    DESCRIPTION
#----------   ------------   ------------------------------
 EKB .F         5114.0000:   Kelly bushing
 EGL .F         5100.0000:   Ground level
 EDF .F         5112.0000:   Drilling floor
 TD  .F         3014.0000:   Total depth
 DATE.        12-MAY-1977:   Date logged
 CLNT.            A2DTECH:   Client Code
 SL  . 660' FEL & 660' FNL:   Surface Location
 PD  .                 GL:   Permanent Datum
 EPD .F              5100:   Elevation Permanent Datum
 LMF .                 KB:   Log Measured From
 DMF .                 KB:   Drilling Measured From
 DD  .F              3000:   Depth driller
 DL  .F              3014:   Depth logger
 BLI .F              3012:   Bottom log interval
 TLI .F              1500:   Top log interval
 CS1 .IN            8.625:   Casing size
 CBD1.      8.625" @ 217':   Casing driller 1
 CBL1.F               209:   Casing logger 1
 BS1 .IN            7.875:   Bit size
 BSD1.F              3000:   Depth drilled with bit1
 DFT .            KCL MUD:   Type fluid in hole
 DFD .                  9:   Density
 DFV .                 33:   Viscosity
 DFPH.                7.5:   pH
 DFL .                7.8:   Fluid loss
 MSS .           FLOWLINE:   Source of sample
 RMS .OHMM           0.69:   Rm
 MST .F                68:   Rm Meas. temp.
 RMF .OHMM           0.66:   Rmf
 MFST.F                68:   Rmf Meas. temp.
 RMC .OHMM           1.27:   Rmc
 MCST.F                68:   Rmc Meas. temp.
 MFSS.                 BK:   Source Rmf.
 MCSS.                 BK:   Source Rmc.
 RMB .OHMM           0.39:   Rm. at BHT
 BHT .F               118:   BHT.
 TCS .HRS               6:   Time Circ. stopped
 MRT .F               118:   Maximum recorded temp.
 LUN .               9685:   Logging unit number
 LUL .           BRIGHTON:   Logging unit location
 ENGI.          T. JOYNER:   Recorded By
 WITN.            K. JAPP:   Witnessed by
 ORIG.           5" PRINT:   Origin of data
 UWI .     49025109850000:   Unique Well ID
 DICO. A2D TECHNOLOGIES, INC.:   Digitizing Company
~OTHER INFORMATION
~A   DEPT      SPR       RILM       RILD       SGRD       NPHI         GRD        CALD       RHOB     DCOR   
# ...
 2053.5000   -25.1010     5.5820     4.8370     8.9920  -999.2500   155.2220     8.4710     2.4410     0.0110
 2054.0000   -25.1320     5.8450     4.9700     9.9920  -999.2500   155.1880     8.4600     2.4370     0.0090
 2054.5000   -25.1620     6.0820     5.1040     9.7730  -999.2500   155.2550     8.4490     2.4370     0.0060
 2055.0000   -25.1930     6.0270     5.2500     9.3360  -999.2500   152.9280     8.4380     2.4380     0.0010
 2055.5000   -25.2240     6.1490     5.2990     9.0310  -999.2500   150.4360     8.4270     2.4370     0.0040
 2056.0000   -25.2540     6.2440     5.3520     9.4220  -999.2500   149.5030     8.4160     2.4370    -0.0050
 2056.5000   -25.2850     6.3100     5.4060     9.9000  -999.2500   149.7050     8.4040     2.4390     0.0020
 2057.0000   -25.3160     6.2040     5.4600     9.8320  -999.2500   150.4890     8.4080     2.4410     0.0120
 2057.5000   -25.3460     6.1230     5.4970     9.4270  -999.2500   151.2930     8.4210     2.4420     0.0090
 2058.0000   -25.3770     5.9910     5.3800     8.8820  -999.2500   151.0260     8.4330     2.4440     0.0080
 2058.5000   -25.3770     5.8220     5.2900     8.3900  -999.2500   150.1020     8.4460     2.4460     0.0010
 2059.0000   -25.3460     5.6870     5.2000     8.4860  -999.2500   149.2940     8.4580     2.4470     0.0120
 2059.5000   -25.3160     5.5510     5.1270     8.5460  -999.2500   151.5250     8.4710     2.4460     0.0130
 2060.0000   -25.2850     5.3480     5.0720     7.7960  -999.2500   151.4790     8.4840     2.4440     0.0100
 2060.5000   -25.2540     5.4440     5.0170     7.8680  -999.2500   150.8670     8.4960     2.4420     0.0190
 2061.0000   -25.2230     5.6360     4.9620     8.5750  -999.2500   150.2310     8.5090     2.4400     0.0160
 2061.5000   -25.1980     5.8090     4.9230     9.2830  -999.2500   149.5940     8.5210     2.4430     0.0120
 2062.0000   -25.2360     5.8090     4.9600     9.3690  -999.2500   148.9240     8.5340     2.4490     0.0140
 2062.5000   -25.2720     5.7030     4.9890     9.0090  -999.2500   149.6690     8.5470     2.4540     0.0290
 2063.0000   -25.3090     5.7980     5.0150     8.7050  -999.2500   150.7870     8.5590     2.4590     0.0340
 2063.5000   -25.3450     5.9330     5.0870     9.1220  -999.2500   151.9150     8.5530     2.4590     0.0290
 2064.0000   -25.3830     6.0820     5.1520     9.9920  -999.2500   153.0480     8.5470     2.4600     0.0340
 2064.5000   -25.3830     6.0820     5.2180     9.9350  -999.2500   153.2460     8.5400     2.4600     0.0390
 2065.0000   -25.3710     6.0820     5.2800     9.8220  -999.2500   152.6290     8.5330     2.4600     0.0340
 2065.5000   -25.3590     6.0820     5.3400     9.7200  -999.2500   152.0120     8.5260     2.4540     0.0390
 2066.0000   -25.3470     6.0820     5.3990     9.7750  -999.2500   151.3900     8.5190     2.4450     0.0300
 2066.5000   -25.3350     6.1140     5.4590     9.8100  -999.2500   150.7670     8.5120     2.4400     0.0190
 2067.0000   -25.3220     6.1490     5.5180     9.4870  -999.2500   150.1480     8.5060     2.4430     0.0290
 2067.5000   -25.3100     6.1850     5.5900     9.1140  -999.2500   149.5290     8.4990     2.4460     0.0150
 2068.0000   -25.2980     6.3710     5.6750     9.5050  -999.2500   149.4870     8.4920     2.4490     0.0320
 2068.5000   -25.2860     6.5770     5.7600    10.3660  -999.2500   150.0590     8.4850     2.4530     0.0220
 2069.0000   -25.2730     6.6800     5.8440    10.5100  -999.2500   150.6280     8.4820     2.4560     0.0290
 2069.5000   -25.2610     6.7840     5.9290    10.7630  -999.2500   151.2020     8.4890     2.4590     0.0270
 2070.0000   -25.2490     6.8870     5.9780    11.0550  -999.2500   151.7750     8.4950     2.4620     0.0340
 2070.5000   -25.2370     6.9740     5.9990    11.2600  -999.2500   152.3470     8.5020     2.4620     0.0390
 2071.0000   -25.2240     7.0460     6.0270    11.2600  -999.2500   152.9230     8.5090     2.4610     0.0310
 2071.5000   -25.2120     6.8500     5.9350    10.6700  -999.2500   153.5120     8.5150     2.4600     0.0330
 2072.0000   -25.1980     6.6710     5.8030    10.1330  -999.2500   153.1360     8.5220     2.4570     0.0310
 2072.5000   -25.2410     6.4750     5.6720     9.5430  -999.2500   152.6120     8.5290     2.4540     0.0260
 2073.0000   -25.3030     6.2390     5.5410     9.2530  -999.2500   152.0790     8.5360     2.4500     0.0130
 2073.5000   -25.3660     6.0270     5.4100     8.9300  -999.2500   151.5480     8.5420     2.4480     0.0170
 2074.0000   -25.4290     5.6270     5.2780     8.4660  -999.2500   151.0180     8.5490     2.4460     0.0070
 2074.5000   -25.4910     5.1550     5.1470     7.6690  -999.2500   150.4880     8.5560     2.4460     0.0090
 2075.0000   -25.5540     5.3730     5.0950     7.1110  -999.2500   149.9570     8.5570     2.4480     0.0140
 2075.5000   -25.6170     5.6840     5.0760     8.2450  -999.2500   149.4270     8.5500     2.4500     0.0080
 2076.0000   -25.6800     6.0270     5.0570     9.6310  -999.2500   148.8970     8.5430     2.4530     0.0030
 2076.5000   -25.7430     5.8630     5.0390     9.9920  -999.2500   148.3670     8.5370     2.4570     0.0100
 2077.0000   -25.8060     6.0270     5.0200     9.9920  -999.2500   147.8340     8.5300     2.4610     0.0160
 2077.5000   -25.8690     6.0270     4.9990     9.6850  -999.2500   147.5510     8.5230     2.4660     0.0100
 2078.0000   -25.9310     6.0270     4.9780     9.2460  -999.2500   147.4460     8.5160     2.4710     0.0300
 2078.5000   -25.9940     5.8090     4.9560     8.8080  -999.2500   147.3410     8.5090     2.4750     0.0220
 2079.0000   -26.0570     5.5510     4.9340     8.3690  -999.2500   147.2310     8.5020     2.4800     0.0260
 2079.5000   -26.1200     5.2640     4.8480     7.8320  -999.2500   147.3590     8.4960     2.4850     0.0360
 2080.0000   -26.1770     4.9770     4.6980     7.2510  -999.2500   147.5520     8.4890     2.4890     0.0380
 2080.5000   -26.1920     4.7920     4.5480     6.7290  -999.2500   147.7470     8.4820     2.4940     0.0330
 2081.0000   -26.2060     4.7020     4.3980     6.5460  -999.2500   147.9420     8.4890     2.4990     0.0380
 2081.5000   -26.2200     4.7240     4.2480     6.9420  -999.2500   148.1360     8.5000     2.4960     0.0420
 2082.0000   -26.2340     4.7480     4.1580     7.5140  -999.2500   148.3310     8.5120     2.4920     0.0410
 2082.5000   -26.2480     4.7730     4.1280     7.4230  -999.2500   148.5260     8.5240     2.4880     0.0350
 2083.0000   -26.2620     4.7970     4.0980     7.2930  -999.2500   148.7210     8.5350     2.4840     0.0340
 2083.5000   -26.2760     4.8340     4.0680     7.1770  -999.2500   148.9160     8.5470     2.4790     0.0320
 2084.0000   -26.2900     4.7750     4.0490     7.3100  -999.2500   149.1100     8.5590     2.4800     0.0340
 2084.5000   -26.3040     4.6570     4.0340     7.0050  -999.2500   149.3030     8.5700     2.4810     0.0360
 2085.0000   -26.3180     4.5390     4.0200     6.5280  -999.2500   149.4960     8.5820     2.4820     0.0390
 2085.5000   -26.3320     4.4090     4.0050     6.1950  -999.2500   149.4110     8.5930     2.4820     0.0410
 2086.0000   -26.3460     4.4090     3.9910     6.3100  -999.2500   149.0150     8.5950     2.4810     0.0380
 2086.5000   -26.3600     4.4470     3.9760     6.0820  -999.2500   148.6210     8.5860     2.4800     0.0270
 2087.0000   -26.3710     4.5740     3.9620     6.7140  -999.2500   148.2240     8.5770     2.4790     0.0240
 2087.5000   -26.3300     4.7010     3.9490     7.1770  -999.2500   147.8270     8.5680     2.4750     0.0210
 2088.0000   -26.2900     4.8230     3.9770     8.2380  -999.2500   147.1230     8.5590     2.4720     0.0180
 2088.5000   -26.2510     4.9230     4.0040     7.8150  -999.2500   146.0260     8.5500     2.4710     0.0180
 2089.0000   -26.2120     4.8530     4.0300     7.2110  -999.2500   144.9320     8.5410     2.4700     0.0120
 2089.5000   -26.1730     4.7900     4.0590     6.5460  -999.2500   143.8380     8.5320     2.4690     0.0180
