~VERSION INFORMATION
 VERS.                2.0:   CWLS LOG ASCII STANDARD - VERSION 2.0
 WRAP.                 NO:   ONE LINE PER DEPTH STEP
~WELL INFORMATION
#MNEM.UNIT      DATA TYPE    INFORMATION
#----------   ------------   ------------------------------
 STRT.F         3500.0000:   START DEPTH
 STOP.F         6855.0000:   STOP DEPTH
 STEP.F            0.5000:   STEP LENGTH
 NULL.          -999.2500:   NO VALUE
 COMP.          U.S. NAVY:   COMPANY
 WELL.  US NAVY "G" #1-10:   WELL
 FLD . TEAPOT NAVAL RESERVE:   FIELD
 LOC .      S10 T38N R78W:   LOCATION
 CNTY.            NATRONA:   COUNTY
 STAT.            WYOMING:   STATE
 CTRY. UNITED STATES OF AMERICA:   COUNTRY
 SRVC.         LANE WELLS:   SERVICE COMPANY
 DATE.        23-MAR-1952:   LOGDATE
 API .     49025063380000:   API NUMBER
~CURVE INFORMATION
#MNEM.UNIT       API CODE    CURVE DESCRIPTION
#----------   ------------   ------------------------------
 DEPT.F                  :   
 GRN .GAPI   35 310 01 00:   GAMMA RAY
 NEUT.NAPI   35 330 01 00:   NEUTRON
~PARAMETER INFORMATION
#MNEM.UNIT          VALUE    DESCRIPTION
#----------   ------------   ------------------------------
 EKB .F         5195.0000:   Kelly bushing
 EGL .F         5184.0000:   Ground level
 EDF .F         5195.0000:   Drilling floor
 EPD .F            0.0000:   Permanent datum
 TD  .F         6861.0000:   Total depth
 CLNT.            A2DTECH:   Client Code
 PD  .                 GL:   Permanent Datum
 DATE.        23-MAR-1952:   Date Logged [DD-MMM-YYYY]
 DD  .F              6861:   Depth driller
 DL  .F              6861:   Depth logger
 BLI .F              6855:   Bottom log interval
 TLI .F              3500:   Top log interval
 BSD1.F              6861:   Depth drilled with bit1
 DFT .                MUD:   Type fluid in hole
 ENGI.            GAMBERG:   Recorded By
 WITN.           GRIBBENS:   Witnessed by
 ORIG.         2.5" PRINT:   Origin of data
 UWI .     49025063380000:   Unique Well ID
 DICO. A2D TECHNOLOGIES, INC.:   Digitizing Company
~OTHER INFORMATION
~A  DEPT       GRN        NEUT  
# ...
 5930.0000    56.0398   340.3047
 5930.5000    56.0445   323.1646
 5931.0000    56.0492   301.1105
 5931.5000    55.0760   279.0565
 5932.0000    51.1444   244.7175
 5932.5000    49.2174   216.9512
 5933.0000    49.2642   198.1524
 5933.5000    50.3264   204.3537
 5934.0000    51.6723   217.9261
 5934.5000    52.6601   228.4310
 5935.0000    52.6650   242.6190
 5935.5000    52.8073   283.4086
 5936.0000    56.5876   328.7568
 5936.5000    57.0813   350.9288
 5937.0000    57.0860   378.0148
 5937.5000    58.0688   410.0147
 5938.0000    61.9854   432.1868
 5938.5000    62.9682   452.3137
 5939.0000    63.0004   462.6126
 5939.5000    64.2327   489.4963
 5940.0000    66.9102   583.1285
 5940.5000    68.4511   654.0336
 5941.0000    69.0674   715.1106
 5941.5000    70.2108   753.6484
 5942.0000    69.2811   823.3514
 5942.5000    66.1866   843.0663
 5943.0000    64.9688   852.9533
 5943.5000    64.4841   845.6413
 5944.0000    64.4893   818.6732
 5944.5000    60.5820   785.5651
 5945.0000    58.6184   765.5610
 5945.5000    58.6992   740.8477
 5946.0000    60.3083   704.2589
 5946.5000    62.0685   660.9132
 5947.0000    61.8958   631.0811
 5947.5000    61.3447   606.5725
 5948.0000    62.2103   556.2751
 5948.5000    62.0890   561.2481
 5949.0000    61.1157   595.7052
 5949.5000    61.3649   703.8723
 5950.0000    62.3476   748.1573
 5950.5000    62.1078   773.1982
 5951.0000    62.1125   777.7642
 5951.5000    64.4359   766.7690
 5952.0000    68.0354   701.7198
 5952.5000    72.2351   539.6191
 5953.0000    76.2235   413.1450
 5953.5000    80.4867   383.1081
 5954.0000    83.6384   345.7101
 5954.5000    83.5309   299.0860
 5955.0000    82.6904   267.2039
 5955.5000    81.7171   262.3489
 5956.0000    83.4333   262.4079
 5956.5000    84.1715   270.6609
 5957.0000    84.1762   311.2704
 5957.5000    81.2370   359.6613
 5958.0000    78.5509   451.0671
 5958.5000    70.5017   551.2352
 5959.0000    62.6956   666.9533
 5959.5000    58.7120   771.8468
 5960.0000    53.7417   859.9606
 5960.5000    50.4903   980.4127
 5961.0000    46.4510  1039.4398
 5961.5000    43.1451  1179.5479
 5962.0000    41.6828  1275.4299
 5962.5000    41.1985  1308.2531
 5963.0000    40.7139  1322.2310
 5963.5000    40.7189  1279.2822
 5964.0000    42.7055  1205.2133
 5964.5000    43.6884  1112.9293
 5965.0000    44.4902  1022.6923
 5965.5000    47.3741   987.4186
 5966.0000    52.1651   945.8640
 5966.5000    55.9507   909.0704
 5967.0000    58.6000   848.5258
 5967.5000    60.9556   768.9394
 5968.0000    65.9470   674.2113
 5968.5000    67.9077   630.0443
 5969.0000    69.1349   558.8501
 5969.5000    70.1176   495.0270
 5970.0000    68.8998   445.9459
 5970.5000    64.1498   449.0799
 5971.0000    58.5820   504.6465
 5971.5000    52.9709   627.9985
 5972.0000    48.2545   762.3494
 5972.5000    42.0631   859.8902
 5973.0000    39.4064   946.3621
 5973.5000    38.1197  1049.0730
 5974.0000    37.1550  1173.7198
 5974.5000    42.2942  1171.3218
 5975.0000    49.1448  1112.4127
 5975.5000    55.9955   986.9012
 5976.0000    63.0907   807.8723
 5976.5000    69.9414   731.7641
 5977.0000    75.2076   692.5110
 5977.5000    80.1824   680.0778
 5978.0000    86.1093   722.1130
 5978.5000    91.9142   796.0947
 5979.0000    96.0685   864.7421
 5979.5000   103.7814   917.0147
 5980.0000   111.3940  1044.2358
 5980.5000   111.5452  1164.6879
 5981.0000   110.6263  1238.4569
 5981.5000   104.5007  1297.4840
 5982.0000    98.8321  1344.2261
 5982.5000    93.2276  1364.5439
 5983.0000    87.5929  1371.3710
 5983.5000    78.8122  1362.8453
 5984.0000    72.0691  1359.2040
 5984.5000    60.8114  1363.3585
 5985.0000    55.8157  1405.9946
 5985.5000    48.1777  1458.8940
 5986.0000    39.1504  1484.7764
 5986.5000    37.5208  1494.6635
 5987.0000    37.5266  1484.8943
 5987.5000    35.0863  1418.6143
 5988.0000    35.0383  1315.4791
 5988.5000    38.0297  1251.2490
 5989.0000    40.9683  1187.0188
 5989.5000    43.9289  1162.7151
 5990.0000    44.4007  1163.3906
 5990.5000    43.1830  1165.4996
 5991.0000    43.1883  1172.1105
 5991.5000    43.1113  1173.4028
 5992.0000    41.8744  1146.4471
 5992.5000    43.5597  1112.1080
 5993.0000    45.9669  1072.8550
 5993.5000    47.6145  1048.3440
 5994.0000    48.1082  1055.7740
 5994.5000    50.3134  1086.7527
 5995.0000    55.6971  1116.0934
 5995.5000    59.6138  1124.7543
 5996.0000    65.0967  1108.4357
 5996.5000    69.7538  1048.5054
 5997.0000    75.8536   999.6364
 5997.5000    80.3292   911.6503
 5998.0000    83.8004   783.5479
 5998.5000    86.2602   714.8108
 5999.0000    87.7752   616.5897
 5999.5000    89.7271   577.3366
 6000.0000    89.9755   574.9386
 6000.5000    83.9359   618.6118
 6001.0000    79.4736   678.2556
 6001.5000    75.8305   780.8969
 6002.0000    69.4087   877.3956
 6002.5000    68.2441   946.2531
 6003.0000    66.9627  1037.1534
 6003.5000    61.6137  1324.6700
 6004.0000    56.7237  1415.7667
 6004.5000    53.7897  1438.7695
 6005.0000    51.1003  1453.4888
 6005.5000    49.8777  1443.5665
 6006.0000    49.9212  1374.1490
 6006.5000    51.6985  1247.5450
 6007.0000    53.3456  1187.0906
 6007.5000    55.4957  1145.7095
 6008.0000    56.7237  1131.0145
 6008.5000    55.2562  1116.3197
 6009.0000    54.7677  1096.7109
 6009.5000    55.2567  1074.6450
 6010.0000    55.0122  1036.5568
 6010.5000    53.3007   970.5417
 6011.0000    52.5672   924.9739
 6011.5000    53.8496   797.2079
 6012.0000    58.2788   740.7440
 6012.5000    59.8104   734.3410
 6013.0000    61.1247   755.5803
 6013.5000    59.4307   785.1115
 6014.0000    58.3067   792.5296
 6014.5000    58.5724   748.0286
 6015.0000    57.7017   745.9409
 6015.5000    56.7237   765.1807
 6016.0000    59.6577   785.3472
 6016.5000    60.6357   776.8735
 6017.0000    60.6357   773.1696
 6017.5000    62.5009   746.2001
 6018.0000    65.7013   709.3922
 6018.5000    67.7431   682.4123
 6019.0000    69.8743   650.5184
 6019.5000    75.0901   618.6245
 6020.0000    79.7405   613.7577
 6020.5000    81.6626   654.2463
 6021.0000    82.6406   661.1210
 6021.5000    84.1076   670.3326
 6022.0000    85.3301   683.2973
 6022.5000    87.0416   688.9610
 6023.0000    89.0594   669.4391
 6023.5000    91.4221   648.5092
 6024.0000    95.3326   660.8414
 6024.5000    98.2845   673.1735
 6025.0000    99.2256   668.3066
 6025.5000    98.5305   648.6578
 6026.0000    98.4337   607.7134
 6026.5000    97.7995   557.7919
 6027.0000    96.0880   508.7310
 6027.5000    89.7310   491.6381
 6028.0000    86.0636   520.1135
 6028.5000    84.0906   548.4507
 6029.0000    83.1296   575.3412
 6029.5000    83.1296   597.5013
 6030.0000    81.7838   550.8654
 6030.5000    79.1228   514.0576
 6031.0000    78.6006   457.5936
 6031.5000    78.0695   403.1368
 6032.0000    74.3276   364.6996
 6032.5000    72.3716   303.7340
 6033.0000    69.4377   227.9363
 6033.5000    65.0367   217.0431
 6034.0000    61.8522   240.6099
 6034.5000    60.1233   300.4678
 6035.0000    62.1725   376.9132
 6035.5000    64.0133   433.4714
 6036.0000    66.6329   477.7446
 6036.5000    69.4377   502.3618
 6037.0000    68.3105   517.1509
 6037.5000    67.4817   511.3843
 6038.0000    71.8826   441.0561
 6038.5000    74.5721   421.4692
 6039.0000    76.5281   425.4315
 6039.5000    80.1956   421.4574
 6040.0000    83.4859   323.1864
 6040.5000    85.3301   277.0429
 6041.0000    85.0856   257.1093
 6041.5000    86.4702   239.9574
 6042.0000    89.1003   227.7195
 6042.5000    87.7671   267.0787
 6043.0000    87.0885   301.5239
 6043.5000    88.0196   297.7644
 6044.0000    88.0750   230.9590
 6044.5000    87.0416   192.4218
 6045.0000    86.0636   188.6903
 6045.5000    86.0730   213.3320
 6046.0000    86.5526   229.3041
 6046.5000    85.3126   235.8836
 6047.0000    82.1954   243.7941
 6047.5000    78.5999   242.9975
 6048.0000    74.6005   245.5078
 6048.5000    70.7350   260.2969
 6049.0000    63.8142   262.8110
 6049.5000    56.7237   242.7938
 6050.0000    52.3227   233.4113
 6050.5000    49.1443   234.0836
 6051.0000    46.9238   243.3815
