~VERSION INFORMATION
 VERS.                2.0:   CWLS LOG ASCII STANDARD - VERSION 2.0
 WRAP.                 NO:   ONE LINE PER DEPTH STEP
~WELL INFORMATION
#MNEM.UNIT      DATA TYPE    INFORMATION
#----------   ------------   ------------------------------
 STRT.F          508.0000:   START DEPTH
 STOP.F         3170.0000:   STOP DEPTH
 STEP.F            0.5000:   STEP LENGTH
 NULL.          -999.2500:   NO VALUE
 COMP. FENIX & SCISSON - U.S. NAVY:   COMPANY
 WELL. FENIX NPR-3 "A" #58-34:   WELL
 FLD .                NPR:   FIELD
 LOC .      S34 T39N R78W:   LOCATION
 CNTY.            NATRONA:   COUNTY
 STAT.            WYOMING:   STATE
 CTRY. UNITED STATES OF AMERICA:   COUNTRY
 SRVC.       SCHLUMBERGER:   SERVICE COMPANY
 DATE.        15-MAR-1977:   LOGDATE
 API .     49025103180000:   API NUMBER
~CURVE INFORMATION
#MNEM.UNIT       API CODE    CURVE DESCRIPTION
#----------   ------------   ------------------------------
 DEPT.F                  :   
 CALD.IN     45 280 60 00:   CALIPER FROM DENSITY LOG
 GRD .GAPI   45 310 01 00:   GAMMA RAY FROM DENSITY LOG
 RHOB.G/C3   45 350 01 00:   BULK DENSITY
 CORR.G/C3   45 356 01 00:   DENSITY CORRECTION
 SPR .MV     07 010 01 00:   SPONTANEOUS POTENTIAL
 LL8 .OHMM   07 220 08 00:   LATEROLOG-8 RES.
 ILD .OHMM   07 120 46 00:   DEEP INDUCTION RESISTIVITY
 ILM .OHMM   07 120 44 00:   INDUCTION LOG MEDIUM RESISTIVITY
~PARAMETER INFORMATION
#MNEM.UNIT          VALUE    DESCRIPTION
#----------   ------------   ------------------------------
 EKB .F         5129.0000:   Kelly bushing
 EGL .F         5117.0000:   Ground level
 EDF .F            0.0000:   Drilling floor
 EPD .F            0.0000:   Permanent datum
 TD  .F         3170.0000:   Total depth
 DATE.        15-MAR-1977:   Date logged
 CLNT.            A2DTECH:   Client Code
 SL  . 2310' FEL & 330' FSL:   Surface Location
 PD  .                 GL:   Permanent Datum
 DAPD.F                12:   Feet Above Permanent Datum
 DD  .F              3170:   Depth driller
 DL  .F              3170:   Depth logger
 BLI .F              3169:   Bottom log interval
 TLI .F               508:   Top log interval
 CS1 .IN            8.625:   Casing size
 CBD1.      8.625" @ 524':   Casing driller 1
 CBL1.F               522:   Casing logger 1
 BS1 .IN            7.875:   Bit size
 BSD1.F              3170:   Depth drilled with bit1
 DFT .                KCL:   Type fluid in hole
 DFD .                9.2:   Density
 DFV .                 36:   Viscosity
 DFPH.                  9:   pH
 DFL .                  9:   Fluid loss
 MSS .                PIT:   Source of sample
 RMS .OHMM             .3:   Rm
 MST .F                58:   Rm Meas. temp.
 RMF .OHMM            .29:   Rmf
 MFST.F                58:   Rmf Meas. temp.
 MFSS.               MEAS:   Source Rmf.
 RMB .OHMM            .15:   Rm. at BHT
 BHT .F               120:   BHT.
 TCS .HRS               6:   Time Circ. stopped
 MRT .F               120:   Maximum recorded temp.
 LUN .               7711:   Logging unit number
 LUL .               CSPR:   Logging unit location
 ENGI.             SAYLER:   Recorded By
 WITN.               JAPP:   Witnessed by
 ORIG.           5" PRINT:   Origin of data
 UWI .     49025103180000:   Unique Well ID
 DICO. A2D TECHNOLOGIES, INC.:   Digitizing Company
~OTHER INFORMATION
~A   DEPT       CALD       GRD      RHOB        CORR       SPR        LL8        ILD        ILM   
# ...
 1399.0000     9.6180   143.2938     2.5451     0.0046   -50.3540     9.7720     8.2128     8.0262
 1399.5000     9.6174   141.1151     2.5450     0.0045   -50.4380     9.7705     8.2116     8.0990
 1400.0000     9.6168   141.1091     2.5490     0.0045   -50.2203     9.7690     8.2104     8.0978
 1400.5000     9.6493   141.8827     2.5519     0.0072   -49.9456     9.7673     8.3383     8.1604
 1401.0000     9.6554   142.6792     2.5490     0.0085   -49.7877     9.6758     8.4350     8.1687
 1401.5000     9.6543   142.6732     2.5459     0.0044   -49.7927     9.8522     8.4331     8.1669
 1402.0000     9.6541   139.1093     2.5419    -0.0006   -50.1622    10.0318     8.4311     8.2402
 1402.5000     9.6535   134.5549     2.5589     0.0054   -50.3884    10.0295     8.3525     8.2383
 1403.0000     9.6529   134.9477     2.5489     0.0044   -50.6145     9.9359     8.3506     8.2365
 1403.5000     9.6921   139.0926     2.5388     0.0063   -50.6194     9.8432     8.2726     8.2346
 1404.0000     9.6320   143.2363     2.5408     0.0083   -50.6244     9.6626     8.2707     8.1575
 1404.5000     9.6906   151.5273     2.5388     0.0083   -51.0716     9.3133     8.2689     8.0812
 1405.0000     9.6901   153.2997     2.5358     0.0093   -51.5188     9.4831     8.1917     8.0793
 1405.5000     9.6895   152.5069     2.5298     0.0083   -51.9659     9.4809     8.2651     8.0037
 1406.0000     9.6889   142.0269     2.5297     0.0032   -52.1920     9.8320     8.1880     8.0030
 1406.5000     9.7080   139.8473     2.5327     0.0012   -52.6391     9.7402     8.1116     8.0008
 1407.0000     9.7074   140.2365     2.5407     0.0022   -52.4228     9.7380     8.1842     7.9252
 1407.5000     9.7068   142.4006     2.5307     0.0011   -52.4277     9.4723     8.1824     7.8546
 1408.0000     9.7062   141.2127     2.5236     0.0051   -52.4326     9.6449     8.1060     7.7807
 1408.5000     9.7060   140.6139     2.5436     0.0171   -52.4375     9.7313     8.1042     7.7789
 1409.0000     9.7051   140.6079     2.5406     0.0121   -52.2212     9.8185     8.1023     7.7771
 1409.5000     9.7241   140.6020     2.5426     0.0131   -52.0050     9.7269     8.1005     7.7753
 1410.0000     9.7237   141.1888     2.5505     0.0070   -51.1257     9.7247     8.0986     7.7735
 1410.5000     9.7033   143.1589     2.5455     0.0060   -50.6884     9.4593     8.0968     7.9125
 1411.0000     9.7224   145.5242     2.5455     0.0060   -50.4723     9.5440     8.1693     7.9107
 1411.5000     9.7218   146.1122     2.5515     0.0060   -50.4773     9.7176     8.0931     7.9089
 1412.0000     9.7212   145.3147     2.5525     0.0059   -50.9243     9.8951     8.0912     7.9071
 1412.5000     9.7206   142.7399     2.5534     0.0059   -51.1502     9.8929     8.2387     7.9053
 1413.0000     9.7398   141.3507     2.5564     0.0089   -50.9341     9.8906     8.0875     7.9034
 1413.5000     9.7195   140.5544     2.5714     0.0209   -50.4970     9.7983     8.0121     7.9016
 1414.0000     9.7189   141.1412     2.5574     0.0169   -50.5019     9.9769     8.0102     7.8998
 1414.5000     9.7380   141.9257     2.5413     0.0098   -50.2859     9.5283     8.0820     7.8259
 1415.0000     9.7374   142.9078     2.5343     0.0018   -50.5118     9.5262     8.0066     7.8241
 1415.5000     9.7368   143.2970     2.5273     0.0008   -50.9587     9.5240     8.1329     7.8223
 1416.0000     9.7362   142.8958     2.5353     0.0068   -51.1846     9.3492     8.1318     7.8205
 1416.5000     9.7356   142.4947     2.5513     0.0097   -50.9685     9.3471     8.1299     7.8187
 1417.0000     9.7548   141.6983     2.5622     0.0087   -50.9734     9.3450     8.0542     7.8170
 1417.5000     9.7542   140.1116     2.5882     0.0197   -50.9784     9.3428     8.1262     7.8152
 1418.0000     9.7536   138.1296     2.5962     0.0197   -51.4252     9.5131     8.1243     7.8134
 1418.5000     9.7534   138.5188     2.5832     0.0197   -51.4301     9.9565     8.1225     7.8123
 1419.0000     9.7524   139.1057     2.5781     0.0186   -51.4350    10.1380     8.1951     7.8098
 1419.5000     9.7518   138.5069     2.5681     0.0156   -51.4399    10.1356     8.1933     7.8800
 1420.0000     9.7512   136.1297     2.5471     0.0086   -51.2239    10.1329     8.1914     7.8782
 1420.5000     9.7506   135.5310     2.5381     0.0045   -50.7870     9.8564     8.1895     7.8763
 1421.0000     9.7500   135.7226     2.5300     0.0025   -50.5710     9.7644     8.3386     7.8745
 1421.5000     9.7692   136.9023     2.5360     0.0045   -50.5759     9.4979     8.1858     8.0181
 1422.0000     9.7687   137.6868     2.5560     0.0065   -50.5808     9.5830     8.1839     8.0170
 1422.5000     9.7484   137.4832     2.5730     0.0095   -50.5858     9.6697     8.1821     7.8691
 1423.0000     9.7675   137.4773     2.5799     0.0094   -50.3698    10.1190     8.1802     7.8673
 1423.5000     9.7673   137.6689     2.5789     0.0044   -50.5956     9.8429     8.1780     7.7226
 1424.0000     9.7664   138.8474     2.5719     0.0054   -51.0423     9.6622     8.1765     7.6503
 1424.5000     9.8250   141.6102     2.5539     0.0053   -51.0472     9.4849     8.1746     7.6485
 1425.0000     9.8442   143.9755     2.5519     0.0153   -51.4938     9.6578     8.1728     7.6468
 1425.5000     9.8436   145.1552     2.5688     0.0153   -51.4987     9.7443     8.1709     7.5752
 1426.0000     9.8430   146.3348     2.5678     0.0163   -51.2827     9.6534     8.1690     7.5735
 1426.5000     9.8424   146.7241     2.5638     0.0103   -51.2876     9.4763     8.0193     7.5026
 1427.0000     9.8616   147.7062     2.5568     0.0092   -51.2925     9.3024     7.8724     7.3646
 1427.5000     9.8807   147.8978     2.5487     0.0112   -51.5183     9.3003     7.7281     7.2290
 1428.0000     9.8802   147.4967     2.5357     0.0122   -51.7440     9.1296     7.6561     7.1614
 1428.5000     9.9191   148.8739     2.5317     0.0152   -52.1904     8.9621     7.5848     7.1597
 1429.0000     9.9185   150.0512     2.5347     0.0152   -52.4171     8.8784     7.5830     7.1581
 1429.5000     9.9970   153.4033     2.5397     0.0141   -52.5021     8.7956     7.5813     7.1568
 1430.0000    10.0359   156.1673     2.5446     0.0171   -52.7268     8.7936     7.4424     7.1548
 1430.5000     9.9957   152.6034     2.5406     0.0101   -53.1732     8.7916     7.3730     7.0714
 1431.0000     9.9951   146.6705     2.5406     0.0060   -53.3988     8.8703     7.3714     7.0698
 1431.5000     9.9945   145.2814     2.5456     0.0110   -53.4037     8.8683     7.3697     7.0682
 1432.0000     9.9940   145.6706     2.5465     0.0130   -53.4085     8.7855     7.4356     7.1319
 1432.5000     9.9934   145.8623     2.5515     0.0150   -53.1926     8.7036     7.4339     7.1303
 1433.0000     9.9929   145.2635     2.5605     0.0150   -52.7560     8.8622     7.4322     7.1287
 1433.5000    10.0317   145.0564     2.5625     0.0139   -52.2402     9.1067     7.4305     7.1270
 1434.0000     9.9718   146.6324     2.5665     0.0119   -51.5829     9.0217     7.3613     7.0601
 1434.5000    10.0305   151.1761     2.5524     0.0129   -51.8085     8.6165     7.2927     6.9937
 1435.0000    10.0299   153.1426     2.5514     0.0129   -51.5927     8.4583     7.2247     6.9280
 1435.5000    10.0491   152.1486     2.5494     0.0118   -51.1561     8.4564     7.2231     6.9264
 1436.0000    10.0485   152.1403     2.5474     0.0078   -50.7197     8.5322     7.2215     6.9248
 1436.5000    10.0479   154.9032     2.5473     0.0078   -50.5039     8.5302     7.1538     6.8594
 1437.0000    10.0473   155.6888     2.5453     0.0048   -50.7295     8.5283     7.1522     6.8578
 1437.5000    10.0467   157.2637     2.5363     0.0037   -50.9551     8.5263     7.2162     6.9197
 1438.0000    10.0461   157.2577     2.5333     0.0027   -51.1807     8.6027     7.2149     6.9184
 1438.5000    10.0257   152.7093     2.5453     0.0127   -51.1865     8.7595     7.2794     6.9809
 1439.0000    10.0449   147.3669     2.5472     0.0137   -51.1905     8.8380     7.4799     7.1748
