~VERSION INFORMATION
 VERS.                2.0:   CWLS LOG ASCII STANDARD - VERSION 2.0
 WRAP.                 NO:   ONE LINE PER DEPTH STEP
~WELL INFORMATION
#MNEM.UNIT      DATA TYPE    INFORMATION
#----------   ------------   ------------------------------
 STRT.F          174.0000:   START DEPTH
 STOP.F         3492.0000:   STOP DEPTH
 STEP.F            0.5000:   STEP LENGTH
 NULL.          -999.2500:   NO VALUE
 COMP.    FENIX & SCISSON:   COMPANY
 WELL.   FENIX "AX" #18-3:   WELL
 FLD .        TEAPOT DOME:   FIELD
 LOC .       S3 T38N R78W:   LOCATION
 CNTY.            NATRONA:   COUNTY
 STAT.            WYOMING:   STATE
 CTRY. UNITED STATES OF AMERICA:   COUNTRY
 SRVC.       SCHLUMBERGER:   SERVICE COMPANY
 DATE.        09-FEB-1981:   LOGDATE
 API .     49025108630000:   API NUMBER
~CURVE INFORMATION
#MNEM.UNIT       API CODE    CURVE DESCRIPTION
#----------   ------------   ------------------------------
 DEPT.F                  :   
 CALD.IN     45 280 60 00:   CALIPER FROM DENSITY LOG
 GRD .GAPI   45 310 01 00:   GAMMA RAY FROM DENSITY LOG
 RHOB.G/C3   45 350 01 00:   BULK DENSITY
 DRHO.G/C3   45 356 01 00:   DENSITY CORRECTION
 TENR.LBS    07 635 01 00:   TENSION FROM RESISTIVITY
 SPR .MV     07 010 01 00:   SPONTANEOUS POTENTIAL
 ILM .OHMM   07 120 44 00:   INDUCTION LOG MEDIUM RESISTIVITY
 ILD .OHMM   07 120 46 00:   INDUCTION LOG DEEP RESISTIVITY
 SFLU.OHMM   07 220 01 00:   SPHERICALLY FOCUSED LOG UNAVERAGED RESISTIVITY
~PARAMETER INFORMATION
#MNEM.UNIT          VALUE    DESCRIPTION
#----------   ------------   ------------------------------
 EKB .F         5267.0000:   Kelly bushing
 EGL .F         5257.0000:   Ground level
 EDF .F            0.0000:   Drilling floor
 TD  .F         3472.0000:   Total depth
 DATE.        09-FEB-1981:   Date logged
 CLNT.            A2DTECH:   Client Code
 SL  . 669' FSL & 42' FWL:   Surface Location
 PD  .                 GL:   Permanent Datum
 DD  .F              3401:   Depth driller
 DL  .F              3472:   Depth logger
 BLI .F              3466:   Bottom log interval
 CS1 .IN            8.625:   Casing size
 CBD1.      8.625" @ 200':   Casing driller 1
 CBL1.F               196:   Casing logger 1
 BS1 .IN            7.875:   Bit size
 DFT .            KCL/GEL:   Type fluid in hole
 DFD .                  9:   Density
 DFV .                 60:   Viscosity
 DFPH.                8.5:   pH
 DFL .                 10:   Fluid loss
 MSS .            MUD/PIT:   Source of sample
 RMS .OHMM           1.88:   Rm
 MST .F                75:   Rm Meas. temp.
 RMF .OHMM           1.12:   Rmf
 MFST.F                75:   Rmf Meas. temp.
 MFSS.               MEAS:   Source Rmf.
 RMB .OHMM           1.21:   Rm. at BHT
 BHT .F               120:   BHT.
 TCS .HRS            1800:   Time Circ. stopped
 MRT .F               120:   Maximum recorded temp.
 LUN .               8043:   Logging unit number
 LUL .               CSPR:   Logging unit location
 ENGI.            CONNETT:   Recorded By
 WITN.              SCOTT:   Witnessed by
 ORIG.           5" PRINT:   Origin of data
 UWI .     49025108630000:   Unique Well ID
 DICO. A2D TECHNOLOGIES, INC.:   Digitizing Company
 DAPD.F                10:   Feet Above Permanent Datum
 BSD1.F              3401:   Depth drilled with bit1
 EPD .F              5257:   Elevation Permanent Datum
 LMF .                 KB:   Log Measured From
 DMF .                 KB:   Drilling Measured From
 TLI .F               196:   Top log interval
 TLAB.               0000:   Time logger at bottom
~OTHER INFORMATION
~A   DEPT     CALD         GRD      RHOB       DRHO       TENR        SPR        ILM        ILD       SFLU   
# ...
  429.5000     9.4280    96.0550     2.5040     0.0680   818.2170   -65.9130     7.8880     7.3580     8.5640
  430.0000     9.4270    94.7070     2.5020     0.0670   819.0300   -66.2670     7.9170     7.3210     8.5330
  430.5000     9.4270    93.5510     2.4950     0.0650   819.8440   -66.6190     7.9460     7.3720     8.5050
  431.0000     9.4260    94.8180     2.4850     0.0620   820.6580   -66.9770     7.9870     7.4730     8.4850
  431.5000     9.4250    96.1600     2.4750     0.0570   821.4720   -66.8340     8.0920     7.5740     8.4480
  432.0000     9.4240    96.0420     2.4680     0.0580   822.2860   -66.6020     8.1980     7.6750     8.4080
  432.5000     9.4270    95.3780     2.4780     0.0650   823.1000   -66.3660     8.3040     7.7760     8.3670
  433.0000     9.4300    94.6980     2.4880     0.0680   823.9130   -66.1310     8.4100     7.8770     8.3300
  433.5000     9.4330    94.2490     2.4980     0.0690   824.7270   -65.8960     8.5150     7.9780     8.3300
  434.0000     9.4370    95.6300     2.5070     0.0710   825.5410   -65.6610     8.6210     8.0630     8.6540
  434.5000     9.4400    97.0440     2.5220     0.0780   826.3550   -65.4270     8.7270     8.1760     8.9040
  435.0000     9.4430    97.8640     2.5260     0.0760   827.1690   -65.2440     8.8330     8.2900     9.1530
  435.5000     9.4470    98.1440     2.5180     0.0680   827.9820   -65.2150     8.8850     8.4040     9.4030
  436.0000     9.4510    98.5030     2.5080     0.0610   828.7960   -65.1780     8.8850     8.5180     9.4780
  436.5000     9.4560    99.7090     2.4990     0.0640   829.6100   -65.1390     8.8850     8.6430     9.4220
  437.0000     9.4600   100.6650     2.5010     0.0680   830.4240   -65.1010     8.8850     8.6180     9.3610
  437.5000     9.4650   100.0170     2.5100     0.0740   831.2380   -65.0630     8.8850     8.5910     9.2990
  438.0000     9.4690    99.3620     2.5170     0.0810   832.0520   -65.0250     8.8850     8.5640     9.2380
  438.5000     9.4740    98.9880     2.5240     0.0870   832.8650   -64.9860     8.8850     8.5360     9.2090
  439.0000     9.4780    99.1650     2.5270     0.0910   833.6790   -64.9480     8.8850     8.5090     9.1880
  439.5000     9.4830    98.6450     2.5200     0.0820   834.4930   -64.9100     8.8860     8.4810     9.1670
  440.0000     9.4850    97.6510     2.5100     0.0720   835.3070   -64.8730     8.8550     8.4540     9.1460
  440.5000     9.4850    96.9410     2.5000     0.0590   836.1210   -64.8900     8.8110     8.4260     9.1250
  441.0000     9.4850    97.8130     2.4930     0.0640   836.9340   -64.9730     8.7680     8.3990     9.1040
  441.5000     9.4850    97.9770     2.4910     0.0690   837.7480   -65.0550     8.7240     8.3720     9.0830
  442.0000     9.4850    95.9340     2.4890     0.0740   838.5620   -65.1380     8.6810     8.3440     9.0620
  442.5000     9.4850    92.1980     2.5000     0.0770   839.3760   -65.2200     8.6370     8.3170     9.0410
  443.0000     9.4850    89.1360     2.5120     0.0790   840.1900   -65.3030     8.5940     8.2890     9.0200
  443.5000     9.4850    90.5950     2.5220     0.0800   841.0040   -65.3850     8.5500     8.2620     8.9990
  444.0000     9.4850    92.7250     2.5230     0.0770   841.8170   -65.4380     8.5070     8.2180     8.9780
  444.5000     9.4850    94.0500     2.5250     0.0770   842.6310   -65.3970     8.4700     8.1660     8.9680
  445.0000     9.4850    92.1580     2.5300     0.0770   843.4450   -65.3590     8.4390     8.1150     8.8070
  445.5000     9.4850    90.5280     2.5400     0.0850   844.2590   -65.3210     8.4080     8.0640     8.6610
  446.0000     9.4850    91.7630     2.5330     0.0900   845.0730   -65.2830     8.3780     8.0120     8.5140
  446.5000     9.4850    93.0510     2.5190     0.0800   845.8870   -65.2470     8.3470     7.9610     8.3680
  447.0000     9.4850    94.3260     2.5050     0.0650   846.7000   -65.1180     8.3160     7.9100     8.1780
  447.5000     9.4850    95.5870     2.4970     0.0510   847.5140   -64.9730     8.2850     7.8580     8.2450
  448.0000     9.4850    96.4810     2.4950     0.0520   848.3280   -64.8260     8.2550     7.8070     8.3420
  448.5000     9.4850    96.1790     2.4850     0.0410   849.1420   -64.6810     8.2240     7.7560     8.4380
  449.0000     9.5070    95.3780     2.4750     0.0370   849.9560   -64.5350     8.1930     7.7040     8.5640
  449.5000     9.5060    94.7730     2.4640     0.0350   850.8510   -64.3890     8.1320     7.6530     8.4090
  450.0000     9.5060    96.3730     2.4600     0.0350   850.4810   -64.2560     8.0410     7.5960     8.0990
  450.5000     9.5070    97.9540     2.4630     0.0390   850.0700   -64.2020     7.9490     7.4990     7.8820
  451.0000     9.5070    96.1000     2.4760     0.0470   849.6590   -64.1510     7.8570     7.3920     8.2850
  451.5000     9.5080    92.7790     2.5020     0.0540   849.2470   -64.1000     7.7660     7.2840     8.7330
  452.0000     9.5080    90.1900     2.5270     0.0650   848.8360   -64.0490     7.6350     7.1760     9.0510
  452.5000     9.5090    89.5640     2.5330     0.0760   848.4250   -63.9980     7.4280     7.0680     8.5020
  453.0000     9.5090    89.7160     2.5290     0.0870   848.0140   -63.9470     7.2200     7.0020     7.7080
  453.5000     9.5100    90.0670     2.5210     0.0980   847.6030   -63.8960     7.0120     6.8900     6.9140
  454.0000     9.5100    91.6020     2.5130     0.1030   847.1920   -63.8650     6.8640     6.7790     5.8680
  454.5000     9.5110    94.1530     2.5090     0.0860   846.7810   -63.9730     6.9680     6.6770     6.0930
  455.0000     9.5110    97.0860     2.5200     0.0840   846.3700   -64.0760     7.0860     6.7780     6.5570
  455.5000     9.5120    97.8520     2.5340     0.0890   845.9580   -64.1790     7.2040     6.8930     7.0220
  456.0000     9.5120    98.0050     2.5400     0.1000   845.5470   -64.2820     7.3220     7.0080     7.4860
  456.5000     9.5130    96.8260     2.5330     0.0930   845.1360   -64.3830     7.4390     7.1230     8.1030
  457.0000     9.5130    95.5630     2.5240     0.0820   844.7250   -64.4540     7.5570     7.2380     8.0890
  457.5000     9.5140    95.1060     2.5310     0.0850   844.3140   -64.5950     7.6670     7.3210     8.0670
  458.0000     9.5140    95.3970     2.5440     0.0890   843.9030   -64.7920     7.6540     7.2880     8.0460
  458.5000     9.5150    96.2750     2.5480     0.0930   843.4920   -65.0000     7.6430     7.2630     8.0250
  459.0000     9.5160    98.1080     2.5520     0.0970   843.0810   -64.8890     7.6310     7.2370     8.0040
  459.5000     9.5160    99.9240     2.5550     0.1010   842.6690   -64.6680     7.6190     7.2110     7.9830
  460.0000     9.5170   101.4720     2.5570     0.1040   842.2580   -64.4420     7.6070     7.1850     7.9610
  460.5000     9.5170   100.9670     2.5560     0.1050   841.8470   -64.2180     7.5960     7.1590     7.9400
  461.0000     9.5180    99.2910     2.5470     0.0950   841.4360   -64.0380     7.5400     7.1330     7.9190
  461.5000     9.5180    98.3240     2.5330     0.0860   841.0250   -63.9740     7.4740     7.1070     7.8980
  462.0000     9.5190    98.7040     2.5230     0.0750   840.6140   -63.9080     7.4080     7.0810     7.8560
  462.5000     9.5190   100.7370     2.5190     0.0660   840.2030   -63.8420     7.3430     7.0560     7.7540
  463.0000     9.5200   102.8570     2.5190     0.0690   839.7920   -63.7760     7.2770     6.8090     7.6510
  463.5000     9.5200   103.9190     2.5190     0.0740   839.3800   -63.7110     7.2110     6.5730     7.5490
  464.0000     9.5210   102.8020     2.5090     0.0760   838.9690   -63.6570     7.0020     6.3380     7.4460
  464.5000     9.5210   100.8850     2.5070     0.0790   838.5580   -63.5500     6.7140     6.1020     7.0970
  465.0000     9.5220    98.9150     2.5150     0.1010   838.1470   -63.4440     6.4250     5.8660     6.4380
  465.5000     9.5220    96.8060     2.5260     0.1230   837.7360   -63.3390     6.1370     5.6310     5.7790
