~VERSION INFORMATION
 VERS.                2.0:   CWLS LOG ASCII STANDARD - VERSION 2.0
 WRAP.                 NO:   ONE LINE PER DEPTH STEP
~WELL INFORMATION
#MNEM.UNIT      DATA TYPE    INFORMATION
#----------   ------------   ------------------------------
 STRT.F            0.5000:   START DEPTH
 STOP.F         3195.0000:   STOP DEPTH
 STEP.F            0.5000:   STEP LENGTH
 NULL.          -999.2500:   NO VALUE
 COMP.   TESORO PETROLEUM:   COMPANY
 WELL. TESORO NPR 3 "A" #15-10:   WELL
 FLD .        TEAPOT DOME:   FIELD
 LOC .      S10 T38N R78W:   LOCATION
 CNTY.            NATRONA:   COUNTY
 STAT.            WYOMING:   STATE
 CTRY. UNITED STATES OF AMERICA:   COUNTRY
 SRVC.       SCHLUMBERGER:   SERVICE COMPANY
 DATE.        03-JUL-1969:   LOGDATE
 API .     49025600130000:   API NUMBER
~CURVE INFORMATION
#MNEM.UNIT       API CODE    CURVE DESCRIPTION
#----------   ------------   ------------------------------
 DEPT.F                  :   
 SPR .MV     05 010 01 00:   SPONTANEOUS POTENTIAL FROM RES.
 ASN .OHMM   05 041 16 00:   AMPLIFIED SHORT NORMAL 16"
 ILD .OHMM   05 120 46 00:   INDUCTION LOG DEEP
 CALD.IN     45 280 60 00:   CALIPER FROM DENSITY LOG
 GRD .GAPI   45 310 01 00:   GAMMA RAY FROM DENSITY LOG
 RHOB.G/C3   45 350 01 00:   BULK DENSITY
~PARAMETER INFORMATION
#MNEM.UNIT          VALUE    DESCRIPTION
#----------   ------------   ------------------------------
 EKB .F         5250.0000:   Kelly bushing
 EGL .F         5237.0000:   Ground level
 EDF .F            0.0000:   Drilling floor
 TD  .F         3200.0000:   Total depth
 CLNT.            A2DTECH:   Client Code
 SL  . 990' FWL & 1980' FSL:   Surface Location
 PD  .                 GL:   Permanent Datum
 EPD .F              5237:   Elevation Permanent Datum
 LMF .                 KB:   Log Measured From
 DMF .                 KB:   Drilling Measured From
 DAPD.F                13:   Feet Above Permanent Datum
 DATE.        03-JUL-1969:   Date Logged [DD-MMM-YYYY]
 DD  .F              3200:   Depth driller
 DL  .F              3196:   Depth logger
 BLI .F              3195:   Bottom log interval
 TLI .F               676:   Top log interval
 CS1 .IN            10.75:   Casing size
 CBD1.      10.75" @ 675':   Casing driller 1
 CBL1.F               676:   Casing logger 1
 BS1 .IN            6.125:   Bit size
 BSD1.F              3200:   Depth drilled with bit1
 DFT .      FRESH GEL MUD:   Type fluid in hole
 DFD .                9.5:   Density
 DFV .                 46:   Viscosity
 DFPH.                9.5:   pH
 DFL .                6.4:   Fluid loss
 MSS .           FLOWLINE:   Source of sample
 RMS .OHMM           2.05:   Rm
 MST .F                76:   Rm Meas. temp.
 RMF .OHMM           1.49:   Rmf
 MFST.F                78:   Rmf Meas. temp.
 MFSS.               MEAS:   Source Rmf.
 RMB .OHMM           1.34:   Rm. at BHT
 BHT .F               116:   BHT.
 TCS .HRS               2:   Time Circ. stopped
 MRT .F               116:   Maximum recorded temp.
 LUN .               4507:   Logging unit number
 LUL .               CSPR:   Logging unit location
 ENGI.             KNOBEL:   Recorded By
 WITN.                MAY:   Witnessed by
 ORIG.        2" 5" PRINT:   Origin of data
 UWI .     49025600130000:   Unique Well ID
 DICO. A2D TECHNOLOGIES, INC.:   Digitizing Company
~OTHER INFORMATION
~A    DEPT     SPR          ASN      ILD       CALD        GRD       RHOB   
# ...
 1872.5000   -26.4762     9.0233     6.6754    11.2528    96.2775     2.5973
 1873.0000   -26.4752     8.9945     6.7571    11.2523    95.8318     2.5778
 1873.5000   -26.4855     8.9657     6.7648    11.2370    95.6074     2.5552
 1874.0000   -26.5736     8.9071     6.8456    11.2365    95.3830     2.5387
 1874.5000   -26.5250     8.8182     6.8525    11.2505    95.3789     2.5297
 1875.0000   -26.4539     8.8198     6.8604    11.2500    95.3738     2.5296
 1875.5000   -26.4903     8.8661     6.9417    11.2641    95.5909     2.5341
 1876.0000   -26.2170     8.9727     6.9480    11.2783    96.0264     2.5468
 1876.5000   -26.1724     8.9141     6.9544    11.2924    95.8009     2.5565
 1877.0000   -26.1037     8.8850     6.9623    11.3066    95.1360     2.5625
 1877.5000   -25.9023     9.0069     6.9686    11.3206    94.9116     2.5550
 1878.0000   -25.8658     9.0532     6.9000    11.3199    95.3510     2.5430
 1878.5000   -25.8786     9.0395     6.9064    11.3046    96.2250     2.5474
 1879.0000   -25.9435     9.0425     6.9143    11.2747    97.1009     2.5624
 1879.5000   -25.8924     9.0574     6.9206    11.2594    96.8765     2.5834
 1880.0000   -25.8694     9.0737     7.0019    11.2587    95.7121     2.5924
 1880.5000   -25.8437     9.0599     7.0083    11.2582    94.4443     2.5743
 1881.0000   -25.6895     9.0461     7.1661    11.2724    93.3389     2.5773
 1881.5000   -25.6865     9.0477     7.1725    11.2865    93.5550     2.5818
 1882.0000   -25.6916     9.2297     7.2534    11.3006    94.4320     2.5742
 1882.5000   -25.8413     9.3814     7.3351    11.3000    95.3089     2.5517
 1883.0000   -26.1026     9.4729     7.3430    11.3141    95.9656     2.5404
 1883.5000   -26.7980     9.5343     7.4992    11.3134    95.9811     2.5464
 1884.0000   -26.9232     9.5660     7.5805    11.3277    96.1766     2.5373
 1884.5000   -26.7016     9.5819     7.5119    11.3711    97.0525     2.5343
 1885.0000   -26.6748     9.5534     7.3683    11.3853    97.9294     2.5350
 1885.5000   -26.6863     9.5096     7.3763    11.4287   101.0080     2.5382
 1886.0000   -26.5017     9.4510     7.3061    11.4282    98.5810     2.5245
 1886.5000   -26.4756     9.4219     7.3140    11.4570    95.2729     2.5357
 1887.0000   -26.2910     9.3934     7.2454    11.4712    94.1674     2.5469
 1887.5000   -26.0429     9.3646     7.2533    11.4705    95.2636     2.5506
 1888.0000   -25.9530     9.3060     7.2596    11.4699    96.3608     2.5401
 1888.5000   -25.9319     9.2769     7.2661    11.4694    96.5771     2.5423
 1889.0000   -26.0960     9.2484     7.1973    11.4541    97.0124     2.5445
 1889.5000   -26.0829     9.2500     7.2802    11.4387   100.3122     2.5468
 1890.0000   -26.0879     9.2513     7.4365    11.4382    99.4270     2.5370
 1890.5000   -26.0335     9.2525     7.4430    11.4524    97.6578     2.5310
 1891.0000   -25.8747     9.2989     7.4498    11.4517    96.1138     2.5347
 1891.5000   -26.0723     9.3456     7.5321    11.4511    95.6692     2.5556
 1892.0000   -26.1033     9.4822     7.5382    11.4506    96.3258     2.5721
 1892.5000   -26.0256     9.5587     7.5450    11.4500    97.6433     2.5578
 1893.0000   -26.0775     9.5449     7.5527    11.4493    96.7571     2.5488
 1893.5000   -26.0800     9.5615     7.4825    11.4488    96.0922     2.5548
 1894.0000   -26.2141     9.5628     7.3405    11.4335    96.0821     2.5465
 1894.5000   -26.2860     9.5941     7.3468    11.4182    97.6258     2.5382
 1895.0000   -26.2800     9.5055     7.2032    11.4028    96.9599     2.5427
 1895.5000   -26.3048     9.3865     7.2111    11.3876    93.4315     2.5524
 1896.0000   -25.8833     9.0419     7.2175    11.3723    92.5463     2.5374
 1896.5000   -25.9118     8.9830     7.2254    11.3865    94.7438     2.5412
 1897.0000   -25.8058     9.0297     7.2317    11.4005    96.0623     2.5478
 1897.5000   -25.8079     9.1813     7.2381    11.4147    95.6167     2.5500
 1898.0000   -25.8613     9.2578     7.1694    11.4288    94.2899     2.5545
 1898.5000   -25.6789     9.2744     7.1008    11.4577    95.1669     2.5567
 1899.0000   -25.6292     9.2757     7.1088    11.4570    94.9425     2.5627
 1899.5000   -25.5886     9.2920     7.1901    11.4564    93.8253     2.5597
 1900.0000   -25.5512     9.2481     7.1964    11.4559    92.7306     2.5491
 1900.5000   -25.4911     9.1291     7.2793    11.4700    92.0657     2.5401
 1901.0000   -25.4881     9.1307     7.2071    11.4989    92.2819     2.5289
 1901.5000   -25.5312     9.1620     7.2871    11.5497    93.8185     2.5326
 1902.0000   -25.6103     9.2563     7.3681    11.6668    95.1360     2.5536
 1902.5000   -25.6839     9.4055     7.5230    11.8220    96.8940     2.5506
 1903.0000   -25.7581     9.5270     7.6029    11.9727    98.2174     2.5415
 1903.5000   -25.8323     9.6486     7.5250    12.1597    99.5279     2.5513
 1904.0000   -25.9064     9.7401     7.3879    12.2917    98.8630     2.5761
 1904.5000   -25.9806     9.6486     7.3940    12.2915    96.8765     2.5791
 1905.0000   -26.0548     9.5283     7.3988    12.1294    93.2895     2.5686
 1905.5000   -26.1290     9.4702     7.4040    11.9379    92.0225     2.5881
 1906.0000   -26.2036     9.5015     7.3351    11.8347    93.9997     2.6083
 1906.5000   -26.2760     9.4573     7.2638    11.8049    95.3172     2.6143
 1907.0000   -26.2823     9.3797     7.2700    11.8194    96.6336     2.6045
 1907.5000   -26.3044     9.3242     7.2000    11.7603    97.5105     2.6083
 1908.0000   -26.3179     9.3102     7.1300    11.7286    97.9469     2.6060
 1908.5000   -26.1004     9.2961     7.1361    11.7008    97.6815     2.5888
 1909.0000   -26.0264     9.2973     7.2910    11.7006    95.9553     2.5745
 1909.5000   -25.7333     9.3284     7.4140    11.6998    96.8322     2.5820
 1910.0000   -25.6722     9.3895     7.4520    11.6558    97.7093     2.5947
 1910.5000   -25.4893     9.4658     7.5319    11.6262    99.2459     2.5985
 1911.0000   -25.2909     9.7527     7.6868    11.6259   100.3431     2.5797
 1911.5000   -25.4908     9.8138     7.8429    11.6550   101.2211     2.5655
 1912.0000   -25.4961     9.7546     7.9228    11.4932   100.5433     2.5415
 1912.5000   -25.4927     9.6654     8.0027    11.2687   100.3297     2.5504
 1913.0000   -25.4912     9.7869     8.0076    11.0473   100.5459     2.5797
 1913.5000   -25.4680     9.9383     8.0887    10.9185   101.4228     2.5954
 1914.0000   -25.5785     9.9393     8.0175    10.8447   104.2811     2.5984
 1914.5000   -25.6792     9.9706     7.9474    10.8150   106.4796     2.5887
 1915.0000   -25.6907     9.9716     7.9536    10.8147   105.0206     2.5639
 1915.5000   -25.6892     9.9726     7.8086    10.8291   102.3692     2.5570
 1916.0000   -25.6890     9.9435     7.6636    10.8435   100.1583     2.5504
 1916.5000   -25.6890     9.8545     7.5186    10.8580   100.8393     2.5444
 1917.0000   -25.6948     9.7953     7.3749    10.8723   102.3424     2.5399
 1917.5000   -25.6538     9.7061     7.2311    10.8720   103.6557     2.5346
 1918.0000   -25.6507     9.6152     7.1599    10.9012   103.6475     2.5294
 1918.5000   -25.9078     9.5276     7.0898    10.9303   102.7561     2.5264
 1919.0000   -26.4203     9.4687     7.1710    10.9300   101.8668     2.5233
 1919.5000   -26.1100     9.4095     7.1771    10.9297   101.8586     2.5196
 1920.0000   -25.6821     9.3203     7.1821    10.9441   102.7607     2.5173
 1920.5000   -25.4909     9.3215     7.2620    10.9291   103.3840     2.5166
 1921.0000   -25.4583     9.3225     7.2669    10.9288   100.7305     2.5166
 1921.5000   -25.4303     9.3235     7.2731    10.9285    98.7399     2.5226
 1922.0000   -25.4023     9.3548     7.2780    10.9282    98.0708     2.5353
 1922.5000   -25.3740     9.3856     7.2067    10.9279   101.1442     2.5491
 1923.0000   -25.3452     9.2064     7.2129    10.9110   102.8981     2.5623
 1923.5000   -25.3170     9.0563     7.2191    10.8685   104.2121     2.5698
 1924.0000   -25.3260     8.9076     7.2240    10.7947   105.0822     2.5683
