~VERSION INFORMATION
 VERS.                2.0:   CWLS LOG ASCII STANDARD - VERSION 2.0
 WRAP.                 NO:   ONE LINE PER DEPTH STEP
~WELL INFORMATION
#MNEM.UNIT      DATA TYPE    INFORMATION
#----------   ------------   ------------------------------
 STRT.F          297.0000:   START DEPTH
 STOP.F         2946.0000:   STOP DEPTH
 STEP.F            0.5000:   STEP LENGTH
 NULL.          -999.2500:   NO VALUE
 COMP.    FENIX & SCISSON:   COMPANY
 WELL. FENIX & SCISSON SH "X" #17-10:   WELL
 FLD .             NPR #3:   FIELD
 LOC .      S10 T38N R78W:   LOCATION
 CNTY.            NATRONA:   COUNTY
 STAT.            WYOMING:   STATE
 CTRY. UNITED STATES OF AMERICA:   COUNTRY
 SRVC.       SCHLUMBERGER:   SERVICE COMPANY
 DATE.        05-APR-1977:   LOGDATE
 API .     49025103310000:   API NUMBER
~CURVE INFORMATION
#MNEM.UNIT       API CODE    CURVE DESCRIPTION
#----------   ------------   ------------------------------
 DEPT.F                  :   
 SPR .MV     07 010 01 00:   SPONTANEOUS POTENTIAL
 ILD .OHMM   07 120 46 00:   DEEP INDUCTION RESISTIVITY
 ILM .OHMM   07 120 44 00:   INDUCTION LOG MEDIUM RESISTIVITY
 LL8 .OHMM   07 220 08 00:   LATEROLOG-8 RES.
 CALD.IN     45 280 60 00:   CALIPER FROM DENSITY LOG
 GRD .GAPI   45 310 01 00:   GAMMA RAY FROM DENSITY LOG
 CORR.G/C3   45 356 01 00:   DENSITY CORRECTION
 RHOB.G/C3   45 350 01 00:   BULK DENSITY
~PARAMETER INFORMATION
#MNEM.UNIT          VALUE    DESCRIPTION
#----------   ------------   ------------------------------
 EKB .F         5270.0000:   Kelly bushing
 EGL .F         5260.0000:   Ground level
 TD  .F         2950.0000:   Total depth
 CLNT.            A2DTECH:   Client Code
 SL  . 205' FWL & 1115' FSL:   Surface Location
 DATE.        05-APR-1977:   Date Logged [DD-MMM-YYYY]
 DD  .F              2950:   Depth driller
 DL  .F              2948:   Depth logger
 BLI .F              2946:   Bottom log interval
 TLI .F               310:   Top log interval
 CS1 .              10.75:   Casing size
 CBD1.      10.75" @ 300':   Casing driller 1
 CBL1.IN              310:   Casing logger 1
 BS1 .IN            8.625:   Bit size
 BSD1.F              2950:   Depth drilled with bit1
 DFT .                KCL:   Type fluid in hole
 DFD .                9.0:   Density
 DFV .                 33:   Viscosity
 DFL .                  9:   Fluid loss
 MSS .            MUD PIT:   Source of sample
 RMS .OHMM          0.153:   Rm
 MST .F                60:   Rm Meas. temp.
 RMF .OHMM          0.130:   Rmf
 MFST.F                60:   Rmf Meas. temp.
 MFSS.               MEAS:   Source Rmf.
 RMC .OHMM          0.229:   Rmc
 MCST.F                60:   Rmc Meas. temp.
 MCSS.               CALC:   Source Rmc.
 RMB .OHMM           0.08:   Rm. at BHT
 BHT .F               115:   BHT.
 TCS .HRS               6:   Time Circ. stopped
 MRT .F               115:   Maximum recorded temp.
 LUN .               7689:   Logging unit number
 LUL .               CODY:   Logging unit location
 ENGI.             RASMUS:   Recorded By
 WITN.              LYONS:   Witnessed by
 ORIG.         2.5" PRINT:   Origin of data
 UWI .     49025103310000:   Unique Well ID
 DICO. A2D TECHNOLOGIES, INC.:   Digitizing Company
 PD  .                 GL:   Permanent Datum
 EPD .               5260:   Elevation Permanent Datum
 LMF .                 KB:   Log Measured From
 DMF .                 KB:   Drilling Measured From
 DAPD.                 10:   Feet Above Permanent Datum
~OTHER INFORMATION
~A   DEPT      SPR        ILD        ILM        LL8       CALD        GRD       CORR       RHOB   
# ...
 2889.0000   -48.3957     3.3074     3.7757     6.9134     8.9393   117.3262     0.0138     2.5338
 2889.5000   -48.3884     3.3479     3.7757     6.6340     8.9403   115.8527     0.0078     2.5153
 2890.0000   -48.0869     3.3481     3.7757     6.6488     8.9413   117.3379     0.0056     2.5242
 2890.5000   -48.0795     3.3484     3.7757     6.8177     8.9424   120.3023     0.0071     2.5301
 2891.0000   -48.0722     3.3486     3.7757     6.7075     8.9434   123.5626     0.0071     2.5272
 2891.5000   -47.7707     3.3488     3.7757     6.5418     8.9444   124.7518     0.0030     2.5258
 2892.0000   -47.7634     3.3490     3.8276     6.5413     8.9750   120.3198     0.0006     2.5303
 2892.5000   -47.7560     3.3493     3.8803     6.5409     8.9760   117.6629     0.0005     2.5362
 2893.0000   -47.7487     3.3495     3.8803     6.5404     8.9770   116.4852     0.0087     2.5422
 2893.5000   -47.7413     3.3591     3.8803     6.5400     8.9780   118.5622     0.0192     2.5466
 2894.0000   -47.7340     3.4530     3.8803     6.5395     8.9790   120.3637     0.0211     2.5496
 2894.5000   -47.7266     3.5014     3.8803     6.6822     9.0094   122.7520     0.0146     2.5482
 2895.0000   -47.7193     3.5993     3.8803     6.9241     9.0104   123.9249     0.0176     2.5409
 2895.5000   -47.7120     3.6999     3.9337     7.2164     9.0114   124.5030     0.0191     2.5349
 2896.0000   -47.7046     3.8033     3.9337     7.6032     9.0417   123.5143     0.0117     2.5275
 2896.5000   -47.6973     3.9097     3.9337     7.8143     9.0428   121.3395     0.0058     2.5262
 2897.0000   -47.9853     3.9644     3.9878     8.0312     9.0438   119.7357     0.0058     2.5370
 2897.5000   -48.2708     4.0752     4.0427     8.2542     9.0448   119.4965     0.0073     2.5411
 2898.0000   -48.2635     4.1323     4.1547     8.6006     9.0458   120.5918     0.0088     2.5429
 2898.5000   -48.5502     4.1900     4.2698     8.9615     9.0468   122.3216     0.0118     2.5459
 2899.0000   -48.5429     4.2304     4.3285     9.0848     9.0478   123.1479     0.0148     2.5471
 2899.5000   -48.8297     4.2890     4.4485     9.0841     9.0488   122.6845     0.0192     2.5560
 2900.0000   -49.1164     4.3090     4.5097     9.0835     9.0499   121.5971     0.0237     2.5620
 2900.5000   -49.1091     4.3487     4.6346     9.0829     9.0509   121.0025     0.0267     2.5664
 2901.0000   -49.1017     4.4089     4.6346     9.2079     9.0226   120.7037     0.0312     2.5694
 2901.5000   -49.0944     4.4092     4.6321     9.5942     9.0236   122.4759     0.0355     2.5739
 2902.0000   -48.7929     4.4095     4.5065     9.7262     8.9953   127.2067     0.0311     2.5725
 2902.5000   -48.7856     4.4098     4.4485     9.8600     8.9964   131.0500     0.0267     2.5617
 2903.0000   -48.4841     4.4709     4.4485     9.4928     8.9974   133.1181     0.0193     2.5711
 2903.5000   -48.4768     4.4712     4.5155     9.2047     8.9984   133.2159     0.0134     2.5682
 2904.0000   -48.4694     4.4715     4.6482     8.9549     8.9700   128.9702     0.0046     2.5505
 2904.5000   -48.7574     4.4718     4.8286     9.2554     8.9711   129.2631     0.0045     2.5417
 2905.0000   -48.7488     4.4988     4.8950     9.5686     8.9721   130.4436     0.0120     2.5403
 2905.5000   -48.7415     4.5617     4.9624     9.9725     8.9731   123.6360     0.0180     2.5418
 2906.0000   -49.0283     4.6255     4.9624    10.3311     8.9741   119.1952     0.0194     2.5404
 2906.5000   -49.0209     4.6605     4.9624    10.7005     8.9753   119.4881     0.0143     2.5424
 2907.0000   -49.0136     4.7250     4.8950    10.8477     8.9763   121.5562     0.0041     2.5480
 2907.5000   -49.0074     4.7253     4.8817    10.5664     8.9773   122.4408     0.0002     2.5526
 2908.0000   -49.2954     4.6940     4.8146    10.0623     8.9783   119.7751     0.0005     2.5571
 2908.5000   -49.2868     4.5670     4.7630     9.9166     8.9793   120.7721     0.0051     2.5597
 2909.0000   -49.5749     4.4137     4.8286    10.2653     8.9803   123.3452     0.0062     2.5496
 2909.5000   -49.5662     4.3230     4.8950     9.9237     8.9813   123.6126     0.0057     2.5416
 2910.0000   -49.6668     4.2640     4.8950     9.3881     8.9825   121.2428     0.0027     2.5387
 2910.5000   -49.8469     4.2057     4.9624     9.5183     8.9835   124.2274     0.0018     2.5372
 2911.0000   -49.8382     4.1798     5.0306     9.7835     8.9845   127.5029     0.0010     2.5357
 2911.5000   -49.5368     4.1480     5.0306     9.9839     8.9855   127.7429     0.0025     2.5321
 2912.0000   -49.5294     4.0675     5.0306     9.8471     9.0160   130.3209     0.0033     2.5283
 2912.5000   -49.5220     4.0355     5.0306     9.6405     9.0171   136.9822     0.0033     2.5254
 2913.0000   -49.5147     4.0127     4.8941     9.2499     9.0181   141.2098     0.0042     2.5239
 2913.5000   -49.2132     4.0130     4.7613     8.6764     9.0191   151.6952     0.0078     2.5204
 2914.0000   -49.0942     4.0686     4.6346     7.9376     9.0494   154.3550     0.0034     2.5175
 2914.5000   -48.7923     4.0689     4.6984     7.2638     9.0504   150.5054    -0.0040     2.5160
 2915.0000   -48.6029     4.1252     4.7630     7.0805     9.0514   127.4256    -0.0025     2.5161
 2915.5000   -48.3015     4.1824     4.8339     8.6424     9.0525   116.1801     0.0049     2.5294
 2916.0000   -48.1802     4.2987     4.9013    11.4456     9.0535   113.2186     0.0079     2.5530
 2916.5000   -47.9927     4.4183     5.0380    12.0910     9.0545   111.1446     0.0079     2.5634
 2917.0000   -47.9853     4.5412     5.1084    11.6022     9.0555   110.2541     0.0079     2.5531
 2917.5000   -47.9780     4.6675     5.1795    10.6843     9.0565   110.2512     0.0124     2.5473
 2918.0000   -47.9706     4.7322     5.2412    10.3942     9.0575   110.2483     0.0168     2.5517
 2918.5000   -47.9632     4.7977     5.1700    10.2518     9.0292   110.5412     0.0198     2.5592
 2919.0000   -47.9559     4.7980     5.1700    10.2511     9.0302   113.2010     0.0213     2.5636
 2919.5000   -47.9485     4.7984     5.0999    10.3921     9.0312   115.5650     0.0123     2.5606
 2920.0000   -47.9412     4.6691     4.9489    10.5350     9.0029   118.5206     0.0048     2.5548
 2920.5000   -47.9338     4.6060     4.8146    10.6800     9.0039   122.3638     0.0021     2.5534
 2921.0000   -47.9265     4.5437     4.6346    10.6791     9.0050   123.8402     0.0025     2.5596
 2921.5000   -47.9191     4.4822     4.5717    10.2476     9.0038   124.4290     0.0103     2.5624
 2922.0000   -47.9118     4.4216     4.6346     9.6995     8.9777   122.0592     0.0190     2.5627
 2922.5000   -47.9044     4.3618     4.6984     9.5286     8.9788   123.6086     0.0247     2.5665
 2923.0000   -47.8971     4.3621     4.7630     9.8322     8.9798   126.8965     0.0300     2.5722
 2923.5000   -47.8897     4.3031     4.8481    10.1052     8.9808   129.2941     0.0406     2.5778
 2924.0000   -47.5883     4.3034     4.9157    10.2442     8.9818   131.9521     0.0436     2.5788
 2924.5000   -47.4588     4.3037     4.9624     9.6962     8.9828   133.6255     0.0203     2.5809
 2925.0000   -47.2794     4.3040     5.0537     9.5633     8.9838   132.7414     0.0135     2.5815
 2925.5000   -47.2721     4.3636     5.1242     9.8288     8.9849   126.3839     0.0083     2.5747
 2926.0000   -47.2647     4.4240     5.1956    10.5264     9.0153   114.0941     0.0038     2.5709
 2926.5000   -47.2573     4.4853     5.2681    10.9681     9.0163   110.1986    -0.0008     2.5680
 2927.0000   -46.9559     4.5474     5.3864    11.2726     9.0173   113.6152    -0.0036     2.5658
 2927.5000   -46.9486     4.6104     5.4605    11.4277     9.0183   114.3347    -0.0027     2.5667
 2928.0000   -47.2356     4.6107     5.4916    11.2711     9.0194   110.6902     0.0053     2.5703
 2928.5000   -47.2279     4.6110     5.5356    10.9651     9.0204   110.4827     0.0142     2.5719
 2929.0000   -47.2206     4.6113     5.6118    10.6675     9.0214   110.4793     0.0171     2.5689
