~VERSION INFORMATION
 VERS.                2.0:   CWLS LOG ASCII STANDARD - VERSION 2.0
 WRAP.                 NO:   ONE LINE PER DEPTH STEP
~WELL INFORMATION
#MNEM.UNIT      DATA TYPE    INFORMATION
#----------   ------------   ------------------------------
 STRT.F          200.0000:   START DEPTH
 STOP.F         3209.0000:   STOP DEPTH
 STEP.F            0.5000:   STEP LENGTH
 NULL.          -999.2500:   NO VALUE
 COMP.    FENIX & SCISSON:   COMPANY
 WELL. FENIX & SCISSON "AX" #88-3:   WELL
 FLD .             NPR #3:   FIELD
 LOC .       S3 T38N R78W:   LOCATION
 CNTY.            NATRONA:   COUNTY
 STAT.            WYOMING:   STATE
 CTRY. UNITED STATES OF AMERICA:   COUNTRY
 SRVC.              WELEX:   SERVICE COMPANY
 DATE.        27-JUL-1977:   LOGDATE
 API .     49025104060000:   API NUMBER
~CURVE INFORMATION
#MNEM.UNIT       API CODE    CURVE DESCRIPTION
#----------   ------------   ------------------------------
 DEPT.F                  :   
 CALD.IN     45 280 60 00:   CALIPER FROM DENSITY LOG
 GRD .GAPI   45 310 01 00:   GAMMA RAY FROM DENSITY LOG
 RHOB.G/C3   45 350 01 00:   BULK DENSITY
 CORR.G/C3   45 356 01 00:   DENSITY CORRECTION
 NPHI.DEC    42 890 03 00:   NEUTRON POROSITY SANDSTONE
 SPR .MV     07 010 01 00:   SPONTANEOUS POTENTIAL
 SGRD.OHMM   07 220 05 00:   GUARD LOG RESISTIVITY
 FORX.OHMM   07 000 00 00:   
~PARAMETER INFORMATION
#MNEM.UNIT          VALUE    DESCRIPTION
#----------   ------------   ------------------------------
 EKB .F         5134.0000:   Kelly bushing
 EGL .F         5124.0000:   Ground level
 EDF .F            0.0000:   Drilling floor
 TD  .F         3211.0000:   Total depth
 CLNT.            A2DTECH:   Client Code
 SL  . 230' FSL & 380' FEL:   Surface Location
 PD  .                 GL:   Permanent Datum
 EPD .F              5124:   Elevation Permanent Datum
 LMF .                 KB:   Log Measured From
 DMF .                 KB:   Drilling Measured From
 DAPD.F                10:   Feet Above Permanent Datum
 DATE.        27-JUL-1977:   Date Logged [DD-MMM-YYYY]
 DD  .F              3200:   Depth driller
 DL  .F              3211:   Depth logger
 BLI .F              3210:   Bottom log interval
 TLI .F               200:   Top log interval
 CS1 .IN            8.625:   Casing size
 CBD1.      8.625" @ 218':   Casing driller 1
 CBL1.F               218:   Casing logger 1
 BS1 .IN            7.875:   Bit size
 BSD1.F              3200:   Depth drilled with bit1
 DFT .            KCL MUD:   Type fluid in hole
 DFD .                9.2:   Density
 DFV .                 36:   Viscosity
 DFPH.                9.5:   pH
 DFL .                9.6:   Fluid loss
 MSS .           FLOWLINE:   Source of sample
 RMS .OHMM           0.61:   Rm
 MST .F                85:   Rm Meas. temp.
 RMF .OHMM           0.53:   Rmf
 MFST.F                85:   Rmf Meas. temp.
 MFSS.               FANN:   Source Rmf.
 RMC .OHMM           0.48:   Rmc
 MCST.F                85:   Rmc Meas. temp.
 MCSS.                KIT:   Source Rmc.
 RMB .OHMM           0.42:   Rm. at BHT
 BHT .F               122:   BHT.
 TCS .HRS             2.5:   Time Circ. stopped
 MRT .F               122:   Maximum recorded temp.
 LUN .               8611:   Logging unit number
 LUL .             CASPER:   Logging unit location
 ENGI.            C. DOAK:   Recorded By
 WITN.      E. HARRINGTON:   Witnessed by
 ORIG.      2.5" 5" PRINT:   Origin of data
 UWI .     49025104060000:   Unique Well ID
 DICO. A2D TECHNOLOGIES, INC.:   Digitizing Company
~OTHER INFORMATION
~A   DEPT       CALD       GRD        RHOB      CORR        NPHI       SPR      SGRD         FORX 
# ...
 2549.0000     9.7997    66.3845     2.4019     0.0885     0.1657   -28.0371    13.3493    19.4520
 2549.5000     9.8022    67.9188     2.4013     0.0887     0.1670   -28.4095    13.0085    19.3776
 2550.0000     9.7888    68.8495     2.4010     0.0890     0.1680   -28.7849    12.5591    18.9340
 2550.5000     9.7760    68.8900     2.3999     0.0907     0.1680   -29.1514    12.5697    18.5871
 2551.0000     9.7632    68.0402     2.3993     0.0909     0.1678   -29.5232    12.9294    18.1797
 2551.5000     9.7574    66.5970     2.3979     0.0918     0.1660   -29.6132    13.3682    18.0466
 2552.0000     9.7472    65.7472     2.3965     0.0931     0.1669   -29.6097    15.7584    18.3082
 2552.5000     9.7252    65.1929     2.3937     0.0945     0.1701   -29.6074    14.3227    19.2257
 2553.0000     9.7123    64.6559     2.3916     0.0958     0.1722   -29.6094    13.3790    19.7255
 2553.5000     9.6995    64.7101     2.3901     0.0972     0.1727   -29.6081    13.7539    18.6600
 2554.0000     9.6718    65.0445     2.3952     0.0997     0.1739   -29.6082    13.2042    17.4713
 2554.5000     9.6419    65.0890     2.4161     0.1014     0.1751   -29.6081    11.2075    17.0030
 2555.0000     9.6037    64.8368     2.4226     0.1016     0.1751   -29.6078    11.5215    16.7747
 2555.5000     9.5654    63.6969     2.4122     0.0989     0.1751   -29.6078    13.2148    17.2442
 2556.0000     9.5153    62.2091     2.4016     0.0931     0.1792   -29.6078    15.5776    19.2433
 2556.5000     9.4872    60.5196     2.3967     0.0893     0.1857   -29.6078    13.7389    17.4889
 2557.0000     9.4597    59.2138     2.3888     0.0861     0.1887   -29.6078    13.0457    17.0198
 2557.5000     9.4435    58.5293     2.3819     0.0833     0.1910   -29.6078    13.4115    17.4959
 2558.0000     9.4336    58.8263     2.3801     0.0820     0.1940   -29.6080    13.6313    18.7388
 2558.5000     9.4355    60.4075     2.3869     0.0823     0.1889   -29.6084    16.0235    38.7113
 2559.0000     9.4374    61.5859     2.4102     0.0839     0.1777   -29.6074    80.8292   309.9862
 2559.5000     9.4545    62.9325     2.4373     0.0891     0.1638   -29.6095   104.8630   179.3447
 2560.0000     9.4563    63.9171     2.4501     0.0949     0.1518   -29.6084   110.4990   239.1059
 2560.5000     9.4891    64.7355     2.4471     0.0996     0.1462   -29.6048    56.8331    39.7110
 2561.0000     9.5125    65.1099     2.4365     0.1013     0.1503   -29.6221    15.6553    19.0355
 2561.5000     9.5514    65.4158     2.4258     0.0999     0.1772   -29.4681    13.6621    17.2860
 2562.0000     9.5617    65.4599     2.4227     0.0958     0.1911   -29.1975    13.0816    18.1209
 2562.5000     9.5748    65.1584     2.4206     0.0991     0.1979   -28.9465    14.5497    19.1638
 2563.0000     9.5866    63.7765     2.4192     0.1038     0.1994   -28.6968    14.1494    19.9121
 2563.5000     9.5886    62.8141     2.4173     0.1070     0.2003   -28.4421    12.5664    19.2303
 2564.0000     9.5756    61.7333     2.4144     0.1072     0.1988   -28.1905    12.5697    17.7680
 2564.5000     9.5568    60.9394     2.4026     0.1029     0.1959   -27.9384    13.2806    16.5716
 2565.0000     9.5204    60.3198     2.3846     0.0957     0.1941   -27.6857    13.6527    15.6371
 2565.5000     9.5218    60.1335     2.3931     0.0906     0.1941   -27.4321    12.9289    15.3082
 2566.0000     9.5089    60.2570     2.4067     0.0881     0.1964   -27.1829    12.0771    15.2060
 2566.5000     9.5261    60.8200     2.4083     0.0859     0.1976   -26.9296    13.2948    15.4292
 2567.0000     9.5278    61.2878     2.3965     0.0861     0.1976   -26.8568    15.4589    16.3089
 2567.5000     9.5298    61.8446     2.3910     0.0868     0.1959   -26.8589    14.8410    16.1834
 2568.0000     9.5317    62.4412     2.3874     0.0880     0.2018   -26.8665    13.3055    15.9667
 2568.5000     9.5187    62.7814     2.3871     0.0898     0.2077   -26.8588    12.0933    15.7523
 2569.0000     9.5210    62.5172     2.3909     0.0915     0.2136   -27.1927    12.9835    16.4164
 2569.5000     9.5374    61.9956     2.4003     0.0932     0.2195   -27.6891    13.6860    17.3436
 2570.0000     9.5546    61.4279     2.4136     0.0950     0.2254   -28.1766    13.8783    19.0911
 2570.5000     9.5768    60.5848     2.4183     0.0959     0.2118   -28.6605    13.9624    19.4453
 2571.0000     9.6029    60.4516     2.4200     0.0984     0.2086   -29.1489    15.4536    17.8356
 2571.5000     9.6197    60.0742     2.4207     0.1001     0.2076   -29.6347    19.0563    17.5966
 2572.0000     9.6414    59.8220     2.4212     0.1003     0.2092   -30.1212    20.6612    19.1065
 2572.5000     9.6679    59.8665     2.4217     0.1020     0.2119   -30.6087    15.2544    19.3782
 2573.0000     9.6699    60.3372     2.4228     0.1022     0.2123   -31.0945    13.4823    18.3355
 2573.5000     9.6718    60.7135     2.4255     0.1010     0.2101   -31.5820    12.6503    17.3583
 2574.0000     9.6571    61.4859     2.4305     0.0991     0.2040   -32.0706    11.9660    16.6761
 2574.5000     9.6166    62.3379     2.4446     0.0954     0.2046   -32.5490    11.9829    16.7097
 2575.0000     9.6333    65.1371     2.4612     0.0957     0.2096   -33.0514    13.4592    17.1854
 2575.5000     9.6649    66.7666     2.4687     0.0944     0.2235   -33.5267    15.1122    18.5204
 2576.0000     9.7044    68.1504     2.4726     0.0946     0.2259   -33.8724    19.3387    19.9394
 2576.5000     9.7525    69.1250     2.4712     0.0904     0.2259   -33.3276    12.1469    18.4858
 2577.0000     9.8043    69.4659     2.4661     0.0879     0.2253   -32.8737    12.6594    17.5612
 2577.5000     9.8252    69.3372     2.4615     0.0848     0.2241   -32.3699    13.5596    17.0015
 2578.0000     9.8378    68.5609     2.4574     0.0836     0.2235   -31.8861    12.4940    16.4760
 2578.5000     9.8545    67.8259     2.4542     0.0838     0.2223   -31.4042    11.5121    16.4801
 2579.0000     9.8564    67.5726     2.4516     0.0840     0.2199   -30.9134    12.1632    17.5056
 2579.5000     9.8410    68.2094     2.4502     0.0843     0.2142   -30.5889    12.0011    19.1653
 2580.0000     9.8247    69.0406     2.4489     0.0845     0.2058   -30.3344    10.7594    18.0034
 2580.5000     9.8177    69.9291     2.4505     0.0847     0.1998   -30.0730    11.3947    17.0517
 2581.0000     9.8051    70.4169     2.4521     0.0851     0.2005   -29.8127    12.5141    16.7243
 2581.5000     9.7914    69.8668     2.4571     0.0867     0.2017   -29.5622    12.1384    16.7283
 2582.0000     9.7682    67.8997     2.4606     0.0869     0.2029   -29.2780    11.8538    17.1960
 2582.5000     9.7660    66.3700     2.4636     0.0876     0.2035   -29.3701    13.2672    18.1672
 2583.0000     9.7679    66.1395     2.4661     0.0888     0.2039   -29.6643    13.4614    19.4578
 2583.5000     9.7720    67.9742     2.4682     0.0905     0.2038   -29.9289    16.9248    21.1273
 2584.0000     9.8316    72.4687     2.4700     0.0922     0.2038   -30.1901    24.6230    24.2307
 2584.5000     9.8780    76.7574     2.4718     0.0925     0.2044   -30.4592    23.5842    22.0216
 2585.0000     9.9096    79.0837     2.4733     0.0942     0.2050   -30.7216    19.1325    17.6946
 2585.5000     9.9412    80.9112     2.4737     0.0944     0.2074   -30.9929    14.0559    15.6472
 2586.0000     9.9580    81.9984     2.4742     0.0946     0.2103   -31.2482    12.2961    14.6152
 2586.5000     9.9746    83.3719     2.4743     0.0948     0.2127   -31.5484    12.3967    14.6182
 2587.0000     9.9766    84.1148     2.4737     0.0951     0.2162   -31.6930    13.1868    14.6306
 2587.5000     9.9636    84.0523     2.4738     0.0953     0.2215   -31.8588    13.2662    15.2724
 2588.0000     9.9655    83.0862     2.4732     0.0955     0.2269   -32.0110    14.0164    15.9316
 2588.5000     9.9530    80.9003     2.4719     0.0957     0.2311   -32.1707    14.2133    16.3229
 2589.0000     9.9251    77.3194     2.4709     0.0959     0.2366   -32.3284    13.0964    16.3263
