~VERSION INFORMATION
 VERS.                2.0:   CWLS LOG ASCII STANDARD - VERSION 2.0
 WRAP.                 NO:   ONE LINE PER DEPTH STEP
~WELL INFORMATION
#MNEM.UNIT      DATA TYPE    INFORMATION
#----------   ------------   ------------------------------
 STRT.F          209.5000:   START DEPTH
 STOP.F         3130.0000:   STOP DEPTH
 STEP.F            0.5000:   STEP LENGTH
 NULL.          -999.2500:   NO VALUE
 COMP. FENIX & SCISSON-U.S. NAVY:   COMPANY
 WELL.   FENIX "A" #66-29:   WELL
 FLD .              NPR 3:   FIELD
 LOC .      S29 T39N R78W:   LOCATION
 CNTY.            NATRONA:   COUNTY
 STAT.            WYOMING:   STATE
 CTRY. UNITED STATES OF AMERICA:   COUNTRY
 SRVC.       SCHLUMBERGER:   SERVICE COMPANY
 DATE.        12-JUN-1977:   LOGDATE
 API .     49025103850000:   API NUMBER
~CURVE INFORMATION
#MNEM.UNIT       API CODE    CURVE DESCRIPTION
#----------   ------------   ------------------------------
 DEPT.F                  :   
 CALD.IN     45 280 60 00:   CALIPER FROM DENSITY LOG
 GRD .GAPI   45 310 01 00:   GAMMA RAY FROM DENSITY LOG
 RHOB.G/C3   45 350 01 00:   BULK DENSITY
 CORR.G/C3   45 356 01 00:   DENSITY CORRECTION
 LL8 .OHMM   07 220 08 00:   LATEROLOG-8 RES.
 ILD .OHMM   07 120 46 00:   DEEP INDUCTION RESISTIVITY
 ILM .OHMM   07 120 44 00:   INDUCTION LOG MEDIUM RESISTIVITY
 SPR .MV     07 010 01 00:   SPONTANEOUS POTENTIAL
~PARAMETER INFORMATION
#MNEM.UNIT          VALUE    DESCRIPTION
#----------   ------------   ------------------------------
 EKB .F         5058.0000:   Kelly bushing
 EGL .F         5048.0000:   Ground level
 EDF .F            0.0000:   Drilling floor
 TD  .F         3120.0000:   Total depth
 DATE.        12-JUN-1977:   Date logged
 CLNT.            A2DTECH:   Client Code
 SL  . 1650' FSL & 1650' FEL:   Surface Location
 PD  .                 GL:   Permanent Datum
 EPD .F              5048:   Elevation Permanent Datum
 LMF .                 KB:   Log Measured From
 DMF .                 KB:   Drilling Measured From
 DAPD.F                10:   Feet Above Permanent Datum
 DD  .F              3120:   Depth driller
 DL  .F              3120:   Depth logger
 BLI .F              3120:   Bottom log interval
 TLI .F               219:   Top log interval
 CS1 .IN            8.625:   Casing size
 CBD1.      8.625" @ 225':   Casing driller 1
 CBL1.F               219:   Casing logger 1
 BS1 .IN            7.875:   Bit size
 BSD1.F              3120:   Depth drilled with bit1
 DFT .            KCL MUD:   Type fluid in hole
 DFD .                8.8:   Density
 DFV .                 32:   Viscosity
 DFPH.                7.5:   pH
 DFL .                  8:   Fluid loss
 MSS .              CIRC.:   Source of sample
 RMS .OHMM           2.01:   Rm
 MST .F                72:   Rm Meas. temp.
 RMF .OHMM            1.9:   Rmf
 MFST.F                72:   Rmf Meas. temp.
 RMC .OHMM           3.02:   Rmc
 MCST.F                72:   Rmc Meas. temp.
 MFSS.               MEAS:   Source Rmf.
 MCSS.               CALC:   Source Rmc.
 RMB .OHMM           1.21:   Rm. at BHT
 BHT .F               120:   BHT.
 TCS .HRS            1400:   Time Circ. stopped
 TLAB.HRS            1730:   Time logger at bottom
 MRT .F               120:   Maximum recorded temp.
 LUN .               7711:   Logging unit number
 LUL .               CSPR:   Logging unit location
 ENGI.             SAYLER:   Recorded By
 WITN.             RHODES:   Witnessed by
 ORIG.           5" PRINT:   Origin of data
 UWI .     49025103850000:   Unique Well ID
 DICO. A2D TECHNOLOGIES, INC.:   Digitizing Company
~OTHER INFORMATION
~A   DEPT     CALD         GRD      RHOB       CORR        LL8        ILD        ILM        SPR   
# ...
 2720.5000     8.8195   102.0874     2.5165     0.0033     9.3506     9.7225     8.6323   -18.2537
 2721.0000     8.8194    99.9108     2.5175     0.0043     9.2647     9.6331     8.6315   -18.4532
 2721.5000     8.8192    99.3164     2.5175     0.0053     9.1796     9.5445     8.6307   -18.6527
 2722.0000     8.8191    99.3155     2.5195     0.0063     9.2632     9.3706     8.5513   -18.8522
 2722.5000     8.8189    99.9079     2.5185     0.0043     9.3472     9.1161     8.4727   -18.8541
 2723.0000     8.8188    99.1157     2.5204     0.0023     9.6061     8.9500     8.3948   -19.0536
 2723.5000     8.8188    96.9385     2.5274     0.0043     9.9627     8.7869     8.1666   -19.4081
 2724.0000     8.7790    96.7397     2.5363     0.0102     9.9618     8.7061     8.0178   -19.0150
 2724.5000     8.8184    98.9146     2.5264     0.0112     9.7805     8.5473     7.8000   -19.2145
 2725.0000     8.8182    99.9029     2.5174     0.0062     9.4287     8.4687     7.6579   -19.2165
 2725.5000     8.7983   101.2867     2.5154    -0.0037     8.7632     8.3144     7.3148   -19.2184
 2726.0000     8.7981   102.8684     2.4935    -0.0137     8.4480     8.0149     7.1815   -19.2204
 2726.5000     8.8178   108.2089     2.5025    -0.0018     8.5248     7.7261     7.1154   -19.6178
 2727.0000     8.8176   108.9994     2.5084     0.0042     8.7608     7.4478     7.0500   -19.6197
 2727.5000     8.8175   108.2073     2.5164     0.0102     8.8404     7.3121     6.9215   -19.6217
 2728.0000     8.8174   109.7892     2.5203     0.0161     8.2166     7.1789     6.7954   -20.0187
 2728.5000     9.0942   109.7884     2.5243     0.0171     7.9211     6.9839     6.7328   -20.4157
 2729.0000     8.9754   110.7769     2.5303     0.0071     7.9203     6.7942     6.5500   -20.8127
 2729.5000     8.6784   112.7547     2.5342     0.0022     7.9196     6.6096     6.2566   -21.0122
 2730.0000     8.6783   114.3368     2.5422     0.0012     7.8469     6.3135     5.7614   -21.2116
 2730.5000     8.6782   112.7532     2.5183    -0.0078     7.4276     5.8673     5.4532   -22.3987
 2731.0000     8.6187   111.7631     2.5183    -0.0038     6.8407     5.6044     5.2567   -23.1908
 2731.5000     8.6383   111.9603     2.5173    -0.0029     6.1298     5.3533     5.0212   -23.7853
 2732.0000     8.6381   112.1574     2.5183     0.0011     5.6454     5.1605     4.8848   -23.7873
 2732.5000     8.6380   113.1460     2.5173     0.0061     5.5427     4.9746     4.8399   -24.5797
 2733.0000     8.6379   114.9263     2.5193     0.0051     5.7485     4.8840     4.8395   -24.7792
 2733.5000     8.6377   118.2897     2.5182    -0.0089     5.9077     4.8390     4.8390   -24.9787
 2734.0000     8.6375   121.8509     2.5123    -0.0017     5.9613     4.7945     4.8386   -25.1782
 2734.5000     8.6374   122.0487     2.5152    -0.0009     5.7996     4.7941     4.8826   -24.7851
 2735.0000     8.5779   118.6836     2.5162     0.0001     5.5910     4.8377     4.9271   -24.5895
 2735.5000     8.5579   115.7144     2.5182    -0.0009     5.6418     4.9266     5.0176   -23.9989
 2736.0000     8.5578   111.7555     2.5262     0.0070     6.0691     5.0171     5.1098   -23.0132
 2736.5000     8.5379   110.3693     2.5271     0.0020     6.2944     5.1093     5.1093   -22.8176
 2737.0000     8.5377   109.3790     2.5391    -0.0020     6.3516     5.2032     5.1088   -22.2270
 2737.5000     8.5376   109.9719     2.5500     0.0080     6.4681     5.2505     5.1084   -22.0315
 2738.0000     8.5374   112.1483     2.5500     0.0139     6.7082     5.2501     5.0614   -21.0458
 2738.5000     8.5374   113.3351     2.5500     0.0139     6.8313     5.2496     5.0148   -20.8502
 2739.0000     8.5173   114.9179     2.5351     0.0129     6.8934     5.2491     5.0144   -20.6547
 2739.5000     8.4974   115.7089     2.5261    -0.0020     6.5251     5.2486     5.0139   -20.6566
 2740.0000     8.4972   114.5206     2.5261    -0.0080     6.0646     5.2964     5.0596   -20.6586
 2740.5000     8.4971   112.9363     2.5271     0.0019     5.7406     5.3446     5.1525   -20.4630
 2741.0000     8.4970   109.1746     2.5360     0.0129     5.6362     5.4928     5.3932   -20.2674
 2741.5000     8.4968   104.8184     2.5380     0.0029     5.6874     5.7494     5.6970   -20.0719
 2742.0000     8.4967    96.8999     2.5400     0.0039     6.4040     6.1291     6.1291   -19.2837
 2742.5000     8.4965    88.3861     2.5230     0.0019     8.5779     6.5939     6.2992   -18.8906
 2743.0000     8.4567    86.9995     2.5151     0.0039    10.5829     7.3584     7.0684   -17.9049
 2743.5000     8.4368    87.5921     2.5001     0.0118    11.7006     8.0627     7.9316   -17.1168
 2744.0000     8.4366    87.5909     2.4782    -0.0111    12.2464     8.7539     9.0800   -16.1311
 2744.5000     8.4365    88.3813     2.4733    -0.0021    12.3577     8.8335     9.4178   -15.5405
 2745.0000     8.4562    89.9641     2.4802     0.0068    12.1328     8.8327     9.7679   -14.9499
 2745.5000     8.4560    94.7145     2.4702    -0.0081    11.8037     8.8319     9.8568   -14.5568
 2746.0000     8.4559    99.4650     2.4762     0.0058    11.3791     8.8311     9.8559   -13.9662
 2746.5000     8.4557   100.2559     2.4832     0.0088    11.0705     8.8303     9.7653   -13.5731
 2747.0000     8.4556   100.2550     2.4881     0.0038    10.8689     8.9107     9.6754   -13.1800
 2747.5000     8.4554   100.2540     2.4931    -0.0002    10.8679     8.7990     9.4126   -12.7869
 2748.0000     8.4553   100.8470     2.4961    -0.0042    10.9666     8.6887     9.0736   -12.7888
 2748.5000     8.4552   102.4301     2.4971     0.0107    10.9656     8.5798     8.9082   -12.7908
 2749.0000     8.4550   105.3995     2.4951     0.0038    10.5712     8.4723     8.7459   -12.7927
 2749.5000     8.4548   106.9827     2.4911     0.0018    10.0982     8.3661     8.6655   -12.7947
 2750.0000     8.4547   107.9719     2.4791    -0.0082     9.6465     8.2612     8.6647   -12.7967
 2750.5000     8.4545   106.7937     2.4943     0.0009     9.5665     8.1577     8.5906   -13.1322
 2751.0000     8.4546   105.1973     2.4950     0.0027     9.5592     8.0632     8.5079   -13.5872
 2751.5000     8.4743   103.6122     2.4910     0.0007     9.5595     7.9699     8.3539   -13.7847
 2752.0000     8.4743   104.4033     2.4751    -0.0023     9.5598     7.8776     8.2026   -14.5748
 2752.5000     8.4742   105.3481     2.4681    -0.0063     9.3016     7.8360     8.1282   -14.9699
 2753.0000     8.4742   107.1731     2.4681    -0.0103     8.8864     7.7649     8.0544   -15.7600
 2753.5000     8.4741   106.5780     2.4969     0.0007     8.4898     7.7651     7.9812   -16.5501
 2754.0000     8.4741   104.2009     2.4960     0.0086     8.2605     7.6245     7.9814   -17.5378
 2754.5000     8.4542   104.2000     2.4870     0.0066     8.3366     7.5552     7.9089   -17.9328
 2755.0000     8.4740   106.1787     2.4860     0.0056     8.4906     7.4866     7.7657   -18.1304
 2755.5000     8.4739   108.3553     2.4850     0.0056     8.8069     7.3511     7.6952   -18.3279
 2756.0000     8.4739   110.5318     2.5019     0.0146     8.6476     7.2179     7.5559   -18.7230
 2756.5000     8.4936   110.7285     2.4959     0.0066     8.3375     6.9587     7.3514   -18.5254
 2757.0000     8.4936   112.9049     2.4859    -0.0034     8.2619     6.7087     7.0874   -18.3279
 2757.5000     8.4737   116.6651     2.4829    -0.0024     7.9656     6.4089     6.8328   -18.3704
 2758.0000     8.4737   120.0290     2.5018    -0.0024     7.6100     6.2928     6.7091   -18.3704
 2758.5000     8.4736   125.1745     2.5148     0.0026     6.2814     6.2356     6.6481   -18.5679
 2759.0000     8.4736   121.2139     2.5048    -0.0024     5.8923     6.1227     6.5877   -18.5679
 2759.5000     8.4735   118.6392     2.4909    -0.0154     8.0397     6.0671     6.5879   -18.5679
 2760.0000     8.4933   116.8564     2.4988    -0.0014     8.0398     6.0119     6.5881   -18.5679
 2760.5000     8.4932   117.0531     2.5177    -0.0014     7.2587     6.0121     6.5882   -18.5679
