~VERSION INFORMATION
 VERS.                2.0:   CWLS LOG ASCII STANDARD - VERSION 2.0
 WRAP.                 NO:   ONE LINE PER DEPTH STEP
~WELL INFORMATION
#MNEM.UNIT      DATA TYPE    INFORMATION
#----------   ------------   ------------------------------
 STRT.F          196.5000:   START DEPTH
 STOP.F         3219.0000:   STOP DEPTH
 STEP.F            0.5000:   STEP LENGTH
 NULL.          -999.2500:   NO VALUE
 COMP.    FENIX & SCISSON:   COMPANY
 WELL.  FENIX "AX" #73-15:   WELL
 FLD .              NPR 3:   FIELD
 LOC .      S15 T38N R78W:   LOCATION
 CNTY.            NATRONA:   COUNTY
 STAT.            WYOMING:   STATE
 CTRY. UNITED STATES OF AMERICA:   COUNTRY
 SRVC.       SCHLUMBERGER:   SERVICE COMPANY
 DATE.        30-AUG-1977:   LOGDATE
 API .     49025104270000:   API NUMBER
~CURVE INFORMATION
#MNEM.UNIT       API CODE    CURVE DESCRIPTION
#----------   ------------   ------------------------------
 DEPT.F                  :   
 NPHI.DEC    42 890 03 00:   NEUTRON POROSITY SANDSTONE
 CALD.IN     45 280 60 00:   CALIPER FROM DENSITY LOG
 GRD .GAPI   45 310 01 00:   GAMMA RAY FROM DENSITY LOG
 CORR.G/C3   45 356 01 00:   DENSITY CORRECTION
 RHOB.G/C3   45 350 01 00:   BULK DENSITY
 SPR .MV     07 010 01 00:   SPONTANEOUS POTENTIAL
 RILD.OHMM   07 120 46 00:   DEEP INDUCTION RESISTIVITY
 RILM.OHMM   07 120 44 00:   INDUCTION LOG MEDIUM RESISTIVITY
 LL8 .OHMM   07 220 08 00:   LATEROLOG-8 RES.
~PARAMETER INFORMATION
#MNEM.UNIT          VALUE    DESCRIPTION
#----------   ------------   ------------------------------
 EKB .F         5263.0000:   Kelly bushing
 EGL .F         5253.0000:   Ground level
 TD  .F         3220.0000:   Total depth
 CLNT.            A2DTECH:   Client Code
 SL  . 1650' FNL & 875' FEL:   Surface Location
 PD  .                 GL:   Permanent Datum
 EPD .F              5253:   Elevation Permanent Datum
 LMF .                 KB:   Log Measured From
 DMF .                 KB:   Drilling Measured From
 DAPD.F                10:   Feet Above Permanent Datum
 DATE.        30-AUG-1977:   Date Logged [DD-MMM-YYYY]
 DD  .F              3220:   Depth driller
 DL  .F              3219:   Depth logger
 BLI .F              3209:   Bottom log interval
 TLI .F               216:   Top log interval
 CS1 .IN            8.625:   Casing size
 CBL1.F               216:   Casing logger 1
 BS1 .IN            7.875:   Bit size
 BSD1.F              3220:   Depth drilled with bit1
 DFT .                FGM:   Type fluid in hole
 DFD .                8.9:   Density
 DFPH.                 11:   pH
 MSS .            MUDTANK:   Source of sample
 RMS .OHMM           0.40:   Rm
 MST .F                82:   Rm Meas. temp.
 RMF .OHMM           0.25:   Rmf
 MFST.F                72:   Rmf Meas. temp.
 MFSS.               MEAS:   Source Rmf.
 RMC .OHMM           0.60:   Rmc
 MCST.F                82:   Rmc Meas. temp.
 MCSS.               CALC:   Source Rmc.
 RMB .OHMM           0.27:   Rm. at BHT
 BHT .F               120:   BHT.
 MRT .F               120:   Maximum recorded temp.
 LUN .               5642:   Logging unit number
 LUL .               CSPR:   Logging unit location
 ENGI.                FIX:   Recorded By
 WITN.         RETTINGILL:   Witnessed by
 ORIG.           5" PRINT:   Origin of data
 UWI .     49025104270000:   Unique Well ID
 DICO. A2D TECHNOLOGIES, INC.:   Digitizing Company
 DFV .                 35:   Viscosity
 DFL .                8.4:   Fluid loss
 CBD1.      8.625" @ 216':   Casing driller 1
~OTHER INFORMATION
~A   DEPT       NPHI     CALD        GRD       CORR       RHOB        SPR       RILD       RILM        LL8   
# ...
 1802.5000     0.3406    10.2250   113.1932     0.0080     2.5409   -66.5999     8.9468     9.0044     9.6899
 1803.0000     0.3367    10.1975   113.6582     0.0082     2.5508   -66.5774     8.6349     8.8193     9.3646
 1803.5000     0.3493    10.1997   112.5785     0.0067     2.5449   -66.7063     8.3675     8.6459     9.1765
 1804.0000     0.3477    10.2019   112.3759     0.0090     2.5322   -66.6838     8.2001     8.3564     8.9921
 1804.5000     0.3447    10.2041   113.5217     0.0098     2.5298   -66.8127     7.9795     8.0199     8.7506
 1805.0000     0.3441    10.2063   111.9903     0.0117     2.5331   -66.9415     7.8046     7.6969     8.5748
 1805.5000     0.3456    10.1936   113.1296     0.0209     2.5392   -66.9191     7.5924     7.4383     8.4610
 1806.0000     0.3596    10.1959   117.1620     0.0318     2.5656   -67.0535     7.3802     7.2384     7.8920
 1806.5000     0.3605    10.1832   117.8561     0.0358     2.5701   -67.1768     7.1467     7.0929     7.7867
 1807.0000     0.3586    10.1855   117.4375     0.0336     2.5534   -67.1543     6.9065     6.9977     7.8440
 1807.5000     0.3580    10.1877   116.1287     0.0368     2.5493   -67.1319     6.8136     6.9055     7.9566
 1808.0000     0.3598    10.1454   112.3718     0.0316     2.5517   -67.1094     6.7700     6.8611     8.0799
 1808.5000     0.3619    10.1769   115.2915     0.0204     2.5285   -67.0870     6.7261     6.9121     8.0192
 1809.0000     0.3582    10.1350   118.4337     0.0280     2.5324   -67.2158     6.7756     6.9635     7.9663
 1809.5000     0.3492    10.1224   116.6797     0.0401     2.5527   -67.3447     6.7864     7.0641     7.8607
 1810.0000     0.3419    10.1098   114.7033     0.0478     2.5678   -67.3235     6.8288     7.0674     7.8088
 1810.5000     0.3434    10.1120   115.8502     0.0185     2.5461   -67.3183     6.8311     7.0709     7.9217
 1811.0000     0.3494    10.1142   116.9969     0.0095     2.5327   -67.3130     6.7865     7.0743     8.0913
 1811.5000     0.3551    10.1016   117.9215     0.0066     2.5291   -67.3078     6.7900     7.0784     8.1509
 1812.0000     0.3658    10.0741   118.8160     0.0150     2.5217   -67.3026     6.7927     7.0818     8.2108
 1812.5000     0.3736    10.0615   117.1737     0.0218     2.5292   -67.2973     6.7479     7.0852     8.1575
 1813.0000     0.3718    10.0488   114.6462     0.0310     2.5218   -67.2921     6.7514     7.0885     8.1609
 1813.5000     0.3672    10.0516   113.7825     0.0341     2.5414   -67.2868     6.7541     7.0919     8.1649
 1814.0000     0.3636    10.0469   113.8090     0.0161     2.5408   -67.2816     6.7569     7.0455     8.1683
 1814.5000     0.3596    10.0406   113.6063     0.0184     2.5416   -67.2763     6.7597     7.0497     8.1711
 1815.0000     0.3513    10.0434   113.4103     0.0253     2.5439   -67.2711     6.7625     7.0530     8.1177
 1815.5000     0.3413    10.0307   113.4434     0.0224     2.5133   -67.2659     6.7653     7.0564     8.0657
 1816.0000     0.3424    10.0329   113.4698     0.0234     2.5353   -67.2606     6.7849     7.0598     7.9572
 1816.5000     0.3493    10.0273   113.0512     0.0363     2.5427   -67.2554     6.8183     7.0142     7.9055
 1817.0000     0.3535    10.0219   112.1875     0.0330     2.5428   -67.2501     6.8208     7.0177     7.8548
 1817.5000     0.3481    10.0096   110.2110     0.0316     2.5331   -67.2449     6.8238     6.9726     7.8581
 1818.0000     0.3501    10.0122   107.7894     0.0221     2.5295   -67.2396     6.8265     6.9759     7.8071
 1818.5000     0.3528     9.9989   107.5868     0.0214     2.5303   -67.2344     6.8293     6.9310     7.8646
 1819.0000     0.3444    10.0015   112.7386     0.0306     2.5439   -67.2291     6.8321     6.9082     7.8142
 1819.5000     0.3407    10.0038   115.8808     0.0389     2.5597   -67.2239     6.8349     6.8897     7.8717
 1820.0000     0.3482    10.0208   117.2359     0.0420     2.5523   -67.2219     6.8383     6.9418     7.8749
 1820.5000     0.3431    10.0298   112.8180     0.0203     2.5427   -67.2219     6.8886     6.9446     7.9328
 1821.0000     0.3370    10.0401   111.9477     0.0204     2.5465   -67.2218     6.8910     7.0076     7.9912
 1821.5000     0.3265    10.0572   113.5386     0.0182     2.5369   -67.2217     6.8942     7.0487     8.0500
 1822.0000     0.3340    10.0742   112.8975     0.0236     2.5429   -67.2216     6.9449     7.1505     8.1092
 1822.5000     0.3435    10.0912   112.6258     0.0342     2.5618   -67.2215     6.9959     7.1540     8.1689
 1823.0000     0.3476    10.0935   113.8406     0.0335     2.5641   -67.2214     7.0474     7.1574     8.1722
 1823.5000     0.3531    10.1110   115.2024     0.0366     2.5664   -67.2214     7.0016     7.1105     8.1161
 1824.0000     0.3620    10.1132   116.5642     0.0330     2.5529   -67.2213     6.9561     7.0655     8.0107
 1824.5000     0.3671    10.1154   117.4809     0.0361     2.5501   -67.2212     6.8633     6.9716     8.0148
 1825.0000     0.3689    10.1024   114.3917     0.0437     2.5783   -67.2211     6.8110     6.8790     7.9619
 1825.5000     0.3621    10.1049   112.1780     0.0423     2.5825   -67.2210     6.7745     6.8823     7.9101
 1826.0000     0.3518    10.1068   109.9936     0.0213     2.5489   -67.2209     6.8250     6.8857     7.8587
 1826.5000     0.3464    10.0940   112.7137     0.0191     2.5415   -67.2208     6.8752     6.8896     7.8077
 1827.0000     0.3441    10.0813   113.1623     0.0177     2.5326   -67.2201     6.9387     6.9409     7.7569
 1827.5000     0.3507    10.0841   112.9663     0.0140     2.5229   -67.0439     7.0738     7.0411     7.7065
 1828.0000     0.3477    10.0714   112.7702     0.0171     2.5313   -67.0234     7.1753     7.1925     7.6572
 1828.5000     0.3440    10.0736   113.4709     0.0194     2.5224   -66.8516     7.2783     7.3471     7.9853
 1829.0000     0.3407    10.0758   115.2779     0.0173     2.5165   -66.8311     7.5376     7.5572     8.0442
 1829.5000     0.3371    10.0779   116.6396     0.0159     2.5203   -66.8107     7.7543     7.7733     8.1132
 1830.0000     0.3289    10.0802   117.3272     0.0144     2.5384   -66.7902     7.9182     7.9404     8.2776
 1830.5000     0.3334    10.0732   115.3573     0.0266     2.5459   -66.7697     7.9771     8.1111     8.5136
 1831.0000     0.3385    10.0846   112.4906     0.0335     2.5543   -66.7492     7.9803     8.1714     8.7562
 1831.5000     0.3375    10.0868   108.9563     0.0343     2.5664   -66.7287     7.9836     8.1187     8.9437
 1832.0000     0.3414    10.0890   107.2023     0.0246     2.5590   -66.5570     7.8770     8.0109     9.0095
 1832.5000     0.3480    10.0912   106.7771     0.0194     2.5245   -66.6887     7.7719     7.7956     8.8278
 1833.0000     0.3515    10.0935   108.3681     0.0195     2.5202   -66.6673     7.5628     7.5827     8.5309
 1833.5000     0.3452    10.0957   108.6105     0.0204     2.5185   -66.6468     7.3593     7.3246     8.2439
 1834.0000     0.3335    10.0979   107.7534     0.0174     2.5091   -66.7776     7.2111     7.1350     8.0769
 1834.5000     0.3271    10.1062   110.4505     0.0213     2.5407   -66.9084     7.0170     7.0266     7.8602
 1835.0000     0.3298    10.1172   112.0349     0.0206     2.5460   -66.8879     6.9187     6.9458     7.7552
 1835.5000     0.3376    10.1347   113.1741     0.0200     2.5514   -67.0187     6.7839     6.8069     7.7048
 1836.0000     0.3475    10.1369   111.4202     0.0191     2.5222   -67.1495     6.6941     6.7623     7.6547
 1836.5000     0.3541    10.1536   105.8829     0.0171     2.5291   -67.1239     6.6968     6.7188     7.6586
 1837.0000     0.3529    10.1558   104.7900     0.0217     2.5209   -67.1035     6.6533     6.7228     7.6617
 1837.5000     0.3524    10.1583   108.1613     0.0234     2.5240   -67.0830     6.6560     6.6788     7.6648
 1838.0000     0.3566    10.1605   110.4133     0.0084     2.5023   -67.0651     6.6587     6.6828     7.6680
 1838.5000     0.3587    10.1479   111.7751     0.0062     2.5122   -67.0420     6.7076     6.6858     7.6180
