~VERSION INFORMATION
 VERS.                2.0:   CWLS LOG ASCII STANDARD - VERSION 2.0
 WRAP.                 NO:   ONE LINE PER DEPTH STEP
~WELL INFORMATION
#MNEM.UNIT      DATA TYPE    INFORMATION
#----------   ------------   ------------------------------
 STRT.F           89.5000:   START DEPTH
 STOP.F         1300.5000:   STOP DEPTH
 STEP.F            0.5000:   STEP LENGTH
 NULL.          -999.2500:   NO VALUE
 COMP.            US NAVY:   COMPANY
 WELL. US NPR 3 "S" #62-11:   WELL
 FLD .             TEAPOT:   FIELD
 LOC .      S11 T38N R78W:   LOCATION
 CNTY.            NATRONA:   COUNTY
 STAT.            WYOMING:   STATE
 CTRY. UNITED STATES OF AMERICA:   COUNTRY
 SRVC.       SCHLUMBERGER:   SERVICE COMPANY
 DATE.        20-JUL-1964:   LOGDATE
 API .     49025063660000:   API NUMBER
~CURVE INFORMATION
#MNEM.UNIT       API CODE    CURVE DESCRIPTION
#----------   ------------   ------------------------------
 DEPT.F                  :   
 CALS.IN     60 280 50 00:   CALIPER FROM SONIC LOG
 DT  .US/F   60 520 33 00:   DELTA TIME
 SPR .MV     05 010 01 00:   SPONTANEOUS POTENTIAL FROM RES.
 ASN .OHMM   05 041 16 00:   AMPLIFIED SHORT NORMAL 16"
 ILD .OHMM   05 120 46 00:   INDUCTION LOG DEEP
~PARAMETER INFORMATION
#MNEM.UNIT          VALUE    DESCRIPTION
#----------   ------------   ------------------------------
 EKB .F         5223.0000:   Kelly bushing
 EGL .F         5215.0000:   Ground level
 EDF .F            0.0000:   Drilling floor
 TD  .F         1303.0000:   Total depth
 DATE.        20-JUL-1964:   Date logged
 CLNT.            A2DTECH:   Client Code
 PD  .                 GL:   Permanent Datum
 EPD .F              5215:   Elevation Permanent Datum
 LMF .                 KB:   Log Measured From
 DMF .                 KB:   Drilling Measured From
 DAPD.F                 8:   Feet Above Permanent Datum
 DD  .F              1303:   Depth driller
 DL  .F              1300:   Depth logger
 BLI .F              1299:   Bottom log interval
 TLI .F                94:   Top log interval
 CS1 .IN            12.25:   Casing size
 CBD1.       12.25" @ 10':   Casing driller 1
 BS1 .IN               11:   Bit size
 BSD1.F              1303:   Depth drilled with bit1
 DFT .            GEL/OIL:   Type fluid in hole
 DFD .                9.8:   Density
 DFV .                 60:   Viscosity
 DFL .                 10:   Fluid loss
 MSS .           FLOWLINE:   Source of sample
 RMS .OHMM           3.13:   Rm
 MST .F                86:   Rm Meas. temp.
 RMF .OHMM           1.81:   Rmf
 MFST.F                86:   Rmf Meas. temp.
 RMC .OHMM           3.39:   Rmc
 MCST.F                86:   Rmc Meas. temp.
 MFSS.                 FP:   Source Rmf.
 MCSS.                 FP:   Source Rmc.
 TCS .HRS             2.5:   Time Circ. stopped
 LUN .               4507:   Logging unit number
 LUL .               CSPR:   Logging unit location
 ENGI.             DANNER:   Recorded By
 WITN.         JORGENESEN:   Witnessed by
 ORIG.       2", 5" PRINT:   Origin of data
 UWI .     49025063660000:   Unique Well ID
 DICO. A2D TECHNOLOGIES, INC.:   Digitizing Company
~OTHER INFORMATION
~A   DEPT     CALS         DT        SPR        ASN          ILD 
# ...
  394.5000    11.1640  -999.2500   -43.9850     4.5760     3.4250
  395.0000    11.1580  -999.2500   -43.4380     4.5140     4.0340
  395.5000    11.1520  -999.2500   -43.4260     4.7870     4.3820
  396.0000    11.1450  -999.2500   -43.6510     5.0470     4.7290
  396.5000    11.1440  -999.2500   -43.7400     5.3080     5.0100
  397.0000    11.1470  -999.2500   -43.8090     5.5060     5.1340
  397.5000    11.1540  -999.2500   -43.8210     5.5670     5.2380
  398.0000    11.1600  -999.2500   -43.7750     5.6170     5.4070
  398.5000    11.1670  -999.2500   -43.7290     5.6670     5.4070
  399.0000    11.1730  -999.2500   -43.6830     5.7040     5.4070
  399.5000    11.1800  -999.2500   -43.6370     5.7040     5.4070
  400.0000    11.1860  -999.2500   -43.5910     5.7040     5.3300
  400.5000    11.1930    97.9480   -43.5460     5.7040     5.2450
  401.0000    11.2000    97.9920   -43.6110     5.7120     5.2470
  401.5000    11.2060    98.9050   -43.4990     5.5830     4.8230
  402.0000    11.2130    99.6920   -43.4530     5.4220     4.1610
  402.5000    11.2200   100.7410   -43.4080     5.2700     3.4470
  403.0000    11.2210   101.8020   -43.3610     4.9440     2.8470
  403.5000    11.2270   106.1440   -43.3170     4.5600     2.7040
  404.0000    11.2440   110.5370   -43.2710     4.1390     2.7330
  404.5000    11.2610   115.2150   -43.2220     3.7300     2.6670
  405.0000    11.2780   115.3790   -43.1820     3.6330     2.6940
  405.5000    11.2680   113.7780   -43.1280     3.6960     2.6090
  406.0000    11.2480   111.7070   -43.0770     3.7190     2.6610
  406.5000    11.2370   109.6350   -43.0980     3.8150     3.2320
  407.0000    11.2150   107.5080   -43.1500     4.2490     3.8210
  407.5000    11.1980   102.5050   -43.1850     4.8210     4.3140
  408.0000    11.1830    97.6980   -43.2350     5.0400     4.8610
  408.5000    11.1830    98.0590   -43.2610     5.1660     5.1190
  409.0000    11.1830    98.7940   -43.2240     5.3200     5.1260
  409.5000    11.1820    99.5280   -43.1820     5.3600     5.1460
  410.0000    11.1810   100.0000   -43.1510     5.4710     5.1590
  410.5000    11.2020    99.3660   -43.1130     5.6050     5.1710
  411.0000    11.1990    98.5190   -43.0790     5.7050     5.1900
  411.5000    11.1960    97.8980   -43.0430     5.7900     5.2000
  412.0000    11.1930    98.4280   -43.0070     5.8050     5.2160
  412.5000    11.1900   100.1600   -42.9730     5.7650     5.2290
  413.0000    11.1870   100.7200   -42.9340     5.7280     5.2430
  413.5000    11.1830   101.2790   -42.9050     5.6950     5.2580
  414.0000    11.1800   102.1570   -42.9150     5.6450     5.2670
  414.5000    11.1770   103.2030   -43.0400     5.6400     5.2890
  415.0000    11.1740   101.7850   -43.3440     5.6680     5.2910
  415.5000    11.1710   100.1640   -43.7920     5.7520     5.3130
  416.0000    11.1670    98.5990   -44.2200     5.9100     5.4540
  416.5000    11.1640    96.6090   -44.4050     6.1150     5.6350
  417.0000    11.1610    95.0820   -44.3770     6.4110     5.7950
  417.5000    11.1580    94.3940   -44.3380     6.7980     5.9760
  418.0000    11.1550    94.4930   -44.3130     7.1080     6.0950
  418.5000    11.1510    95.4070   -44.2750     7.2350     6.1520
  419.0000    11.1480    96.3220   -44.2460     7.3090     6.2210
  419.5000    11.1450    97.2360   -44.2140     7.3670     6.2900
  420.0000    11.1440    98.1500   -44.1800     7.3450     6.3790
  420.5000    11.1440    99.0640   -44.1500     7.2820     6.4300
  421.0000    11.1440    99.9780   -44.1170     7.2920     6.5110
  421.5000    11.1440   100.5010   -44.0850     7.4520     6.7530
  422.0000    11.1440    99.4560   -44.0530     7.6330     7.0010
  422.5000    11.1420    98.3260   -44.0210     7.6930     7.2820
  423.0000    11.1350    97.0970   -43.9890     7.6870     7.5730
  423.5000    11.1260    97.0330   -43.9560     7.7020     7.6160
  424.0000    11.1850    97.0970   -43.9240     7.7500     7.5570
  424.5000    11.2630    96.3950   -43.8910     7.8060     7.5490
  425.0000    11.2670    96.2960   -43.8600     7.8470     7.5230
  425.5000    11.2740    96.2960   -43.8620     7.8100     7.4790
  426.0000    11.2810    95.7620   -43.9010     7.7180     7.2340
  426.5000    11.2870    95.2000   -43.9400     7.5760     6.5750
  427.0000    11.2940    94.6950   -43.9760     7.3150     5.7130
  427.5000    11.2960    95.3820   -44.0160     7.1660     4.8470
  428.0000    11.2870    96.1490   -43.9870     6.8380     3.9420
  428.5000    11.2790    97.9680   -43.8770     6.1980     3.3490
  429.0000    11.2790   101.0010   -43.7820     5.5540     3.3010
  429.5000    11.2780   107.2520   -43.6670     5.0430     3.3850
  430.0000    11.2500   114.4140   -43.5620     4.6820     3.3590
  430.5000    11.1770   114.4820   -43.4830     4.4280     3.3840
  431.0000    11.1240   113.4330   -43.3160     4.4570     3.4540
  431.5000    11.1510   112.5930   -43.1350     4.6980     3.4650
  432.0000    11.1790   112.1120   -42.9910     5.3170     3.9000
  432.5000    11.2010   133.4330   -43.1580     6.2620     5.2560
  433.0000    11.2210   128.5910   -43.7590     7.1840     7.0510
  433.5000    11.2180   126.9710   -44.1480     7.8750     8.3920
  434.0000    11.2160   124.7860   -44.3030     8.4270     8.9910
  434.5000    11.2140   114.8320   -44.6850     8.9790     9.3180
  435.0000    11.2120    94.5070   -44.9730     9.5730     9.5200
  435.5000    11.2090    92.3110   -44.9550     9.6310     9.1590
  436.0000    11.2070    92.4500   -44.8490     9.4600     8.3480
  436.5000    11.2050    92.2920   -44.7650     9.1860     7.4620
  437.0000    11.2020    94.4570   -44.7110     8.9190     6.6140
  437.5000    11.2060    98.9990   -44.5740     8.2090     6.1050
  438.0000    11.2490   111.5930   -44.2550     7.5160     6.0490
  438.5000    11.2830   123.1140   -43.7720     6.7560     6.0400
  439.0000    11.3160   122.5310   -43.5090     6.7160     5.9760
  439.5000    11.3150   116.7600   -43.8370     6.8460     6.2780
  440.0000    11.2520   105.1250   -44.3340     7.0730     6.9740
  440.5000    11.1860    96.4560   -44.6010     8.1720     7.7400
  441.0000    11.1780    92.8320   -44.7700     9.0770     8.4680
  441.5000    11.1620    90.3650   -44.9050     9.4070     9.0660
  442.0000    11.1470    91.0110   -45.0100     9.7270     9.6210
  442.5000    11.1310    91.6560   -45.1540     9.9500    10.2400
  443.0000    11.1160    92.8760   -45.4320    10.5020    10.6230
  443.5000    11.1100    94.2470   -45.8310    11.1110    10.7510
  444.0000    11.1250    95.3570   -46.2200    11.2530    10.8990
  444.5000    11.1390   111.7880   -46.6090    11.3940    11.0490
  445.0000    11.1520   121.4210   -47.0040    11.5350    11.1810
  445.5000    11.1660    97.9990   -47.3100    11.6770    11.3380
  446.0000    11.1800   102.8220   -47.5240    11.8180    11.4560
  446.5000    11.1940   127.9280   -47.6940    11.9600    11.4890
  447.0000    11.2080   125.6490   -47.8690    12.0540    11.4980
  447.5000    11.2210   124.8250   -48.0870    12.1810    11.5300
  448.0000    11.2100   101.1010   -48.2340    12.3170    11.5360
  448.5000    11.1970    98.5980   -48.1810    12.4500    11.5650
  449.0000    11.1850    96.2370   -48.0840    12.5860    11.6930
  449.5000    11.1720    94.5780   -48.0550    12.7200    11.8420
  450.0000    11.1600    93.0790   -47.9350    12.8540    11.9720
  450.5000    11.1470    91.4910   -47.9150    12.9900    12.1150
  451.0000    11.1350    91.1910   -48.2430    13.1240    12.2510
  451.5000    11.1220    91.9460   -48.6760    13.2610    12.3900
  452.0000    11.1090    93.6640   -49.1240    13.3930    12.5480
  452.5000    11.0970    95.3830   -49.6010    13.5430    12.7200
  453.0000    11.0840    96.1150   -49.8520    13.7070    12.9190
  453.5000    11.0710    96.4260   -49.9080    13.8380    13.1220
  454.0000    11.0680    96.9490   -49.9840    13.9660    13.3150
  454.5000    11.0770    97.4080   -50.0430    14.0940    13.5260
  455.0000    11.0870    97.2060   -50.0980    14.2930    13.7300
