~VERSION INFORMATION
 VERS.                2.0:   CWLS LOG ASCII STANDARD - VERSION 2.0
 WRAP.                 NO:   ONE LINE PER DEPTH STEP
~WELL INFORMATION
#MNEM.UNIT      DATA TYPE    INFORMATION
#----------   ------------   ------------------------------
 STRT.F            0.0000:   START DEPTH
 STOP.F         4700.0000:   STOP DEPTH
 STEP.F            0.5000:   STEP LENGTH
 NULL.          -999.2500:   NO VALUE
 COMP. LAWRENCE ALLISON & ASSOCIATES:   COMPANY
 WELL. LAWRENCE NPR 3 "X" #33-23:   WELL
 FLD .                NPR:   FIELD
 LOC .      S23 T38N R78W:   LOCATION
 CNTY.            NATRONA:   COUNTY
 STAT.            WYOMING:   STATE
 CTRY. UNITED STATES OF AMERICA:   COUNTRY
 SRVC.      DRESSER ATLAS:   SERVICE COMPANY
 DATE.        12-NOV-1984:   LOGDATE
 API .     49025109930000:   API NUMBER
~CURVE INFORMATION
#MNEM.UNIT       API CODE    CURVE DESCRIPTION
#----------   ------------   ------------------------------
 DEPT.F                  :   
 TEND.LBS    45 635 01 00:   TENSION FROM DENSITY LOG
 CALD.IN     45 280 60 00:   CALIPER FROM DENSITY LOG
 CORR.G/C3   45 356 01 00:   DENSITY CORRECTION
 DEN .G/C3   45 350 01 00:   BULK DENSITY
 CNC .DEC    42 890 03 00:   NEUTRON PORISITY SANDSTONE
 SPR .MV     07 010 01 00:   SPONTANEOUS POTENTIAL
 GRR .GAPI   07 310 01 00:   GAMMA RAY FROM RESISTIVITY
 RFOC.OHMM   07 220 01 00:   RESISTIVITY FOCUSED LOG RES.
 ILM .OHMM   07 120 44 00:   INDUCTION LOG MEDIUM RESISTIVITY
 ILD .OHMM   07 120 46 00:   INDUCTION LOG DEEP RESISTIVITY
 TENS.LBS    60 635 01 00:   TENSION FROM SONIC LOG
 DT  .US/F   60 520 00 00:   DELTA TIME
 TENR.LBS    07 635 01 00:   TENSION
~PARAMETER INFORMATION
#MNEM.UNIT          VALUE    DESCRIPTION
#----------   ------------   ------------------------------
 EKB .F         5308.0000:   Kelly bushing
 EGL .F         5296.0000:   Ground level
 EDF .F            0.0000:   Drilling floor
 EPD .F            0.0000:   Permanent datum
 TD  .F         4695.0000:   Total depth
 DATE.        12-NOV-1984:   Date logged
 CLNT.            A2DTECH:   Client Code
 SL  . 1415' FNL & 1874' FWL:   Surface Location
 PD  .                 GL:   Permanent Datum
 LMF .                 KB:   Log Measured From
 DMF .                 KB:   Drilling Measured From
 DAPD.F                12:   Feet Above Permanent Datum
 DD  .F              4695:   Depth driller
 DL  .F              4694:   Depth logger
 BLI .F              4691:   Bottom log interval
 TLI .F              1205:   Top log interval
 CS1 .IN            8.625:   Casing size
 CBD1.     8.625" @ 1206':   Casing driller 1
 CBL1.F              1205:   Casing logger 1
 BS1 .IN            7.875:   Bit size
 BSD1.F              4695:   Depth drilled with bit1
 DFT .     GFL/KCL/STAFLO:   Type fluid in hole
 DFD .                9.2:   Density
 DFV .                 45:   Viscosity
 DFPH.                  8:   pH
 DFL .                 10:   Fluid loss
 MSS .           FLOWLINE:   Source of sample
 RMS .OHMM            .51:   Rm
 MST .F                72:   Rm Meas. temp.
 RMF .OHMM            .43:   Rmf
 MFST.F                70:   Rmf Meas. temp.
 RMC .OHMM            .64:   Rmc
 MCST.F                72:   Rmc Meas. temp.
 MFSS.               MEAS:   Source Rmf.
 MCSS.               CALC:   Source Rmc.
 RMB .OHMM           .272:   Rm. at BHT
 BHT .F               135:   BHT.
 TCS .HRS               4:   Time Circ. stopped
 MRT .F               135:   Maximum recorded temp.
 LUN .               6274:   Logging unit number
 LUL .               GLTE:   Logging unit location
 ENGI.             RAUTIO:   Recorded By
 ORIG.           5" PRINT:   Origin of data
 UWI .     49025109930000:   Unique Well ID
 DICO. A2D TECHNOLOGIES, INC.:   Digitizing Company
~OTHER INFORMATION
~A    DEPT    TEND       CALD       CORR        DEN        CNC        SPR         GRR      RFOC        ILM        ILD       TENS         DT       TENR   
# ...
 3744.0000   -90.5880     9.9550     0.0050     2.4990     0.2400   -30.3380   104.7790     3.9010     3.4300     3.3600   -75.9450    83.9640   -84.6250
 3744.5000   -91.6600     9.9570     0.0130     2.4990     0.2440   -30.3360   109.7260     3.8320     3.3510     3.2830   -83.9190    83.9640   -92.7780
 3745.0000   -92.7330     9.9600     0.0230     2.4980     0.2440   -30.3360   114.0060     3.7580     3.2720     3.2050   -91.8930    84.4470  -100.9310
 3745.5000   -93.8050     9.9610     0.0160     2.4950     0.2470   -30.3360   114.1350     3.6840     3.1930     3.1280   -99.8680    84.7690  -109.0840
 3746.0000   -94.8770     9.9640     0.0080     2.4910     0.2560   -30.3360   114.2000     3.6110     3.1140     3.0500  -107.8420    85.5800  -117.2370
 3746.5000   -95.9500     9.9590     0.0040     2.4870     0.2650   -30.3360   114.2810     3.5370     3.0350     2.9730  -115.8160    86.4220  -125.3740
 3747.0000   -97.0220     9.9510     0.0110     2.4830     0.2700   -30.3370   114.3560     3.4630     2.9560     2.8950  -113.4210    87.2640  -111.8150
 3747.5000   -98.0950     9.9440     0.0170     2.4790     0.2700   -30.3620   114.1830     3.3890     2.8770     2.8070  -103.3200    88.1050   -95.4640
 3748.0000   -99.1670     9.9370     0.0190     2.4750     0.2680   -30.4970   112.5930     3.3150     2.7980     2.7160   -95.1700    88.7930  -104.8130
 3748.5000   -98.5800     9.9300     0.0000     2.4710     0.2670   -30.6320   109.6130     3.2420     2.7190     2.6780   -88.4240    89.3160  -115.4040
 3749.0000   -97.5380     9.9230    -0.0080     2.4710     0.2660   -30.7650   106.6470     3.2140     2.6710     2.6500   -81.6780    89.7580   -99.7000
 3749.5000   -96.4960     9.9160    -0.0020     2.4750     0.2660   -30.8990   103.6790     3.2110     2.6570     2.6220   -74.9320    90.2010   -84.8460
 3750.0000   -95.4550     9.9080     0.0020     2.4780     0.2680   -31.0310   101.5270     3.2070     2.6440     2.5930   -68.1860    90.0490   -69.9920
 3750.5000   -94.4130     9.9010     0.0060     2.4810     0.2700   -31.0990   103.0160     3.2030     2.6300     2.5650   -61.4400    89.8970   -67.4000
 3751.0000   -93.3710     9.8940     0.0150     2.4790     0.2710   -30.9880   106.3390     3.2000     2.6170     2.5440   -58.8530    89.7450   -70.0350
 3751.5000   -92.3290     9.8870     0.0270     2.4770     0.2730   -30.8810   111.5450     3.1960     2.6040     2.5250   -58.8530    89.5980   -72.6690
 3752.0000   -91.2870     9.8840     0.0390     2.4730     0.2650   -30.7760   112.9300     3.1930     2.5900     2.5070   -58.8530    89.7250   -75.5230
 3752.5000   -90.2460     9.8830     0.0310     2.4700     0.2570   -30.6700   113.2220     3.1890     2.5770     2.4880   -58.8530    89.8480   -75.1210
 3753.0000   -89.2040     9.8820     0.0210     2.4690     0.2510   -30.5610   113.4960     3.1660     2.5630     2.4690   -58.8530    89.9710   -74.6820
 3753.5000   -88.1620     9.8810     0.0120     2.4690     0.2510   -30.6010   114.3180     3.1270     2.5500     2.4510   -58.8530    90.0930   -74.2430
 3754.0000   -87.1200     9.8800     0.0170     2.4700     0.2610   -30.7230   116.7030     3.0870     2.5360     2.4320   -58.8530    90.2160   -73.8040
 3754.5000   -86.0790     9.8790     0.0300     2.4750     0.2740   -30.8460   116.8260     3.0440     2.5230     2.4140   -58.8530    90.3390   -73.3650
 3755.0000   -85.0370     9.8780     0.0430     2.4820     0.2720   -30.9710   117.0760     3.0730     2.5100     2.3980   -58.8530    90.4620   -72.9260
 3755.5000   -83.9950     9.8770     0.0490     2.4840     0.2680   -31.1040   118.0060     3.1290     2.4960     2.3810   -58.8530    90.5850   -72.4870
 3756.0000   -82.9530     9.8760     0.0400     2.4730     0.2650   -30.8780   118.7630     3.0710     2.4780     2.3650   -58.8530    90.7080   -72.0480
 3756.5000   -81.9110     9.8750     0.0190     2.4650     0.2610   -30.5460   116.8950     3.0090     2.4490     2.3540   -58.8530    90.8310   -71.6090
 3757.0000   -80.8700     9.8740     0.0000     2.4590     0.2590   -30.1930   114.8360     2.9470     2.4420     2.3820   -58.8530    90.9540   -71.1700
 3757.5000   -79.8280     9.8730    -0.0010     2.4530     0.2600   -30.2980   112.0670     2.9160     2.4420     2.4030   -58.8530    91.0640   -70.7310
 3758.0000   -72.7910     9.8720     0.0090     2.4490     0.2630   -30.2160   108.0910     3.0090     2.4870     2.4430   -58.8530    91.1660   -70.2920
 3758.5000   -59.9900     9.8710     0.0200     2.4510     0.2630   -30.1030   103.9620     3.0830     2.6600     2.5850   -58.8530    90.9710   -69.8530
 3759.0000   -47.1890     9.8700     0.0290     2.4630     0.2540   -29.8950   102.6670     3.1010     2.8390     2.7280   -58.8530    90.5750   -69.4140
 3759.5000   -39.1570     9.8690     0.0410     2.4840     0.2390   -29.8150   105.2360     3.1010     3.0180     2.8700   -58.8530    90.1790   -68.9750
 3760.0000   -39.1570     9.8680     0.0250     2.5030     0.2250   -29.7440   105.4180     3.3960     3.1960     3.0130   -58.8530    89.7990   -68.5360
 3760.5000   -39.1570     9.8670    -0.0060     2.5250     0.2100   -29.6740   105.5380     4.1750     3.3750     3.1550   -58.8530    86.3890   -68.0970
 3761.0000   -39.1570     9.8660    -0.0160     2.5300     0.2100   -29.6020   105.5460     4.9540     3.5540     3.2970   -58.8530    83.1080   -67.6580
 3761.5000   -39.1570     9.8650    -0.0140     2.5190     0.2210   -29.4800   112.9010     5.4290     3.7330     3.4400   -58.8530    79.8270   -67.2190
 3762.0000   -39.1570     9.8640     0.0270     2.4470     0.2390   -29.1350   124.5650     4.8820     3.9120     3.6180   -58.8530    77.3240   -66.7790
 3762.5000   -39.1570     9.8630     0.0950     2.3790     0.2330   -28.7900   140.9080     4.0450     4.0910     3.8520   -58.8530    78.7950   -66.3400
 3763.0000   -39.1570     9.8620     0.1410     2.3500     0.2190   -28.4460   137.8540     3.0440     4.2700     4.0840   -58.8530    83.7590   -65.9010
 3763.5000   -39.1570     9.8610     0.0970     2.4070     0.2040   -28.0960   124.8040     3.3040     4.4480     4.2470   -58.8530    87.7870   -65.4620
 3764.0000   -39.1570     9.8600    -0.0020     2.4770     0.1900   -28.1270   107.0300     4.0490     4.6670     4.4090   -58.8530    86.4390   -65.0230
 3764.5000   -39.1570     9.8590    -0.0110     2.5330     0.1820   -28.3840    92.0330     5.3790     4.9120     4.5720   -58.8530    82.7650   -64.5840
 3765.0000   -21.9450     9.8580    -0.0080     2.5420     0.1820   -28.6480    90.9830     5.8190     5.1560     4.7310   -58.8530    78.6920   -64.1450
 3765.5000   -25.6020     9.8570     0.0120     2.5520     0.1820   -28.9300    92.4940     5.9670     5.4010     5.0920   -58.8530    75.7420   -63.7060
 3766.0000   -29.2600     9.8560     0.0470     2.5620     0.1820   -28.5220    94.7180     6.0790     5.6450     5.4460   -58.8530    75.5080   -63.2670
 3766.5000   -32.9170     9.8550     0.0720     2.5740     0.1810   -28.1640    94.2220     6.1910     5.8900     5.7900   -58.8530    75.6640   -62.8280
 3767.0000   -36.5750     9.8540     0.0700     2.5730     0.1780   -27.7960    92.9860     6.3040     6.1340     5.9590   -58.8530    75.5370   -62.3890
 3767.5000   -37.7220     9.8530     0.0480     2.5620     0.1760   -27.4270    91.8680     6.4160     6.1740     6.1170   -58.8530    75.4100   -61.9500
 3768.0000   -32.8460     9.8520     0.0250     2.5470     0.1730   -27.5390    91.8960     6.5240     6.1740     6.1040   -58.8530    75.4360   -61.5110
 3768.5000   -27.9690     9.8510     0.0020     2.5470     0.1840   -27.7940    91.8970     6.3860     6.1740     6.0900   -58.8530    75.9770   -61.0720
 3769.0000   -23.0920     9.8500    -0.0090     2.5460     0.1980   -28.0510    91.9470     6.2230     6.1740     6.0770   -58.8530    76.5180   -60.6330
 3769.5000   -18.2160     9.8490     0.0060     2.5450     0.2060   -28.3080    92.9290     6.0590     6.2740     6.0620   -58.8530    77.0580   -60.1940
