~VERSION INFORMATION
 VERS.                2.0:   CWLS LOG ASCII STANDARD - VERSION 2.0
 WRAP.                 NO:   ONE LINE PER DEPTH STEP
~WELL INFORMATION
#MNEM.UNIT      DATA TYPE    INFORMATION
#----------   ------------   ------------------------------
 STRT.F          200.0000:   START DEPTH
 STOP.F         3150.0000:   STOP DEPTH
 STEP.F            0.5000:   STEP LENGTH
 NULL.          -999.2500:   NO VALUE
 COMP.  FENIX AND SCISSON:   COMPANY
 WELL.  FENIX "AX" #88-10:   WELL
 FLD .              NPR 3:   FIELD
 LOC .      S10 T38N R78W:   LOCATION
 CNTY.            NATRONA:   COUNTY
 STAT.            WYOMING:   STATE
 CTRY. UNITED STATES OF AMERICA:   COUNTRY
 SRVC.              WELEX:   SERVICE COMPANY
 DATE.        13-JUN-1977:   LOGDATE
 API .     49025103780000:   API NUMBER
~CURVE INFORMATION
#MNEM.UNIT       API CODE    CURVE DESCRIPTION
#----------   ------------   ------------------------------
 DEPT.F                  :   
 CALD.IN     45 280 60 00:   CALIPER FROM DENSITY LOG
 GRD .GAPI   45 310 01 00:   GAMMA RAY FROM DENSITY LOG
 RHOB.G/C3   45 350 01 00:   BULK DENSITY
 CORR.G/C3   45 356 01 00:   DENSITY CORRECTION
 SPR .MV     07 010 01 00:   SPONTANEOUS POTENTIAL
 GURD.OHMM   07 220 05 00:   GUARD LOG RESISTIVITY
 ILD .OHMM   07 120 46 00:   INDUCTION LOG DEEP RESISTIVITY
 ILM .OHMM   07 120 44 00:   INDUCTION LOG MEDIUM RESISTIVITY
~PARAMETER INFORMATION
#MNEM.UNIT          VALUE    DESCRIPTION
#----------   ------------   ------------------------------
 EKB .F         5264.0000:   Kelly bushing
 EGL .F         5254.0000:   Ground level
 EDF .F            0.0000:   Drilling floor
 TD  .F         3160.0000:   Total depth
 DATE.        13-JUN-1977:   Date logged
 CLNT.            A2DTECH:   Client Code
 SL  . 430' FSL & 330' FEL:   Surface Location
 PD  .                 GL:   Permanent Datum
 EPD .F              5254:   Elevation Permanent Datum
 LMF .                 KB:   Log Measured From
 DMF .                 KB:   Drilling Measured From
 DAPD.F                10:   Feet Above Permanent Datum
 DD  .F              3160:   Depth driller
 DL  .F              3151:   Depth logger
 BLI .F              3149:   Bottom log interval
 CS1 .IN            8.625:   Casing size
 CBD1.      8.625" @ 208':   Casing driller 1
 BS1 .IN            7.875:   Bit size
 BSD1.F              3160:   Depth drilled with bit1
 DFT .            KCL MUD:   Type fluid in hole
 DFD .                9.1:   Density
 DFV .                 31:   Viscosity
 DFPH.                7.5:   pH
 DFL .                 20:   Fluid loss
 MSS .           FLOWLINE:   Source of sample
 RMS .OHMM            .90:   Rm
 MST .F                60:   Rm Meas. temp.
 RMF .OHMM            .53:   Rmf
 MFST.F                60:   Rmf Meas. temp.
 RMC .OHMM           1.47:   Rmc
 MCST.F                60:   Rmc Meas. temp.
 MFSS.               MEAS:   Source Rmf.
 MCSS.               MEAS:   Source Rmc.
 RMB .OHMM            .46:   Rm. at BHT
 BHT .F               116:   BHT.
 TCS .HRS               8:   Time Circ. stopped
 MRT .F               116:   Maximum recorded temp.
 LUN .               8611:   Logging unit number
 LUL .             CASPER:   Logging unit location
 ENGI.            C. DOAK:   Recorded By
 WITN.         D. RHOADES:   Witnessed by
 ORIG.           5" PRINT:   Origin of data
 UWI .     49025103780000:   Unique Well ID
 DICO. A2D TECHNOLOGIES, INC.:   Digitizing Company
~OTHER INFORMATION
~A   DEPT       CALD       GRD      RHOB       CORR        SPR       GURD        ILD        ILM   
# ...
 1941.5000     9.8719   151.8678     2.4600     0.0093   -53.4290     9.5301     5.4426     5.5436
 1942.0000     9.8125   155.0360     2.4460     0.0093   -53.6250     7.5075     4.9651     5.2465
 1942.5000     9.7135   159.3922     2.4341     0.0093   -53.2279     6.0236     4.6988     5.0112
 1943.0000     9.6342   166.9161     2.4062     0.0093   -53.2270     8.7759     4.5294     4.9654
 1943.5000     9.5748   172.0646     2.3923     0.0093   -53.4230     8.8608     4.2084     4.6992
 1944.0000     9.5748   179.9850     2.3913     0.0093   -53.4215     5.3964     4.0941     4.2867
 1944.5000     9.6936   186.7176     2.3753     0.0093   -53.4199     4.6171     4.0943     4.0944
 1945.0000     9.7331   192.2628     2.3763     0.0013   -53.6159     6.8511     4.2480     4.5302
 1945.5000     9.7727   194.2441     2.3972    -0.0027   -53.6144     5.0151     4.2480     5.0587
 1946.0000     9.7133   192.6624     2.4122    -0.0027   -53.6128     5.2990     4.6147     5.5974
 1946.5000     9.6143   188.7043     2.4241    -0.0027   -53.6113     9.5345     4.9670     5.9148
 1947.0000     9.5746   183.1624     2.4430    -0.0126   -53.6098    12.4423     5.5978     6.6660
 1947.5000     9.4954   181.5800     2.4420    -0.0126   -53.6083    13.8915     6.1936     7.3755
 1948.0000     9.3766   178.4129     2.4341    -0.0127   -53.6068    13.5148     6.6665     7.9388
 1948.5000     9.3765   177.2270     2.4301    -0.0107   -53.2104    13.2696     7.3763     8.4666
 1949.0000     9.3567   174.8524     2.4122    -0.0107   -53.2088    13.8934     7.6528     9.1131
 1949.5000     9.3963   173.6657     2.4052    -0.0127   -53.0099    14.5463     8.2371     9.5421
 1950.0000     9.3962   172.4790     2.3883    -0.0127   -53.0084    17.4777     8.8661     9.9000
 1950.5000     9.4358   174.8568     2.3873    -0.0187   -53.0069    17.1606     9.5430    10.0842
 1951.0000     9.4160   179.2149     2.3992    -0.0207   -52.8079    15.8009     9.1148    10.2721
 1951.5000     9.4358   182.3850     2.4141    -0.0167   -52.8064    14.9551     9.1153    10.2723
 1952.0000     9.5347   187.9323     2.4231    -0.0167   -52.8049    16.6969     9.1998    10.4633
 1952.5000     9.5941   189.1216     2.4271    -0.0167   -52.6079    16.0958     9.2003    10.6580
 1953.0000     9.5149   189.9156     2.4281    -0.0167   -52.6070    16.3947     9.2005    10.8562
 1953.5000     9.3564   190.3138     2.4251    -0.0167   -52.6055    16.6992     9.2010    10.5613
 1954.0000     9.2375   188.7308     2.4131    -0.0167   -52.8017    15.9510     9.2016    10.1805
 1954.5000     9.1979   187.9403     2.4052    -0.0167   -52.6025    13.6476     9.2020     9.9956
 1955.0000     9.2177   184.3769     2.4062    -0.0167   -52.2036    12.4515     9.2023     9.9960
 1955.5000     9.2572   181.3913     2.4012    -0.0167   -52.0047    16.1002     9.2878    10.0887
 1956.0000     9.2572   180.0227     2.3992    -0.0168   -52.0032    17.1693     9.3739    11.0607
 1956.5000     9.2572   179.2320     2.3962    -0.0148   -51.6068    17.8121     9.7255    11.1634
 1957.0000     9.1977   178.0451     2.3952    -0.0168   -51.6053    17.9771     9.7259    11.4758
 1957.5000     9.1977   174.8773     2.3942    -0.0188   -51.6038    17.4897     9.9984    11.9063
 1958.0000     9.1778   168.9365     2.3892    -0.0267   -51.6023    16.5535     9.9988    12.2397
 1958.5000     9.1778   162.9952     2.3892    -0.0188   -51.0115    17.4913     9.9992    12.3533
 1959.0000     9.2174   157.8461     2.3882    -0.0188   -51.0097    19.1734    10.0922    12.4681
 1959.5000     9.2173   152.3005     2.3952    -0.0188   -51.0091    19.3510    10.0925    12.8173
 1960.0000     9.2569   146.3588     2.4061    -0.0148   -51.0067    19.3519    10.0930    12.8179
 1960.5000     9.2173   142.3976     2.4141    -0.0108   -51.0055    18.3160    10.0933    12.7010
 1961.0000     9.2370   141.2098     2.4310    -0.0109   -51.0041    18.1495    10.0940    11.8011
 1961.5000     9.2568   142.7955     2.4410    -0.0069   -51.2000    17.4961    10.0943    11.6936
 1962.0000     9.2568   145.1737     2.4420    -0.0049   -51.3959    15.9627     9.7305    11.0668
 1962.5000     9.2568   145.9671     2.4370    -0.0109   -51.1941    12.6908     9.4661    10.9660
 1963.0000     9.2765   147.5529     2.4439    -0.0109   -51.3900    13.4097     9.4666    10.9665
 1963.5000     9.2765   147.5539     2.4469    -0.0109   -51.5858    17.4994     9.4671    11.2737
 1964.0000     9.2567   147.5548     2.4489    -0.0109   -51.7817    17.8247     9.3808    11.2742
 1964.5000     9.2566   141.6117     2.4529    -0.0109   -51.9776    17.5010     9.3812    10.7682
 1965.0000     9.2566   138.4423     2.4559    -0.0109   -52.1735    16.8709     9.2958    10.7688
 1965.5000     9.2565   133.2914     2.4629    -0.0109   -52.5668    16.1150     9.2961    10.8687
 1966.0000     9.2565   128.5366     2.4718    -0.0109   -52.5652    15.2524     9.2966    11.0709
 1966.5000     9.2763   126.1594     2.4678    -0.0070   -52.5637    14.0440     9.2971    11.9164
 1967.0000     9.2564   125.3675     2.4708    -0.0070   -52.7596    14.0446     9.2975    11.8076
 1967.5000     9.2564   124.9714     2.4728    -0.0070   -52.7581    15.2545     9.3838    13.0647
 1968.0000     9.2564   123.7830     2.4738    -0.0070   -52.7566    19.5450     9.4710    13.3077
 1968.5000     9.2563   123.7834     2.4738    -0.0110   -52.9524    24.5865     9.4713    13.0659
 1969.0000     9.2167   124.9729     2.4698    -0.0130   -53.1483    17.1901     9.4718    12.8282
 1969.5000     9.2365   128.1444     2.4668    -0.0150   -53.1468    16.1209     9.4723    12.2528
 1970.0000     9.2364   131.3158     2.4648    -0.0170   -53.3426    15.9744     9.4727    11.8110
 1970.5000     9.3157   132.1089     2.4648    -0.0170   -53.3411    15.1193     9.3006    11.5964
 1971.0000     9.3751   134.0914     2.4668    -0.0150   -53.9317    14.3100     9.0481    11.0759
 1971.5000     9.4147   134.8849     2.4698    -0.0150   -53.9301    14.3107     8.8024    10.6766
 1972.0000     9.4345   137.6602     2.4728    -0.0150   -54.1260    14.4433     8.6423    10.4825
 1972.5000     9.4543   139.2465     2.4758    -0.0110   -54.3218    15.1219     8.4077     9.9208
 1973.0000     9.3749   140.4365     2.4797    -0.0051   -54.3203    14.3127     8.1794     9.9210
 1973.5000     9.3155   140.8337     2.4797    -0.0071   -54.3187    14.0530     8.0308     9.7407
 1974.0000     9.3154   140.4380     2.4758    -0.0091   -54.5146    14.1832     7.9576     9.4762
 1974.5000     9.1370   140.0424     2.4767    -0.0091   -54.3157    13.4240     7.9579     9.1346
 1975.0000     9.1964   138.8539     2.4807    -0.0091   -54.5115    12.4743     7.8856     8.9686
 1975.5000     9.2360   137.6653     2.4857    -0.0131   -54.5100    12.9413     7.8860     9.1354
 1976.0000     9.3549   134.8909     2.4887    -0.0151   -54.5085    13.9278     7.8862     9.3913
 1976.5000     9.3351   133.3058     2.4887    -0.0171   -54.7043    14.4493     7.9596     9.6543
 1977.0000     9.2954   130.9276     2.4857    -0.0171   -54.7027    14.4499     7.9599     9.7437
 1977.5000     9.2359   129.7388     2.4817    -0.0191   -54.5039    14.3186     7.9602     9.7442
 1978.0000     9.1962   129.7394     2.4737    -0.0211   -54.6997    13.9304     7.9606     9.7445
 1978.5000     9.1763   130.1364     2.4688    -0.0211   -54.6982    13.6777     7.9609     9.7451
 1979.0000     9.1763   130.9300     2.4678    -0.0231   -54.6966    13.6783     7.9611     9.7456
 1979.5000     9.1366   131.7236     2.4717    -0.0211   -54.8924    13.6789     7.7454     9.6569
 1980.0000     9.1168   131.3277     2.4737    -0.0211   -55.4829    13.8058     7.7455     9.3947
 1980.5000     9.1167   131.3284     2.4777    -0.0191   -54.8894    13.3087     7.7459     9.0560
 1981.0000     9.1167   131.3290     2.4807    -0.0191   -55.0852    13.0672     7.7463     8.9735
 1981.5000     9.1365   131.7262     2.4807    -0.0191   -55.0836    13.1883     7.7465     8.9739
