~VERSION INFORMATION
 VERS.                2.0:   CWLS LOG ASCII STANDARD - VERSION 2.0
 WRAP.                 NO:   ONE LINE PER DEPTH STEP
~WELL INFORMATION
#MNEM.UNIT      DATA TYPE    INFORMATION
#----------   ------------   ------------------------------
 STRT.F          480.0000:   START DEPTH
 STOP.F         4609.5000:   STOP DEPTH
 STEP.F            0.5000:   STEP LENGTH
 NULL.          -999.2500:   NO VALUE
 COMP.   FENNIX & SCISSON:   COMPANY
 WELL. FENNIX NPR-3 "LX" #58-14:   WELL
 FLD .              NPR-3:   FIELD
 LOC .      S14 T38N R78W:   LOCATION
 CNTY.            NATRONA:   COUNTY
 STAT.            WYOMING:   STATE
 CTRY. UNITED STATES OF AMERICA:   COUNTRY
 SRVC.       SCHLUMBERGER:   SERVICE COMPANY
 DATE.        08-MAR-1978:   LOGDATE
 API .     49025105920000:   API NUMBER
~CURVE INFORMATION
#MNEM.UNIT       API CODE    CURVE DESCRIPTION
#----------   ------------   ------------------------------
 DEPT.F                  :   
 SPR .MV     07 010 01 00:   SPONTANEOUS POTENTIAL
 SFL .OHMM   07 220 01 00:   SHALLOW FOCUSED LOG RESISTIVITY
 ILD .OHMM   07 120 46 00:   DEEP INDUCTION RESISTIVITY
 ILM .OHMM   07 120 44 00:   INDUCTION LOG MEDIUM RESISTIVITY
 CALD.IN     45 280 60 00:   CALIPER FROM DENSITY LOG
 GRD .GAPI   45 310 01 00:   GAMMA RAY FROM DENSITY LOG
 CORR.G/C3   45 356 01 00:   DENSITY CORRECTION
 RHOB.G/C3   45 350 01 00:   BULK DENSITY
 NPHI.DEC    42 890 03 00:   NEUTRON POROSITY SANDSTONE
~PARAMETER INFORMATION
#MNEM.UNIT          VALUE    DESCRIPTION
#----------   ------------   ------------------------------
 EKB .F         5320.0000:   Kelly bushing
 EGL .F         5310.0000:   Ground level
 EDF .F            0.0000:   Drilling floor
 TD  .F         4635.0000:   Total depth
 DATE.        08-MAR-1978:   Date logged
 CLNT.            A2DTECH:   Client Code
 SL  . 810' FSL & 1830' FEL:   Surface Location
 PD  .                 GL:   Permanent Datum
 DD  .F              4635:   Depth driller
 DL  .F              4608:   Depth logger
 BLI .F              4607:   Bottom log interval
 DFT .                FGM:   Type fluid in hole
 DFD .                9.1:   Density
 DFV .                 38:   Viscosity
 DFPH.                 11:   pH
 MSS .           FLOWLINE:   Source of sample
 RMS .OHMM           1.53:   Rm
 MST .F                58:   Rm Meas. temp.
 RMF .OHMM           1.06:   Rmf
 MFST.F                58:   Rmf Meas. temp.
 MFSS.               MEAS:   Source Rmf.
 RMB .OHMM           0.68:   Rm. at BHT
 BHT .F               131:   BHT.
 TCS .HRS            0630:   Time Circ. stopped
 MRT .F               131:   Maximum recorded temp.
 LUN .               8039:   Logging unit number
 LUL .               CSPP:   Logging unit location
 ENGI.           PETERSON:   Recorded By
 ORIG.           5" PRINT:   Origin of data
 UWI .     49025105920000:   Unique Well ID
 DICO. A2D TECHNOLOGIES, INC.:   Digitizing Company
 DAPD.                 20:   Feet Above Permanent Datum
 BSD1.               4635:   Depth drilled with bit1
 EPD .               5310:   Elevation Permanent Datum
 LMF .                 KB:   Log Measured From
 DMF .                 KB:   Drilling Measured From
 TLI .                508:   Top log interval
 CS1 .              8.625:   Casing size
 CBL1.                508:   Casing logger 1
 BS1 .              7.875:   Bit size
~OTHER INFORMATION
~A   DEPT      SPR        SFL        ILD        ILM       CALD         GRD      CORR       RHOB         NPHI 
# ...
  516.5000   -69.7770     3.4690     4.0200     3.4350    10.8370    85.2910     0.0080     2.3970     0.4120
  517.0000   -66.5790     3.4990     3.7120     3.4350    10.6950    87.3700     0.0080     2.3920     0.4030
  517.5000   -61.2540     3.4090     3.4060     3.4350    10.5770    88.5610     0.0050     2.3850     0.4120
  518.0000   -65.8640     3.2230     3.1900     3.1070    10.4740    89.8260     0.0030     2.3790     0.4280
  518.5000   -73.5400     2.8760     3.1450     2.7920    10.4890    89.0660     0.0110     2.3770     0.4440
  519.0000   -81.8620     2.4460     3.1080     2.5320    10.5600    84.8450     0.0510     2.3770     0.4370
  519.5000   -79.6440     2.2040     3.0550     2.5320    10.8030    80.2470     0.1320     2.3260     0.4240
  520.0000   -74.9230     2.4630     3.0040     2.6160    11.9050    78.1260     0.1480     2.2190     0.4120
  520.5000   -68.4000     3.0180     2.9630     2.7490    12.6710    80.9170     0.0950     2.1020     0.4050
  521.0000   -73.4780     3.0460     2.9900     2.8290    12.1430    83.5810     0.0430     2.1150     0.4380
  521.5000   -81.1980     2.8190     2.8960     2.6620    11.3620    83.4510     0.0030     2.2150     0.4840
  522.0000   -89.8540     2.5180     2.7370     2.5270    10.7790    81.5720     0.0160     2.3040     0.5120
  522.5000   -82.9640     2.2660     2.5710     2.3960    10.9940    81.1280     0.0590     2.3180     0.5230
  523.0000   -74.3470     2.1930     2.3750     2.2640    11.2740    80.7200     0.1090     2.2870     0.5200
  523.5000   -66.3100     2.1170     2.1790     2.1390    11.5320    79.5090     0.1470     2.2170     0.5160
  524.0000   -67.6260     2.0080     1.9930     2.0090    11.6200    77.6460     0.1170     2.1420     0.5130
  524.5000   -68.5390     1.8150     1.8320     1.7940    11.6130    78.2310     0.0880     2.0920     0.5200
  525.0000   -65.4210     1.5330     1.8840     1.5370    11.6060    79.5560     0.0590     2.1040     0.5470
  525.5000   -63.0070     1.3010     1.9860     1.5370    11.4450    80.6560     0.0350     2.1420     0.5800
  526.0000   -61.8980     1.3750     2.0880     1.5800    11.1870    79.8500     0.0110     2.2050     0.6030
  526.5000   -60.4150     1.8060     2.1910     1.8960    10.9500    77.8300     0.0060     2.2790     0.5860
  527.0000   -58.3030     2.2160     2.2930     2.1890    10.8810    76.6680     0.0130     2.3460     0.5490
  527.5000   -56.2360     2.6540     3.7330     2.4190    10.8330    78.5010     0.0170     2.3750     0.4910
  528.0000   -56.5060     3.0930     3.6850     2.5720    10.8380    82.3260     0.0170     2.3810     0.4470
  528.5000   -57.5010     3.4350     3.5980     2.7250    10.8430    86.1060     0.0170     2.3900     0.4150
  529.0000   -57.5020     3.2590     3.8090     2.8780    10.8480    88.9620     0.0170     2.3980     0.4020
  529.5000   -55.9780     3.1580     4.0130     3.0750    10.8630    88.4370     0.0170     2.4030     0.4030
  530.0000   -53.9640     3.0570     3.9240     3.0320    10.9600    87.5440     0.0160     2.4040     0.3990
  530.5000   -51.8390     2.9560     3.6730     2.9600    11.0550    87.6300     0.0230     2.3900     0.3830
  531.0000   -49.7040     2.8540     3.4230     2.8880    11.1430    90.4990     0.0270     2.3760     0.3850
  531.5000   -47.4940     2.7530     3.2020     2.8160    11.4610    92.9480     0.0140     2.3620     0.3970
  532.0000   -45.8580     2.6520     2.9900     2.7440    12.0090    91.4580     0.0100     2.3510     0.4090
  532.5000   -44.3080     2.5510     2.7620     2.6720    12.1850    90.3940     0.0250     2.3450     0.4210
  533.0000   -41.1950     2.4400     2.5170     2.4780    12.2710    91.4990     0.0790     2.3410     0.4260
  533.5000   -37.4580     2.2300     2.2720     2.2350    12.3390    92.7710     0.1450     2.3410     0.4390
  534.0000   -33.7090     1.9960     2.0270     1.9930    12.5260    94.0280     0.2490     2.3230     0.4570
  534.5000   -31.2280     1.7520     1.8490     1.7500    12.9200    94.9340     0.2470     2.2380     0.4880
  535.0000   -31.5250     1.5090     1.9120     1.5220    13.5910    91.9610     0.2250     2.1230     0.5160
  535.5000   -30.3780     1.2770     1.9920     1.5220    13.7740    88.4560     0.1410     2.0110     0.5410
  536.0000   -28.6580     1.5220     2.0770     1.6560    12.9840    86.5680     0.0590     2.0340     0.5810
  536.5000   -28.6310     2.0500     2.3150     1.9580    12.0730    86.1720     0.0180     2.1230     0.5740
  537.0000   -29.5320     2.5130     3.0710     2.2600    11.6010    87.5980     0.0080     2.2150     0.5490
  537.5000   -30.3510     2.7820     3.8270     2.7050    11.3400    89.7220     0.0100     2.3070     0.4780
  538.0000   -30.8450     3.4270     4.2110     3.0780    11.1810    90.6110     0.0180     2.3690     0.4310
  538.5000   -31.0140     3.9830     4.4080     2.9630    11.1120    89.2990     0.0220     2.3990     0.3880
  539.0000   -31.1940     3.9490     4.6060     3.4640    11.1350    87.8210     0.0230     2.4130     0.3860
  539.5000   -31.4770     3.8740     4.8030     3.8470    11.1590    86.7020     0.0230     2.4270     0.3830
  540.0000   -31.9250     3.9030     4.9690     4.0490    11.1830    85.9170     0.0190     2.4310     0.3760
  540.5000   -32.4410     3.9410     4.9440     4.0900    11.2060    85.3890     0.0090     2.4230     0.3720
  541.0000   -33.5790     3.9830     4.9270     4.0530    11.2300    85.1240     0.0070     2.4110     0.3800
  541.5000   -35.3000     4.1050     5.0410     4.0260    11.2700    84.8590     0.0130     2.4190     0.4010
  542.0000   -37.3870     4.3900     5.1670     4.3630    11.2780    84.1130     0.0220     2.4330     0.4180
  542.5000   -42.9230     4.8300     5.3500     4.6740    11.2860    82.7820     0.0190     2.4420     0.4260
  543.0000   -46.4530     5.2690     5.5330     4.9180    11.2930    82.5470     0.0130     2.4420     0.4200
  543.5000   -49.9150     5.5250     5.7160     5.0720    11.3000    83.4410     0.0070     2.4390     0.4100
  544.0000   -50.6980     5.5570     5.8990     5.1510    11.3070    86.7250     0.0050     2.4320     0.4020
  544.5000   -49.9490     5.3550     6.0390     5.2290    11.3080    89.4430     0.0020     2.4250     0.4030
  545.0000   -49.2350     5.4200     6.0200     5.3080    11.3080    90.9450     0.0020     2.4270     0.4060
  545.5000   -49.3580     5.5050     6.0040     5.3890    11.3080    89.6680     0.0050     2.4380     0.4050
  546.0000   -49.5260     5.4890     5.9880     5.4550    11.3080    87.4590     0.0080     2.4460     0.3970
  546.5000   -49.4730     5.4250     5.9730     5.3920    11.3100    83.7880     0.0080     2.4460     0.3880
  547.0000   -48.6490     5.2650     5.9570     5.2320    11.3150    82.9400     0.0070     2.4390     0.3810
  547.5000   -48.5960     5.1050     5.9410     5.0660    11.3190    85.1260     0.0060     2.4330     0.3750
  548.0000   -49.3800     5.0640     5.9230     5.0750    11.3240    89.9150     0.0070     2.4310     0.3710
  548.5000   -50.1840     5.0590     5.8860     5.0850    11.3280    93.3560     0.0090     2.4310     0.3870
  549.0000   -51.4730     5.0540     5.8490     5.0940    11.3330    93.6240     0.0120     2.4310     0.3880
  549.5000   -52.8550     5.0490     5.8120     5.1040    11.3370    91.8980     0.0150     2.4320     0.3820
  550.0000   -54.2370     5.0440     5.7760     5.1130    11.3420    90.7450     0.0110     2.4290     0.3760
  550.5000   -55.6200     5.0390     5.7390     5.0940    11.3460    88.5600     0.0050     2.4210     0.3730
  551.0000   -56.3080     5.0340     5.7020     5.0760    11.3510    88.2930    -0.0010     2.4100     0.3760
  551.5000   -56.2920     5.0300     5.6650     5.0590    11.3560    87.9850    -0.0060     2.4140     0.3780
  552.0000   -58.1240     5.0250     5.6290     5.0410    11.3600    87.8950    -0.0060     2.4250     0.3760
  552.5000   -61.5750     5.0200     5.5920     5.0240    11.3650    87.9220     0.0080     2.4370     0.3670
