~VERSION INFORMATION
 VERS.                2.0:   CWLS LOG ASCII STANDARD - VERSION 2.0
 WRAP.                 NO:   ONE LINE PER DEPTH STEP
~WELL INFORMATION
#MNEM.UNIT      DATA TYPE    INFORMATION
#----------   ------------   ------------------------------
 STRT.F          200.0000:   START DEPTH
 STOP.F         3060.0000:   STOP DEPTH
 STEP.F            0.5000:   STEP LENGTH
 NULL.          -999.2500:   NO VALUE
 COMP.    FENIX & SCISSON:   COMPANY
 WELL. FENIX & SCISSON NPR "AX" #81-10:   WELL
 FLD .                NPR:   FIELD
 LOC .      S10 T38N R78W:   LOCATION
 CNTY.            NATRONA:   COUNTY
 STAT.            WYOMING:   STATE
 CTRY. UNITED STATES OF AMERICA:   COUNTRY
 SRVC.              WELEX:   SERVICE COMPANY
 DATE.        28-NOV-1977:   LOGDATE
 API .     49025104400000:   API NUMBER
~CURVE INFORMATION
#MNEM.UNIT       API CODE    CURVE DESCRIPTION
#----------   ------------   ------------------------------
 DEPT.F                  :   
 CALD.IN     45 280 60 00:   CALIPER FROM DENSITY LOG
 GRD .GAPI   45 310 01 00:   GAMMA RAY FROM DENSITY LOG
 RHOB.G/C3   45 350 01 00:   BULK DENSITY
 CORR.G/C3   45 356 01 00:   DENSITY CORRECTION
 TEND.LBS    45 635 01 00:   TENSION FROM DENSITY LOG
 NPHI.DEC    42 890 03 00:   NEUTRON POROSITY SANDSTONE
 SPR .MV     07 010 01 00:   SPONTANEOUS POTENTIAL
 IL  .OHMM   07 120 00 00:   INDUCTION LOG RES.
 ASGR.OHMM   07 221 05 00:   AMPLIFIED SHALLOW GUARD
 SNP .DEC    41 890 00 00:   SIDEWALL NEUTRON POROSITY
~PARAMETER INFORMATION
#MNEM.UNIT          VALUE    DESCRIPTION
#----------   ------------   ------------------------------
 EKB .F         5147.0000:   Kelly bushing
 EGL .F         5137.0000:   Ground level
 EDF .F            0.0000:   Drilling floor
 TD  .F         3058.0000:   Total depth
 DATE.        28-NOV-1977:   Date logged
 CLNT.            A2DTECH:   Client Code
 PD  .                 GL:   Permanent Datum
 EPD .F              5137:   Elevation Permanent Datum
 LMF .                 KB:   Log Measured From
 DMF .                 KB:   Drilling Measured From
 DD  .F              3055:   Depth driller
 DL  .F              3058:   Depth logger
 BLI .F              3055:   Bottom log interval
 TLI .F               200:   Top log interval
 CS1 .IN            8.625:   Casing size
 CBD1.      8.625" @ 205':   Casing driller 1
 CBL1.F               215:   Casing logger 1
 BSD1.F              3055:   Depth drilled with bit1
 DFT .            KCL/MUD:   Type fluid in hole
 ENGI.            BENTSEN:   Recorded By
 WITN.         HARRINGTON:   Witnessed by
 ORIG.           5" PRINT:   Origin of data
 UWI .     49025104400000:   Unique Well ID
 DICO. A2D TECHNOLOGIES, INC.:   Digitizing Company
 DAPD.                 10:   Feet Above Permanent Datum
 BS1 .IN            7.875:   Bit size
 DFD .                8.9:   Density
 DFV .                 35:   Viscosity
 MSS .           FLOWLINE:   Source of sample
 RMS .OHMM            .17:   Rm
 MST .F                75:   Rm Meas. temp.
 RMF .OHMM            .12:   Rmf
 MFST.F                75:   Rmf Meas. temp.
 MFSS.               FANN:   Source Rmf.
 RMC .OHMM            .50:   Rmc
 MCST.F                75:   Rmc Meas. temp.
 MCSS.                KIT:   Source Rmc.
 RMB .OHMM           .113:   Rm. at BHT
 BHT .F               113:   BHT.
 TCS .HRS             2.5:   Time Circ. stopped
 MRT .F               113:   Maximum recorded temp.
 LUN .               9685:   Logging unit number
 LUL .             CASPER:   Logging unit location
 SL  . 601' FNL & 200' FEL:   Surface Location
~OTHER INFORMATION
~A   DEPT       CALD      GRD       RHOB       CORR        TEND        NPHI       SPR        IL       ASGR        SNP   
# ...
 1707.5000     9.2920   129.8830     2.5380    -0.0040   984.6610     0.1470   -76.4410     5.3770     5.9730     0.2570
 1708.0000     9.2870   130.1890     2.5400    -0.0040   984.6980     0.1460   -76.4410     5.3770     5.9260     0.2590
 1708.5000     9.2830   130.5220     2.5400    -0.0030   984.7350     0.1460   -76.4410     5.3770     5.9720     0.2600
 1709.0000     9.2790   130.8520     2.5400    -0.0020   984.7720     0.1470   -76.4410     5.3770     6.0180     0.2620
 1709.5000     9.2750   131.1740     2.5400    -0.0010   984.8090     0.1470   -76.4410     5.3770     6.0400     0.2630
 1710.0000     9.2710   131.3380     2.5400     0.0010   984.8450     0.1450   -76.4410     5.3770     6.0410     0.2650
 1710.5000     9.2660   130.6430     2.5410     0.0020   984.8820     0.1420   -76.4410     5.3770     6.0970     0.2660
 1711.0000     9.2620   129.9590     2.5380     0.0030   984.9190     0.1370   -76.4410     5.3770     6.2100     0.2680
 1711.5000     9.2580   129.2760     2.5360     0.0050   984.9560     0.1330   -76.4410     5.3770     6.3280     0.2700
 1712.0000     9.2540   128.5890     2.5340     0.0060   984.9930     0.1350   -76.4410     5.3770     6.3580     0.2710
 1712.5000     9.2500   127.8990     2.5320     0.0070   985.0290     0.1370   -76.4410     5.3770     6.3060     0.2690
 1713.0000     9.2460   128.0590     2.5290     0.0080   985.0660     0.1380   -76.4410     5.3790     6.2520     0.2680
 1713.5000     9.2410   128.2780     2.5270     0.0090   985.1030     0.1380   -76.4410     5.4230     6.1990     0.2660
 1714.0000     9.2370   128.0650     2.5280     0.0100   985.1400     0.1390   -76.4410     5.4670     6.1460     0.2650
 1714.5000     9.2330   127.7820     2.5290     0.0100   985.1770     0.1400   -76.4410     5.5120     6.0930     0.2640
 1715.0000     9.2290   127.4930     2.5290     0.0090   985.2140     0.1400   -76.4160     5.5560     6.0610     0.2610
 1715.5000     9.2250   127.5430     2.5300     0.0060   985.2500     0.1400   -76.3610     5.6010     6.0600     0.2530
 1716.0000     9.2200   128.0670     2.5310     0.0040   985.2870     0.1390   -76.3060     5.6450     6.0600     0.2420
 1716.5000     9.2160   128.5980     2.5320     0.0010   985.3240     0.1390   -76.2480     5.6900     6.0220     0.2320
 1717.0000     9.2120   129.1260     2.5280    -0.0010   985.3610     0.1390   -76.3350     5.7340     5.9580     0.2240
 1717.5000     9.2080   129.6510     2.5250    -0.0040   985.3980     0.1390   -76.4430     5.7780     5.8950     0.2330
 1718.0000     9.2040   130.1770     2.5210    -0.0060   985.4340     0.1390   -76.5520     5.8230     5.8450     0.2400
 1718.5000     9.2000   130.3800     2.5170    -0.0070   985.4710     0.1390   -76.6510     5.8670     5.8860     0.2400
 1719.0000     9.1950   130.4020     2.5140    -0.0100   985.5080     0.1400   -76.6920     5.9180     5.9270     0.2380
 1719.5000     9.1910   131.0300     2.5110    -0.0090   985.5450     0.1400   -76.7350     5.9710     5.9700     0.2370
 1720.0000     9.1870   131.6590     2.5120    -0.0070   985.5820     0.1400   -76.7770     6.0250     5.9460     0.2350
 1720.5000     9.1830   131.7460     2.5180    -0.0050   985.6180     0.1390   -76.8200     6.0780     5.9000     0.2340
 1721.0000     9.1790   131.3500     2.5230    -0.0020   985.6550     0.1380   -76.8070     6.1310     5.8520     0.2320
 1721.5000     9.1740   130.9550     2.5290     0.0000   985.6920     0.1380   -76.7530     6.1850     5.8050     0.2320
 1722.0000     9.1700   130.5610     2.5350     0.0020   985.7290     0.1380   -76.6990     6.2380     5.8030     0.2300
 1722.5000     9.1660   130.1700     2.5370     0.0050   985.7660     0.1380   -76.6440     6.2910     5.8480     0.2280
 1723.0000     9.1620   129.8510     2.5290     0.0070   985.8030     0.1370   -76.5900     6.3450     5.8940     0.2260
 1723.5000     9.1580   129.9770     2.5210     0.0090   985.8390     0.1340   -76.5350     6.3970     5.9390     0.2240
 1724.0000     9.1540   130.1620     2.5130     0.0090   985.8760     0.1310   -76.4810     6.4500     5.9840     0.2200
 1724.5000     9.1490   130.3480     2.5040     0.0090   985.9130     0.1330   -76.4260     6.4310     6.0160     0.2150
 1725.0000     9.1450   130.4240     2.4960     0.0090   985.9500     0.1380   -76.3720     6.3060     5.9890     0.2140
 1725.5000     9.1410   129.3820     2.4880     0.0090   985.9870     0.1430   -76.3170     6.1820     5.9040     0.2170
 1726.0000     9.1370   128.3000     2.4790     0.0090   986.0230     0.1450   -76.2630     6.0560     5.7770     0.2260
 1726.5000     9.1330   127.2200     2.4710     0.0080   986.0600     0.1460   -76.2080     5.8420     5.7980     0.2340
 1727.0000     9.1280   126.1420     2.4620     0.0090   986.0970     0.1480   -76.1540     5.4670     5.7950     0.2410
 1727.5000     9.1240   125.0630     2.4580     0.0060   986.1340     0.1510   -76.0990     5.0940     5.5420     0.2490
 1728.0000     9.1200   123.9850     2.4640     0.0040   986.1710     0.1540   -76.0450     4.7260     4.5620     0.2560
 1728.5000     9.1160   123.2970     2.4790     0.0010   986.2070     0.1540   -75.9900     4.5240     3.6140     0.2630
 1729.0000     9.1140   123.3310     2.4940    -0.0030   986.2440     0.1500   -75.9360     4.7260     4.7930     0.2700
 1729.5000     9.1120   124.1470     2.5090    -0.0030   986.2810     0.1440   -75.8810     4.9150     4.6830     0.2720
 1730.0000     9.1110   125.0230     2.5240    -0.0040   986.3180     0.1360   -75.8270     5.1020     5.3560     0.2580
 1730.5000     9.1090   125.8970     2.5360    -0.0010   986.3550     0.1250   -75.7720     5.2890     6.0520     0.2340
 1731.0000     9.1080   126.4920     2.5400     0.0010   986.3920     0.1250   -75.7180     5.6100     6.1380     0.2150
 1731.5000     9.1070   126.0940     2.5410     0.0030   986.4280     0.1310   -75.6630     5.9200     6.2140     0.2000
 1732.0000     9.1050   125.6780     2.5410     0.0050   986.4650     0.1360   -75.6090     6.2290     6.2910     0.1990
 1732.5000     9.1040   125.3240     2.5420     0.0070   986.5020     0.1390   -75.5540     6.5380     6.3330     0.2160
 1733.0000     9.1020   125.4270     2.5410     0.0090   986.5390     0.1410   -75.5000     6.5250     6.3630     0.2300
 1733.5000     9.1010   126.0740     2.5370     0.0110   986.5760     0.1440   -75.4450     6.4610     6.3390     0.2460
 1734.0000     9.0990   126.7120     2.5330     0.0120   986.6120     0.1450   -75.3910     6.4000     6.3130     0.2640
 1734.5000     9.0980   127.3560     2.5290     0.0130   986.6490     0.1460   -75.3360     6.1770     6.2180     0.2820
 1735.0000     9.0960   127.9940     2.5260     0.0130   986.6860     0.1490   -75.2820     5.9300     6.0590     0.2990
 1735.5000     9.0950   128.0770     2.5220     0.0100   986.7230     0.1490   -75.2270     5.6820     5.8010     0.3140
 1736.0000     9.0940   128.0630     2.5180     0.0090   986.7600     0.1440   -75.1730     5.4340     5.3400     0.3320
 1736.5000     9.0920   127.7640     2.5140     0.0080   986.7960     0.1400   -75.1180     5.3140     5.0750     0.3390
 1737.0000     9.0910   127.4690     2.5110     0.0070   986.8330     0.1360   -75.0640     5.4270     4.9340     0.3120
 1737.5000     9.0890   127.1760     2.5100     0.0060   986.8700     0.1320   -75.0090     5.5350     5.5520     0.2950
 1738.0000     9.0880   126.8830     2.5120     0.0040   986.9070     0.1300   -74.9550     5.6440     6.1110     0.2900
 1738.5000     9.0860   126.5900     2.5170     0.0030   986.9440     0.1300   -74.9000     5.7520     6.3340     0.2910
 1739.0000     9.0850   126.2970     2.5220     0.0020   986.9810     0.1340   -74.8460     5.8620     6.3590     0.2910
 1739.5000     9.0830   126.0010     2.5260     0.0010   987.0170     0.1370   -74.7910     5.9760     6.3280     0.2910
 1740.0000     9.0820   125.8630     2.5310     0.0010   987.0540     0.1360   -74.7370     6.0940     6.3040     0.2930
 1740.5000     9.0800   125.8110     2.5360     0.0030   987.0910     0.1340   -74.6830     6.2170     6.3560     0.2980
