~VERSION INFORMATION
 VERS.                2.0:   CWLS LOG ASCII STANDARD - VERSION 2.0
 WRAP.                 NO:   ONE LINE PER DEPTH STEP
~WELL INFORMATION
#MNEM.UNIT      DATA TYPE    INFORMATION
#----------   ------------   ------------------------------
 STRT.F          387.0000:   START DEPTH
 STOP.F         2921.0000:   STOP DEPTH
 STEP.F            0.5000:   STEP LENGTH
 NULL.          -999.2500:   NO VALUE
 COMP.    FENIX & SCISSON:   COMPANY
 WELL.  FENIX  "A" #21-28:   WELL
 FLD .          N.P.R. #3:   FIELD
 LOC .      S28 T39N R78W:   LOCATION
 CNTY.            NATRONA:   COUNTY
 STAT.            WYOMING:   STATE
 CTRY. UNITED STATES OF AMERICA:   COUNTRY
 SRVC.       SCHLUMBERGER:   SERVICE COMPANY
 DATE.        30-APR-1977:   LOGDATE
 API .     49025103550000:   API NUMBER
~CURVE INFORMATION
#MNEM.UNIT       API CODE    CURVE DESCRIPTION
#----------   ------------   ------------------------------
 DEPT.F                  :   
 SPR .MV     07 010 01 00:   SPONTANEOUS POTENTIAL
 ILD .OHMM   07 120 46 00:   DEEP INDUCTION RESISTIVITY
 ILM .OHMM   07 120 44 00:   INDUCTION LOG MEDIUM RESISTIVITY
 LL8 .OHMM   07 220 08 00:   LATEROLOG-8 RES.
 GRD .GAPI   45 310 01 00:   GAMMA RAY FROM DENSITY LOG
 CALD.IN     45 280 60 00:   CALIPER FROM DENSITY LOG
 CORR.G/C3   45 356 01 00:   DENSITY CORRECTION
 RHOB.G/C3   45 350 01 00:   BULK DENSITY
~PARAMETER INFORMATION
#MNEM.UNIT          VALUE    DESCRIPTION
#----------   ------------   ------------------------------
 EKB .F         4977.0000:   Kelly bushing
 EGL .F         4967.0000:   Ground level
 EDF .F            0.0000:   Drilling floor
 TD  .F         2922.0000:   Total depth
 CLNT.            A2DTECH:   Client Code
 SL  . 330' FNL & 990' FWL:   Surface Location
 DATE.        30-APR-1977:   Date Logged [DD-MMM-YYYY]
 DD  .F              2915:   Depth driller
 DL  .F              2922:   Depth logger
 BLI .F              2916:   Bottom log interval
 TLI .F               394:   Top log interval
 CS1 .              8.625:   Casing size
 CBD1.      8.625" @ 390':   Casing driller 1
 CBL1.IN              394:   Casing logger 1
 BS1 .IN            7.875:   Bit size
 BSD1.F              2915:   Depth drilled with bit1
 DFT .            KCL MUD:   Type fluid in hole
 DFD .                8.9:   Density
 DFV .                 87:   Viscosity
 DFPH.                8.5:   pH
 DFL .                9.6:   Fluid loss
 MSS .                PIT:   Source of sample
 RMS .OHMM           0.25:   Rm
 MST .F                70:   Rm Meas. temp.
 RMF .OHMM           0.22:   Rmf
 MFST.F                70:   Rmf Meas. temp.
 MFSS.               MEAS:   Source Rmf.
 RMC .OHMM           0.38:   Rmc
 MCST.F                70:   Rmc Meas. temp.
 MCSS.               CALC:   Source Rmc.
 RMB .OHMM           0.09:   Rm. at BHT
 BHT .F               109:   BHT.
 TCS .HRS            1800:   Time Circ. stopped
 TLAB.HRS            2200:   Time logger at bottom
 MRT .F               109:   Maximum recorded temp.
 LUN .                711:   Logging unit number
 LUL .             CASPER:   Logging unit location
 ENGI.              SYLER:   Recorded By
 WITN.         PETTINGILL:   Witnessed by
 ORIG.           5" PRINT:   Origin of data
 UWI .     49025103550000:   Unique Well ID
 DICO. A2D TECHNOLOGIES, INC.:   Digitizing Company
 PD  .                 GL:   Permanent Datum
 EPD .F              4967:   Elevation Permanent Datum
 LMF .                 KB:   Log Measured From
 DMF .                 KB:   Drilling Measured From
 DAPD.F                10:   Feet Above Permanent Datum
~OTHER INFORMATION
~A   DEPT      SPR        ILD        ILM        LL8         GRD      CALD       CORR       RHOB   
# ...
 1723.5000   -14.5015     9.5497     9.6843    11.1110   140.4724     8.6137     0.0149     2.5050
 1724.0000   -14.6526     9.5516     9.6152    11.3253   142.8753     8.6134     0.0133     2.5010
 1724.5000   -14.6526     9.5536     9.5467    11.2491   147.2242     8.6131     0.0086     2.4956
 1725.0000   -14.6526     9.4240     9.5447    11.0199   148.8785     8.6128     0.0039     2.4894
 1725.5000   -14.6526     9.2956     9.5427    10.7959   149.6346     8.6124     0.0069     2.4872
 1726.0000   -14.6526     9.1699     9.4747    10.7231   149.7904     8.6276     0.0100     2.4941
 1726.5000   -14.6526     9.0455     9.4072    10.5776   149.7979     8.6273     0.0122     2.5081
 1727.0000   -14.5015     8.9227     9.4035    10.4347   149.9651     8.6270     0.0145     2.5158
 1727.5000   -14.5015     8.8012     9.2093    10.4369   150.5614     8.6267     0.0168     2.5112
 1728.0000   -14.6526     8.6822     9.1437    10.3664   149.5211     8.6420     0.0144     2.4949
 1728.5000   -14.6526     8.5639     9.0785    10.3691   147.5826     8.6416     0.0120     2.4855
 1729.0000   -14.6526     8.5065     8.8861    10.3713   146.0932     8.6570     0.0197     2.4910
 1729.5000   -14.6526     8.3915     8.6370    10.0898   144.1547     8.6410     0.0266     2.5018
 1730.0000   -14.6526     8.2776     8.3434     9.6809   147.5479     8.6407     0.0297     2.5041
 1730.5000   -14.6526     8.2217     8.2304     9.5491   149.4221     8.6404     0.0304     2.4956
 1731.0000   -14.6526     8.1666     8.3438     9.5516   147.2590     8.6245     0.0265     2.4932
 1731.5000   -14.5015     8.1118     8.4638     9.7543   142.3009     8.6242     0.0171     2.4816
 1732.0000   -14.5015     8.1704     8.6351     9.8925   142.6223     8.6239     0.0124     2.4746
 1732.5000   -14.5015     8.2290     8.6934    10.2434   147.9127     8.6081     0.0116     2.4784
 1733.0000   -14.5015     8.4037     8.6916    10.4608   149.9422     8.6233     0.0123     2.4838
 1733.5000   -14.5015     8.5229     8.6898    10.4629   148.2450     8.6230     0.0130     2.4885
 1734.0000   -14.5015     8.5840     8.6880    10.3923   143.4422     8.6227     0.0138     2.4923
 1734.5000   -14.5015     8.7057     8.7468    10.7615   141.2791     8.6224     0.0238     2.4970
 1735.0000   -14.5015     8.7075     8.8140    10.8386   140.9794     8.6221     0.0175     2.4892
 1735.5000   -14.6526     8.7699     8.8740    10.7654   140.8350     8.6373     0.0113     2.4845
 1736.0000   -14.6526     8.7719     8.9344    10.7682   140.3800     8.6370     0.0089     2.4869
 1736.5000   -14.8036     8.7737     9.0483    10.7704   139.9223     8.6367     0.0065     2.4923
 1737.0000   -14.6526     8.7755     9.1095    10.8476   140.0912     8.6364     0.0041     2.4907
 1737.5000   -14.5015     8.7773     9.1075    10.8498   141.3443     8.6516     0.0072     2.4853
 1738.0000   -14.3505     8.8403     9.1056    10.8521   143.2185     8.6513     0.0126     2.4790
 1738.5000   -14.1994     8.8421     9.1037    10.7792   144.1611     8.6666     0.0094     2.4806
 1739.0000   -14.0483     8.8439     9.1018    10.7815   144.6350     8.6663     0.0086     2.4844
 1739.5000   -13.8973     8.8458     9.0877    10.7092   141.5430     8.6659     0.0093     2.4914
 1740.0000   -13.8973     8.8476     9.0347    10.7115   139.5352     8.6656     0.0131     2.4976
 1740.5000   -14.0483     8.8494     9.0328    10.7137   139.0776     8.6653     0.0216     2.5115
 1741.0000   -14.0483     8.8513     9.0309    10.7159   140.6439     8.6650     0.0355     2.5325
 1741.5000   -13.8973     8.8531     9.0291    10.7182   140.9730     8.6647     0.0455     2.5239
 1742.0000   -14.0483     8.8549     9.0272    10.7204   140.9668     8.6644     0.0400     2.5193
 1742.5000   -14.3505     8.8568     9.0253    10.6484   141.6073     8.6640     0.0369     2.5231
 1743.0000   -14.5015     8.8586     9.0868    10.6508   144.1026     8.6637     0.0329     2.5332
 1743.5000   -14.6526     8.8605     9.0844    10.5791   147.2191     8.6634     0.0290     2.5316
 1744.0000   -14.6526     8.8623     9.0825    10.5819   148.3169     8.6631     0.0251     2.5200
 1744.5000   -14.6526     8.8641     9.0807    10.5840   147.0855     8.6628     0.0204     2.5037
 1745.0000   -14.8036     8.8660     9.1425    10.6599   146.0094     8.6625     0.0126     2.5002
 1745.5000   -14.8036     8.8678     9.1401    10.7362   146.0203     8.6466     0.0063     2.5098
 1746.0000   -14.8036     8.8697     9.0750    10.9640   144.9442     8.6463     0.0109     2.5036
 1746.5000   -14.8036     8.7493     8.9479    11.1967   142.0047     8.6460     0.0170     2.4982
 1747.0000   -14.8036     8.5709     8.7616    11.1990   139.8417     8.6457     0.0201     2.4943
 1747.5000   -14.8036     8.4546     8.5791    10.8951   137.5233     8.6454     0.0193     2.4935
 1748.0000   -14.8036     8.2822     8.3423     9.6862   134.8945     8.6451     0.0184     2.4950
 1748.5000   -14.8036     8.1694     8.1686     9.0396   133.5078     8.6604     0.0269     2.5012
 1749.0000   -14.6526     8.1146     8.1103     9.1676   131.6553     8.6600     0.0299     2.5090
 1749.5000   -14.6526     8.1167     8.0525     9.4273   130.4239     8.6753     0.0369     2.5105
 1750.0000   -14.6526     8.1119     7.9400     8.8590   131.8323     8.6749     0.0438     2.5058
 1750.5000   -14.5015     8.0752     8.0507     8.4399   134.9506     8.6903     0.0329     2.4949
 1751.0000   -14.5015     8.1760     8.2768    10.6096   137.9145     8.7055     0.0220     2.4871
 1751.5000   -14.5015     8.3484     8.4505    11.2150   140.2531     8.7207     0.0002     2.4761
 1752.0000   -14.5015     8.5839     8.5682    10.9093   141.0372     8.7120     0.0048     2.4646
 1752.5000   -14.5015     8.7649     8.6873    10.6118   141.2034     8.7047     0.0133     2.4815
 1753.0000   -14.5015     8.8266     8.6867    10.4662   140.8974     8.6974     0.0156     2.4923
 1753.5000   -14.5015     8.8272     8.6260    10.3947   139.3472     8.6901     0.0178     2.4893
 1754.0000   -14.5015     8.7666     8.5657    10.6140   138.4426     8.6829     0.0178     2.4807
 1754.5000   -14.3505     8.7068     8.4469    10.6883   139.3852     8.6756     0.0145     2.4784
 1755.0000   -14.3505     8.6472     8.3298    10.4693   141.5701     8.6683     0.0098     2.4909
 1755.5000   -14.3505     8.6478     8.3293    10.2544   140.6493     8.6610     0.0021     2.4878
 1756.0000   -14.1994     8.5885     8.3287    10.1140   137.0889     8.6568     0.0029     2.4800
 1756.5000   -14.1994     8.5892     8.3281     9.9755   135.8576     8.6587     0.0130     2.4870
 1757.0000   -14.1994     8.6496     8.5029     9.9073   135.0921     8.6604     0.0215     2.4839
 1757.5000   -14.1994     8.7105     8.6813     9.9770   133.0817     8.6621     0.0138     2.4832
 1758.0000   -14.1994     8.7716     8.8635    10.3295   135.8781     8.6638     0.0146     2.4925
 1758.5000   -14.1994     8.8333     8.9869    10.7688   138.3257     8.6655     0.0224     2.5018
 1759.0000   -14.0483     8.8339     9.0489    10.7696   140.9572     8.6672     0.0263     2.5003
 1759.5000   -14.1994     8.8345     9.0483    10.7703   142.3171     8.6689     0.0247     2.4956
 1760.0000   -14.3505     8.8351     9.0476    10.7711   143.2400     8.6706     0.0216     2.4982
 1760.5000   -14.3505     8.7745     8.9844    10.5502   144.8046     8.6722     0.0162     2.5011
 1761.0000   -14.3505     8.6543     8.8598    10.3338   145.2702     8.6739     0.0131     2.4987
 1761.5000   -14.3505     8.5950     8.6165    10.1923   143.7283     8.6756     0.0124     2.4910
 1762.0000   -14.3505     8.5363     8.4970    10.0527   140.1678     8.6773     0.0108     2.4855
 1762.5000   -14.3505     8.4779     8.3212     9.9839   138.3154     8.6790     0.0109     2.4833
 1763.0000   -14.3505     8.4200     8.3206     9.9157   138.1532     8.6807     0.0116     2.4880
 1763.5000   -14.3505     8.4206     8.2624     9.9163   139.2690     8.6824     0.0132     2.4965
