~VERSION INFORMATION
 VERS.                2.0:   CWLS LOG ASCII STANDARD - VERSION 2.0
 WRAP.                 NO:   ONE LINE PER DEPTH STEP
~WELL INFORMATION
#MNEM.UNIT      DATA TYPE    INFORMATION
#----------   ------------   ------------------------------
 STRT.F          148.0000:   START DEPTH
 STOP.F         3394.0000:   STOP DEPTH
 STEP.F            0.5000:   STEP LENGTH
 NULL.          -999.2500:   NO VALUE
 COMP.    FENIX & SCISSON:   COMPANY
 WELL.  FENIX "AX" #28-10:   WELL
 FLD .        TEAPOT DOME:   FIELD
 LOC .      S10 T38N R78W:   LOCATION
 CNTY.            NATRONA:   COUNTY
 STAT.            WYOMING:   STATE
 CTRY. UNITED STATES OF AMERICA:   COUNTRY
 SRVC.       SCHLUMBERGER:   SERVICE COMPANY
 DATE.        03-MAR-1981:   LOGDATE
 API .     49025108680000:   API NUMBER
~CURVE INFORMATION
#MNEM.UNIT       API CODE    CURVE DESCRIPTION
#----------   ------------   ------------------------------
 DEPT.F                  :   
 SFL .OHMM   07 220 01 00:   SHALLOW FOCUSED LOG RESISTIVITY
 ILD .OHMM   07 120 46 00:   INDUCTION LOG DEEP RESISTIVITY
 ILM .OHMM   07 120 44 00:   INDUCTION LOG MEDIUM RESISTIVITY
 TENR.LBS    07 635 01 00:   TENSION
 SPR .MV     07 010 01 00:   SPONTANEOUS POTENTIAL
 CALD.IN     45 280 60 00:   CALIPER FROM DENSITY LOG
 GRD .GAPI   45 310 01 00:   GAMMA RAY FROM DENSITY LOG
 TEND.LBS    45 635 01 00:   TENSION FROM DENSITY LOG
 CORR.G/C3   45 356 01 00:   DENSITY CORRECTION
 RHOB.G/C3   45 350 01 00:   BULK DENSITY
~PARAMETER INFORMATION
#MNEM.UNIT          VALUE    DESCRIPTION
#----------   ------------   ------------------------------
 EKB .F         5241.0000:   Kelly bushing
 EGL .F         5231.0000:   Ground level
 EDF .F            0.0000:   Drilling floor
 TD  .F         3381.0000:   Total depth
 DATE.        03-MAR-1981:   Date logged
 CLNT.            A2DTECH:   Client Code
 SL  . 640' FSL & 720' FWL:   Surface Location
 PD  .                 GL:   Permanent Datum
 EPD .F              5231:   Elevation Permanent Datum
 LMF .                 KB:   Log Measured From
 DMF .                 KB:   Drilling Measured From
 DAPD.F                10:   Feet Above Permanent Datum
 DD  .F              3361:   Depth driller
 DL  .F              3381:   Depth logger
 BLI .F              3375:   Bottom log interval
 TLI .F               233:   Top log interval
 CS1 .IN            8.625:   Casing size
 CBD1.      8.625" @ 224':   Casing driller 1
 CBL1.F               233:   Casing logger 1
 BS1 .IN            7.875:   Bit size
 BSD1.F              3361:   Depth drilled with bit1
 DFT .           CHEM/GEL:   Type fluid in hole
 DFD .                  9:   Density
 DFV .                 40:   Viscosity
 DFPH.                8.5:   pH
 DFL .                 11:   Fluid loss
 MSS .           MUD/TANK:   Source of sample
 RMS .OHMM           2.52:   Rm
 MST .F                66:   Rm Meas. temp.
 RMF .OHMM            1.8:   Rmf
 MFST.F                67:   Rmf Meas. temp.
 MFSS.               MEAS:   Source Rmf.
 RMB .OHMM           1.47:   Rm. at BHT
 BHT .F               118:   BHT.
 TCS .HRS            0500:   Time Circ. stopped
 TLAB.HRS            0830:   Time logger at bottom
 MRT .F               118:   Maximum recorded temp.
 LUN .               8035:   Logging unit number
 LUL .               CSPR:   Logging unit location
 ENGI.            BEATTLE:   Recorded By
 WITN.              FIVAS:   Witnessed by
 ORIG.           5" PRINT:   Origin of data
 UWI .     49025108680000:   Unique Well ID
 DICO. A2D TECHNOLOGIES, INC.:   Digitizing Company
~OTHER INFORMATION
~A   DEPT      SFL        ILD        ILM       TENR        SPR         CALD       GRD      TEND       CORR       RHOB   
# ...
 3129.5000    16.7410    11.2410    11.2180   717.6350   -21.1890     8.3950    97.2710   751.2160     0.0090     2.5710
 3130.0000    16.4310    11.7310    11.9520   717.7790   -21.0580     8.3900   102.1300   751.3850     0.0230     2.5840
 3130.5000    15.7940    11.7310    11.9520   717.9230   -20.9390     8.3970   106.9330   751.5550     0.0360     2.5930
 3131.0000    15.2630    11.5540    11.6510   718.0670   -20.8230     8.4040   111.9350   751.7240     0.0360     2.5870
 3131.5000    14.7330    11.3780    11.5190   718.2100   -20.6980     8.4110   114.7250   751.8940     0.0270     2.5760
 3132.0000    14.2020    11.2020    11.3870   718.3540   -20.5850     8.4180   114.3590   752.0640     0.0190     2.5640
 3132.5000    13.8580    11.0250    11.2550   718.4980   -20.4570     8.4250   112.0830   752.2330     0.0100     2.5610
 3133.0000    13.7930    10.8840    11.1220   718.6420   -20.5090     8.4320   109.4720   752.4030     0.0090     2.5670
 3133.5000    13.7290    10.7830    10.9900   718.7850   -20.5780     8.4390   108.8510   752.5720     0.0080     2.5730
 3134.0000    13.6640    10.6820    10.8840   718.9290   -20.6540     8.4460   110.0080   752.7420     0.0070     2.5760
 3134.5000    13.6260    11.1350    11.2760   719.0730   -20.7260     8.4530   110.8100   752.9120     0.0080     2.5760
 3135.0000    13.6260    11.5120    11.7660   719.2160   -20.7970     8.4600   110.1270   753.0120     0.0100     2.5770
 3135.5000    13.8830    11.8890    12.2550   719.3600   -20.8520     8.4670   107.3700   753.0120     0.0120     2.5770
 3136.0000    14.8240    12.2660    12.7450   719.5040   -20.8630     8.4750   104.5530   753.0120     0.0110     2.5770
 3136.5000    18.3840    12.6430    13.2340   719.6480   -21.0610     8.4820    96.8140   753.0120     0.0030     2.5790
 3137.0000    22.5880    13.1250    13.6260   719.7910   -21.2450     8.4890    91.1900   753.0120     0.0040     2.5850
 3137.5000    21.8970    13.1250    13.6260   719.9350   -21.4400     8.4960    93.8230   753.0120     0.0080     2.5930
 3138.0000    20.1680    12.8840    13.3730   720.0790   -21.6290     8.5030   100.9280   753.0120     0.0130     2.5940
 3138.5000    18.4400    12.6430    13.3730   720.2220   -21.8180     8.5090   107.0720   753.0120     0.0120     2.5810
 3139.0000    17.0580    11.9520    13.1250   720.3660   -22.0100     8.5200   108.7520   753.0120     0.0040     2.5650
 3139.5000    17.0580    11.3330    12.1360   720.5100   -22.1080     8.5410   110.6990   753.0120    -0.0020     2.5590
 3140.0000    17.0580    10.5590    11.3110   720.6540   -22.1620     8.5610   112.5920   753.0120     0.0110     2.5710
 3140.5000    15.8100     9.7850    10.4860   720.7970   -22.2170     8.5800   120.8430   753.0120     0.0230     2.5950
 3141.0000    12.6910     9.0110     9.6620   720.9410   -22.2760     8.6000   127.2730   753.0120     0.0360     2.6090
 3141.5000     9.5720     8.2370     8.8370   721.0850   -22.3310     8.6210   130.3250   753.0120     0.0350     2.5930
 3142.0000     7.0760     7.4620     8.0120   721.2290   -22.3840     8.6300   129.4990   753.0120     0.0290     2.5730
 3142.5000     6.8160     6.6880     7.1880   721.3720   -22.4560     8.6050   130.3600   753.0120     0.0230     2.5530
 3143.0000     6.7270     5.7590     6.3630   721.5450   -22.3470     8.5830   136.0080   753.0120     0.0170     2.5510
 3143.5000     6.6370     5.6450     5.8120   721.3230   -22.0770     8.5590   142.7100   753.0120     0.0170     2.5490
 3144.0000     6.5660     5.5020     5.6700   721.0470   -21.8090     8.5370   146.0740   753.0120     0.0170     2.5440
 3144.5000     6.2860     5.3590     5.5280   720.7700   -21.6110     8.5130   151.3110   753.0120     0.0170     2.5390
 3145.0000     5.9350     5.2450     5.3860   720.4930   -21.5250     8.4900   152.4660   753.0120     0.0150     2.5290
 3145.5000     5.4450     5.1480     5.2450   720.2170   -21.4230     8.4730   149.0790   753.0120     0.0120     2.5250
 3146.0000     6.2490     5.0520     5.6050   719.9400   -21.3050     8.5020   135.9680   748.2430     0.0090     2.5300
 3146.5000     7.5890     5.5630     6.2040   719.6630   -21.3300     8.5270   127.1390   742.0930     0.0070     2.5380
 3147.0000     9.3700     6.0360     6.4440   719.3870   -21.5700     8.5550   124.5310   735.9440     0.0060     2.5470
 3147.5000     9.1970     6.1440     6.5210   719.1100   -21.7870     8.5820   126.0930   733.0300     0.0060     2.5470
 3148.0000     9.3700     6.2730     6.6180   718.8330   -22.0120     8.5910   130.4150   733.2220     0.0050     2.5470
 3148.5000     9.1350     6.4020     6.7140   718.5570   -22.0470     8.5900   136.1930   733.4140     0.0100     2.5480
 3149.0000     8.5460     6.5320     6.8100   718.2800   -22.0160     8.5900   141.2680   733.6060     0.0120     2.5510
 3149.5000     7.9560     6.6610     6.9070   718.0040   -21.9880     8.5910   143.8740   733.7980     0.0090     2.5530
 3150.0000     7.4850     6.8160     6.9450   717.7270   -21.9620     8.5900   142.1260   733.9900     0.0050     2.5550
 3150.5000     7.2100     6.7490     6.8300   717.4500   -21.9340     8.5900   140.6350   734.1830     0.0060     2.5570
 3151.0000     7.7060     6.6650     6.7350   717.1740   -21.9070     8.5790   137.1820   734.3750     0.0070     2.5590
 3151.5000     8.2070     6.5810     6.6390   716.8970   -21.8800     8.5680   133.5340   734.5670     0.0090     2.5560
 3152.0000     8.7070     6.4440     6.5440   716.6200   -21.8520     8.5570   132.5990   734.7590     0.0090     2.5520
 3152.5000     9.0260     6.4960     6.4440   716.3440   -21.8250     8.5460   135.9810   734.9510     0.0090     2.5490
 3153.0000     8.5820     6.6380     6.6550   716.0670   -21.7980     8.5350   138.6130   735.1430     0.0090     2.5480
 3153.5000     8.1190     6.7810     6.8740   715.7900   -21.7700     8.5240   140.1520   735.3350     0.0090     2.5510
 3154.0000     7.3460     6.9230     7.0930   715.5140   -21.7430     8.5130   134.0010   735.5280     0.0090     2.5610
 3154.5000     7.7730     7.0760     7.3130   715.2370   -21.7150     8.5000   122.8030   735.7200     0.0110     2.5760
 3155.0000     9.0650     6.8420     7.5320   714.9600   -21.6900     8.4710   112.4650   735.9120     0.0160     2.5900
 3155.5000    10.3570     6.5660     7.9180   714.6840   -21.6590     8.4400   109.4230   736.1040     0.0220     2.6040
 3156.0000    11.9520     6.6900     7.5690   714.4070   -21.6590     8.4470   118.2560   736.2960     0.0210     2.6000
 3156.5000    10.9510     5.9790     6.8820   714.1300   -21.5120     8.4880   128.9120   736.4880     0.0150     2.5830
 3157.0000     9.5230     6.0350     5.9790   713.8540   -21.3060     8.5280   145.2130   736.6800     0.0090     2.5650
 3157.5000     8.0950     6.2070     6.0070   713.5770   -21.1080     8.5540   153.8400   736.8730     0.0090     2.5580
 3158.0000     7.1100     6.1320     6.0470   713.3000   -20.9060     8.5590   155.8240   737.0650     0.0150     2.5510
 3158.5000     6.8920     5.9730     6.0920   713.0240   -20.9020     8.5670   151.8280   737.2570     0.0210     2.5530
 3159.0000     6.8130     5.8140     5.9750   712.7470   -20.9860     8.5740   150.7880   737.4490     0.0240     2.5540
 3159.5000     6.6900     5.7100     5.8380   712.4700   -21.0630     8.5810   150.1890   737.6410     0.0160     2.5490
 3160.0000     6.7180     5.6350     5.7020   712.1940   -21.1370     8.5880   149.3990   737.8330     0.0100     2.5350
 3160.5000     6.7810     5.5480     5.5480   711.9170   -21.2250     8.5830   147.3720   738.0250     0.0030     2.5220
 3161.0000     6.8450     5.6010     5.5990   711.6400   -21.2110     8.5730   148.9190   738.2170    -0.0050     2.5120
 3161.5000     6.9080     5.6650     5.7200   711.3640   -21.1000     8.5630   152.4120   738.4100    -0.0070     2.5210
 3162.0000     6.9450     5.7300     5.8400   711.0870   -21.0020     8.5530   155.1520   738.6020    -0.0030     2.5280
 3162.5000     7.0760     5.7940     5.9600   710.8100   -20.9020     8.5430   150.0280   738.7940     0.0020     2.5370
