~VERSION INFORMATION
 VERS.                2.0:   CWLS LOG ASCII STANDARD - VERSION 2.0
 WRAP.                 NO:   ONE LINE PER DEPTH STEP
~WELL INFORMATION
#MNEM.UNIT      DATA TYPE    INFORMATION
#----------   ------------   ------------------------------
 STRT.F            0.0000:   START DEPTH
 STOP.F         3474.0000:   STOP DEPTH
 STEP.F            0.5000:   STEP LENGTH
 NULL.          -999.2500:   NO VALUE
 COMP. LAWRENCE ALLISON & ASSOCIATES:   COMPANY
 WELL. LAWRENCE ALLISON #13-AX-14:   WELL
 FLD .            WILDCAT:   FIELD
 LOC .      S14 T38N R78W:   LOCATION
 CNTY.            NATRONA:   COUNTY
 STAT.            WYOMING:   STATE
 CTRY. UNITED STATES OF AMERICA:   COUNTRY
 SRVC.      DRESSER ATLAS:   SERVICE COMPANY
 DATE.        31-MAR-1986:   LOGDATE
 API .     49025110640000:   API NUMBER
~CURVE INFORMATION
#MNEM.UNIT       API CODE    CURVE DESCRIPTION
#----------   ------------   ------------------------------
 DEPT.F                  :   
 TEND.LBS    45 635 01 00:   TENSION FROM DENSITY LOG
 RHOB.G/C3   45 350 01 00:   BULK DENSITY
 CORR.G/C3   45 356 01 00:   DENSITY CORRECTION
 CALD.IN     45 280 60 00:   CALIPER FROM DENSITY LOG
 NPHI.DEC    42 890 00 00:   NEUTRON POROSITY
 TENR.LBS    07 635 01 00:   TENSION FROM RESISTIVITY
 RFOC.OHMM   07 220 01 00:   RESISTIVITY FOCUSED LOG RES.
 RILD.OHMM   07 120 46 00:   DEEP INDUCTION RESISTIVITY
 RILM.OHMM   07 120 44 00:   INDUCTION LOG MEDIUM RESISTIVITY
 GRR .GAPI   07 310 01 00:   GAMMA RAY FROM RESISTIVITY
 SPR .MV     07 010 01 00:   SPONTANEOUS POTENTIAL
 TENS.LBS    60 635 01 00:   TENSION FROM SONIC LOG
 DT  .US/F   60 520 00 00:   DELTA TIME
~PARAMETER INFORMATION
#MNEM.UNIT          VALUE    DESCRIPTION
#----------   ------------   ------------------------------
 EKB .F         5251.0000:   Kelly bushing
 EGL .F         5239.2000:   Ground level
 EDF .F         5248.1000:   Drilling floor
 TD  .F         3456.0000:   Total depth
 DATE.        31-MAR-1986:   Date logged
 CLNT.            A2DTECH:   Client Code
 SL  . 238' FWL & 1739' FNL:   Surface Location
 PD  .                 GL:   Permanent Datum
 EPD .F            5239.2:   Elevation Permanent Datum
 LMF .                 KB:   Log Measured From
 DMF .                 KB:   Drilling Measured From
 DAPD.F              11.8:   Feet Above Permanent Datum
 DD  .F              3450:   Depth driller
 DL  .F              3456:   Depth logger
 BLI .F              3450:   Bottom log interval
 CS1 .IN            8.625:   Casing size
 CBD1.      8.625" @ 689':   Casing driller 1
 CBL1.F               692:   Casing logger 1
 BS1 .IN            7.875:   Bit size
 BSD1.F              3450:   Depth drilled with bit1
 DFT .        POLYMER/KCL:   Type fluid in hole
 DFD .                9.1:   Density
 DFV .                 38:   Viscosity
 DFPH.                8.5:   pH
 DFL .               11.2:   Fluid loss
 MSS .           FLOWLINE:   Source of sample
 RMS .OHMM            .29:   Rm
 MST .F                65:   Rm Meas. temp.
 RMF .OHMM           .235:   Rmf
 MFST.F                65:   Rmf Meas. temp.
 RMC .OHMM           .378:   Rmc
 MCST.F                65:   Rmc Meas. temp.
 MFSS.               MEAS:   Source Rmf.
 MCSS.               MEAS:   Source Rmc.
 RMB .OHMM           .163:   Rm. at BHT
 BHT .F               115:   BHT.
 TCS .HRS               3:   Time Circ. stopped
 MRT .F               115:   Maximum recorded temp.
 LUN .            HL-6274:   Logging unit number
 LUL .           GILLETTE:   Logging unit location
 ENGI.             RAUTIO:   Recorded By
 WITN.             STRONG:   Witnessed by
 ORIG.           5" PRINT:   Origin of data
 UWI .     49025110640000:   Unique Well ID
 DICO. A2D TECHNOLOGIES, INC.:   Digitizing Company
~OTHER INFORMATION
~A    DEPT    TEND       RHOB       CORR       CALD       NPHI       TENR       RFOC       RILD       RILM          GRR      SPR       TENS         DT   
# ...
 3146.0000   -84.8350     2.2770     0.0170     7.9870     0.2750   -74.4730     7.3740     8.8710     9.1380    53.8130   -16.0300   -59.5100    82.6400
 3146.5000   -84.8350     2.2850     0.0170     7.9900     0.2560   -74.4730     7.8130     8.7890     9.3600    54.2240   -16.1800   -54.6050    84.2340
 3147.0000   -84.8350     2.2970     0.0210     7.9880     0.2340   -74.4730     8.3250     9.2900     9.7300    50.3500   -17.0590   -49.7000    84.2940
 3147.5000   -84.8350     2.3180     0.0270     7.9850     0.2090   -74.4730     8.7890     9.9110    10.4760    47.3750   -18.0260   -44.7950    83.0930
 3148.0000   -84.2210     2.3550     0.0320     7.9820     0.1830   -74.4730     9.3850    11.1760    13.5950    46.6330   -19.0040   -42.1560    81.8920
 3148.5000   -83.5890     2.4160     0.0190     7.9790     0.1580   -74.4730    11.4270    13.3260    18.1990    50.4090   -19.9790   -37.6970    79.0660
 3149.0000   -82.9560     2.4910     0.0050     7.9760     0.1360   -74.4730    14.7450    15.7830    22.8030    55.1020   -20.9510   -34.7850    74.6300
 3149.5000   -82.3230     2.5730     0.0020     7.9730     0.1350   -74.4730    29.7130    18.2400    24.9640    57.0220   -21.9270   -34.7850    70.1950
 3150.0000   -81.6910     2.5480     0.0000     7.9710     0.1380   -74.4730    45.6570    20.9450    24.2210    55.8930   -22.4120   -34.7850    65.7600
 3150.5000   -81.0580     2.4660     0.0040     7.9680     0.1620   -74.4730    53.7420    20.6390    22.1930    54.0970   -22.0650   -34.7850    62.9730
 3151.0000   -80.4250     2.3860     0.0080     7.9640     0.2050   -74.4730    38.0360    20.2990    18.7690    52.8410   -21.5750   -34.7850    64.0940
 3151.5000   -79.7930     2.3230     0.0110     7.9610     0.2400   -75.0830    25.8610    19.0710    16.0280    54.0920   -20.5650   -45.1620    67.9570
 3152.0000   -79.1600     2.2890     0.0070     7.9580     0.2520   -75.6520    13.6860    17.0720    14.0730    55.7240   -19.5820   -54.8050    73.6850
 3152.5000   -78.5270     2.2710     0.0020     7.9550     0.2560   -76.2200     9.2900    15.0720    12.1180    55.7710   -19.0310   -54.8050    79.5900
 3153.0000   -77.8950     2.2720     0.0040     7.9510     0.2580   -76.7880     9.3170    13.0720    10.9970    54.5190   -19.0250   -54.8050    82.0650
 3153.5000   -77.2620     2.2800     0.0190     7.9550     0.2590   -77.3570     9.4400    11.0730    10.3780    52.9790   -18.9910   -53.8100    83.0930
 3154.0000   -76.6290     2.2960     0.0340     7.9600     0.2570   -77.9250     9.5640    10.5560     9.9110    53.1450   -19.7980   -50.7630    82.6990
 3154.5000   -75.9970     2.3120     0.0430     7.9650     0.2450   -78.4940     9.6270    10.4120     9.9110    58.6850   -20.7110   -47.7160    82.0590
 3155.0000   -75.3640     2.3270     0.0310     7.9710     0.2380   -79.0620     9.5020    10.3790     9.9110    62.3380   -21.6300   -44.7950    81.5720
 3155.5000   -73.2590     2.3290     0.0150     7.9500     0.2390   -79.6300     9.3770    10.5670    10.2250    63.2430   -22.3520   -48.1780    80.8120
 3156.0000   -62.6840     2.3100     0.0010     7.9300     0.2410   -80.1990     9.7680    10.7280    10.4620    63.4550   -22.7160   -51.4280    80.0490
 3156.5000   -52.1090     2.2930    -0.0020     7.9640     0.2400   -80.7670    10.4560    10.8700    10.6710    62.4390   -22.6320   -54.8050    79.5090
 3157.0000   -44.7950     2.2790     0.0040     8.0090     0.2400   -81.3350    10.7700    10.9880    10.6710    60.4250   -21.9140   -55.7490    79.1890
 3157.5000   -60.8110     2.2770     0.0120     8.0530     0.2440   -81.9040    10.5170    11.0440    10.5840    58.0500   -21.1750   -56.9990    79.5310
 3158.0000   -69.3930     2.2750     0.0160     8.0980     0.2550   -82.4720     9.9930    11.1000    10.2840    55.6800   -20.7510   -58.2490    80.0010
 3158.5000   -77.9760     2.2710     0.0050     8.1420     0.2650   -83.0410     9.4700    11.1760    10.0280    54.1160   -20.6440   -59.4990    80.4700
 3159.0000   -86.5580     2.2670    -0.0050     8.1760     0.2690   -83.6090     9.1890    11.1100     9.7900    54.8760   -21.1120   -60.7490    80.9400
 3159.5000   -94.8450     2.2620    -0.0070     8.1950     0.2640   -84.1770     9.0350    10.9670     9.5520    57.0600   -21.5680   -61.9990    81.4090
 3160.0000   -92.8030     2.2590    -0.0040     8.2500     0.2590   -88.0140     8.8800    10.8230     9.4640    59.1720   -21.9730   -63.2490    81.8370
 3160.5000   -90.8290     2.2660    -0.0010     8.3110     0.2600   -96.2550     8.7890    10.6790     9.5790    60.9560   -22.3210   -64.4990    82.0920
 3161.0000   -88.8550     2.2760     0.0030     8.3680     0.2570  -104.5640     8.9910    10.5350     9.7140    61.5680   -22.6690   -64.3350    81.8000
 3161.5000   -86.8810     2.2930     0.0040     8.4250     0.2510  -102.0480     9.2930    10.3790     9.8480    60.8100   -23.0160   -63.6940    81.2910
 3162.0000   -84.8350     2.3150     0.0070     8.4820     0.2450   -99.5130     9.7300    10.3610     9.9820    60.6980   -23.3630   -63.0530    80.1600
 3162.5000   -84.8350     2.3290     0.0080     8.5220     0.2400   -96.9770     9.6100    10.3380    10.0960    61.6370   -23.7100   -62.4110    79.1890
 3163.0000   -84.8350     2.3260     0.0050     8.5330     0.2400   -94.4410     9.3950    10.3140     9.8040    64.9110   -24.0590   -61.7700    77.6520
 3163.5000   -84.8350     2.3220     0.0030     8.5310     0.2400   -91.9050     9.1810    10.2910     9.5510    68.2240   -24.2020   -61.1280    76.1890
 3164.0000   -84.8350     2.3170     0.0040     8.4970     0.2460   -89.3690     9.1200     9.8930     9.2050    68.2440   -24.2020   -60.4870    74.7050
 3164.5000   -84.8350     2.3150     0.0100     8.4810     0.2530   -86.8340     9.1200     9.3490     8.8900    65.7720   -24.1910   -59.8450    73.5680
 3165.0000   -85.8360     2.3160     0.0160     8.4920     0.2580   -84.2980     9.1200     9.0250     8.5420    63.9630   -24.6680   -59.2040    73.6840
 3165.5000   -87.2870     2.3190     0.0230     8.5160     0.2530   -81.7620     8.7230     8.6400     8.1940    63.8740   -25.2760   -58.5630    74.6350
 3166.0000   -88.7390     2.3220     0.0250     8.5390     0.2470   -79.2260     8.2710     8.2560     7.8460    64.2880   -25.8910   -57.9210    76.0110
 3166.5000   -90.1900     2.3240     0.0170     8.5430     0.2440   -76.6900     7.8180     7.8710     7.5120    64.6990   -26.1930   -57.2800    78.1880
 3167.0000   -91.6420     2.3280     0.0110     8.5520     0.2580   -74.1550     7.6520     7.6380     7.4540    62.6470   -26.1880   -56.6380    79.7900
 3167.5000   -93.0930     2.3340     0.0120     8.5610     0.2630   -71.6190     7.5380     7.5750     7.3980    60.2390   -25.7600   -55.9970    80.6550
 3168.0000   -94.5450     2.3420     0.0130     8.5700     0.2610   -69.0830     7.3740     7.5120     7.3420    59.5780   -25.3900   -55.3550    81.2210
 3168.5000   -91.5830     2.3500     0.0130     8.5790     0.2580   -66.5470     7.4340     7.5530     7.2860    60.1840   -25.4000   -54.7140    81.5920
 3169.0000   -87.4710     2.3610     0.0130     8.5480     0.2590   -64.4430     7.4930     7.5950     7.2390    61.1040   -25.3910   -54.0720    81.7920
 3169.5000   -84.8350     2.3740     0.0210     8.5100     0.2600   -64.4430     7.5530     7.6370     7.2390    62.0180   -25.1650   -53.4310    81.7920
 3170.0000   -84.8350     2.3860     0.0250     8.4700     0.2600   -64.4430     7.6120     7.6790     7.3740    62.6290   -24.9390   -52.7900    81.6270
 3170.5000   -85.1500     2.3850     0.0180     8.4610     0.2580   -64.4430     7.6520     7.7200     7.5120    61.9280   -24.9360   -52.1480    81.3830
 3171.0000   -87.6180     2.3690     0.0150     8.4610     0.2590   -64.4430     7.6270     7.7620     7.6200    61.2630   -25.2690   -51.5070    81.2660
 3171.5000   -90.0850     2.3490     0.0140     8.4580     0.2630   -64.4430     7.5820     7.8040     7.7380    59.0560   -25.5970   -50.8650    81.2250
