~VERSION INFORMATION
 VERS.                2.0:   CWLS LOG ASCII STANDARD - VERSION 2.0
 WRAP.                 NO:   ONE LINE PER DEPTH STEP
~WELL INFORMATION
#MNEM.UNIT      DATA TYPE    INFORMATION
#----------   ------------   ------------------------------
 STRT.F          196.0000:   START DEPTH
 STOP.F         3430.0000:   STOP DEPTH
 STEP.F            0.5000:   STEP LENGTH
 NULL.          -999.2500:   NO VALUE
 COMP.    FENIX $ SCISSON:   COMPANY
 WELL.   FENIX "A" #23-10:   WELL
 FLD .              N P R:   FIELD
 LOC .      S10 T38N R78W:   LOCATION
 CNTY.            NATRONA:   COUNTY
 STAT.            WYOMING:   STATE
 CTRY. UNITED STATES OF AMERICA:   COUNTRY
 SRVC.              WELEX:   SERVICE COMPANY
 DATE.        23-JUL-1977:   LOGDATE
 API .     49025103990000:   API NUMBER
~CURVE INFORMATION
#MNEM.UNIT       API CODE    CURVE DESCRIPTION
#----------   ------------   ------------------------------
 DEPT.F                  :   
 SPR .MV     07 010 01 00:   SPONTANEOUS POTENTIAL
 GURD.OHMM   07 220 05 00:   GUARD LOG RESISTIVITY
 FORX.OHMM   07 220 00 00:   FORMATION FACTOR
 NPHI.DEC    42 890 03 00:   NEUTRON POROSITY SANDSTONE
 CALD.IN     45 280 60 00:   CALIPER FROM DENSITY LOG
 CORR.G/C3   45 356 01 00:   DENSITY CORRECTION
 GRD .GAPI   45 310 01 00:   GAMMA RAY FROM DENSITY LOG
 RHOB.G/C3   45 350 01 00:   BULK DENSITY
~PARAMETER INFORMATION
#MNEM.UNIT          VALUE    DESCRIPTION
#----------   ------------   ------------------------------
 EKB .F         5251.0000:   Kelly bushing
 EGL .F         5241.0000:   Ground level
 EDF .F            0.0000:   Drilling floor
 EPD .F         5241.0000:   Permanent datum
 TD  .F         3430.0000:   Total depth
 DATE.        23-JUL-1977:   Date logged
 CLNT.            A2DTECH:   Client Code
 SL  . 1650' FNL & 990' FWL:   Surface Location
 PD  .                 GL:   Permanent Datum
 DD  .F              3430:   Depth driller
 DL  .F              3430:   Depth logger
 BLI .F              3428:   Bottom log interval
 CS1 .IN            8.625:   Casing size
 CBD1.      8.625" @ 220':   Casing driller 1
 BS1 .IN            7.875:   Bit size
 DFT .            KCL MUD:   Type fluid in hole
 DFD .                8.9:   Density
 DFV .                 33:   Viscosity
 DFPH.                  8:   pH
 DFL .                  8:   Fluid loss
 MSS .           FLOWLINE:   Source of sample
 RMS .OHMM            .49:   Rm
 MST .F                94:   Rm Meas. temp.
 RMF .OHMM            .46:   Rmf
 MFST.F                90:   Rmf Meas. temp.
 RMC .OHMM            .40:   Rmc
 MCST.F                90:   Rmc Meas. temp.
 MFSS.               FANN:   Source Rmf.
 RMB .OHMM            .15:   Rm. at BHT
 BHT .F               122:   BHT.
 TCS .HRS               6:   Time Circ. stopped
 MRT .F               122:   Maximum recorded temp.
 LUN .               8611:   Logging unit number
 LUL .             CASPER:   Logging unit location
 ENGI.            C. DOAK:   Recorded By
 WITN.      B. HARRINGTON:   Witnessed by
 ORIG.           5" PRINT:   Origin of data
 UWI .     49025103990000:   Unique Well ID
 DICO. A2D TECHNOLOGIES, INC.:   Digitizing Company
 DAPD.                 10:   Feet Above Permanent Datum
 BSD1.               3430:   Depth drilled with bit1
 MCSS.                KIT:   Source Rmc.
 TLI .                200:   Top log interval
~OTHER INFORMATION
~A   DEPT      SPR         GURD     FORX       NPHI       CALD       CORR        GRD       RHOB   
# ...
 2099.5000   -77.2820     7.2870    19.9880     0.3520     9.3860     0.0210   144.9290     2.4620
 2100.0000   -77.3080     7.3470    19.7260     0.3550     9.3900     0.0230   141.7870     2.4640
 2100.5000   -77.3330     7.4040    20.2900     0.3600     9.3930     0.0240   138.5170     2.4610
 2101.0000   -77.3590     7.4570    20.8450     0.3620     9.3970     0.0260   137.8240     2.4560
 2101.5000   -77.3840     7.5140    21.2310     0.3650     9.4010     0.0270   138.3800     2.4520
 2102.0000   -77.4100     7.3560    12.2310     0.3690     9.4050     0.0290   138.9520     2.4510
 2102.5000   -77.4360     7.0510    17.5040     0.3760     9.4090     0.0300   139.5220     2.4540
 2103.0000   -77.4610     6.7470    17.5040     0.3840     9.4120     0.0310   140.0900     2.4580
 2103.5000   -77.4870     6.5460    19.9080     0.3920     9.4160     0.0330   140.6580     2.4670
 2104.0000   -77.5120     6.8650    16.4140     0.3960     9.4020     0.0310   141.2260     2.4760
 2104.5000   -77.5370     7.1030    18.2870     0.3960     9.3860     0.0310   141.7940     2.4740
 2105.0000   -77.4750     7.3410    22.0270     0.3850     9.3700     0.0310   142.3620     2.4640
 2105.5000   -77.2590     7.4450    21.0370     0.3740     9.3540     0.0300   142.9350     2.4530
 2106.0000   -77.0500     7.3820    14.1690     0.3630     9.3380     0.0300   143.1780     2.4430
 2106.5000   -76.7470     6.8540    18.2030     0.3560     9.3220     0.0300   142.0460     2.4420
 2107.0000   -76.8070     7.0700    17.3440     0.3580     9.3060     0.0290   140.9300     2.4480
 2107.5000   -76.8550     7.8680    18.1890     0.3660     9.3110     0.0290   139.8340     2.4510
 2108.0000   -76.8960     7.8270    19.1900     0.3760     9.3410     0.0290   138.8310     2.4490
 2108.5000   -76.9230     7.7240    18.4970     0.3820     9.3700     0.0280   139.4170     2.4670
 2109.0000   -77.1560     7.8680    18.3280     0.3850     9.4000     0.0280   139.9630     2.4660
 2109.5000   -77.0880     7.8150    19.1900     0.3870     9.4300     0.0280   140.5160     2.4610
 2110.0000   -76.9310     7.6880    18.6640     0.3860     9.4590     0.0280   141.1210     2.4620
 2110.5000   -76.7710     7.5610    18.1600     0.3860     9.4880     0.0290   141.7450     2.4620
 2111.0000   -76.6110     7.3450    16.4140     0.3850     9.5180     0.0310   143.7510     2.4620
 2111.5000   -76.4510     7.1120    17.1780     0.3830     9.5130     0.0330   145.7200     2.4670
 2112.0000   -76.2910     6.9810    18.3850     0.3790     9.5150     0.0340   147.6940     2.4640
 2112.5000   -76.1310     7.0340    18.8400     0.3740     9.5150     0.0360   148.8590     2.4650
 2113.0000   -75.9820     7.0970    19.3670     0.3680     9.5150     0.0380   149.0030     2.4650
 2113.5000   -76.0260     7.1600    19.0760     0.3630     9.5150     0.0390   149.1690     2.4620
 2114.0000   -76.0970     7.2220    18.8400     0.3600     9.5150     0.0410   148.3080     2.4600
 2114.5000   -76.1670     7.2430    19.3570     0.3590     9.5150     0.0430   146.9380     2.4710
 2115.0000   -76.1760     7.2050    19.7260     0.3590     9.5140     0.0440   145.5620     2.4740
 2115.5000   -76.0820     7.1620    19.1900     0.3590     9.5000     0.0470   144.1910     2.4760
 2116.0000   -75.8760     7.1190    22.0270     0.3590     9.4560     0.0510   142.8250     2.4770
 2116.5000   -75.6280     7.0760    21.8250     0.3600     9.4100     0.0550   142.0380     2.4780
 2117.0000   -75.6840     7.0460    17.0690     0.3630     9.3630     0.0590   142.0350     2.4780
 2117.5000   -75.8830     7.1160    13.1640     0.3670     9.3170     0.0620   142.0260     2.4750
 2118.0000   -76.0850     7.2150    18.8400     0.3730     9.2710     0.0660   142.0430     2.4640
 2118.5000   -76.2780     7.2430    15.8210     0.3760     9.2240     0.0700   142.6320     2.4540
 2119.0000   -76.5880     7.1080    11.9120     0.3750     9.1780     0.0740   145.5400     2.4520
 2119.5000   -76.5720     6.9180     6.3680     0.3750     9.1310     0.0740   148.4230     2.4400
 2120.0000   -76.5840     6.9710     6.3100     0.3760     9.0850     0.0600   150.8020     2.4270
 2120.5000   -76.5990     7.0280     8.1620     0.3800     9.0410     0.0460   149.3650     2.4130
 2121.0000   -76.6130     7.1110     7.5840     0.3830     9.0290     0.0370   147.5170     2.4070
 2121.5000   -76.6270     7.0220    14.8240     0.3860     9.0170     0.0370   145.6870     2.4010
 2122.0000   -76.6410     6.8700    16.3290     0.3890     9.0050     0.0350   143.8760     2.3950
 2122.5000   -76.6550     6.7180     5.1700     0.3890     8.9920     0.0340   142.3040     2.3840
 2123.0000   -76.6690     6.5660     1.2160     0.3870     8.9870     0.0320   141.9530     2.3640
 2123.5000   -76.6830     6.4130     1.1200     0.3820     9.1600     0.0310   141.7900     2.3340
 2124.0000   -76.6970     6.2610     1.0510     0.3790     9.5350     0.0290   142.6600     2.2990
 2124.5000   -76.7110     6.0820     1.2290     0.3770    10.1430     0.0280   143.5120     2.2760
 2125.0000   -76.7250     6.4310     1.1650     0.3730    10.0020     0.0260   144.3610     2.2700
 2125.5000   -76.7400     6.7630     1.1000     0.3700     9.6380     0.0250   145.2710     2.2840
 2126.0000   -76.7540     6.9210     1.4000     0.3670     9.2860     0.0240   145.4920     2.3110
 2126.5000   -76.7730     6.9810    10.1360     0.3660     9.3180     0.0300   145.2140     2.3520
 2127.0000   -76.8100     6.9180    20.6540     0.3660     9.3730     0.0350   144.9240     2.3920
 2127.5000   -76.8480     6.9570    18.8390     0.3680     9.4270     0.0410   144.6330     2.4190
 2128.0000   -76.8860     7.0460    16.7180     0.3710     9.4810     0.0460   144.3430     2.4300
 2128.5000   -76.9230     6.8690    25.0520     0.3700     9.5310     0.0520   144.0530     2.4410
 2129.0000   -76.9610     6.9700    17.3710     0.3670     9.4500     0.0570   143.7630     2.4500
 2129.5000   -76.9980     7.0890    12.9580     0.3640     9.3630     0.0630   143.4730     2.4290
 2130.0000   -77.0360     7.2200     6.4270     0.3630     9.2750     0.0680   143.1860     2.4120
 2130.5000   -77.0730     6.9490    10.1770     0.3630     9.2580     0.0740   142.8920     2.4060
 2131.0000   -77.1110     6.6070     8.4990     0.3610     9.2570     0.0790   143.2560     2.3830
 2131.5000   -77.1490     6.4270     5.9860     0.3570     9.2570     0.0850   143.9700     2.3600
 2132.0000   -77.1860     6.7880     2.6840     0.3520     9.2570     0.0960   144.6910     2.3360
 2132.5000   -77.2240     7.0460     5.2150     0.3480     9.2660     0.1070   145.4200     2.3180
 2133.0000   -77.2610     6.9180    10.4120     0.3450     9.2340     0.1180   146.3930     2.2880
 2133.5000   -77.2990     6.9930    16.1150     0.3420     9.2450     0.1310   147.9980     2.2490
 2134.0000   -77.3360     7.1110    16.2630     0.3380     9.2940     0.1520   149.6290     2.1990
 2134.5000   -77.3740     7.1770     1.4660     0.3360     9.3420     0.1710   151.2640     2.1510
 2135.0000   -77.4120     7.0770     1.3520     0.3370     9.3900     0.1600   152.8940     2.0760
 2135.5000   -77.4490     6.9810     1.2390     0.3410     9.4380     0.1300   154.5020     2.0440
 2136.0000   -77.4870     6.7390     1.1630     0.3490     9.4860     0.0990   155.1790     2.0510
 2136.5000   -77.5240     6.1950     3.7690     0.3560     9.5330     0.0690   150.9540     2.1040
 2137.0000   -77.5420     6.4220     8.8660     0.3630     9.5670     0.0390   147.5400     2.1770
 2137.5000   -77.5150     6.8400     7.8520     0.3680     9.5090     0.0090   145.7390     2.3480
 2138.0000   -77.4890     7.1770     5.5480     0.3660     9.4530     0.0100   145.2090     2.4010
 2138.5000   -77.4640     7.0960     6.5000     0.3620     9.4180     0.0130   144.6810     2.4080
 2139.0000   -77.4380     7.0250     8.8600     0.3580     9.4340     0.0160   144.1480     2.4150
 2139.5000   -77.4130     6.9810    11.2200     0.3550     9.4500     0.0180   144.1280     2.4210
