~VERSION INFORMATION
 VERS.                2.0:   CWLS LOG ASCII STANDARD - VERSION 2.0
 WRAP.                 NO:   ONE LINE PER DEPTH STEP
~WELL INFORMATION
#MNEM.UNIT      DATA TYPE    INFORMATION
#----------   ------------   ------------------------------
 STRT.F           44.0000:   START DEPTH
 STOP.F         6166.0000:   STOP DEPTH
 STEP.F            0.5000:   STEP LENGTH
 NULL.          -999.2500:   NO VALUE
 COMP.   TESORO PETROLEUM:   COMPANY
 WELL. TESORO 11X NPR #3-23:   WELL
 FLD .             TEAPOT:   FIELD
 LOC .      S23 T38N R78W:   LOCATION
 CNTY.            NATRONA:   COUNTY
 STAT.            WYOMING:   STATE
 CTRY. UNITED STATES OF AMERICA:   COUNTRY
 SRVC.       SCHLUMBERGER:   SERVICE COMPANY
 DATE.        29-OCT-1968:   LOGDATE
 API .     49025100170000:   API NUMBER
~CURVE INFORMATION
#MNEM.UNIT       API CODE    CURVE DESCRIPTION
#----------   ------------   ------------------------------
 DEPT.F                  :   
 SN  .OHMM   05 040 18 00:   SHORT NORMAL 18"
 RES .OHMM   05 000 00 00:   RESISTIVITY
 ILD .OHMM   05 120 46 00:   INDUCTION LOG DEEP RESISTIVITY
 SPR .MV     05 010 01 00:   SPONTANEOUS POTENTIAL FROM RES.
~PARAMETER INFORMATION
#MNEM.UNIT          VALUE    DESCRIPTION
#----------   ------------   ------------------------------
 EKB .F         5283.0000:   Kelly bushing
 EGL .F         5272.0000:   Ground level
 EDF .F            0.0000:   Drilling floor
 TD  .F         6171.0000:   Total depth
 CLNT.            A2DTECH:   Client Code
 SL  . 380' FNL & 380' FWL:   Surface Location
 PD  .                 GL:   Permanent Datum
 EPD .F              5272:   Elevation Permanent Datum
 LMF .                 KB:   Log Measured From
 DMF .                 KB:   Drilling Measured From
 DAPD.F                11:   Feet Above Permanent Datum
 DATE.        29-OCT-1968:   Date Logged [DD-MMM-YYYY]
 DD  .F              6171:   Depth driller
 DL  .F              6167:   Depth logger
 BLI .F              6166:   Bottom log interval
 TLI .F               975:   Top log interval
 CS1 .IN            10.75:   Casing size
 CBD1.      10.75" @ 975':   Casing driller 1
 CBL1.F               975:   Casing logger 1
 BS1 .IN            9.125:   Bit size
 BSD1.F              6171:   Depth drilled with bit1
 DFT .           GEL-CHEM:   Type fluid in hole
 DFD .                9.6:   Density
 DFV .                 61:   Viscosity
 DFPH.                 10:   pH
 DFL .                6.8:   Fluid loss
 MSS .           FLOWLINE:   Source of sample
 RMS .OHMM           0.89:   Rm
 MST .F                80:   Rm Meas. temp.
 RMF .OHMM           0.60:   Rmf
 MFST.F                80:   Rmf Meas. temp.
 MFSS.               MEAS:   Source Rmf.
 RMB .OHMM           0.45:   Rm. at BHT
 BHT .F               160:   BHT.
 TCS .HRS               4:   Time Circ. stopped
 MRT .F               160:   Maximum recorded temp.
 LUN .               7041:   Logging unit number
 LUL .               CSPR:   Logging unit location
 ENGI.            MANGOLD:   Recorded By
 WITN.                MAY:   Witnessed by
 ORIG.         2.5" PRINT:   Origin of data
 UWI .     49025100170000:   Unique Well ID
 DICO. A2D TECHNIOLOGIES,INC.:   Digitizing Company
~OTHER INFORMATION
~A  DEPTH       SN        RES        ILD        SPR
# ...
 3256.0000    10.7392  -999.2500    10.5815   -44.9188
 3256.5000    10.1317  -999.2500    10.1223   -44.9187
 3257.0000     9.6757  -999.2500     9.5101   -44.9186
 3257.5000     9.4923  -999.2500     8.8978   -44.9185
 3258.0000     9.1454  -999.2500     8.1336   -44.9186
 3258.5000     8.7045  -999.2500     7.3496   -44.9185
 3259.0000     8.2272  -999.2500     6.7299   -44.9179
 3259.5000     7.6982  -999.2500     6.4045   -44.9191
 3260.0000     7.3938  -999.2500     6.1398   -44.9201
 3260.5000     7.2409  -999.2500     6.1353   -44.9741
 3261.0000     7.4031  -999.2500     6.4338   -45.0367
 3261.5000     7.7258  -999.2500     6.7335   -45.1004
 3262.0000     8.1032  -999.2500     7.3371   -45.1634
 3262.5000     8.5227  -999.2500     7.9406   -45.2264
 3263.0000     8.9000  -999.2500     8.4028   -45.2897
 3263.5000     9.3196  -999.2500     8.8986   -45.3528
 3264.0000     9.5030  -999.2500     9.3394   -45.4161
 3264.5000     9.8136  -999.2500     9.8078   -45.4791
 3265.0000    10.1062  -999.2500    10.0456   -45.5428
 3265.5000    10.1045  -999.2500    10.3442   -45.6069
 3266.0000    10.2545  -999.2500    10.3399   -45.6654
 3266.5000    10.4045  -999.2500    10.3355   -45.7340
 3267.0000    10.2513  -999.2500    10.3312   -45.7295
 3267.5000    10.0984  -999.2500    10.0228   -45.7202
 3268.0000    10.0970  -999.2500    10.0182   -45.7730
 3268.5000     9.7924  -999.2500     9.8164   -45.3968
 3269.0000     9.7667  -999.2500     9.7052   -45.3365
 3269.5000     9.6379  -999.2500     9.4694   -45.2959
 3270.0000     9.4846  -999.2500     9.3913   -45.3435
 3270.5000     9.4833  -999.2500     9.3870   -45.4289
 3271.0000     9.4818  -999.2500     9.0787   -46.3228
 3271.5000     9.4803  -999.2500     9.0744   -45.4425
 3272.0000     9.4788  -999.2500     9.0699   -45.2620
 3272.5000     9.5227  -999.2500     9.0654   -46.1219
 3273.0000     9.6939  -999.2500     9.0608   -47.0324
 3273.5000     9.7773  -999.2500     9.0562   -46.9499
 3274.0000     9.7756  -999.2500     9.1317   -46.9340
 3274.5000     9.9909  -999.2500     9.3511   -46.9871
 3275.0000    10.0758  -999.2500     9.3460   -47.0427
 3275.5000    10.0742  -999.2500     9.6456   -47.1131
 3276.0000    10.0727  -999.2500     9.6413   -47.1831
 3276.5000    10.2230  -999.2500     9.6368   -47.2491
 3277.0000    10.2212  -999.2500     9.6322   -47.3173
 3277.5000    10.3712  -999.2500     9.6277   -47.3856
 3278.0000    10.3696  -999.2500     9.6231   -47.4539
 3278.5000    10.2167  -999.2500     9.5377   -47.5222
 3279.0000    10.0636  -999.2500     9.3093   -47.5904
 3279.5000     9.7591  -999.2500     9.3049   -47.6587
 3280.0000     9.5454  -999.2500     8.9967   -47.7269
 3280.5000     9.4530  -999.2500     8.9924   -47.7951
 3281.0000     9.4031  -999.2500     8.8222   -47.8634
 3281.5000     9.4500  -999.2500     8.6793   -47.9316
 3282.0000     9.4485  -999.2500     8.6748   -47.9999
 3282.5000     9.6137  -999.2500     8.7348   -48.0681
 3283.0000     9.8213  -999.2500     8.8992   -48.1366
 3283.5000    10.0503  -999.2500     9.0636   -48.2049
 3284.0000    10.1273  -999.2500     9.2644   -48.2731
 3284.5000    10.3500  -999.2500     9.4116   -48.3426
 3285.0000    10.6515  -999.2500     9.5592   -48.4095
 3285.5000    10.6500  -999.2500     9.8589   -48.4773
 3286.0000    10.6485  -999.2500     9.9168   -48.5538
 3286.5000    10.6470  -999.2500    10.1542   -48.5265
 3287.0000    10.6455  -999.2500    10.3663   -48.4085
 3287.5000    10.6818  -999.2500    10.4483   -48.2981
 3288.0000    10.8424  -999.2500    10.4430   -48.1904
 3288.5000    11.0620  -999.2500    10.4387   -48.0802
 3289.0000    11.2455  -999.2500    10.5864   -47.9669
 3289.5000    11.2620  -999.2500    10.7340   -47.8619
 3290.0000    11.5456  -999.2500    11.0337   -47.7745
 3290.5000    11.8472  -999.2500    11.2130   -47.9070
 3291.0000    11.8455  -999.2500    11.3774   -48.0247
 3291.5000    11.8437  -999.2500    11.6277   -48.1533
 3292.0000    11.8423  -999.2500    11.6231   -48.2783
 3292.5000    11.8408  -999.2500    11.6178   -48.4025
 3293.0000    11.8274  -999.2500    11.4615   -48.5296
 3293.5000    11.3561  -999.2500    11.1532   -48.6524
 3294.0000    10.8304  -999.2500    10.6930   -48.7784
 3294.5000    10.4834  -999.2500    10.3685   -48.9133
 3295.0000    10.0149  -999.2500    10.0101   -48.9731
 3295.5000     9.7104  -999.2500     9.7175   -48.9084
 3296.0000     9.4060  -999.2500     9.4590   -48.8544
 3296.5000     9.3985  -999.2500     9.3706   -48.8005
 3297.0000     9.0758  -999.2500     9.1452   -48.7439
 3297.5000     8.7955  -999.2500     8.8369   -48.6890
 3298.0000     8.6606  -999.2500     8.5286   -48.6337
 3298.5000     8.0346  -999.2500     7.9164   -48.5783
 3299.0000     7.5786  -999.2500     7.2707   -48.5216
 3299.5000     6.9711  -999.2500     6.6241   -48.4663
 3300.0000     6.2680  -999.2500     5.9778   -48.4172
 3300.5000     5.7376  -999.2500     5.3312   -48.3473
 3301.0000     5.2071  -999.2500     4.6849   -48.3035
 3301.5000     4.6767  -999.2500     3.6330   -48.2744
 3302.0000     4.2297  -999.2500     3.0208   -48.1041
 3302.5000     3.6208  -999.2500     2.4086   -48.8393
 3303.0000     3.1634  -999.2500     2.0994   -48.9709
 3303.5000     2.7051  -999.2500     1.7918   -49.0104
 3304.0000     2.0970  -999.2500     1.6008   -48.9717
 3304.5000     1.7909  -999.2500     1.4787   -48.9851
 3305.0000     1.7222  -999.2500     1.4742   -48.9915
 3305.5000     1.6327  -999.2500     1.4694   -48.9404
 3306.0000     1.6299  -999.2500     1.5192   -48.8455
 3306.5000     1.7788  -999.2500     1.5716   -48.7518
 3307.0000     1.7758  -999.2500     1.6189   -48.6599
 3307.5000     1.9469  -999.2500     1.6628   -48.5667
 3308.0000     2.1172  -999.2500     1.9149   -48.4739
 3308.5000     2.5050  -999.2500     2.3781   -48.3811
 3309.0000     2.9752  -999.2500     3.7304   -48.2890
 3309.5000     3.5784  -999.2500     4.6386   -48.1958
 3310.0000     4.4847  -999.2500     5.6988   -48.1446
 3310.5000     5.6971  -999.2500     6.7591   -48.1110
 3311.0000     6.5184  -999.2500     7.7067   -48.0771
 3311.5000     7.4892  -999.2500     8.6948   -48.0424
 3312.0000     8.2424  -999.2500     9.9738   -48.0082
 3312.5000     9.0146  -999.2500    11.0372   -47.9739
 3313.0000     9.9208  -999.2500    11.8433   -47.9395
 3313.5000    10.5241  -999.2500    12.6627   -47.9053
 3314.0000    11.1293  -999.2500    13.1150   -47.8709
 3314.5000    11.4748  -999.2500    13.1114   -47.8359
 3315.0000    11.7277  -999.2500    13.1078   -47.8029
 3315.5000    11.5898  -999.2500    12.4499   -47.7674
 3316.0000    11.1146  -999.2500    11.5239   -47.7637
 3316.5000    10.6572  -999.2500    10.8787   -47.7671
 3317.0000    10.1998  -999.2500    10.2335   -47.7657
 3317.5000     9.8889  -999.2500     9.5883   -47.7524
 3318.0000     9.5394  -999.2500     9.1331   -47.7897
 3318.5000     9.2818  -999.2500     8.8255   -47.7513
 3319.0000     9.1273  -999.2500     8.8219   -47.6213
 3319.5000     9.2758  -999.2500     8.6663   -46.8636
 3320.0000     9.2724  -999.2500     8.4903   -46.9785
 3320.5000     8.9665  -999.2500     8.1490   -46.9545
 3321.0000     8.6606  -999.2500     7.6997   -46.9944
 3321.5000     8.4813  -999.2500     7.2232   -47.0624
 3322.0000     8.0485  -999.2500     6.8217   -47.1118
 3322.5000     7.8258  -999.2500     6.3633   -47.1665
 3323.0000     7.1328  -999.2500     6.0557   -47.2224
 3323.5000     6.8269  -999.2500     5.9002   -47.2772
 3324.0000     6.2180  -999.2500     5.7446   -47.3318
 3324.5000     5.9122  -999.2500     5.8930   -47.3866
 3325.0000     6.2626  -999.2500     6.0413   -47.4412
 3325.5000     6.7106  -999.2500     6.1214   -47.4963
 3326.0000     7.1838  -999.2500     6.6420   -47.5507
 3326.5000     7.4152  -999.2500     7.0925   -47.6050
 3327.0000     7.8663  -999.2500     7.8488   -47.6618
 3327.5000     8.0152  -999.2500     8.1492   -47.7135
 3328.0000     8.3231  -999.2500     8.4498   -47.7582
 3328.5000     8.6409  -999.2500     8.7500   -47.6777
