~VERSION INFORMATION
 VERS.                2.0:   CWLS LOG ASCII STANDARD - VERSION 2.0
 WRAP.                 NO:   ONE LINE PER DEPTH STEP
~WELL INFORMATION
#MNEM.UNIT      DATA TYPE    INFORMATION
#----------   ------------   ------------------------------
 STRT.F           50.5000:   START DEPTH
 STOP.F         5694.0000:   STOP DEPTH
 STEP.F            0.5000:   STEP LENGTH
 NULL.          -999.2500:   NO VALUE
 COMP. LAWRENCE ALLISON AND ASSOCIATES WEST:   COMPANY
 WELL. LAWRENCE "TX" #57-28:   WELL
 FLD .        TEAPOT DOME:   FIELD
 LOC .      S28 T39N R78W:   LOCATION
 CNTY.            NATRONA:   COUNTY
 STAT.            WYOMING:   STATE
 CTRY. UNITED STATES OF AMERICA:   COUNTRY
 SRVC.       SCHLUMBERGER:   SERVICE COMPANY
 DATE.        26-FEB-1982:   LOGDATE
 API .     49025108850000:   API NUMBER
~CURVE INFORMATION
#MNEM.UNIT       API CODE    CURVE DESCRIPTION
#----------   ------------   ------------------------------
 DEPT.F                  :   
 GRR .GAPI   11 310 01 00:   GAMMA RAY FROM RES.
 CALD.IN     45 280 60 00:   CALIPER FROM DENSITY LOG
 TEND.LBS    45 635 01 00:   TENSION FORM DENSITY LOG
 CORR.G/C3   45 356 01 00:   DENSITY CORRECTION
 RHOB.G/C3   45 350 01 00:   BULK DENSITY
 NPHI.DEC    42 890 03 00:   NEUTRON POROSITY SANDSTONE
 TENR.LBS    06 635 01 00:   TENSION FROM RESISTIVITY
 SPR .MV     11 010 01 00:   SPONTANEOUS POTENTIAL FROM RES.
 LLS .OHMM   11 220 09 00:   LATEROLOG LOG SHALLOW
 LLD .OHMM   11 220 10 00:   LATEROLOG DEEP
 MSFL.OHMM   11 270 04 00:   MICRO SPHERICALLY FOCUSED
~PARAMETER INFORMATION
#MNEM.UNIT          VALUE    DESCRIPTION
#----------   ------------   ------------------------------
 EKB .F         5101.0000:   Kelly bushing
 EGL .F         5091.0000:   Ground level
 EDF .F            0.0000:   Drilling floor
 TD  .F         3248.0000:   Total depth
 CLNT.            A2DTECH:   Client Code
 SL  . 950' FSL & 2100' FEL:   Surface Location
 PD  .                 GL:   Permanent Datum
 EPD .F              5091:   Elevation Permanent Datum
 LMF .                 KB:   Log Measured From
 DMF .                 KB:   Drilling Measured From
 DAPD.F                10:   Feet Above Permanent Datum
 DATE.        26-FEB-1982:   Date Logged [DD-MMM-YYYY]
 DD  .F              3243:   Depth driller
 DL  .F              3248:   Depth logger
 BLI .F              3216:   Bottom log interval
 TLI .F                 0:   Top log interval
 CS1 .IN            9.625:   Casing size
 CBD1.      9.625" @ 401':   Casing driller 1
 CBL1.F               401:   Casing logger 1
 BS1 .IN            7.875:   Bit size
 BSD1.F              3243:   Depth drilled with bit1
 DFT .           CHEM GEL:   Type fluid in hole
 DFD .                8.9:   Density
 DFV .                 55:   Viscosity
 DFPH.                9.5:   pH
 DFL .                 10:   Fluid loss
 MSS .            MUD PIT:   Source of sample
 RMS .OHMM           1.82:   Rm
 MST .F                76:   Rm Meas. temp.
 RMF .OHMM           1.64:   Rmf
 MFST.F                75:   Rmf Meas. temp.
 MFSS.               MEAS:   Source Rmf.
 RMB .OHMM           1.15:   Rm. at BHT
 BHT .F               120:   BHT.
 TCS .HRS            1330:   Time Circ. stopped
 TLAB.HRS            1715:   Time logger at bottom
 MRT .F               120:   Maximum recorded temp.
 LUN .               8043:   Logging unit number
 LUL .               CSPR:   Logging unit location
 ENGI.             TAYLOR:   Recorded By
 WITN.       FIVAS/STRONG:   Witnessed by
 ORIG.      1" 2.5" PRINT:   Origin of data
 UWI .     49025108850000:   Unique Well ID
 DICO. A2D TECHNOLOGIES, INC.:   Digitizing Company
~OTHER INFORMATION
~A   DEPT       GRR      CALD       TEND       CORR       RHOB       NPHI       TENR        SPR        LLS        LLD       MSFL   
# ...
 3558.0000   170.2681     8.9739  1397.3578    -0.0352     2.0654     0.3711  1340.0000   -75.0703     9.4261     9.9091    16.0286
 3558.5000   175.4170     8.7567  1396.7823    -0.0360     2.0925     0.3297  1340.0000   -75.0795    11.5332    11.1495    13.4604
 3559.0000   174.0252     8.7246  1396.2068    -0.0231     2.3307     0.2972  1340.0000   -75.0887    11.3683     9.9754    12.4873
 3559.5000   172.5101     8.7235  1395.6313     0.0017     2.4128     0.3031  1340.0000   -75.4053    10.3110     9.5644    12.1149
 3560.0000   178.2904     8.7181  1395.0558     0.0060     2.4214     0.3100  1340.0000   -75.1070    10.1636     9.6927    12.4579
 3560.5000   180.7121     8.6901  1394.4803     0.0015     2.4241     0.3082  1340.0000   -75.1169    10.3056     9.9597    13.1426
 3561.0000   184.3533     8.6889  1393.9049    -0.0046     2.4240     0.2978  1340.0000   -75.1256    10.5843    10.1231    13.8815
 3561.5000   187.3847     8.6877  1393.3293    -0.0076     2.4232     0.2829  1340.0000   -75.1137    10.6146    10.4173    13.4911
 3562.0000   185.0966     8.6864  1392.7539    -0.0044     2.4314     0.2743  1340.0000   -74.7827    10.7208    10.5092    12.9284
 3562.5000   181.0721     8.6850  1392.1783     0.0019     2.4464     0.2717  1340.0000   -74.4521    10.4338    10.2817    11.8082
 3563.0000   179.7664     8.6838  1391.6029     0.0083     2.4509     0.2681  1340.0000   -74.2429     9.6135     9.3957    10.0453
 3563.5000   178.4604     8.6826  1391.0275     0.0146     2.4463     0.2674  1340.0000   -74.2538     6.2207     6.0338     5.6903
 3564.0000   176.9236     8.6815  1390.4519     0.0414     2.4187     0.2730  1340.0000   -73.9572     3.7879     3.9366     3.9084
 3564.5000   173.8575     8.6802  1389.8765     0.0585     2.3376     0.2876  1340.0000   -73.6606     4.8626     5.6973     6.8877
 3565.0000   164.0841     8.6790  1389.3010     0.0418     2.2959     0.3064  1340.0000   -73.3646     6.5744     6.7238    15.3155
 3565.5000   153.7009     8.6778  1388.7255     0.0222     2.2908     0.3181  1340.0000   -73.0674     7.2410     7.0196    15.2922
 3566.0000   151.2445     8.6765  1388.1500     0.0267     2.3888     0.3119  1340.0000   -73.0540     7.3528     5.4568     8.0141
 3566.5000   154.7245     8.6753  1387.5745     0.0721     2.3841     0.2566  1340.0000   -72.7234     6.5640     4.8530     2.7142
 3567.0000   160.0384     8.6739  1386.9990     0.0778     2.2845     0.2670  1340.0000   -72.0867     4.3671     4.0413     2.3049
 3567.5000   165.5994     8.6727  1386.4236     0.0659     2.2754     0.2864  1340.0000   -71.8790     4.0717     4.0725     3.3347
 3568.0000   172.9007     8.9184  1385.8480     0.0612     2.2678     0.3120  1340.0000   -72.0488     3.6009     2.9600     3.5119
 3568.5000   205.4176     8.9790  1385.2726     0.1361     2.2457     0.3041  1340.0000   -72.8181     2.1708     1.7722     1.6775
 3569.0000   202.4586     9.0087  1384.6970     0.2388     2.1053     0.3154  1340.0000   -73.1326     1.6123     1.7654     1.2607
 3569.5000   198.8749     8.9716  1384.1216     0.2237     2.0034     0.3911  1340.0000   -73.1413     1.9300     3.0137     1.5424
 3570.0000   187.5307     8.8971  1383.5461    -0.0203     2.0278     0.4348  1340.0000   -73.7616     3.1346     5.2642     6.5566
 3570.5000   157.7844     8.8391  1382.9706    -0.0236     2.1542     0.4008  1340.0000   -74.0765     6.0128     7.0347    11.7313
 3571.0000   145.5719     8.7877  1382.3951    -0.0111     2.3338     0.3388  1340.0000   -74.0856     8.2681     8.0596    10.7980
 3571.5000   144.9256     8.7553  1381.8196     0.0046     2.4469     0.2738  1340.0000   -74.0948     9.2354     8.6928     8.5135
 3572.0000   147.4628     8.7541  1381.2441     0.0127     2.4589     0.2664  1340.0000   -74.1040     8.1057     7.8779     9.2318
 3572.5000   149.9035     8.7530  1380.6687     0.0120     2.4618     0.2775  1340.0000   -73.9527     7.9181     7.8738    10.7574
 3573.0000   150.9904     8.7518  1380.0931     0.0140     2.4648     0.2793  1340.0000   -73.8165     8.0249     7.8697     9.0999
 3573.5000   151.2225     8.7506  1379.5177     0.0351     2.4486     0.2796  1340.0000   -73.5199     7.2645     7.8655     7.1827
 3574.0000   152.8132     8.7494  1378.9421     0.0396     2.3916     0.2818  1340.0000   -73.2238     6.3198     6.6292     5.8288
 3574.5000   149.1005     8.7481  1378.3667     0.0185     2.3076     0.2976  1340.0000   -73.5384     5.2107     5.1145     5.7332
 3575.0000   143.5954     8.7469  1377.7913     0.0019     2.2956     0.3157  1344.0000   -73.8532     5.4292     6.3398     8.5346
 3575.5000   141.1390     8.7457  1377.2157    -0.0102     2.3529     0.3474  1350.8267   -74.1682     7.1613     7.5113    10.0732
 3576.0000   140.4958     8.7444  1376.6403    -0.0053     2.4131     0.3196  1357.6533   -74.2712     8.1092     8.1699    10.7925
 3576.5000   143.7491     8.7430  1376.0648     0.0003     2.4553     0.2940  1364.4800   -74.4924     8.5673     8.0924    11.0550
 3577.0000   148.7626     8.7418  1375.4893    -0.0008     2.4522     0.2903  1371.3066   -74.6636     8.2893     7.7268    11.1320
 3577.5000   151.9974     8.7407  1374.9138    -0.0043     2.4507     0.2877  1378.1333   -75.1239     7.8444     7.5118    10.9681
 3578.0000   154.9756     8.7395  1374.3383    -0.0029     2.4524     0.2781  1371.7333   -75.4384     7.5750     7.5078    10.5128
 3578.5000   155.6646     8.7383  1373.7628     0.0001     2.4540     0.2746  1360.3556   -75.4471     7.3385     7.6094    10.0764
 3579.0000   155.6433     8.7430  1373.1874     0.0046     2.4550     0.2813  1348.9778   -75.7616     7.5400     7.8434    10.0685
 3579.5000   156.2357     8.7539  1372.6118     0.0015     2.4550     0.2912  1340.0000   -75.7706     7.7480     8.3107    11.0499
 3580.0000   160.4866     8.7530  1372.0364    -0.0060     2.4534     0.2898  1340.0000   -75.7798     8.0729     8.7647    12.2072
 3580.5000   166.5669     8.7521  1371.4608    -0.0076     2.4533     0.2831  1340.0000   -75.8842     8.5290     8.8562    12.1312
 3581.0000   175.3044     8.7512  1370.8854    -0.0058     2.4533     0.2831  1340.0000   -76.4098     8.7668     8.2867    11.6080
 3581.5000   180.9268     8.7503  1370.3099    -0.0026     2.4517     0.2831  1340.0000   -76.8884     9.0061     7.5826    11.2016
 3582.0000   187.6261     8.7455  1369.7344     0.0005     2.4579     0.2818  1340.0000   -77.0413     8.3225     7.3716    10.8865
 3582.5000   189.6646     8.7176  1369.1589     0.0051     2.4671     0.2779  1340.0000   -77.0500     7.4830     7.1664    10.4346
 3583.0000   188.3828     8.7167  1368.5834     0.0088     2.4734     0.2722  1340.0000   -76.7529     7.1448     7.1626    10.1411
 3583.5000   185.3567     8.7466  1368.0079     0.0110     2.4713     0.2750  1340.0000   -75.8441     7.4078     7.4914    10.1599
 3584.0000   181.0711     8.7457  1367.4325     0.0042     2.4472     0.2872  1340.0000   -75.8246     8.1491     8.0381    11.1026
 3584.5000   177.3952     8.7446  1366.8569    -0.0034     2.4356     0.2905  1340.0000   -75.4938     8.9753     8.7561    12.0032
 3585.0000   168.8413     8.7437  1366.2815    -0.0079     2.4422     0.2881  1340.0000   -74.8573     9.3517     9.2992    12.1810
 3585.5000   167.6045     8.7428  1365.7061    -0.0035     2.4437     0.2772  1340.0000   -74.6575     9.4775     8.6610    12.1676
 3586.0000   186.0048     8.7419  1365.1305     0.0170     2.4361     0.2541  1340.0000   -74.1957     8.2842     5.5631    10.5182
 3586.5000   213.9055     8.7410  1364.5551     0.0820     2.4089     0.2492  1340.0000   -73.4541     3.6860     3.3975     6.8460
 3587.0000   223.6443     8.7778  1363.9795     0.1410     2.2846     0.2524  1340.0000   -73.1570     2.7915     2.9801     2.3806
 3587.5000   224.9237     9.4310  1363.4041     0.1154     2.1116     0.3003  1340.0000   -73.0888     2.7516     5.1143     4.0313
 3588.0000   216.9023     9.5100  1362.8286     0.0867     2.0105     0.4282  1340.0000   -73.4802     4.3638     7.9912     7.8345
