~VERSION INFORMATION
 VERS.                2.0:   CWLS LOG ASCII STANDARD - VERSION 2.0
 WRAP.                 NO:   ONE LINE PER DEPTH STEP
~WELL INFORMATION
#MNEM.UNIT      DATA TYPE    INFORMATION
#----------   ------------   ------------------------------
 STRT.F            0.5000:   START DEPTH
 STOP.F         4149.0000:   STOP DEPTH
 STEP.F            0.5000:   STEP LENGTH
 NULL.          -999.2500:   NO VALUE
 COMP. LAWRENCE ALLISON & ASSOSCIATES:   COMPANY
 WELL. LAWRENCE "X" #34-3:   WELL
 FLD .             NPR #3:   FIELD
 LOC .       S3 T38N R78W:   LOCATION
 CNTY.            NATRONA:   COUNTY
 STAT.            WYOMING:   STATE
 CTRY. UNITED STATES OF AMERICA:   COUNTRY
 SRVC.      DRESSER ATLAS:   SERVICE COMPANY
 DATE.        19-NOV-1983:   LOGDATE
 API .     49025109500000:   API NUMBER
~CURVE INFORMATION
#MNEM.UNIT       API CODE    CURVE DESCRIPTION
#----------   ------------   ------------------------------
 DEPT.F                  :   
 CALD.IN     45 280 60 00:   CALIPER FROM DENSITY LOG
 TEND.LBS    45 635 01 00:   TENSION FORM DENSITY LOG
 DEN .G/C3   45 350 01 00:   BULK DENSITY
 CNC .DEC    42 890 01 00:   NEUTRON POROSITY LIMESTONE
 CORR.G/C3   45 356 01 00:   DENSITY CORRECTION
 TENR.LBS    06 635 01 00:   TENSION FROM RESISTIVITY
 GRR .GAPI   07 310 01 00:   GAMMA RAY FROM RESISTIVITY
 RFOC.OHMM   07 220 04 00:   RESISTIVITY FOCUSED LOG RES.
 RILD.OHMM   07 120 46 00:   DEEP INDUCTION RESISTIVITY
 RILM.OHMM   07 120 44 00:   INDUCTION LOG MEDIUM RESISTIVITY
 SPR .MV     07 010 01 00:   SPONTANEOUS POTENTIAL
 TENS.LBS    60 635 01 00:   TENSION FROM SONIC
 DT  .US/F   60 520 00 00:   DELTA TIME
~PARAMETER INFORMATION
#MNEM.UNIT          VALUE    DESCRIPTION
#----------   ------------   ------------------------------
 EKB .F         5187.0000:   Kelly bushing
 EGL .F         5174.0000:   Ground level
 TD  .F         4140.0000:   Total depth
 CLNT.            A2DTECH:   Client Code
 SL  . 1621' FWL & 1958' FNL:   Surface Location
 PD  .                 GL:   Permanent Datum
 EPD .F              5174:   Elevation Permanent Datum
 LMF .                 KB:   Log Measured From
 DMF .                 KB:   Drilling Measured From
 DAPD.F                13:   Feet Above Permanent Datum
 DATE.        19-NOV-1983:   Date Logged [DD-MMM-YYYY]
 DD  .F              4136:   Depth driller
 DL  .F              4140:   Depth logger
 BLI .F              4138:   Bottom log interval
 TLI .F                 0:   Top log interval
 CS1 .IN            8.625:   Casing size
 CBD1.      8.625" @ 615':   Casing driller 1
 CBL1.F               615:   Casing logger 1
 BS1 .IN            7.875:   Bit size
 BSD1.F              4136:   Depth drilled with bit1
 DFT .            GEL-KCL:   Type fluid in hole
 DFD .                  9:   Density
 DFV .                 45:   Viscosity
 DFPH.                8.5:   pH
 DFL .                 12:   Fluid loss
 MSS .           FLOWLINE:   Source of sample
 RMS .OHMM          0.768:   Rm
 MST .F                74:   Rm Meas. temp.
 RMF .OHMM          0.576:   Rmf
 MFST.F                74:   Rmf Meas. temp.
 MFSS.               CALC:   Source Rmf.
 RMC .OHMM           0.96:   Rmc
 MCST.F                74:   Rmc Meas. temp.
 MCSS.               CALC:   Source Rmc.
 RMB .OHMM          0.418:   Rm. at BHT
 BHT .F               136:   BHT.
 TCS .HRS               4:   Time Circ. stopped
 MRT .F               136:   Maximum recorded temp.
 LUN .               6307:   Logging unit number
 LUL .               GLTE:   Logging unit location
 ENGI.           FAHLSING:   Recorded By
 WITN.           JENNINGS:   Witnessed by
 ORIG.      2.5" 5" PRINT:   Origin of data
 UWI .     49025109500000:   Unique Well ID
 DICO. A2D TECHNOLOGIES, INC.:   Digitizing Company
~OTHER INFORMATION
~A    DEPT    CALD       TEND        DEN        CNC       CORR       TENR         GRR      RFOC       RILD       RILM        SPR       TENS         DT   
# ...
 3640.5000     8.6097     0.0000     2.4987     0.2365     0.0185   -24.1903   149.2899     4.8969     3.4596     3.6773   -85.8027   -25.3125    94.2911
 3641.0000     8.6087     0.0000     2.4980     0.2377     0.0193   -23.0640   146.7655     5.0705     3.5309     3.7280   -86.1167   -25.6250    93.8071
 3641.5000     8.6076     0.0000     2.5004     0.2466     0.0152   -21.9376   151.2968     5.2503     3.5276     3.7304   -86.7354   -18.1260    93.1869
 3642.0000     8.6066     0.0000     2.5081     0.2442     0.0181   -20.8113   152.6477     5.3989     3.5249     3.7822   -87.0493   -18.4374    92.7268
 3642.5000     8.6055     0.0000     2.5120     0.2359     0.0270   -19.6849   148.5164     5.0940     3.5222     3.8297   -87.3632   -18.7500    92.3374
 3643.0000     8.6045     0.0000     2.5075     0.2335     0.0389   -18.5592   147.5877     4.9466     3.5953     3.7735   -87.5247   -19.0626    92.1026
 3643.5000     8.6334     0.0000     2.5029     0.2371     0.0478   -25.1728   152.1189     4.8723     3.5538     3.6661   -87.5337   -19.3750    91.9474
 3644.0000     8.6321     0.0000     2.4999     0.2400     0.0237   -39.5263   160.7591     4.9443     3.4156     3.5618   -87.3903   -19.6875    92.0983
 3644.5000     8.6612     0.0000     2.4983     0.2400     0.0056   -38.1182   162.3325     5.0770     3.2705     3.4117   -87.2405   -20.0000    92.4811
 3645.0000     8.6600     0.0000     2.4923     0.2381    -0.0064   -45.0135   163.2219     4.9999     3.0438     3.1991   -86.7986   -20.3692    92.8639
 3645.5000     8.6590     0.0000     2.4713     0.2328    -0.0006   -43.6060   164.5822     4.7186     2.7731     2.9997   -86.3268   -20.6786    93.3241
 3646.0000     8.6579     0.0000     2.4293     0.2335     0.0173   -42.4797   172.0352     4.2060     2.5626     2.7535   -85.4469   -19.5829    93.7843
 3646.5000     8.6569     0.0000     2.4293     0.2389     0.0531   -41.3534   176.8268     3.5665     2.4364     2.6374   -84.9963   -13.4075    94.3218
 3647.0000     8.6858     0.0000     2.4307     0.2400     0.0770   -40.2270   177.0380     3.0677     2.4172     2.6175   -84.3956   -13.7500    94.7047
 3647.5000     8.6847     0.0000     2.4321     0.2389     0.0769   -38.6972   176.3260     2.9789     2.4153     2.6349   -83.7949   -14.0625    94.5461
 3648.0000     8.6538     0.0000     2.4396     0.2330     0.0887   -30.1856   173.3401     3.1066     2.4325     2.7091   -83.4990   -14.3750    92.9953
 3648.5000     8.6527     0.0000     2.4530     0.2292     0.1006   -21.0869   158.2614     3.3879     2.4632     2.7468   -83.2054   -14.7226    91.0579
 3649.0000     8.6517     0.0000     2.4619     0.2304     0.1125   -12.2207   149.8394     3.8610     2.4968     2.8242   -82.9095   -15.0320    89.2751
 3649.5000     8.6507     0.0000     2.4768     0.2323     0.1034   -19.1160   147.5073     4.5543     2.5489     2.8635   -82.6114   -15.3125    87.4150
 3650.0000     8.6496     0.0000     2.5217     0.2340     0.0195   -17.7079   142.2588     4.7505     2.5829     2.9234   -82.3156   -15.6250    86.1736
 3650.5000     8.6486     0.0000     2.5261     0.2345     0.0224   -16.5816   139.2864     4.4823     2.6366     2.9337   -82.3268   -16.4844    86.0151
 3651.0000     8.6475     0.0000     2.5216     0.2345     0.0222   -23.1952   136.9969     3.9954     2.6723     2.8999   -82.9456   -17.3438    86.4752
 3651.5000     8.6465     0.0000     2.5066     0.2343     0.0221   -22.0586   135.6178     3.7725     2.6893     2.8985   -83.5644   -18.2033    87.8635
 3652.0000     8.6455     0.0000     2.5035     0.2327     0.0224   -20.9431   141.9777     3.3155     2.7650     2.8708   -84.4880   -19.0627    89.2518
 3652.5000     8.6444     0.0000     2.5035     0.2363     0.0509   -27.5566   143.3334     3.5458     2.8390     2.8680   -85.5732   -19.9217    91.3362
 3653.0000     8.6434     0.0000     2.5094     0.2361     0.0898   -33.0191   144.2276     4.0525     2.8363     2.8651   -86.4983   -20.7811    92.2604
 3653.5000     8.6423     0.0000     2.5243     0.2352     0.1175   -28.8211   144.4415     4.3381     2.7935     2.8617   -87.1185   -21.6405    90.9417
 3654.0000     8.6413     0.0000     2.5333     0.2286     0.1106   -24.6231   143.9359     4.6557     2.8308     2.8590   -87.1289   -14.6589    88.2308
 3654.5000     8.6403     0.0000     2.5362     0.2255     0.0976   -29.6808   141.1295     4.8567     2.8685     2.8562   -87.1394   -15.5469    86.5254
 3655.0000     8.6392     0.0000     2.5347     0.2255     0.0743   -28.4656   136.8867     4.5507     2.9067     2.8332   -87.4547    -8.5581    85.8254
 3655.5000     8.6382     0.0000     2.5226     0.2253     0.0267   -27.2504   130.9553     4.2043     2.8420     2.8057   -87.4652    -9.4532    85.2028
 3656.0000     8.6371     0.0000     2.5105     0.2241     0.0368   -26.0352   127.3000     3.8566     2.7401     2.7681   -87.4756   -10.4839    84.8896
 3656.5000     8.6361     0.0000     2.4807     0.2237     0.1095   -24.8206   127.9695     3.5377     2.5861     2.6881   -87.1812    -3.5270    86.4325
 3657.0000     8.6350     0.0000     2.4266     0.2367     0.1438   -23.6054   129.5495     3.3871     2.4408     2.5735   -86.5313     3.6439    87.7435
 3657.5000     8.6340     0.0000     2.4251     0.2596     0.1347   -22.3903   131.8123     3.4827     2.3367     2.4291   -85.3754     2.5738    89.4412
 3658.0000     8.6367     0.0000     2.4266     0.2643     0.0900   -21.1751   136.3513     3.7914     2.2054     2.2605   -84.7735     1.9322    91.2162
 3658.5000     8.6619     0.0000     2.3848     0.2637     0.0686   -19.9599   141.3455     4.0689     2.0815     2.1337   -84.1742    16.4871    92.2177
 3659.0000     8.6608     0.0000     2.3403     0.2643     0.1188   -18.7308   163.8641     3.8223     1.9926     2.0867   -83.8798    15.7813    94.6888
 3659.5000     8.6597     0.0000     2.3351     0.2610     0.1809   -17.4921   177.9630     2.8437     2.0073     2.1313   -83.5854    14.9218    98.4748
 3660.0000     8.6587     0.0000     2.3556     0.2500     0.2010   -23.7509   179.3187     2.4638     2.0749     2.2138   -83.4434    14.0626   104.5810
 3660.5000     8.6642     0.0000     2.4077     0.2316     0.2131   -22.5357   155.1745     2.6442     2.1327     2.3137   -84.5235    13.0641   105.5052
 3661.0000     8.6866     0.0000     2.5045     0.2323     0.2368   -29.3644   148.2518     2.8785     2.2077     2.4120   -85.1437    12.2084   103.7224
 3661.5000     8.6855     0.0000     2.5951     0.2381     0.2416   -27.8453   142.8554     3.2706     2.2853     2.4967   -85.7639     3.5399    97.8405
 3662.0000     8.6844     0.0000     2.6556     0.2400     0.1540   -26.6301   136.6964     3.5605     2.3657     2.6027   -86.0793     2.8126    94.0468
 3662.5000     8.6834     0.0000     2.6791     0.2412     0.0952   -33.4588   135.7725     4.0168     2.4489     2.6941   -86.3249     1.9532    90.8719
 3663.0000     8.6823     0.0000     2.6729     0.2445     0.0830   -31.9403   137.1249     4.1599     2.4992     2.7306   -86.5834     0.9725    88.2383
 3663.5000     8.6415     0.0000     2.6506     0.2487     0.0752   -38.7684   140.2981     4.0112     2.5506     2.7273   -87.6376     0.1169    86.9196
 3664.0000     8.6204     0.0000     2.5996     0.2486     0.0704   -37.2499   144.6095     3.8499     2.5121     2.6409   -87.9530    -0.7392    86.3753
 3664.5000     8.6193     0.0000     2.5704     0.2387     0.0864   -36.0347   154.6091     3.6988     2.4543     2.5872   -87.8110    -1.5948    87.2986
 3665.0000     8.6484     0.0000     2.5511     0.2340     0.1346   -34.8195   157.7824     3.4870     2.3681     2.4974   -87.5165    -2.4509    88.9962
 3665.5000     8.6773     0.0000     2.5481     0.2361     0.1960   -33.5916   156.8586     3.2986     2.2995     2.3558   -87.0697   -11.1190    91.2353
 3666.0000     8.7485     0.0000     2.5412     0.2500     0.2065   -32.3528   155.4795     3.2035     2.2014     2.2389   -86.7726   -11.9747    93.4743
