~VERSION INFORMATION
 VERS.                2.0:   CWLS LOG ASCII STANDARD - VERSION 2.0
 WRAP.                 NO:   ONE LINE PER DEPTH STEP
~WELL INFORMATION
#MNEM.UNIT      DATA TYPE    INFORMATION
#----------   ------------   ------------------------------
 STRT.F            0.0000:   START DEPTH
 STOP.F         3110.5000:   STOP DEPTH
 STEP.F            0.5000:   STEP LENGTH
 NULL.          -999.2500:   NO VALUE
 COMP. LAWRENCE  ALLISON AND ASSOCIATES:   COMPANY
 WELL. LAWRENCE NPR 3 "X" #72-15:   WELL
 FLD .                NPR:   FIELD
 LOC .      S15 T38N R78W:   LOCATION
 CNTY.            NATRONA:   COUNTY
 STAT.            WYOMING:   STATE
 CTRY. UNITED STATES OF AMERICA:   COUNTRY
 SRVC.           WIRELINE:   SERVICE COMPANY
 DATE.        16-JAN-1988:   LOGDATE
 API .     49025111930000:   API NUMBER
~CURVE INFORMATION
#MNEM.UNIT       API CODE    CURVE DESCRIPTION
#----------   ------------   ------------------------------
 DEPT.F                  :   
 TENR.LBS    07 635 01 00:   TENSION FROM RESISTIVITY
 GRR .GAPI   07 310 01 00:   GAMMA RAY FROM RESISTIVITY
 SPR .MV     07 010 01 00:   SPONTANEOUS POTENTIAL
 RFOC.OHMM   07 220 04 00:   RESISTIVITY FOCUSED LOG RES.
 RILD.OHMM   07 120 46 00:   DEEP INDUCTION RESISTIVITY
 RILM.OHMM   07 120 44 00:   INDUCTION LOG MEDIUM RESISTIVITY
 TEND.LBS    45 635 01 00:   TENSION FROM DENSITY LOG
 RHOB.G/C3   45 350 01 00:   BULK DENSITY
 CORR.G/C3   45 356 01 00:   DENSITY CORRECTION
 CNC .DEC    42 890 03 00:   NEUTRON PORISITY SANDSTONE
 CALR.IN     07 280 01 00:   CALIPER FROM RESISTIVITY
~PARAMETER INFORMATION
#MNEM.UNIT          VALUE    DESCRIPTION
#----------   ------------   ------------------------------
 EKB .F         5240.0000:   Kelly bushing
 EGL .F         5229.0000:   Ground level
 EDF .F            0.0000:   Drilling floor
 TD  .F         3090.0000:   Total depth
 DATE.        16-JAN-1988:   Date logged
 CLNT.            A2DTECH:   Client Code
 SL  . 814' FNL & 1208' FEL:   Surface Location
 PD  .                 GL:   Permanent Datum
 DD  .F              3085:   Depth driller
 DL  .F              3090:   Depth logger
 BLI .F              3089:   Bottom log interval
 CS1 .IN            8.625:   Casing size
 CBD1.      8.625" @ 610':   Casing driller 1
 CBL1.F               613:   Casing logger 1
 BS1 .IN            7.875:   Bit size
 DFT .            KCL/GEL:   Type fluid in hole
 DFD .                8.8:   Density
 DFV .                 40:   Viscosity
 DFPH.                8.5:   pH
 DFL .                 10:   Fluid loss
 MSS .           FLOWLINE:   Source of sample
 RMS .OHMM           .543:   Rm
 MST .F                65:   Rm Meas. temp.
 RMF .OHMM           .349:   Rmf
 MFST.F                65:   Rmf Meas. temp.
 RMC .OHMM           .557:   Rmc
 MCST.F                65:   Rmc Meas. temp.
 MFSS.               CALC:   Source Rmf.
 RMB .OHMM           .258:   Rm. at BHT
 BHT .F               114:   BHT.
 TCS .HRS               5:   Time Circ. stopped
 MRT .F               114:   Maximum recorded temp.
 LUN .            HL-6321:   Logging unit number
 LUL .           GILLETTE:   Logging unit location
 ENGI.               CAIN:   Recorded By
 WITN.             STRONG:   Witnessed by
 ORIG.           5" PRINT:   Origin of data
 UWI .     49025111930000:   Unique Well ID
 DICO. A2D TECHNOLOGIES, INC.:   Digitizing Company
 DAPD.F                11:   Feet Above Permanent Datum
 BSD1.F              3085:   Depth drilled with bit1
 MCSS.               CALC:   Source Rmc.
 EPD .F              5229:   Elevation Permanent Datum
 LMF .                 KB:   Log Measured From
 DMF .                 KB:   Drilling Measured From
~OTHER INFORMATION
~A    DEPT    TENR         GRR       SPR       RFOC       RILD       RILM       TEND       RHOB       CORR        CNC       CALR   
# ...
 2714.5000   -56.6850    69.7910   -70.8720    18.9920    23.1940    20.0220   -75.4570     2.4520     0.0730     0.2050     8.9170
 2715.0000   -67.3890    69.5270   -70.6170    18.2710    22.5470    19.3770   -74.2710     2.4520     0.0790     0.2030     8.9170
 2715.5000   -78.0920    69.2840   -70.5040    17.5780    22.1760    18.7310   -77.3000     2.4520     0.0850     0.1990     8.9180
 2716.0000   -88.7960    69.4590   -70.3960    17.6770    21.8200    18.2390   -81.9370     2.4540     0.0910     0.1950     8.9190
 2716.5000   -84.8350    71.0130   -70.2830    17.7940    21.3580    18.3180   -86.5740     2.4580     0.0850     0.1950     8.9190
 2717.0000   -84.8350    72.5670   -70.4710    17.9120    21.4510    18.6550   -91.2110     2.4600     0.0690     0.1940     8.9200
 2717.5000   -84.8350    72.7300   -70.6020    18.0300    21.6380    18.9920   -95.8480     2.4560     0.0540     0.1960     8.9200
 2718.0000   -84.8350    71.7340   -70.7460    18.1480    21.8250    19.3290  -100.4850     2.4530     0.0650     0.1980     8.9210
 2718.5000   -84.8350    69.1160   -70.8960    18.4880    21.9490    19.4540  -102.0160     2.4530     0.0810     0.1900     8.9220
 2719.0000   -79.5860    69.3790   -71.0420    19.5910    21.9890    19.4540   -92.2070     2.4580     0.0810     0.1830     8.9220
 2719.5000   -73.2290    70.9250   -71.1610    21.3330    22.0300    19.4540   -82.3980     2.4620     0.0730     0.1750     8.9220
 2720.0000   -66.8710    72.4770   -71.9040    20.8530    22.0710    19.4540   -72.5890     2.4670     0.0610     0.1700     8.9220
 2720.5000   -60.5140    74.0640   -72.4430    19.7130    22.1110    19.2290   -62.7810     2.4710     0.0490     0.1730     8.9220
 2721.0000   -54.1570    73.3890   -72.5480    18.5730    22.1350    18.9540   -53.8230     2.4710     0.0490     0.1780     8.9220
 2721.5000   -47.8000    72.2960   -72.4840    17.8680    21.8330    18.6790   -64.2170     2.4650     0.0490     0.1840     8.9220
 2722.0000   -41.4420    71.2030   -72.4050    17.7770    21.5860    18.4070   -73.7800     2.4570     0.0490     0.1870     8.9220
 2722.5000   -35.0850    70.6070   -72.3260    17.6860    21.3380    18.3230   -84.0040     2.4480     0.0570     0.1910     8.9220
 2723.0000   -28.7280    72.2480   -72.2470    17.5960    21.0900    18.2390   -65.0100     2.4510     0.0650     0.1940     8.9220
 2723.5000   -22.3710    73.8260   -72.1690    17.4020    20.9440    18.1550   -44.6080     2.4570     0.0730     0.1960     8.9220
 2724.0000   -16.0130    74.9470   -72.0910    17.0990    21.1800    18.0710   -23.6420     2.4620     0.0610     0.1940     8.9220
 2724.5000   -26.8070    72.9220   -72.0110    17.4670    21.3770    18.3590   -38.3370     2.4640     0.0490     0.1910     8.9220
 2725.0000   -41.7920    69.4060   -71.8880    18.7500    21.5730    18.6450   -53.4500     2.4550     0.0410     0.1900     8.9220
 2725.5000   -55.8890    66.0440   -71.7630    18.7390    21.7300    18.9310   -68.5630     2.4460     0.0410     0.1900     8.9220
 2726.0000   -69.7640    66.9510   -71.6330    18.7200    22.0490    19.2760   -83.6760     2.4360     0.0410     0.1890     8.9220
 2726.5000   -83.6390    68.4610   -71.7540    18.7000    22.3690    19.2520   -98.7890     2.4330     0.0410     0.1880     8.9220
 2727.0000   -89.8310    68.9170   -71.9280    18.6810    22.7550    19.2220   -91.6080     2.4360     0.0380     0.1910     8.9220
 2727.5000   -63.7700    68.5730   -72.1040    18.6620    22.6950    19.1930   -72.2610     2.4390     0.0330     0.1940     8.9220
 2728.0000   -37.7090    67.6900   -72.2790    18.6430    22.6180    19.1630   -52.9140     2.4370     0.0280     0.1950     8.9220
 2728.5000   -11.6490    67.4500   -72.4550    18.6240    22.5410    19.1330   -33.5670     2.4330     0.0280     0.1880     8.9220
 2729.0000    14.4120    68.3160   -72.6310    18.6030    22.4640    19.1030   -14.2200     2.4380     0.0300     0.1780     8.9220
 2729.5000    25.2750    69.1680   -72.8050    18.5860    22.3870    19.0730     6.5390     2.4420     0.0320     0.1720     8.9220
 2730.0000    18.5630    70.0130   -72.8650    18.2750    22.2930    19.0430     7.5450     2.4400     0.0340     0.1760     8.9220
 2730.5000     0.9330    70.7940   -72.9210    17.7410    22.1710    19.0140    -9.4570     2.4380     0.0340     0.1790     8.9220
 2731.0000   -16.6960    71.0740   -72.9780    17.7410    22.0480    18.9840   -26.4590     2.4390     0.0260     0.1820     8.9220
 2731.5000   -34.7850    71.3790   -73.0350    18.2990    21.9260    18.9540   -43.4610     2.4400     0.0170     0.1840     8.9220
 2732.0000   -38.5270    71.0490   -73.0920    18.9240    21.8030    18.9240   -60.4630     2.4320     0.0190     0.1850     8.9220
 2732.5000   -42.3690    70.2660   -73.1490    18.7450    21.6810    18.8940   -66.4300     2.4290     0.0210     0.1860     8.9220
 2733.0000   -48.8880    70.1660   -73.2040    18.4310    21.5580    18.8650   -69.6180     2.4330     0.0230     0.1870     8.9220
 2733.5000   -59.9880    71.3660   -73.1570    18.1180    21.4360    18.8350   -72.8060     2.4370     0.0240     0.1880     8.9220
 2734.0000   -71.0880    73.1480   -73.1040    17.8050    21.3320    18.8050   -73.9440     2.4420     0.0220     0.1890     8.9220
 2734.5000   -82.1880    74.1990   -73.0520    17.4170    21.3330    18.7750   -73.9440     2.4440     0.0220     0.1920     8.9220
 2735.0000   -82.8330    73.5410   -73.0420    17.5520    21.3340    18.7490   -73.9440     2.4440     0.0210     0.1970     8.9220
 2735.5000   -80.2040    71.3820   -73.2750    17.7930    21.3340    18.7500   -73.9440     2.4380     0.0200     0.2010     8.9220
 2736.0000   -77.5750    69.4550   -73.5080    18.0350    21.3350    18.7500   -73.9440     2.4310     0.0200     0.1990     8.9220
 2736.5000   -74.8250    69.5200   -74.0450    18.2390    21.3330    18.7480   -71.6420     2.4250     0.0220     0.1940     8.9180
 2737.0000   -57.6720    69.7250   -74.0510    18.2390    21.6540    18.7500   -52.5150     2.4260     0.0230     0.1910     8.9140
 2737.5000   -39.6900    70.3480   -73.8560    18.2390    21.9910    19.0170   -33.3880     2.4270     0.0250     0.1860     8.9100
 2738.0000   -21.7080    71.4000   -73.6430    18.2390    22.3270    19.5000   -14.2610     2.4330     0.0230     0.1820     8.9060
 2738.5000    -3.7260    73.6870   -73.9530    18.2390    22.8990    20.1670     4.8670     2.4420     0.0210     0.1770     8.9020
 2739.0000    15.2650    74.1090   -74.4060    18.2390    23.9140    21.1780    16.6000     2.4530     0.0190     0.1710     8.8970
 2739.5000     8.2650    72.5250   -74.7950    18.5320    24.9300    22.1880    -0.8500     2.4630     0.0170     0.1660     8.8930
 2740.0000    -4.6260    70.0610   -74.7580    18.8430    25.9450    23.1990   -18.4380     2.4730     0.0240     0.1610     8.8890
 2740.5000   -17.5160    68.0200   -74.7190    22.7340    26.6550    24.2720   -36.0270     2.4840     0.0300     0.1570     8.8850
 2741.0000   -30.4060    68.7410   -74.6810    27.8880    26.7670    24.2720   -53.6150     2.4850     0.0190     0.1560     8.8810
 2741.5000   -43.2970    71.4800   -74.6470    30.5640    26.8790    23.7770   -71.2030     2.4760     0.0190     0.1610     8.8770
 2742.0000   -56.1870    72.9530   -74.5870    29.1870    26.9920    22.9610   -84.0040     2.4630     0.0230     0.1690     8.8730
 2742.5000   -61.8120    70.8520   -73.5260    25.0100    27.1120    22.1450   -76.2180     2.4510     0.0270     0.1770     8.8690
 2743.0000   -52.7300    69.2000   -72.3630    20.5280    26.3600    21.3290   -67.3480     2.4410     0.0310     0.1850     8.8650
 2743.5000   -45.0280    68.2080   -71.6350    18.2390    25.5170    20.7980   -58.4770     2.4360     0.0260     0.1900     8.8610
 2744.0000   -46.8780    67.2120   -71.2910    18.5690    24.4390    20.5210   -49.6060     2.4340     0.0200     0.1910     8.8570
 2744.5000   -48.7280    67.2320   -70.9460    18.9260    23.3610    20.2440   -45.4910     2.4370     0.0190     0.1900     8.8530
