~VERSION INFORMATION
 VERS.                2.0:   CWLS LOG ASCII STANDARD - VERSION 2.0
 WRAP.                 NO:   ONE LINE PER DEPTH STEP
~WELL INFORMATION
#MNEM.UNIT      DATA TYPE    INFORMATION
#----------   ------------   ------------------------------
 STRT.F          545.0000:   START DEPTH
 STOP.F         3193.0000:   STOP DEPTH
 STEP.F            0.5000:   STEP LENGTH
 NULL.          -999.2500:   NO VALUE
 COMP. FENIX & SCISSON-U.S. NAVY:   COMPANY
 WELL.   FENIX "A" #47-34:   WELL
 FLD .          N.P.R. #3:   FIELD
 LOC .      S34 T39N R78W:   LOCATION
 CNTY.            NATRONA:   COUNTY
 STAT.            WYOMING:   STATE
 CTRY. UNITED STATES OF AMERICA:   COUNTRY
 SRVC.       SCHLUMBERGER:   SERVICE COMPANY
 DATE.        26-MAR-1977:   LOGDATE
 API .     49025103260000:   API NUMBER
~CURVE INFORMATION
#MNEM.UNIT       API CODE    CURVE DESCRIPTION
#----------   ------------   ------------------------------
 DEPT.F                  :   
 SPR .MV     07 010 01 00:   SPONTANEOUS POTENTIAL FROM RES.
 ILM .OHMM   07 120 44 00:   INDUCTION LOG MEDIUM RESISTIVITY
 ILD .OHMM   07 120 46 00:   DEEP INDUCTION RESISTIVITY
 LL8 .OHMM   07 220 08 00:   LATEROLOG-8 RES.
 CALD.IN     45 280 60 00:   CALIPER FROM DENSITY LOG
 GRD .GAPI   45 310 01 00:   GAMMA RAY FROM DENSITY LOG
 RHOB.G/C3   45 350 01 00:   BULK DENSITY
 CORR.G/C3   45 356 01 00:   DENSITY CORRECTION
~PARAMETER INFORMATION
#MNEM.UNIT          VALUE    DESCRIPTION
#----------   ------------   ------------------------------
 EKB .F         5144.0000:   Kelly bushing
 EGL .F         5132.0000:   Ground level
 TD  .F         3194.0000:   Total depth
 CLNT.            A2DTECH:   Client Code
 SL  . 2310' FWL & 990' FSL:   Surface Location
 PD  .                 GL:   Permanent Datum
 EPD .F              5132:   Elevation Permanent Datum
 LMF .                 KB:   Log Measured From
 DMF .                 KB:   Drilling Measured From
 DAPD.F                12:   Feet Above Permanent Datum
 DATE.        26-MAR-1977:   Date Logged [DD-MMM-YYYY]
 DD  .F              3188:   Depth driller
 DL  .F              3194:   Depth logger
 BLI .F              3188:   Bottom log interval
 TLI .F               564:   Top log interval
 CS1 .IN            8.625:   Casing size
 CBD1.      8.625" @ 570':   Casing driller 1
 CBL1.F               564:   Casing logger 1
 BS1 .IN            7.875:   Bit size
 BSD1.F              3188:   Depth drilled with bit1
 DFT .                KCL:   Type fluid in hole
 DFD .                9.2:   Density
 DFV .                 30:   Viscosity
 DFL .                9.2:   Fluid loss
 MSS .                PIT:   Source of sample
 RMS .OHMM          0.354:   Rm
 MST .F                70:   Rm Meas. temp.
 RMF .OHMM          0.326:   Rmf
 MFST.F                70:   Rmf Meas. temp.
 MFSS.               MEAS:   Source Rmf.
 RMC .OHMM          0.531:   Rmc
 MCST.F                70:   Rmc Meas. temp.
 MCSS.               CALC:   Source Rmc.
 RMB .OHMM          0.205:   Rm. at BHT
 BHT .F               121:   BHT.
 TLAB.HRS            1900:   Time logger at bottom
 MRT .F               121:   Maximum recorded temp.
 LUN .               5642:   Logging unit number
 LUL .               CSPR:   Logging unit location
 ENGI.             MARTIN:   Recorded By
 WITN.         PETTINGILL:   Witnessed by
 ORIG.           5" PRINT:   Origin of data
 UWI .     49025103260000:   Unique Well ID
 DICO. A2D TECHNOLOGIES, INC.:   Digitizing Company
~OTHER INFORMATION
~A   DEPT      SPR        ILM        ILD        LL8       CALD         GRD      RHOB       CORR   
# ...
 2975.0000   -58.8572     4.9707     4.3838     9.5203     8.6383   167.8577     2.5285     0.0205
 2975.5000   -58.6866     4.8058     3.8920     8.5339     8.6383   174.4257     2.5151     0.0149
 2976.0000   -58.3659     4.5850     3.2424     5.3411     8.6383   183.3716     2.4583     0.0106
 2976.5000   -58.0411     4.4288     3.0081     4.3456     8.6383   191.8711     2.4494     0.0200
 2977.0000   -57.7017     4.0866     2.8294     3.5114     8.6383   192.4793     2.4285     0.0526
 2977.5000   -57.5488     3.6882     2.6614     2.6802     8.6383   184.4652     2.3993     0.0775
 2978.0000   -57.6837     3.1935     2.6086     3.8890     8.6383   172.4290     2.3807     0.0001
 2978.5000   -57.6581     3.1522     2.7787     6.6802     8.6383   137.3287     2.3868    -0.0018
 2979.0000   -57.6377     3.3128     2.9397    10.9346     8.6384   133.4770     2.5338     0.0207
 2979.5000   -57.4723     3.5048     3.1860    10.5728     8.6420   133.4943     2.5639     0.0344
 2980.0000   -58.0474     3.7150     3.6469     9.8760     8.6509   133.1838     2.5175     0.0198
 2980.5000   -58.3273     4.3827     4.1901    10.0397     8.6598   130.2595     2.5176     0.0144
 2981.0000   -58.4570     4.9002     4.8476    10.8997     8.6686   128.1935     2.5350     0.0261
 2981.5000   -58.2813     5.2928     5.0568    11.8515     8.6775   129.1036     2.5284     0.0216
 2982.0000   -58.1108     5.5610     5.0963    12.7069     8.6864   132.9900     2.5322     0.0131
 2982.5000   -58.0904     5.5670     5.1007    11.5487     8.6952   134.6442     2.5496     0.0147
 2983.0000   -58.0721     5.4586     5.0343    10.8624     8.7041   136.2985     2.5579     0.0220
 2983.5000   -57.8994     5.3507     4.9313    10.2169     8.7130   138.6967     2.5595     0.0273
 2984.0000   -57.8790     5.2134     4.8394     9.6763     8.7218   143.3516     2.5559     0.0336
 2984.5000   -57.7084     5.1816     4.7454     9.6100     8.7307   145.5810     2.5425     0.0383
 2985.0000   -57.6877     5.1885     4.7159     9.3662     8.7396   146.0447     2.5246     0.0244
 2985.5000   -57.5124     5.1941     4.6886     9.1802     8.7485   145.1692     2.5487     0.0284
 2986.0000   -57.3418     5.2357     4.6283    10.1229     8.7568   138.4901     2.5376     0.0378
 2986.5000   -57.3214     5.3142     4.6004    11.0069     8.7571   139.6978     2.5204     0.0199
 2987.0000   -57.3010     5.3199     4.5102    11.6421     8.7539   142.8402     2.5108     0.0139
 2987.5000   -57.5860     5.2889     4.4473    11.6522     8.7502   148.0658     2.5161     0.0101
 2988.0000   -57.7157     5.1873     4.2470    10.8843     8.7466   150.0206     2.5245     0.0094
 2988.5000   -57.9910     4.8462     3.8328     9.4488     8.7429   154.7998     2.5186     0.0110
 2989.0000   -58.2704     4.0817     3.5557     7.3070     8.7393   162.8528     2.5269     0.0150
 2989.5000   -58.2492     3.6333     3.4145     6.0278     8.7357   170.3106     2.5128     0.0205
 2990.0000   -58.2245     3.3709     3.2564     5.0417     8.7320   184.9113     2.4934     0.0159
 2990.5000   -58.2041     3.1708     3.1270     4.1305     8.7284   189.9881     2.4950     0.0171
 2991.0000   -58.1837     3.0879     3.0446     3.7523     8.7248   192.4039     2.5543     0.0277
 2991.5000   -58.0131     3.1787     3.0055     6.0488     8.7211   190.1759     2.5769     0.0402
 2992.0000   -57.9927     3.2713     3.1143     6.3102     8.7175   182.0087     2.5815     0.0441
 2992.5000   -57.8221     3.4609     3.3397     6.4648     8.7139   167.5915     2.5779     0.0465
 2993.0000   -57.8017     3.6869     3.5080     8.4494     8.7102   148.6897     2.5757     0.0380
 2993.5000   -57.6306     3.9006     3.7359     9.5759     8.7066   139.5012     2.5733     0.0412
 2994.0000   -57.6057     4.1267     4.1756     9.5842     8.7030   134.1613     2.5460     0.0278
 2994.5000   -57.5853     4.5987     4.4777     9.8612     8.6993   135.0715     2.5311     0.0143
 2995.0000   -57.5648     5.1602     4.6711    10.2872     8.6957   136.1609     2.5349     0.0105
 2995.5000   -57.5444     5.4593     4.8402    11.0322     8.6921   136.7431     2.5515     0.0338
 2996.0000   -57.6793     5.6183     4.9458    11.6688     8.6884   135.1278     2.5614     0.0464
 2996.5000   -57.8048     5.7819     5.0886    11.9237     8.6848   131.8713     2.5555     0.0353
 2997.0000   -57.7835     5.9503     5.1995    11.6892     8.6812   130.1030     2.5541     0.0325
 2997.5000   -57.7628     6.1236     5.3017    11.5389     8.6779   128.6322     2.5513     0.0271
 2998.0000   -57.7376     6.1728     5.3914    11.3906     8.6778   131.6257     2.5266     0.0078
 2998.5000   -57.7172     6.3103     5.5089    12.2181     8.6779   132.6847     2.5394     0.0118
 2999.0000   -57.5466     6.4050     5.5520    13.0127     8.6779   131.6091     2.5650     0.0219
 2999.5000   -57.3761     6.4563     5.6351    12.7567     8.6779   128.7058     2.5666     0.0360
 3000.0000   -57.2055     6.4632     5.6791    13.1257     8.6779   127.0508     2.5510     0.0283
 3000.5000   -57.1851     6.3813     5.5676    14.0887     8.6779   126.4688     2.5384     0.0113
 3001.0000   -57.1647     6.3440     5.5329    13.7076     8.6779   126.9396     2.5287     0.0223
 3001.5000   -57.1441     6.3072     5.4996    12.6287     8.6779   131.8766     2.5236     0.0139
 3002.0000   -57.5069     6.2273     5.5821    11.4751     8.6779   139.0763     2.5245     0.0217
 3002.5000   -57.5825     6.2788     5.6256    10.7932     8.6779   142.1982     2.5373     0.0350
 3003.0000   -57.6581     6.3291     5.7089    10.7259     8.6779   138.6446     2.5719     0.0414
 3003.5000   -57.7337     6.3798     5.7545    11.5051     8.6779   134.0436     2.5878     0.0499
 3004.0000   -57.8093     6.5204     5.7986    15.1778     8.6779   129.7406     2.5796     0.0298
 3004.5000   -57.8850     6.7568     5.8536    17.2317     8.6786   125.8847     2.5677     0.0252
 3005.0000   -57.9606     6.9090     5.9310    18.3240     8.6743   124.8605     2.5633     0.0378
 3005.5000   -58.0366     6.9629     5.9362    22.4055     8.6396   124.5766     2.5665     0.0293
 3006.0000   -58.1102     6.7785     5.9413    18.4831     8.6384   128.3261     2.5854     0.0387
 3006.5000   -58.1817     6.4225     5.8126    15.5665     8.6383   132.9650     2.5727     0.0420
 3007.0000   -58.0274     6.2111     5.5391    13.6646     8.6383   137.1568     2.5504     0.0309
 3007.5000   -57.9871     6.0482     5.2472    11.5880     8.6383   137.7719     2.5205     0.0111
 3008.0000   -57.6642     5.9303     4.9030    10.6759     8.6383   135.2418     2.5108     0.0073
 3008.5000   -57.4307     5.7316     4.6106    10.5387     8.6383   136.7713     2.5222     0.0237
 3009.0000   -57.2038     5.3226     4.3310    10.5502     8.6383   142.7499     2.5276     0.0215
 3009.5000   -56.9745     4.3910     3.7602    10.4146     8.6383   149.9192     2.5195     0.0192
 3010.0000   -56.6011     3.9356     3.0397     8.8319     8.6383   166.1857     2.4941     0.0302
 3010.5000   -56.2419     3.5275     2.6509     7.0873     8.6383   189.1555     2.4716     0.0396
 3011.0000   -56.1255     2.7536     2.3602     4.1173     8.6383   216.7453     2.4305     0.0507
 3011.5000   -55.3650     2.1945     2.1454     2.4593     8.6391   233.9240     2.4071     0.0832
 3012.0000   -54.6738     2.2643     1.9908     1.7767     8.6829   228.5276     2.4189     0.1344
 3012.5000   -53.6867     2.4963     1.8475     3.3342     9.0876   212.0378     2.3365     0.0244
 3013.0000   -53.0610     3.4269     2.0902     9.0194     9.4960   174.7990     2.3404     0.0106
 3013.5000   -53.6135     3.8316     2.5091    14.2393     8.5421   138.3860     2.5002     0.0176
 3014.0000   -54.5442     4.3138     2.8051    17.6542     8.5216   116.7162     2.5333     0.0193
 3014.5000   -55.5341     4.7243     3.6001    17.5451     8.5282   114.9421     2.5431     0.0132
 3015.0000   -56.0740     5.2097     4.7496    17.5657     8.5337   116.9032     2.5395     0.0164
