~VERSION INFORMATION
 VERS.                2.0:   CWLS LOG ASCII STANDARD - VERSION 2.0
 WRAP.                 NO:   ONE LINE PER DEPTH STEP
~WELL INFORMATION
#MNEM.UNIT      DATA TYPE    INFORMATION
#----------   ------------   ------------------------------
 STRT.F           96.5000:   START DEPTH
 STOP.F         2720.0000:   STOP DEPTH
 STEP.F            0.5000:   STEP LENGTH
 NULL.          -999.2500:   NO VALUE
 COMP.          INTEX OIL:   COMPANY
 WELL. INTEX NPR 65 "AX" #3-20:   WELL
 FLD .             TEAPOT:   FIELD
 LOC .      S20 T39N R78W:   LOCATION
 CNTY.            NATRONA:   COUNTY
 STAT.            WYOMING:   STATE
 CTRY. UNITED STATES OF AMERICA:   COUNTRY
 SRVC.       SCHLUMBERGER:   SERVICE COMPANY
 DATE.        04-MAY-1966:   LOGDATE
 API .     49025094910000:   API NUMBER
~CURVE INFORMATION
#MNEM.UNIT       API CODE    CURVE DESCRIPTION
#----------   ------------   ------------------------------
 DEPT.F                  :   
 SPR .MV     05 010 01 00:   SPONTANEOUS POTENTIAL FROM RES.
 SN  .OHMM   05 040 16 00:   SHORT NORMAL 16"
 ILD .OHMM   05 120 46 00:   INDUCTION LOG DEEP
 CALD.IN     45 280 60 00:   CALIPER FROM DENSITY LOG
 CORR.G/C3   45 356 01 00:   DENSITY CORRECTION
 GRD .GAPI   45 310 01 00:   GAMMA RAY FROM DENSITY LOG
 RHOB.G/C3   45 350 01 00:   BULK DENSITY
~PARAMETER INFORMATION
#MNEM.UNIT          VALUE    DESCRIPTION
#----------   ------------   ------------------------------
 EKB .F         5053.3000:   Kelly bushing
 EGL .F         5043.0000:   Ground level
 EDF .F            0.0000:   Drilling floor
 TD  .F         2720.0000:   Total depth
 DATE.        04-MAY-1966:   Date logged
 CLNT.            A2DTECH:   Client Code
 PD  .                 GL:   Permanent Datum
 EPD .F              5043:   Elevation Permanent Datum
 LMF .                 KB:   Log Measured From
 DMF .                 KB:   Drilling Measured From
 DAPD.F              10.3:   Feet Above Permanent Datum
 DD  .F              2720:   Depth driller
 DL  .F              2720:   Depth logger
 BLI .F              2719:   Bottom log interval
 TLI .F                97:   Top log interval
 CS1 .IN            10.75:   Casing size
 CBD1.       10.75" @ 30':   Casing driller 1
 BS1 .IN            7.875:   Bit size
 BSD1.F              2720:   Depth drilled with bit1
 DFT . GEL/Q-BROX/OIL/DAKOLITE:   Type fluid in hole
 DFD .               10.3:   Density
 DFV .                 41:   Viscosity
 DFPH.                7.2:   pH
 DFL .                8.8:   Fluid loss
 MSS .           FLOWLINE:   Source of sample
 RMS .OHMM              2:   Rm
 MST .F                61:   Rm Meas. temp.
 RMF .OHMM           1.31:   Rmf
 MFST.F                65:   Rmf Meas. temp.
 MFSS.                 FP:   Source Rmf.
 RMB .OHMM           1.15:   Rm. at BHT
 BHT .F               110:   BHT.
 TCS .HRS               2:   Time Circ. stopped
 MRT .F               110:   Maximum recorded temp.
 LUN .               4507:   Logging unit number
 LUL .               CSPR:   Logging unit location
 ENGI.            MANGOLD:   Recorded By
 WITN.             TUTTLE:   Witnessed by
 ORIG.       2", 5" PRINT:   Origin of data
 UWI .     49025094910000:   Unique Well ID
 DICO. A2D TECHNOLOGIES, INC.:   Digitizing Company
~OTHER INFORMATION
~A   DEPT      SPR         SN         ILD      CALD       CORR        GRD       RHOB   
# ...
 2553.5000   -26.5940     7.3490     4.9950     8.0060     0.0220   134.5420     2.5080
 2554.0000   -26.5790     7.3320     4.9860     8.0030     0.0290   134.4110     2.5170
 2554.5000   -26.4940     7.3010     4.9740     8.0010     0.0240   136.7650     2.5190
 2555.0000   -26.4370     7.2710     4.9620     7.9990     0.0260   138.7470     2.5190
 2555.5000   -26.4110     7.2400     4.9510     7.9970     0.0280   140.8520     2.5170
 2556.0000   -26.3750     7.2040     4.9410     7.9950     0.0230   142.8810     2.5180
 2556.5000   -26.3210     7.1730     4.9300     7.9920     0.0190   143.3420     2.4990
 2557.0000   -26.2680     7.1710     4.9190     7.9900     0.0140   140.8930     2.4900
 2557.5000   -26.2230     7.2060     4.9090     7.9880     0.0150   138.2320     2.4980
 2558.0000   -26.1920     7.2620     4.8980     7.9860     0.0160   136.0740     2.4940
 2558.5000   -26.1800     7.3160     4.8860     7.9830     0.0130   137.5540     2.4860
 2559.0000   -26.1780     7.3560     4.8750     7.9810     0.0100   140.0020     2.4790
 2559.5000   -26.1780     7.3900     4.8670     7.9790     0.0110   143.0310     2.4720
 2560.0000   -26.1810     7.4390     4.8560     7.9770     0.0190   143.0640     2.5000
 2560.5000   -26.1890     7.5040     4.8420     7.9750     0.0260   141.9760     2.5180
 2561.0000   -26.1840     7.5500     4.8290     7.9730     0.0340   140.4300     2.5150
 2561.5000   -26.1650     7.5250     4.8260     7.9730     0.0340   139.9030     2.5020
 2562.0000   -26.1730     7.4230     4.8200     7.9730     0.0140   140.4620     2.4770
 2562.5000   -26.2120     7.2900     4.7830     7.9730     0.0070   140.9160     2.4850
 2563.0000   -26.2020     7.1680     4.7030     7.9730     0.0210   141.3210     2.5000
 2563.5000   -26.0740     7.0580     4.5970     7.9730     0.0260   141.8030     2.4950
 2564.0000   -25.8970     6.9460     4.4980     7.9730     0.0150   142.3310     2.4870
 2564.5000   -25.8220     6.8340     4.4160     7.9730     0.0130   144.3950     2.4790
 2565.0000   -25.8990     6.7210     4.3360     7.9730     0.0160   146.3010     2.4700
 2565.5000   -26.0360     6.5960     4.2360     7.9730     0.0180   148.3620     2.4650
 2566.0000   -26.1350     6.4740     4.1240     7.9730     0.0170   148.6440     2.4760
 2566.5000   -26.1980     6.4010     4.0460     7.9730     0.0200   148.0800     2.4820
 2567.0000   -26.2780     6.4070     4.0350     7.9730     0.0240   150.0590     2.4740
 2567.5000   -26.3910     6.4660     4.0770     7.9730     0.0180   148.4170     2.4660
 2568.0000   -26.4970     6.5280     4.1290     7.9730     0.0210   145.1680     2.4720
 2568.5000   -26.5470     6.5730     4.1690     7.9730     0.0240   141.9310     2.4810
 2569.0000   -26.5230     6.6170     4.2040     7.9730     0.0180   143.2670     2.4900
 2569.5000   -26.4510     6.6690     4.2440     7.9730     0.0260   142.4950     2.4990
 2570.0000   -26.3720     6.7220     4.2880     7.9730     0.0280   142.4420     2.5050
 2570.5000   -26.3050     6.7700     4.3290     7.9730     0.0150   142.8930     2.4950
 2571.0000   -26.2420     6.8170     4.3670     7.9730     0.0060   143.5040     2.4790
 2571.5000   -26.1730     6.8690     4.4080     7.9730     0.0120   143.9190     2.4700
 2572.0000   -26.1010     6.9190     4.4490     7.9730     0.0180   143.2920     2.4770
 2572.5000   -26.0340     6.9570     4.4890     7.9730     0.0270   139.3550     2.4870
 2573.0000   -25.9670     6.9810     4.5290     7.9730     0.0270   138.0190     2.4830
 2573.5000   -25.8960     6.9980     4.5720     7.9730     0.0190   138.0250     2.4660
 2574.0000   -25.8320     7.0130     4.6130     7.9740     0.0120   138.4700     2.4520
 2574.5000   -25.7870     7.0260     4.6490     7.9770     0.0050   137.0560     2.4300
 2575.0000   -25.7600     7.0430     4.6880     7.9790     0.0000   135.7880     2.4360
 2575.5000   -25.7420     7.0660     4.7370     7.9820     0.0040   128.0420     2.4610
 2576.0000   -25.7240     7.0840     4.7800     7.9850     0.0100   129.4870     2.4800
 2576.5000   -25.7040     7.0890     4.7850     7.9880     0.0080   134.8330     2.4740
 2577.0000   -25.6840     7.1010     4.7420     7.9900     0.0040   140.6320     2.4790
 2577.5000   -25.6650     7.1410     4.6740     7.9930     0.0030   141.3580     2.4870
 2578.0000   -25.6470     7.1690     4.6080     7.9960     0.0090   142.1570     2.4960
 2578.5000   -25.6270     7.1090     4.5490     7.9990     0.0130   141.1750     2.4940
 2579.0000   -25.6080     6.9520     4.4930     8.0020     0.0180   141.0200     2.4880
 2579.5000   -25.5890     6.7660     4.4370     8.0040     0.0150   143.9360     2.4750
 2580.0000   -25.5700     6.5900     4.3760     8.0070     0.0070   145.6110     2.4640
 2580.5000   -25.5510     6.3940     4.3060     8.0100     0.0100   146.7110     2.4520
 2581.0000   -25.5320     6.1840     4.2490     8.0130     0.0180   146.5020     2.4550
 2581.5000   -25.5130     6.0760     4.2390     8.0150     0.0170   143.9530     2.4640
 2582.0000   -25.4930     6.2060     4.2860     8.0180     0.0140   135.6670     2.4730
 2582.5000   -25.4750     6.6110     4.3640     8.0210     0.0190   128.0550     2.4820
 2583.0000   -25.4570     7.1820     4.4410     8.0240     0.0260   120.2060     2.4900
 2583.5000   -25.4360     7.6720     4.5030     8.0270     0.0220   113.5260     2.4990
 2584.0000   -25.4150     7.8000     4.5550     8.0290     0.0180   116.5970     2.5080
 2584.5000   -25.3980     7.4830     4.6160     8.0320     0.0390   125.4670     2.5150
 2585.0000   -25.3920     6.9660     4.7000     8.0350     0.0640   134.6220     2.5120
 2585.5000   -25.3930     6.6250     4.7760     8.0380     0.0470   135.4080     2.5100
 2586.0000   -25.3950     6.6280     4.7690     8.0400     0.0350   136.8410     2.5070
 2586.5000   -25.3940     6.8520     4.6370     8.0430     0.0210   137.8700     2.5050
 2587.0000   -25.3930     7.0600     4.4210     8.0460     0.0080   140.0960     2.5010
 2587.5000   -25.3930     7.0910     4.2000     8.0490     0.0090   142.0590     2.4970
 2588.0000   -25.3940     6.8970     3.9960     8.0510     0.0120   144.9040     2.4930
 2588.5000   -25.3940     6.5420     3.7870     8.0510     0.0160   149.2250     2.4900
 2589.0000   -25.3930     6.1460     3.5720     8.0510     0.0190   153.7870     2.4890
 2589.5000   -25.3940     5.7780     3.3840     8.0510     0.0200   157.9400     2.4950
 2590.0000   -25.3940     5.4100     3.2300     8.0510     0.0180   163.1270     2.4750
 2590.5000   -25.3930     5.0110     3.0860     8.0510     0.0180   170.6660     2.4300
 2591.0000   -25.3930     4.6650     2.9530     8.0510     0.0230   171.6770     2.4350
 2591.5000   -25.3950     4.5280     2.8960     8.0510     0.0580   167.3030     2.4540
 2592.0000   -25.3960     4.6790     2.9900     8.0490     0.0480   159.2190     2.4560
 2592.5000   -25.3910     5.0480     3.2440     8.0450     0.0200   144.5590     2.4480
 2593.0000   -25.3900     5.5130     3.5860     8.0400     0.0130   133.7360     2.4660
 2593.5000   -25.4040     6.0030     3.9470     8.0350     0.0170   131.6200     2.5010
 2594.0000   -25.4400     6.4840     4.3300     8.0310     0.0110   131.2970     2.5020
 2594.5000   -25.4870     6.8890     4.7660     8.0260     0.0030   131.1670     2.5020
 2595.0000   -25.5340     7.1410     5.2030     8.0210     0.0040   130.8510     2.5060
 2595.5000   -25.5740     7.2490     5.4980     8.0160     0.0050   130.6400     2.5100
 2596.0000   -25.6090     7.2950     5.5570     8.0120     0.0070   130.3920     2.5120
 2596.5000   -25.6480     7.3210     5.4500     8.0070     0.0080   130.2970     2.5110
 2597.0000   -25.7000     7.2660     5.3290     8.0020     0.0090   130.3250     2.5100
 2597.5000   -25.7490     7.0690     5.2590     7.9970     0.0100   130.5910     2.5070
 2598.0000   -25.7720     6.8020     5.1960     7.9930     0.0100   133.9850     2.5020
 2598.5000   -25.7800     6.6130     5.1030     7.9880     0.0090   137.6990     2.4960
