~VERSION INFORMATION
 VERS.                2.0:   CWLS LOG ASCII STANDARD - VERSION 2.0
 WRAP.                 NO:   ONE LINE PER DEPTH STEP
~WELL INFORMATION
#MNEM.UNIT      DATA TYPE    INFORMATION
#----------   ------------   ------------------------------
 STRT.F           11.0000:   START DEPTH
 STOP.F         4154.0000:   STOP DEPTH
 STEP.F            0.5000:   STEP LENGTH
 NULL.          -999.2500:   NO VALUE
 COMP.   LAWRENCE ALLISON:   COMPANY
 WELL. ALLISON NPR 3 "LX" #14-22:   WELL
 FLD .                NPR:   FIELD
 LOC .      S22 T38N R78W:   LOCATION
 CNTY.            NATRONA:   COUNTY
 STAT.            WYOMING:   STATE
 CTRY. UNITED STATES OF AMERICA:   COUNTRY
 SRVC.       DRESER ATLAS:   SERVICE COMPANY
 DATE.        14-APR-1985:   LOGDATE
 API .     49025110230000:   API NUMBER
~CURVE INFORMATION
#MNEM.UNIT       API CODE    CURVE DESCRIPTION
#----------   ------------   ------------------------------
 DEPT.F                  :   
 TEND.LBS    45 635 01 00:   TENSION FROM DENSITY LOG
 RHOB.G/C3   45 350 01 00:   BULK DENSITY
 DRHO.G/C3   45 356 01 00:   DENSITY CORRECTION
 CALD.IN     45 280 60 00:   CALIPER FROM DENSITY LOG
 NPHI.DEC    42 890 03 00:   NEUTRON POROSITY SANDSTONE
 TENR.LBS    07 635 01 00:   TENSION FROM RESISTIVITY
 SPR .MV     07 010 01 00:   SPONTANEOUS POTENTIAL
 GRR .GAPI   07 310 01 00:   GAMMA RAY FROM RESISTIVITY
 RFOC.OHMM   07 220 01 00:   RESISTIVITY FOCUSED LOG RES.
 RILD.OHMM   07 120 46 00:   DEEP INDUCTION RESISTIVITY
 RILM.OHMM   07 120 44 00:   INDUCTION LOG MEDIUM RESISTIVITY
~PARAMETER INFORMATION
#MNEM.UNIT          VALUE    DESCRIPTION
#----------   ------------   ------------------------------
 EKB .F         5230.4000:   Kelly bushing
 EGL .F         5220.4000:   Ground level
 EDF .F            0.0000:   Drilling floor
 TD  .F         4150.0000:   Total depth
 DATE.        14-APR-1985:   Date logged
 CLNT.            A2DTECH:   Client Code
 SL  . 905' FNL & 824' FWL:   Surface Location
 PD  .                 GL:   Permanent Datum
 EPD .F            5220.4:   Elevation Permanent Datum
 LMF .                 KB:   Log Measured From
 DMF .                 KB:   Drilling Measured From
 DAPD.F                10:   Feet Above Permanent Datum
 DD  .F              4150:   Depth driller
 DL  .F              4140:   Depth logger
 BLI .F              4138:   Bottom log interval
 CS1 .IN            8.625:   Casing size
 CBD1.      8.625" @ 738':   Casing driller 1
 CBL1.F               738:   Casing logger 1
 BS1 .IN            7.875:   Bit size
 BSD1.F              4150:   Depth drilled with bit1
 DFT .            KCL/GEL:   Type fluid in hole
 DFD .                9.1:   Density
 DFV .                 48:   Viscosity
 DFPH.                8.5:   pH
 DFL .                 10:   Fluid loss
 MSS .           FLOWLINE:   Source of sample
 RMS .OHMM            .35:   Rm
 MST .F                62:   Rm Meas. temp.
 RMF .OHMM            .26:   Rmf
 MFST.F                62:   Rmf Meas. temp.
 RMC .OHMM            .43:   Rmc
 MCST.F                62:   Rmc Meas. temp.
 MFSS.               CALC:   Source Rmf.
 MCSS.               CALC:   Source Rmc.
 RMB .OHMM            .16:   Rm. at BHT
 BHT .F               140:   BHT.
 TCS .HRS               6:   Time Circ. stopped
 MRT .F               140:   Maximum recorded temp.
 LUN .               6274:   Logging unit number
 LUL .               GLTE:   Logging unit location
 ENGI.               MACK:   Recorded By
 WITN.             STRONG:   Witnessed by
 ORIG.           5" PRINT:   Origin of data
 UWI .     49025110230000:   Unique Well ID
 DICO. A2D TECHNOLOGIES, INC.:   Digitizing Company
~OTHER INFORMATION
~A   DEPT     TEND       RHOB       DRHO       CALD       NPHI       TENR        SPR        GRR       RFOC       RILD       RILM   
# ...
 4098.0000   201.8370     2.5110     0.0000     8.3070     0.1860   136.7700   -82.6230   167.6340     5.3690     7.1870     5.7040
 4098.5000   225.8790     2.5090     0.0060     8.3070     0.1240   153.1200   -81.9830   170.1200    15.0450     8.7500     7.4040
 4099.0000   248.4010     2.4830    -0.0120     8.3070     0.1190   179.5650   -81.8210   172.7800    26.0260    10.3140     9.1030
 4099.5000   270.9240     2.4270    -0.0720     8.3070     0.1170   206.0100   -81.6060   172.5890    33.8270    11.8780    11.0860
 4100.0000   291.2120     2.3910    -0.1340     8.3070     0.1180   232.4560   -81.3890   170.5150    31.9110    12.0450    10.7220
 4100.5000   291.5760     2.4520    -0.0840     8.3070     0.1200   243.5170   -81.9310   168.4560    29.4070     9.7700     9.9250
 4101.0000   294.9190     2.4990    -0.0060     8.3070     0.1390   239.6130   -82.5550   167.2580    26.5250     8.0170     8.5620
 4101.5000   298.2620     2.5200     0.0210     8.3070     0.1680   235.7090   -83.1780   166.3090    21.5170     6.2630     7.0730
 4102.0000   301.1420     2.5040     0.0170     8.3070     0.2220   231.8050   -83.8000   165.3520    14.6570     4.5100     5.5840
 4102.5000   304.5110     2.5020  -999.2500     8.3070     0.2110   227.9010   -84.4200   165.9130     7.7960     2.7050     4.0960
 4103.0000   308.0930     2.5070  -999.2500     8.3070     0.1890   231.4400   -84.9520   167.2440     3.2060     2.5610     2.5830
 4103.5000   314.1110     2.5080  -999.2500     8.3070     0.1670   247.1900   -85.4570   168.8200     2.6800     2.4130     2.5060
 4104.0000   332.1650     2.5060  -999.2500     8.3070     0.1620   262.9410   -85.9660   171.2910     2.8110     2.2650     2.3910
 4104.5000   350.2180  -999.2500  -999.2500     8.3070     0.1610   278.6910   -86.1290   173.7970     2.9430     2.1160     2.1360
 4105.0000   368.2720  -999.2500  -999.2500     8.3070     0.1640   294.4410   -86.0690   173.9310     2.9660     2.0140     1.9410
 4105.5000   386.3260  -999.2500  -999.2500     8.3070     0.1670   310.1910   -86.0070   172.1830     2.8420     1.9650     1.8870
 4106.0000   400.4470  -999.2500  -999.2500     8.3070     0.1700   314.7580   -85.9940   172.0730     2.7480     1.9170     1.8340
 4106.5000   391.9230  -999.2500  -999.2500     8.3070     0.1730   313.0080   -86.1710   173.2690     2.6550     1.8700     1.7860
 4107.0000   383.5650  -999.2500  -999.2500     8.3070     0.1740   311.2580   -86.2170   172.7060     2.6070     1.8370     1.7680
 4107.5000   375.2070  -999.2500  -999.2500     8.3070     0.1750   309.5080   -86.2520   165.3000     2.6070     1.8110     1.7640
 4108.0000   373.5100  -999.2500  -999.2500     8.3070     0.1750   307.7580   -86.2880   157.8760     2.6070     1.7830     1.7590
 4108.5000   379.7790  -999.2500  -999.2500     8.3070     0.1760   306.0080   -86.3240   161.8020     2.5980     1.7540     1.7540
 4109.0000   386.0480  -999.2500  -999.2500     8.3070     0.1780   310.7760   -86.3550   169.9280     2.5320     1.7790     1.7630
 4109.5000   390.5160  -999.2500  -999.2500     8.3070     0.1800   325.8130   -86.2910  -999.2500     2.4900     1.8130     1.7810
 4110.0000   407.1390  -999.2500  -999.2500     8.3070     0.1800   340.8500   -86.1090  -999.2500     2.5280     1.8470     1.7990
 4110.5000   422.4020  -999.2500  -999.2500     8.3070     0.1700   355.8870   -85.9300  -999.2500     2.5680     1.8880     1.8370
 4111.0000   437.6650  -999.2500  -999.2500     8.3070     0.1690   370.9250   -85.7500  -999.2500     2.6080     1.8740     1.8270
 4111.5000   452.9270  -999.2500  -999.2500     8.3070     0.1700   385.6360   -85.5700  -999.2500     2.6560     1.8510     1.8030
 4112.0000   449.4270  -999.2500  -999.2500     8.3070     0.1710   385.0590   -85.3900  -999.2500     2.6180     1.8280     1.7790
 4112.5000   444.5730  -999.2500  -999.2500     8.3070     0.1730   382.5840   -85.2100  -999.2500     2.5570     1.8050     1.7540
 4113.0000   439.7200  -999.2500  -999.2500     8.3070     0.1790   380.1080   -85.0300  -999.2500     2.4970     1.7820     1.7300
 4113.5000   434.8670  -999.2500  -999.2500     8.3070     0.2030   377.6330   -84.8500  -999.2500     2.4370     1.7590     1.7060
 4114.0000   430.0140  -999.2500  -999.2500     8.3070     0.2190   375.1570   -84.6700  -999.2500     2.3760     1.7380     1.6820
 4114.5000   425.1610  -999.2500  -999.2500     8.3070     0.1770   372.6810   -84.4900  -999.2500     2.3340     1.7220     1.6710
 4115.0000   420.3080  -999.2500  -999.2500     8.3070     0.1540   370.2060   -84.3100  -999.2500     2.3850     1.7220     1.6650
 4115.5000   428.6660  -999.2500  -999.2500     8.3070  -999.2500   367.7300   -84.1300  -999.2500     2.4860     1.7220     1.6600
 4116.0000   437.0240  -999.2500  -999.2500     8.3070  -999.2500   368.7350   -83.9500  -999.2500     2.6310     1.7310     1.7120
 4116.5000   445.3820  -999.2500  -999.2500     8.3070  -999.2500   390.1030   -83.7700  -999.2500     2.5720     1.7910     1.7590
 4117.0000   453.7400  -999.2500  -999.2500     8.3070  -999.2500   411.4720   -83.5900  -999.2500     2.4070     1.8510     1.8060
 4117.5000   462.0990  -999.2500  -999.2500     8.3070  -999.2500   432.8410   -83.4100  -999.2500     2.2430     1.9230     1.8540
 4118.0000   469.9600  -999.2500  -999.2500     8.3070  -999.2500   442.5850   -83.2300  -999.2500     2.1880     2.0060     1.9540
 4118.5000   473.5600  -999.2500  -999.2500     8.3070  -999.2500   434.7770   -83.0500  -999.2500     2.5290     2.1110     2.0560
 4119.0000   477.7390  -999.2500  -999.2500     8.3070  -999.2500   426.9690   -82.8720  -999.2500     2.8590     2.2160     2.1570
 4119.5000   479.8910  -999.2500  -999.2500     8.3070  -999.2500   444.6150   -82.7700  -999.2500     2.9120     2.3210     2.2590
 4120.0000   517.7030  -999.2500  -999.2500     8.3070  -999.2500   464.9150   -82.7690  -999.2500     2.9120     2.4250     2.3610
 4120.5000   552.4220  -999.2500  -999.2500     8.3070  -999.2500   485.2150   -82.7690  -999.2500     2.9120     2.5300     2.4620
 4121.0000   556.2650  -999.2500  -999.2500     8.3070  -999.2500   487.0230   -82.7690  -999.2500     2.9730     2.6350     2.5640
 4121.5000   515.2340  -999.2500  -999.2500     8.3070  -999.2500   468.8970   -82.7690  -999.2500     3.1060     2.7400     2.6650
 4122.0000   479.8910  -999.2500  -999.2500     8.3070  -999.2500   450.7720   -82.7690  -999.2500     3.0890     2.8330     2.7550
 4122.5000   479.8910  -999.2500  -999.2500     8.3070  -999.2500   441.1290   -82.7730  -999.2500     3.0560     2.9010     2.7550
 4123.0000   479.8910  -999.2500  -999.2500     8.3070  -999.2500   435.6860   -82.6360  -999.2500     3.0220     2.9750     2.7650
 4123.5000   486.0150  -999.2500  -999.2500     8.3070  -999.2500   448.0150   -82.4570  -999.2500     2.9940     3.0490     2.8360
 4124.0000   502.7310  -999.2500  -999.2500     8.3070  -999.2500   461.0650   -82.2760  -999.2500     3.0440     3.0780     2.9080
 4124.5000   519.6130  -999.2500  -999.2500     8.3070  -999.2500   474.1160   -82.0940  -999.2500     3.1120     3.1060     2.9790
 4125.0000   551.5320  -999.2500  -999.2500     8.3070  -999.2500   487.1660   -81.9180  -999.2500     3.2980     3.1060     3.0210
 4125.5000   583.7710  -999.2500  -999.2500     8.3070  -999.2500   500.2160   -81.8720  -999.2500     3.4830     3.1060     3.0210
 4126.0000   606.0740  -999.2500  -999.2500     8.3070  -999.2500   513.2660   -81.9710  -999.2500     3.6690     3.0890     2.9760
 4126.5000   592.7010  -999.2500  -999.2500     8.3070  -999.2500   525.7760   -81.9740  -999.2500     3.7010     3.0150     2.8980
 4127.0000   579.3280  -999.2500  -999.2500     8.3070  -999.2500   525.7760   -81.9720  -999.2500     3.4230     2.9400     2.8200
 4127.5000   571.3340  -999.2500  -999.2500     8.3070  -999.2500   525.7760   -81.9720  -999.2500     3.1560     2.8660     2.7420
 4128.0000   579.6920  -999.2500  -999.2500     8.3070  -999.2500   525.7760   -81.9720  -999.2500     2.8890     2.7910     2.6640
