~VERSION INFORMATION
 VERS.                2.0:   CWLS LOG ASCII STANDARD - VERSION 2.0
 WRAP.                 NO:   ONE LINE PER DEPTH STEP
~WELL INFORMATION
#MNEM.UNIT      DATA TYPE    INFORMATION
#----------   ------------   ------------------------------
 STRT.F          470.0000:   START DEPTH
 STOP.F         3791.5000:   STOP DEPTH
 STEP.F            0.5000:   STEP LENGTH
 NULL.          -999.2500:   NO VALUE
 COMP.    FENIX & SCISSON:   COMPANY
 WELL.   FENIX MDX #44-10:   WELL
 FLD .                NPR:   FIELD
 LOC .      S10 T38N R78W:   LOCATION
 CNTY.            NATRONA:   COUNTY
 STAT.            WYOMING:   STATE
 CTRY. UNITED STATES OF AMERICA:   COUNTRY
 SRVC.       SCHLUMBERGER:   SERVICE COMPANY
 DATE.        25-OCT-1977:   LOGDATE
 API .     49025104310000:   API NUMBER
~CURVE INFORMATION
#MNEM.UNIT       API CODE    CURVE DESCRIPTION
#----------   ------------   ------------------------------
 DEPT.F                  :   
 DT  .US/F   60 520 00 00:   DELTA TIME
 SPR .MV     11 010 01 00:   SPONTANEOUS POTENTIAL FROM RES.
 LLS .OHMM   11 220 09 00:   LATEROLOG LOG SHALLOW
 LLD .OHMM   11 220 10 00:   LATEROLOG LOG DEEP
 MSFL.OHMM   11 270 04 00:   MICRO SPHERICALLY FOCUSED
 NPOR.DEC    42 890 03 00:   ALPHA PROCESSED NEUTRON POROSITY
 RHOB.G/C3   45 350 01 00:   BULK DENSITY
 CORR.G/C3   45 356 01 00:   DENSITY CORRECTION
 GRD .GAPI   45 310 01 00:   GAMMA RAY FROM DENSITY LOG
 CALD.IN     45 280 60 00:   CALIPER FROM DENSITY LOG
~PARAMETER INFORMATION
#MNEM.UNIT          VALUE    DESCRIPTION
#----------   ------------   ------------------------------
 EKB .F         5239.0000:   Kelly bushing
 EGL .F         5229.0000:   Ground level
 EDF .F            0.0000:   Drilling floor
 EPD .F           10.0000:   Permanent datum
 TD  .F         3802.0000:   Total depth
 DATE.        25-OCT-1977:   Date logged
 CLNT.            A2DTECH:   Client Code
 SL  . 2640' FNL & 2640' FEL:   Surface Location
 PD  .                 GL:   Permanent Datum
 DD  .F              3802:   Depth driller
 DL  .F              3791:   Depth logger
 BLI .F              3789:   Bottom log interval
 TLI .F               505:   Top log interval
 CS1 .IN            8.625:   Casing size
 CBD1.       8.625 @ 505':   Casing driller 1
 CBL1.F               505:   Casing logger 1
 BS1 .IN            7.875:   Bit size
 DFT .            KCL MUD:   Type fluid in hole
 DFD .                9.1:   Density
 DFV .                 45:   Viscosity
 DFPH.               10.5:   pH
 DFL .                  8:   Fluid loss
 MSS .             MUDPIT:   Source of sample
 RMS .OHMM           .209:   Rm
 MST .F                72:   Rm Meas. temp.
 RMF .OHMM           .179:   Rmf
 MFST.F                72:   Rmf Meas. temp.
 RMC .OHMM           .314:   Rmc
 MCST.F                72:   Rmc Meas. temp.
 MFSS.               MEAS:   Source Rmf.
 RMB .OHMM           .122:   Rm. at BHT
 BHT .F               123:   BHT.
 TCS .HRS            1400:   Time Circ. stopped
 MRT .F               123:   Maximum recorded temp.
 LUN .               5642:   Logging unit number
 LUL .               CSPR:   Logging unit location
 ENGI.             SAYLER:   Recorded By
 WITN.         PETTINGILL:   Witnessed by
 ORIG.           5" PRINT:   Origin of data
 UWI .     49025104310000:   Unique Well ID
 DICO. A2D TECHNOLOGIES, INC.:   Digitizing Company
 DAPD.                 10:   Feet Above Permanent Datum
 BSD1.               3802:   Depth drilled with bit1
 MCSS.               CALC:   Source Rmc.
~OTHER INFORMATION
~A   DEPT        DT       SPR        LLS        LLD       MSFL       NPOR       RHOB       CORR        GRD       CALD   
# ...
  503.5000    58.8720   -12.1790  -999.2500  -999.2500  -999.2500     0.4600     2.3350     0.2470    65.3190  -999.2500
  504.0000    47.8500   -12.1800  -999.2500  -999.2500  -999.2500     0.4690     2.3360     0.2480    64.1390  -999.2500
  504.5000    50.6220   -12.1760  -999.2500  -999.2500  -999.2500     0.4660     2.3290     0.2470    69.9200  -999.2500
  505.0000    57.3820   -11.9930  -999.2500  -999.2500  -999.2500     0.4630     2.3140     0.2450    75.3410     8.2510
  505.5000    79.5500   -11.2720  -999.2500  -999.2500  -999.2500     0.4600     2.4460     0.2500    79.8420     8.2720
  506.0000    80.4500   -10.5830  -999.2500  -999.2500  -999.2500     0.4580     2.6300     0.1110    83.3510     8.5600
  506.5000    88.5370    -9.9190  -999.2500  -999.2500     0.6830     0.4410     2.4290     0.1380    86.0440     8.9320
  507.0000    93.5900    -9.7080  -999.2500  -999.2500     1.5860     0.4080     2.3830     0.1080    88.7520     9.2120
  507.5000   100.0070    -9.6050  -999.2500  -999.2500     5.8480     0.3910     2.4000     0.0880    91.6260     9.5870
  508.0000   109.5870    -9.6310  -999.2500  -999.2500     7.4370     0.3850     2.4210     0.1110    92.7570     9.7950
  508.5000   119.9500    -9.8440  -999.2500    28.6180     8.6110     0.3870     2.4290     0.0800    90.7790     9.9560
  509.0000   109.6650   -10.0570  -999.2500    11.0380     8.1960     0.3920     2.4180     0.0930    88.8250    10.1150
  509.5000    97.3500   -10.2700  -999.2500     5.5750     7.5080     0.3920     2.4410     0.0820    86.8320    10.2570
  510.0000    98.6280   -10.4820  -999.2500     5.2360     6.0460     0.3910     2.4210     0.1060    85.9660    10.4680
  510.5000   101.4000   -10.6950  -999.2500     5.4790     4.5830     0.3930     2.4280     0.0120    86.5680    11.1460
  511.0000   102.9060   -10.9070    11.1440     5.7370     3.6230     0.3960     2.4500     0.0020    87.9170    12.1060
  511.5000   103.5410   -11.1200     9.2690     4.8640     4.4100     0.3990     2.4730     0.0020    90.0380    12.2630
  512.0000   102.0680   -11.3390     9.1000     5.1540     5.7470     0.4010     2.4490     0.0040    91.6530    12.3300
  512.5000    99.8390   -11.4370     9.1800     5.5430     7.2080     0.3900     2.4440    -0.0040    90.2850    12.2990
  513.0000    98.2860   -11.5060     9.3200     5.7950     7.9930     0.3630     2.4380     0.0110    89.4270    12.3000
  513.5000    97.9750   -11.5740     9.5110     5.2360     8.7780     0.3550     2.4490     0.0000    92.0200    12.3750
  514.0000    97.8600   -11.6430     9.7020     5.8480     9.4410     0.3550     2.4680     0.0270    94.5220    12.4640
  514.5000    97.7500   -11.7110     9.8930     5.0470     9.4410     0.3630     2.4680     0.0440    93.0640    12.5560
  515.0000    97.8210   -11.7790     9.9780     5.6710     9.4410     0.3780     2.4440     0.0240    91.3680    12.5770
  515.5000    98.1160   -11.8480     9.9780     5.9570     9.4410     0.3920     2.4660     0.0080    89.7060    12.5080
  516.0000    98.4110   -11.9160     9.6830     4.9550     9.3720     0.4040     2.4730     0.0520    88.2480    12.3450
  516.5000    98.7050   -11.9850     8.9340     5.0820     8.9340     0.3570     2.4610     0.0260    89.1990    12.2410
  517.0000    99.0000   -12.0530     9.1720     5.2870     6.2380     0.3460     2.4410    -0.0030    92.0990    11.5930
  517.5000    98.8830   -12.1220     9.4410     5.6850     6.3540     0.3280     2.4640     0.0020    95.0320    10.7400
  518.0000    98.4950   -12.1900     9.6040     6.0830     7.3300     0.3150     2.4490     0.0090    98.1400    10.4920
  518.5000    98.2500   -12.2580     9.7720     6.4130     8.5210     0.3050     2.4580    -0.0010    98.4670    10.5630
  519.0000    97.6500   -12.3270     9.9400     5.3340     9.7110     0.3100     2.4760     0.0070    97.1950    10.6830
  519.5000    97.2390   -12.3950    10.1630     6.2130     9.9780     0.3170     2.4700    -0.0030    95.9840    10.7570
  520.0000    96.8500   -12.4640    10.1630     7.5050     9.9780     0.3230     2.4850     0.0240    94.7710    10.6480
  520.5000    97.0000   -12.5320    10.0730     8.9340     9.6860     0.3300     2.4760    -0.0030    96.2230    10.6850
  521.0000    97.5660   -12.6000     9.9780     7.8530     9.3130     0.3390     2.4820     0.0140    99.4210    10.8350
  521.5000    98.1310   -12.6690     9.6110     8.6770     8.9340     0.3470     2.4690    -0.0010   103.6080    10.9870
  522.0000    98.1270   -12.7370     9.1300     9.1000     8.5250     0.3560     2.4830     0.0050    96.3740    11.0280
  522.5000    97.7650   -12.8060     8.6500     8.6940     8.1110     0.3560     2.4850     0.0120    95.5440    10.9140
  523.0000    97.9020   -12.8740     8.1940     8.0780     7.6970     0.3500     2.4790     0.0220    96.9180    10.7980
  523.5000    98.7640   -12.9450     7.7560     7.4620     7.2830     0.3340     2.4830    -0.0020    98.1920    10.7820
  524.0000    99.6670   -12.8010     7.3170     6.8440     6.8690     0.3290     2.4510     0.0090    99.2730    10.8280
  524.5000   100.7270   -12.5210     6.8180     6.2140     6.4550     0.3720     2.4130    -0.0010    95.8620    10.8760
  525.0000   102.2500   -12.2390     6.3030     5.5850     6.0060     0.3830     2.3660     0.0010    92.2400    10.9230
  525.5000   102.9980   -11.9570     5.7880     5.2060     5.4160     0.3990     2.2770    -0.0200    88.8110    10.9710
  526.0000   103.6500   -11.6750     5.2730     4.5760     4.8260     0.4330     2.1290    -0.0040    86.1700    11.0580
  526.5000   104.5020   -11.3930     4.7230     3.9460     4.2360     0.4680     1.9680    -0.0210    82.0760    11.1710
  527.0000   106.4780   -11.1120     4.0340     3.3160     2.8570     0.4990     1.8020    -0.0010    77.9340    11.2820
  527.5000   110.2400   -10.8300     3.2140     3.0270     1.7080     0.5260     1.7280     0.0520    77.2000    11.4920
  528.0000   121.8460   -10.5480     3.3960     2.9860     0.9130     0.5520     1.6240     0.0690    77.3940    11.7710
  528.5000   139.4500   -10.2660     3.6560     3.1060     0.5030     0.5750     1.5930     0.0610    78.5140    12.4130
  529.0000   139.6340    -9.9840     3.6050     3.2170     0.4730     0.5520     1.5830     0.0450    79.9570    13.3800
  529.5000   139.6130    -9.7020     3.5890     3.3590     1.1780     0.5310     1.7460     0.0240    81.6690    14.8670
  530.0000   139.5920    -9.4210     5.4650     3.7510     4.3940     0.4240     1.9070    -0.0020    85.4410    16.0000
  530.5000   139.5710    -9.1390     6.2190     6.2950     5.9570     0.4010     2.3460     0.0090    90.3800    11.8390
  531.0000   139.5500    -8.8570     6.8010     6.7060     8.2990     0.3790     2.4610     0.0290    94.8930    11.5010
  531.5000   110.9750    -8.5740     7.1620     6.9030     7.3990     0.3600     2.4610     0.0160    97.1080    11.3970
  532.0000   103.1500    -8.2910     7.0750     6.6530     6.3080     0.3470     2.4460     0.0510    98.6760    11.3290
  532.5000   105.5750    -8.0320     7.0140     6.7450     5.2160     0.3350     2.4700     0.0700    91.3890    11.3680
  533.0000   107.0140    -8.1740     6.9670     6.8560     4.1590     0.3490     2.4470     0.0500    92.8930    11.3970
  533.5000   105.5790    -8.3290     7.3690     6.9670     4.9760     0.3700     2.4200     0.0030    94.4900    11.5220
  534.0000   104.7980    -8.4430     7.6960     7.0780     8.3070     0.3790     2.4080     0.0150    94.3200    11.7380
  534.5000   104.6500    -8.5060     8.0220     7.1900     9.0260     0.3550     2.4340     0.0520    94.0080    11.4390
  535.0000   103.4840    -8.5660     8.3490     7.3020     9.1840     0.3530     2.4510     0.0360    94.8680    11.2570
  535.5000   102.5420    -8.5230     8.5320     7.4150     9.0130     0.3530     2.4150     0.0180    95.7320    11.2350
  536.0000   101.8130    -8.0810     8.1930     7.5040     8.8750     0.3630     2.4180     0.0220    96.5980    11.2550
  536.5000   101.0500    -8.0290     7.9580     7.5230     8.7710     0.3670     2.4570     0.0010    97.4090    11.2870
