~VERSION INFORMATION
 VERS.                2.0:   CWLS LOG ASCII STANDARD - VERSION 2.0
 WRAP.                 NO:   ONE LINE PER DEPTH STEP
~WELL INFORMATION
#MNEM.UNIT      DATA TYPE    INFORMATION
#----------   ------------   ------------------------------
 STRT.F          176.5000:   START DEPTH
 STOP.F         3010.0000:   STOP DEPTH
 STEP.F            0.5000:   STEP LENGTH
 NULL.          -999.2500:   NO VALUE
 COMP.    FENIX & SCISSON:   COMPANY
 WELL.   FENIX "A" #36-28:   WELL
 FLD .              NPR 3:   FIELD
 LOC .      S28 T39N R78W:   LOCATION
 CNTY.            NATRONA:   COUNTY
 STAT.            WYOMING:   STATE
 CTRY. UNITED STATES OF AMERICA:   COUNTRY
 SRVC.       SCHLUMBERGER:   SERVICE COMPANY
 DATE.        19-AUG-1977:   LOGDATE
 API .     49025104150000:   API NUMBER
~CURVE INFORMATION
#MNEM.UNIT       API CODE    CURVE DESCRIPTION
#----------   ------------   ------------------------------
 DEPT.F                  :   
 SPR .MV     07 010 01 00:   SPONTANEOUS POTENTIAL
 ILM .OHMM   07 120 44 00:   INDUCTION LOG MEDIUM RESISTIVITY
 ILD .OHMM   07 120 46 00:   INDUCTION LOG DEEP RESISTIVITY
 LL8 .OHMM   07 220 08 00:   LATEROLOG-8 RESISTIVITY
 GRD .GAPI   45 310 01 00:   GAMMA RAY FROM DENSITY LOG
 CALD.IN     45 280 60 00:   CALIPER FROM DENSITY LOG
 RHOB.G/C3   45 350 01 00:   BULK DENSITY
 DCOR.G/C3   45 356 01 00:   DENSITY CORRECTION
~PARAMETER INFORMATION
#MNEM.UNIT          VALUE    DESCRIPTION
#----------   ------------   ------------------------------
 EKB .F         5107.0000:   Kelly bushing
 EGL .F         5097.0000:   Ground level
 EDF .F            0.0000:   Drilling floor
 TD  .F         3012.0000:   Total depth
 DATE.        19-AUG-1977:   Date logged
 CLNT.            A2DTECH:   Client Code
 SL  . 1650' FSL & 1650' FWL:   Surface Location
 PD  .                 GL:   Permanent Datum
 EPD .F              5097:   Elevation Permanent Datum
 LMF .                 KB:   Log Measured From
 DMF .                 KB:   Drilling Measured From
 DAPD.F                10:   Feet Above Permanent Datum
 DD  .F              3010:   Depth driller
 DL  .F              3011:   Depth logger
 BLI .F              3005:   Bottom log interval
 TLI .F               215:   Top log interval
 CS1 .IN            8.625:   Casing size
 CBD1.      8.625" @ 205':   Casing driller 1
 CBL1.F               215:   Casing logger 1
 BS1 .IN            7.875:   Bit size
 BSD1.F              3010:   Depth drilled with bit1
 DFT .                FGM:   Type fluid in hole
 DFD .                8.8:   Density
 DFV .                 33:   Viscosity
 DFPH.               10.5:   pH
 DFL .               10.6:   Fluid loss
 MSS .            MUD PIT:   Source of sample
 RMS .OHMM            .19:   Rm
 MST .F                76:   Rm Meas. temp.
 RMF .OHMM            .17:   Rmf
 MFST.F                78:   Rmf Meas. temp.
 MFSS.               MEAS:   Source Rmf.
 RMB .OHMM            .13:   Rm. at BHT
 BHT .F               112:   BHT.
 TCS .HRS            0700:   Time Circ. stopped
 TLAB.HRS            1400:   Time logger at bottom
 MRT .F               112:   Maximum recorded temp.
 LUN .               5642:   Logging unit number
 ENGI.          CHALUPSKY:   Recorded By
 WITN.     WES PETTINGILL:   Witnessed by
 ORIG.           5" PRINT:   Origin of data
 UWI .     49025104150000:   Unique Well ID
 DICO. A2D TECHNOLOGIES, INC.:   Digitizing Company
 LUL .               CSPR:   Logging unit location
~OTHER INFORMATION
~A   DEPT      SPR        ILM        ILD        LL8        GRD       CALD       RHOB       DCOR   
# ...
 1148.5000   -88.6870     9.6460    10.0980    10.4870   113.9690     8.5390     2.4330     0.0590
 1149.0000   -88.4160     9.6880    10.1370    10.5410   112.8450     8.5390     2.4160     0.0480
 1149.5000   -88.0830     9.7290    10.1750    10.5950   112.0450     8.5390     2.3990     0.0320
 1150.0000   -87.7560     9.7710    10.2140    10.6490   113.4650     8.5330     2.4280     0.0420
 1150.5000   -87.6000     9.8130    10.2530    10.7030   114.9100     8.5280     2.4500     0.0670
 1151.0000   -87.9220     9.8440    10.3110    10.7570   114.9280     8.5230     2.4410     0.0560
 1151.5000   -88.2430     9.7060    10.2150    10.7940   112.2510     8.5180     2.4360     0.0600
 1152.0000   -88.1100     9.5780    10.0320    10.5780   110.0370     8.5120     2.4420     0.0630
 1152.5000   -87.8340     9.4490     9.8480    10.3860   112.5130     8.5070     2.4530     0.0530
 1153.0000   -87.5530     9.3210     9.5820    10.1940   114.9880     8.5010     2.4570     0.0550
 1153.5000   -87.2710     9.2430     9.6110    10.0310   117.3790     8.5020     2.4480     0.0630
 1154.0000   -86.9910     9.3060     9.6620    10.1230   120.1540     8.5050     2.4410     0.0580
 1154.5000   -86.7140     9.3570     9.7140    10.2030   118.5860     8.5090     2.4310     0.0640
 1155.0000   -86.6610     9.4080     9.7650    10.2830   120.7320     8.5120     2.4420     0.0700
 1155.5000   -87.0530     9.4590     9.8170    10.3630   119.6650     8.5150     2.4450     0.0630
 1156.0000   -87.4550     9.5090     9.8680    10.4420   117.7010     8.5190     2.4400     0.0850
 1156.5000   -87.0880     9.5600     9.9190    10.5220   117.9870     8.5140     2.4590     0.0770
 1157.0000   -86.5390     9.6110     9.9710    10.6020   118.6180     8.5060     2.4750     0.0830
 1157.5000   -85.9910     9.6710    10.0310    10.6960   117.9520     8.4970     2.4650     0.0690
 1158.0000   -85.6060     9.5100     9.9070    10.5710   115.5550     8.4890     2.4360     0.0570
 1158.5000   -86.0600     9.3150     9.7570    10.4190   112.5540     8.4800     2.4270     0.0500
 1159.0000   -86.5000     9.1200     9.6060    10.2680   113.5280     8.4720     2.4380     0.0550
 1159.5000   -86.9200     8.9250     9.4550    10.1240   115.5520     8.4630     2.4490     0.0620
 1160.0000   -87.0360     8.7300     9.3040    10.1690   117.7090     8.4550     2.4350     0.0500
 1160.5000   -87.1400     8.5830     9.1530    10.2110   119.5750     8.4460     2.4180     0.0420
 1161.0000   -87.2410     8.4600     9.0020    10.1320   118.7150     8.4440     2.4450     0.0560
 1161.5000   -87.2270     8.3370     8.8510    10.0350   118.2560     8.4500     2.4560     0.0680
 1162.0000   -86.7630     8.2140     8.7440     9.9370   121.7810     8.4560     2.4420     0.0530
 1162.5000   -86.3330     8.3190     8.8940     9.8490   123.8010     8.4620     2.4560     0.0440
 1163.0000   -86.1410     8.4510     9.0110    10.2020   123.3060     8.4680     2.4430     0.0490
 1163.5000   -85.9610     8.5840     9.1280    10.5220   121.9240     8.4740     2.4490     0.0570
 1164.0000   -86.0590     8.7160     9.2450    10.8420   123.6440     8.4800     2.4600     0.0670
 1164.5000   -86.2010     8.8480     9.3620    11.1230   126.0550     8.4860     2.4650     0.0720
 1165.0000   -86.3440     8.9810     9.4780    11.3670   124.3540     8.4930     2.4550     0.0600
 1165.5000   -86.4940     9.1130     9.5950    11.7210   121.6900     8.4990     2.4450     0.0480
 1166.0000   -86.3760     9.2450     9.7310    11.5890   119.5170     8.5050     2.4070     0.0360
 1166.5000   -86.1410     9.4090     9.9400    11.3480   117.6660     8.5110     2.4190     0.0220
 1167.0000   -85.6810     9.3650     9.8890    11.1970   115.8230     8.5170     2.4360     0.0310
 1167.5000   -85.1650     9.3070     9.8230    11.1970   113.8850     8.5180     2.4500     0.0470
 1168.0000   -85.0440     9.2500     9.7570    11.1970   112.5210     8.5150     2.4250     0.0370
 1168.5000   -84.9420     9.1920     9.6910    11.1040   111.5260     8.5120     2.4000     0.0190
 1169.0000   -84.8380     9.1350     9.6250    10.9480   110.5100     8.5090     2.4340     0.0280
 1169.5000   -84.7560     9.0780     9.5590    10.7940   109.7210     8.5060     2.4280     0.0380
 1170.0000   -84.8210     9.0200     9.4930    10.4670   112.4800     8.5030     2.4240     0.0470
 1170.5000   -84.8890     8.9690     9.4270    10.2170   115.0010     8.5000     2.4410     0.0410
 1171.0000   -84.9930     8.9260     9.3610    10.5860   116.9610     8.5140     2.4540     0.0320
 1171.5000   -85.2960     8.8830     9.2950    10.9620   115.9530     8.5300     2.4580     0.0400
 1172.0000   -85.6050     8.8410     9.2290    10.7990   113.5420     8.5450     2.4450     0.0500
 1172.5000   -85.6210     8.7980     9.1630    10.4980   111.0380     8.5580     2.4290     0.0400
 1173.0000   -85.4240     8.7550     9.1430    10.2170   106.6840     8.5530     2.4210     0.0370
 1173.5000   -85.2260     8.7120     9.1310    10.1340   107.9320     8.5480     2.4290     0.0430
 1174.0000   -85.0250     8.6650     9.1190    10.0310   110.0710     8.5420     2.4680     0.0600
 1174.5000   -84.8240     8.6720     9.1070    10.1380   112.2600     8.5370     2.4600     0.0770
 1175.0000   -84.4730     8.6800     9.0950    10.3270   114.4540     8.5320     2.4450     0.0640
 1175.5000   -84.0290     8.6880     9.0820    10.6950   116.6580     8.5270     2.4840     0.0690
 1176.0000   -83.5830     8.6970     9.0700    11.0950   118.4600     8.5210     2.4750     0.0780
 1176.5000   -83.1290     8.7050     9.0580    10.7170   115.5990     8.5160     2.4600     0.0700
 1177.0000   -83.0060     8.7130     9.0460    10.3050   118.5070     8.5110     2.4570     0.0530
 1177.5000   -83.0700     8.7220     9.0340    10.0000   116.5010     8.5060     2.4610     0.0590
 1178.0000   -83.1400     8.7300     9.0220     9.9400   114.9350     8.5000     2.4620     0.0670
 1178.5000   -82.9470     8.7430     9.0100    10.2330   116.7950     8.4950     2.4500     0.0550
 1179.0000   -82.6150     8.7370     8.9970    10.4510   119.2590     8.4900     2.4390     0.0460
 1179.5000   -82.2810     8.7170     8.9850    10.7390   120.7320     8.4850     2.4290     0.0530
 1180.0000   -81.9870     8.6980     8.9730    10.9940   120.6900     8.4790     2.4440     0.0510
 1180.5000   -82.2560     8.6780     8.9610    10.5080   118.9340     8.4740     2.4580     0.0480
 1181.0000   -82.5310     8.6590     8.9490     9.8490   115.3690     8.4690     2.4350     0.0550
 1181.5000   -82.8030     8.6390     8.9370     9.9660   113.1790     8.4640     2.4130     0.0510
 1182.0000   -83.0850     8.6200     8.9250    10.2560   115.8590     8.4630     2.4250     0.0580
 1182.5000   -83.1590     8.6000     8.9120    10.5980   118.4270     8.4680     2.4410     0.0690
 1183.0000   -83.1600     8.5560     8.8530    10.5580   120.9780     8.4730     2.4330     0.0590
 1183.5000   -83.1130     8.4280     8.7310    10.5090   121.7130     8.4780     2.4160     0.0450
 1184.0000   -82.9280     8.3000     8.6080    10.3350   120.2100     8.4760     2.4570     0.0560
 1184.5000   -82.7490     8.1720     8.4850    10.1350   121.0290     8.4660     2.4490     0.0620
 1185.0000   -82.5700     8.0520     8.3620     9.9360   121.6750     8.4570     2.4370     0.0490
 1185.5000   -82.3910     7.9910     8.2400     9.7360   119.5730     8.4470     2.4280     0.0650
 1186.0000   -82.2120     7.9330     8.1260     9.5140   116.9110     8.4370     2.4640     0.0810
 1186.5000   -82.0330     7.8750     8.1360     9.6260   114.3300     8.4270     2.4290     0.0650
 1187.0000   -81.8530     7.8340     8.1450     9.8490   114.2250     8.4180     2.4330     0.0550
 1187.5000   -81.6350     7.8620     8.1540     9.7980   117.3480     8.4080     2.4400     0.0580
 1188.0000   -81.4180     7.8830     8.1630     9.6950   119.7280     8.4030     2.4690     0.0810
 1188.5000   -81.2110     7.9040     8.1720     9.5820   119.6100     8.4060     2.4610     0.0750
