~VERSION INFORMATION
 VERS.                2.0:   CWLS LOG ASCII STANDARD - VERSION 2.0
 WRAP.                 NO:   ONE LINE PER DEPTH STEP
~WELL INFORMATION
#MNEM.UNIT      DATA TYPE    INFORMATION
#----------   ------------   ------------------------------
 STRT.F           30.0000:   START DEPTH
 STOP.F         3240.0000:   STOP DEPTH
 STEP.F            0.5000:   STEP LENGTH
 NULL.          -999.2500:   NO VALUE
 COMP. LAWRENCE-ALLISON ASSOCIATES WES:   COMPANY
 WELL. LAWRENCE "AX" #87AX28:   WELL
 FLD .   TEAPOT N.P.R. #3:   FIELD
 LOC .      S28 T39N R78W:   LOCATION
 CNTY.            NATRONA:   COUNTY
 STAT.            WYOMING:   STATE
 CTRY. UNITED STATES OF AMERICA:   COUNTRY
 SRVC.       SCHLUMBERGER:   SERVICE COMPANY
 DATE.        28-MAY-1982:   LOGDATE
 API .     49025108860000:   API NUMBER
~CURVE INFORMATION
#MNEM.UNIT       API CODE    CURVE DESCRIPTION
#----------   ------------   ------------------------------
 DEPT.F                  :   
 TENR.LBS    07 635 01 00:   TENSION FROM RESISTIVITY
 GRR .GAPI   07 310 01 00:   GAMMA RAY FROM RESISTIVITY
 SPR .MV     07 010 01 00:   SPONTANEOUS POTENTIAL FROM RES.
 ILD .OHMM   07 120 46 00:   DEEP INDUCTION RESISTIVITY
 ILM .OHMM   07 120 44 00:   INDUCTION LOG MEDIUM RESISTIVITY
 SFL .OHMM   07 220 01 00:   SHALLOW FOCUSED LOG RESISITIVITY
 TEND.LBS    45 635 01 00:   TENSION FORM DENSITY LOG
 NPHI.DEC    42 890 03 00:   NEUTRON POROSITY SANDSTONE
 CALD.IN     45 280 60 00:   CALIPER FROM DENSITY LOG
 CORR.G/C3   45 356 01 00:   DENSITY CORRECTION
 RHOB.G/C3   45 350 01 00:   BULK DENSITY
~PARAMETER INFORMATION
#MNEM.UNIT          VALUE    DESCRIPTION
#----------   ------------   ------------------------------
 EKB .F         5070.0000:   Kelly bushing
 EGL .F         5060.0000:   Ground level
 TD  .F         3220.0000:   Total depth
 CLNT.            A2DTECH:   Client Code
 SL  . 1341' FSL & 162' FEL:   Surface Location
 PD  .                 GL:   Permanent Datum
 EPD .F              5060:   Elevation Permanent Datum
 LMF .                 KB:   Log Measured From
 DMF .                 KB:   Drilling Measured From
 DAPD.F                10:   Feet Above Permanent Datum
 DATE.        28-MAY-1982:   Date Logged [DD-MMM-YYYY]
 DD  .F              3220:   Depth driller
 DL  .F              3215:   Depth logger
 BLI .F              3212:   Bottom log interval
 TLI .F               489:   Top log interval
 CS1 .IN            9.625:   Casing size
 CBD1.      9.625" @ 461':   Casing driller 1
 CBL1.F               489:   Casing logger 1
 BS1 .IN            9.750:   Bit size
 BSD1.F              3220:   Depth drilled with bit1
 DFT .          POLY./KCL:   Type fluid in hole
 DFD .                8.8:   Density
 DFV .                 44:   Viscosity
 DFPH.                7.0:   pH
 DFL .                8.0:   Fluid loss
 MSS .           MUD TANK:   Source of sample
 RMS .OHMM          0.778:   Rm
 MST .F                65:   Rm Meas. temp.
 RMF .OHMM          0.710:   Rmf
 MFST.F                67:   Rmf Meas. temp.
 MFSS.               MEAS:   Source Rmf.
 RMB .OHMM          0.447:   Rm. at BHT
 BHT .F               118:   BHT.
 TCS .HRS            2000:   Time Circ. stopped
 TLAB.HRS            2430:   Time logger at bottom
 MRT .F               118:   Maximum recorded temp.
 LUN .               8043:   Logging unit number
 LUL .               CSPR:   Logging unit location
 ENGI.             DENNIS:   Recorded By
 WITN.             STRONG:   Witnessed by
 ORIG.           5" PRINT:   Origin of data
 UWI .     49025108860000:   Unique Well ID
 DICO. A2D TECHNOLOGIES, INC.:   Digitizing Company
~OTHER INFORMATION
~A   DEPT     TENR         GRR       SPR        ILD        ILM        SFL       TEND       NPHI       CALD       CORR       RHOB   
# ...
  853.5000   688.1898    93.7577    -8.7947     8.6924     7.7322     8.5547   908.1633    -0.0355    11.0361     0.0005     2.5040
  854.0000   688.8409    91.9205    -8.4869     8.5144     7.8500     8.4381   908.1633    -0.0261    11.0357     0.0053     2.4981
  854.5000   689.4921    93.0832    -8.1792     8.4599     7.9116     8.3255   908.1633    -0.0169    11.0354     0.0117     2.5013
  855.0000   690.1432    93.7846    -7.8711     8.4055     7.9736     8.1562   908.1633    -0.0106    11.0351     0.0109     2.5037
  855.5000   690.7943    92.6418    -7.8696     8.3530     7.9224     8.2207   908.1633    -0.0106    11.0426     0.0047     2.5037
  856.0000   691.4455    91.9562    -7.7150     8.2993     7.7063     8.2857   908.1633    -0.0192    11.0498    -0.0007     2.5038
  856.5000   692.0966    92.4288    -7.7135     8.3050     7.4948     8.2917   908.1633    -0.0287    11.0494    -0.0038     2.5077
  857.0000   692.7477    94.5147    -7.8655     8.3107     7.3400     8.2977   908.1633    -0.0383    11.0645    -0.0045     2.5101
  857.5000   693.3989    96.6005    -7.8637     8.2572     7.2929     8.1858   908.1633    -0.0447    11.0641    -0.0043     2.5094
  858.0000   694.0500    98.9171    -7.8622     8.2631     7.2991     7.9054   908.1633    -0.0449    11.0485    -0.0012     2.5063
  858.5000   694.7012   101.0245    -8.0139     8.2099     7.3564     7.7974   908.1633    -0.0417    11.0330     0.0028     2.5017
  859.0000   695.3523   103.0910    -8.1652     8.2169     7.5290     7.9737   908.1633    -0.0314    11.0312     0.0067     2.5002
  859.5000   696.0035   104.0208    -8.1637     8.2226     7.6351     8.2110   908.1633    -0.0153    11.0170     0.0092     2.4995
  860.0000   696.6546   101.4935    -8.3157     8.2282     7.6950     8.3353   908.1633    -0.0089    11.0015     0.0038     2.4954
  860.5000   697.3057    99.6563    -8.6202     8.2339     7.5913     8.4012   908.1633    -0.0083    11.0012    -0.0010     2.4887
  861.0000   696.4718    98.9706    -8.6187     8.1810     7.5412     8.3418   908.1633    -0.0105    11.0009    -0.0039     2.4864
  861.5000   710.8995    99.9049    -8.6169     8.1868     7.3879     8.2348   908.1633    -0.0177    11.0006    -0.0031     2.4888
  862.0000   724.9528   100.6061    -8.4622     8.1937     7.3932     8.1835   908.1633    -0.0366    11.0156     0.0009     2.4943
  862.5000   723.0790    98.6153    -8.3076     8.1993     7.4524     8.0717   908.1633    -0.0412    11.0178     0.0033     2.5014
  863.0000   721.5800    95.3185    -8.1530     8.2049     7.4575     8.0200   908.1633    -0.0382    11.0303     0.0010     2.4959
  863.5000   720.0621    94.4043    -8.1515     8.2106     7.4083     8.0273   908.1633    -0.0349    11.0452     0.0003     2.4883
  864.0000   734.1340    94.1825    -8.1501     8.2751     7.4677     8.0331   908.1633    -0.0275    11.0296     0.0067     2.4885
  864.5000   732.2603    93.4991    -8.3017     8.2808     7.4728     8.0968   908.1633    -0.0084    11.0446     0.0114     2.4941
  865.0000   730.7614    93.2769    -8.4534     8.3460     7.5315     8.1610   908.1633     0.0026    11.0290     0.0115     2.5133
  865.5000   729.2623    93.9815    -8.6051     8.3530     7.5918     8.2266   908.1633     0.0053    11.0287     0.0092     2.5292
  866.0000   727.7632    95.3723    -8.6032     8.3587     7.5971     8.2916   908.1633     0.0022    11.0131     0.0054     2.5323
  866.5000   726.2643    94.9216    -8.6017     8.3644     7.6023     8.3572   908.1633    -0.0162    11.0128     0.0023     2.5145
  867.0000   724.7279    90.7767    -8.2940     8.3702     7.6619     8.4233   908.1633    -0.0304    11.0125     0.0055     2.5045
  867.5000   722.8916    87.3240    -8.2925     8.3163     7.6672     8.3693   908.1633    -0.0429    11.0122     0.0103     2.5022
  868.0000   721.3925    86.1769    -8.2907     8.2630     7.6179     8.3756   908.1633    -0.0558    11.0119     0.0122     2.5030
  868.5000   719.8937    87.5727    -8.1364     8.2099     7.4619     8.3232   908.1633    -0.0629    11.0116    -0.0010     2.4976
  869.0000   718.3946    89.6585    -8.2881     8.2169     7.3625     8.3292   908.1633    -0.0620    11.0290    -0.0017     2.4915
  869.5000   716.8955    89.3784    -8.2862     8.2226     7.2620     8.2154   908.1633    -0.0491    11.0720     0.0000     2.4877
  870.0000   715.3967    83.6786    -8.2848     8.2282     7.2683     8.1046   908.1633    -0.0300    11.1175     0.0078     2.4901
  870.5000   698.2892    81.1468    -8.2833     8.2929     7.3253     8.1120   908.1633    -0.0196    11.1478     0.0267     2.5313
  871.0000   696.4717    84.6195    -8.2818     8.4178     7.4888     8.2386   908.1633    -0.0154    11.1475     0.0298     2.5407
  871.5000   694.9727    90.1669    -8.2800     8.4308     7.6054     8.4814   908.1633    -0.0145    11.1014     0.0182     2.5356
  872.0000   693.4736    98.7142    -8.2785     8.5520     7.8281     8.6716   908.1633    -0.0161    11.0693     0.0097     2.5167
  872.5000   691.9747   100.3385    -8.2770     8.6809     7.9460     8.8660   908.1633    -0.0295    11.0396     0.0059     2.5137
  873.0000   690.4757    97.8924    -8.2755     8.8117     8.1814     9.0649   908.1633    -0.0566    11.0241     0.0044     2.5106
  873.5000   688.9580    89.2817    -8.2741     8.9445     8.3640     9.2681   908.1633    -0.0526    11.0085     0.0045     2.5045
  874.0000   687.1029    86.7499    -8.2726     9.0793     8.4899     9.4085   908.1633    -0.0407    11.0082     0.0037     2.4991
  874.5000   685.6041    86.9918    -8.2708     9.2172     8.6794     9.5580   908.1633    -0.0347    11.0079     0.0030     2.4976
  875.0000   684.1050    88.3854    -8.2693     9.4334     8.8103     9.6972   908.1633    -0.0344    11.0229     0.0016     2.5025
  875.5000   682.6059    90.0097    -8.4209     9.6340     8.9443     9.7739   908.1633    -0.0696    11.0379     0.0016     2.4977
  876.0000   697.0339    91.4032    -8.7257     9.7792     9.0144     9.7095   908.1633    -0.0746    11.0375     0.0009     2.4924
  876.5000   695.1601    92.6061    -8.8778    10.0692     9.2156     9.7183   908.1633    -0.0608    11.0526     0.0018     2.4955
  877.0000   693.6237    93.9617    -8.8759    10.1483     9.2219     9.6558   908.1633    -0.0444    11.0980     0.0027     2.5018
  877.5000   691.7874    94.8937    -8.8744    10.2280     9.2283     9.5942   908.1633    -0.0325    11.1130     0.0020     2.5050
  878.0000   705.8406    94.4389    -9.4852    10.2351     9.2348     9.6703   908.1633    -0.0329    11.1432     0.0020     2.5082
  878.5000   704.3416    95.6039    -9.6372    10.2438     9.2425     9.7483   908.1633    -0.0360    11.1734     0.0013     2.5137
  879.0000   702.9550    97.4589    -9.6354    10.1762     9.2489     9.7553   908.1633    -0.0559    11.1731     0.0006     2.5091
  879.5000   701.3436    98.6217    -9.3276    10.1850     9.2552     9.8325   908.1633    -0.0715    11.1728    -0.0001     2.5006
  880.0000   699.8445    96.6307    -9.1730    10.1178     9.2616     9.8396   908.1633    -0.0761    11.1267     0.0000     2.4952
  880.5000   695.9573    89.1802    -8.8652    10.1265     9.2021     9.8467   908.1633    -0.0698    11.1111     0.0009     2.4929
  881.0000   680.9196    87.8045    -8.5571    10.0614     9.0780     9.8539   908.1633    -0.0586    11.0956     0.0017     2.4976
  881.5000   679.4205    89.4288    -8.0962     9.9887     9.0197     9.7907   908.1633    -0.0482    11.0800     0.0026     2.5049
  882.0000   677.9217    92.4378    -7.7885     9.8619     8.8997     9.7280   908.1633    -0.0503    11.0622     0.0034     2.5133
  882.5000   676.4226    96.1390    -8.0933     9.8548     8.7797     9.6657   908.1633    -0.0537    11.0335     0.0074     2.5196
  883.0000   674.9236    94.9941    -8.2449     9.7356     8.7218     9.6037   908.1633    -0.0575    11.0180     0.0075     2.5173
  883.5000   673.4059    93.8491    -8.2435     9.6043     8.5446     9.5422   908.1633    -0.0557    11.0024     0.0026     2.5081
