~VERSION INFORMATION
 VERS.                2.0:   CWLS LOG ASCII STANDARD - VERSION 2.0
 WRAP.                 NO:   ONE LINE PER DEPTH STEP
~WELL INFORMATION
#MNEM.UNIT      DATA TYPE    INFORMATION
#----------   ------------   ------------------------------
 STRT.F            0.0000:   START DEPTH
 STOP.F         3474.0000:   STOP DEPTH
 STEP.F            0.5000:   STEP LENGTH
 NULL.          -999.2500:   NO VALUE
 COMP. LAWRENCE ALLISON & ASSOCIATES:   COMPANY
 WELL. LAWRENCE ALLISON #13-AX-14:   WELL
 FLD .            WILDCAT:   FIELD
 LOC .      S14 T38N R78W:   LOCATION
 CNTY.            NATRONA:   COUNTY
 STAT.            WYOMING:   STATE
 CTRY. UNITED STATES OF AMERICA:   COUNTRY
 SRVC.      DRESSER ATLAS:   SERVICE COMPANY
 DATE.        31-MAR-1986:   LOGDATE
 API .     49025110640000:   API NUMBER
~CURVE INFORMATION
#MNEM.UNIT       API CODE    CURVE DESCRIPTION
#----------   ------------   ------------------------------
 DEPT.F                  :   
 TEND.LBS    45 635 01 00:   TENSION FROM DENSITY LOG
 RHOB.G/C3   45 350 01 00:   BULK DENSITY
 CORR.G/C3   45 356 01 00:   DENSITY CORRECTION
 CALD.IN     45 280 60 00:   CALIPER FROM DENSITY LOG
 NPHI.DEC    42 890 00 00:   NEUTRON POROSITY
 TENR.LBS    07 635 01 00:   TENSION FROM RESISTIVITY
 RFOC.OHMM   07 220 01 00:   RESISTIVITY FOCUSED LOG RES.
 RILD.OHMM   07 120 46 00:   DEEP INDUCTION RESISTIVITY
 RILM.OHMM   07 120 44 00:   INDUCTION LOG MEDIUM RESISTIVITY
 GRR .GAPI   07 310 01 00:   GAMMA RAY FROM RESISTIVITY
 SPR .MV     07 010 01 00:   SPONTANEOUS POTENTIAL
 TENS.LBS    60 635 01 00:   TENSION FROM SONIC LOG
 DT  .US/F   60 520 00 00:   DELTA TIME
~PARAMETER INFORMATION
#MNEM.UNIT          VALUE    DESCRIPTION
#----------   ------------   ------------------------------
 EKB .F         5251.0000:   Kelly bushing
 EGL .F         5239.2000:   Ground level
 EDF .F         5248.1000:   Drilling floor
 TD  .F         3456.0000:   Total depth
 DATE.        31-MAR-1986:   Date logged
 CLNT.            A2DTECH:   Client Code
 SL  . 238' FWL & 1739' FNL:   Surface Location
 PD  .                 GL:   Permanent Datum
 EPD .F            5239.2:   Elevation Permanent Datum
 LMF .                 KB:   Log Measured From
 DMF .                 KB:   Drilling Measured From
 DAPD.F              11.8:   Feet Above Permanent Datum
 DD  .F              3450:   Depth driller
 DL  .F              3456:   Depth logger
 BLI .F              3450:   Bottom log interval
 CS1 .IN            8.625:   Casing size
 CBD1.      8.625" @ 689':   Casing driller 1
 CBL1.F               692:   Casing logger 1
 BS1 .IN            7.875:   Bit size
 BSD1.F              3450:   Depth drilled with bit1
 DFT .        POLYMER/KCL:   Type fluid in hole
 DFD .                9.1:   Density
 DFV .                 38:   Viscosity
 DFPH.                8.5:   pH
 DFL .               11.2:   Fluid loss
 MSS .           FLOWLINE:   Source of sample
 RMS .OHMM            .29:   Rm
 MST .F                65:   Rm Meas. temp.
 RMF .OHMM           .235:   Rmf
 MFST.F                65:   Rmf Meas. temp.
 RMC .OHMM           .378:   Rmc
 MCST.F                65:   Rmc Meas. temp.
 MFSS.               MEAS:   Source Rmf.
 MCSS.               MEAS:   Source Rmc.
 RMB .OHMM           .163:   Rm. at BHT
 BHT .F               115:   BHT.
 TCS .HRS               3:   Time Circ. stopped
 MRT .F               115:   Maximum recorded temp.
 LUN .            HL-6274:   Logging unit number
 LUL .           GILLETTE:   Logging unit location
 ENGI.             RAUTIO:   Recorded By
 WITN.             STRONG:   Witnessed by
 ORIG.           5" PRINT:   Origin of data
 UWI .     49025110640000:   Unique Well ID
 DICO. A2D TECHNOLOGIES, INC.:   Digitizing Company
~OTHER INFORMATION
~A    DEPT    TEND       RHOB       CORR       CALD       NPHI       TENR       RFOC       RILD       RILM          GRR      SPR       TENS         DT   
# ...
 2938.0000   -53.9220     2.5180    -0.0090     8.3590     0.1930   -64.4430    10.0960     8.5870     9.1350    97.3620   -19.3610   -46.3870    75.0560
 2938.5000   -51.6740     2.5140    -0.0120     8.3600     0.2050   -63.9130    11.1350     8.4010     8.9570    94.3350   -19.2990   -48.6780    74.7660
 2939.0000   -49.4270     2.5130    -0.0090     8.3600     0.2100   -63.4240    11.5960     8.2330     8.6650    93.6200   -19.2400   -50.9680    74.6950
 2939.5000   -47.1790     2.5160    -0.0050     8.3610     0.2160   -62.9360    10.8540     8.0660     8.3740    98.1000   -19.1810   -53.2590    75.1850
 2940.0000   -44.9310     2.5210    -0.0010     8.3620     0.2250   -62.4470     9.6570     7.8980     8.0880   100.0490   -19.1220   -55.5500    76.5890
 2940.5000   -42.6840     2.5250     0.0000     8.3620     0.2350   -61.9590     8.6280     7.5700     7.5850   102.1630   -19.0640   -57.8400    77.9430
 2941.0000   -40.4360     2.5210    -0.0080     8.3640     0.2440   -61.4700     8.8720     7.1980     7.0930   101.1120   -19.0050   -60.1310    79.0180
 2941.5000   -38.1880     2.5130    -0.0170     8.3670     0.2500   -60.9810     9.2900     6.6380     6.5600   100.2460   -18.9460   -62.4220    79.6270
 2942.0000   -35.9400     2.5030    -0.0180     8.3710     0.2430   -60.4930     9.2900     5.9130     5.9600   101.1780   -18.8850   -64.8150    79.7900
 2942.5000   -34.7850     2.4850    -0.0140     8.3740     0.2360   -60.0040     8.5060     5.1440     5.3610   115.8830   -18.8270   -67.1300    80.5380
 2943.0000   -41.4660     2.4710     0.0060     8.3780     0.2440   -59.5160     7.2100     4.8060     4.7620   133.8510   -18.8370   -70.2080    82.2780
 2943.5000   -47.6480     2.4660     0.0230     8.3810     0.2560   -59.0270     5.9140     4.2820     4.1620   153.2810   -18.2620   -73.2860    84.0180
 2944.0000   -53.8290     2.4660     0.0220     8.3850     0.2680   -58.5380     5.0030     3.7580     3.5770   155.8100   -17.4930   -74.0350    85.5960
 2944.5000   -60.0100     2.4580     0.0110     8.3890     0.2800   -58.0500     5.3370     3.2340     3.0050   150.0520   -16.7160   -71.3730    87.0090
 2945.0000   -66.1910     2.4400     0.0050     8.3920     0.2870   -57.5610     5.3370     2.7100     2.4330   155.4100   -15.9890   -68.7110    88.4480
 2945.5000   -72.3720     2.4130    -0.0090     8.3960     0.3070   -57.0730     4.4590     2.1860     2.0090   170.7920   -16.0520   -66.0480    90.9110
 2946.0000   -78.5540     2.3810    -0.0120     8.3990     0.3280   -56.5840     3.7700     1.6620     1.7670   184.5640   -16.1100   -63.3860    95.2350
 2946.5000   -84.7350     2.3630    -0.0070     8.4020     0.3420   -56.0960     3.0810     1.4350     1.5240   201.7500   -16.1620   -60.7240   100.4550
 2947.0000   -90.9160     2.3590     0.0010     8.4100     0.3250   -55.6070     2.6140     1.3890     1.3730   209.2090   -16.2110   -58.0620   104.2720
 2947.5000   -84.8350     2.3630     0.0190     8.4180     0.3260   -55.1180     2.4760     1.3420     1.3730   215.7210   -16.2390   -55.4000   107.7160
 2948.0000   -77.8060     2.3780     0.0180     8.4260     0.3590   -54.6300     2.3890     1.2950     1.4000   211.4030   -16.0010   -55.2800   108.9190
 2948.5000   -70.4800     2.3920     0.0180     8.4340     0.3750   -56.7010     2.6200     1.2750     1.4240   201.2860   -15.4050   -55.8920   107.2480
 2949.0000   -63.1540     2.3850     0.0260     8.4420     0.3410   -60.8090     3.0180     1.3040     1.4640   189.3520   -14.7540   -56.5040   104.2490
 2949.5000   -55.8280     2.2930     0.0540     8.4500     0.3020   -64.9170     3.4890     1.3570     1.5130   180.0410   -14.0990   -57.1160   101.9490
 2950.0000   -48.5020     2.2330     0.0740     8.4580     0.2800   -69.0250     3.1240     1.5790     1.5620   177.3240   -13.4470   -57.7280   101.6540
 2950.5000   -44.7950     2.3130     0.0320     8.4660     0.2560   -73.1330     2.5250     1.8700     2.1140   165.3760   -12.8580   -58.3400   101.5120
 2951.0000   -44.7950     2.3990     0.0010     8.4740     0.2460   -77.2410     3.0090     2.1610     2.6970   149.7120   -12.8440   -58.9520   100.4100
 2951.5000   -47.4530     2.4790    -0.0010     8.4830     0.2450   -81.3490     4.6340     2.4070     3.2790   121.0220   -12.8600   -59.5650    94.4080
 2952.0000   -51.4090     2.5170     0.0000     8.4910     0.2560   -83.9320     6.2590     2.6300     3.7630   109.7960   -13.2820   -60.1770    88.7090
 2952.5000   -55.3650     2.5230     0.0120     8.4990     0.2640   -81.4690     7.9400     3.4670     4.3920   104.8620   -14.5380   -60.7890    82.8930
 2953.0000   -59.3210     2.5260     0.0260     8.4880     0.2580   -79.0070     7.5940     4.4340     5.0210   105.5740   -15.8010   -61.4010    83.2350
 2953.5000   -63.2770     2.5310     0.0330     8.4750     0.2310   -76.5450     7.1730     5.4020     5.7920   106.9110   -16.3310   -62.0130    84.1230
 2954.0000   -60.7840     2.5400     0.0170     8.4610     0.1830   -74.0820     7.1730     6.4900     7.2250   105.2990   -16.8300   -62.6250    85.0950
 2954.5000   -54.1910     2.5530     0.0030     8.4630     0.1460   -71.6200     7.5120     7.7910     8.6590    99.5290   -17.2960   -63.2370    85.0950
 2955.0000   -47.5980     2.5720     0.0030     8.4650     0.1350   -69.1570     9.5880     9.0930    10.0920    93.4900   -17.7710   -63.8490    82.3490
 2955.5000   -44.7950     2.5830     0.0000     8.4670     0.1320   -66.6950    12.3590     9.8210    11.5260    87.4700   -18.2470   -64.4610    76.9470
 2956.0000   -44.7950     2.5800    -0.0050     8.4690     0.1310   -64.2330    17.5250    10.3200    12.8370    81.4330   -18.7230   -64.4610    71.5450
 2956.5000   -44.7950     2.5680    -0.0070     8.4710     0.1390   -61.7700    22.5520    12.1040    14.0170    75.1850   -19.1990   -62.8330    66.0760
 2957.0000   -44.7950     2.5640     0.0030     8.4730     0.1510   -59.3080    21.8470    12.7500    14.7450    73.6200   -19.6800   -61.2050    64.6750
 2957.5000   -44.7950     2.5620     0.0120     8.4750     0.1770   -56.8460    19.8010    13.1890    14.8810    75.1900   -20.1570   -59.5760    65.4770
 2958.0000   -44.7950     2.5560     0.0130     8.4770     0.1910   -54.4130    17.7150    13.4440    14.2610    81.4880   -20.6010   -57.9480    66.9690
 2958.5000   -44.7950     2.5490     0.0020     8.4790     0.2050   -54.4130    15.6290    12.4140    13.2720    86.5390   -20.7380   -56.3200    68.8480
 2959.0000   -44.7950     2.5440    -0.0080     8.4800     0.2130   -54.4130    13.9330    11.5170    12.2830    87.1310   -20.8250   -54.8050    70.7270
 2959.5000   -44.7950     2.5410    -0.0110     8.4800     0.2170   -54.4130    12.8650    10.6210    11.2940    87.8350   -20.8130   -54.8050    71.7790
 2960.0000   -44.7950     2.5400    -0.0100     8.4800     0.2120   -54.4130    11.9800     9.7250    10.3050    90.4860   -21.0200   -55.7000    72.6830
 2960.5000   -44.7950     2.5430     0.0030     8.4800     0.2090   -54.4130    10.8490     8.8290     9.3160    96.4740   -21.4360   -56.5570    74.3780
 2961.0000   -44.7950     2.5490     0.0070     8.4810     0.2140   -54.4130     9.7170     8.2720     8.7790    99.1460   -22.0290   -57.4140    76.0860
 2961.5000   -44.7950     2.5510     0.0120     8.4750     0.2190   -54.4130     9.3500     8.0380     8.4200   100.9990   -22.6270   -58.2710    77.1190
 2962.0000   -44.7950     2.5510     0.0120     8.4690     0.2240   -57.8790     9.2970     7.8040     8.0610   103.7400   -23.2250   -59.1280    78.1820
 2962.5000   -44.7950     2.5530     0.0050     8.4620     0.2260   -62.9730     9.0030     7.5820     7.9400   106.6640   -23.8390   -59.9850    79.2450
 2963.0000   -44.7950     2.5550     0.0010     8.4560     0.2250   -68.0680     8.7090     7.4710     7.9850   105.6320   -23.9820   -60.8420    79.7900
 2963.5000   -44.7950     2.5580     0.0070     8.4490     0.2280   -73.1630     8.7090     7.3660     8.0280   100.4410   -23.9280   -61.6990    79.6810
