~VERSION INFORMATION
 VERS.                2.0:   CWLS LOG ASCII STANDARD - VERSION 2.0
 WRAP.                 NO:   ONE LINE PER DEPTH STEP
~WELL INFORMATION
#MNEM.UNIT      DATA TYPE    INFORMATION
#----------   ------------   ------------------------------
 STRT.F          200.0000:   START DEPTH
 STOP.F         3098.0000:   STOP DEPTH
 STEP.F            0.5000:   STEP LENGTH
 NULL.          -999.2500:   NO VALUE
 COMP.    FENIX & SCISSON:   COMPANY
 WELL.   FENIX "AX" #74-3:   WELL
 FLD .              N P R:   FIELD
 LOC .       S3 T38N R78W:   LOCATION
 CNTY.            NATRONA:   COUNTY
 STAT.            WYOMING:   STATE
 CTRY. UNITED STATES OF AMERICA:   COUNTRY
 SRVC.              WELEX:   SERVICE COMPANY
 DATE.        17-AUG-1977:   LOGDATE
 API .     49025104120000:   API NUMBER
~CURVE INFORMATION
#MNEM.UNIT       API CODE    CURVE DESCRIPTION
#----------   ------------   ------------------------------
 DEPT.F                  :   
 CALD.IN     45 280 60 00:   CALIPER FROM DENSITY LOG
 SPR .MV     07 010 01 00:   SPONTANEOUS POTENTIAL
 NPHI.DEC    42 890 00 00:   NEUTRON POROSITY
 GRD .GAPI   45 310 01 00:   GAMMA RAY FROM DENSITY LOG
 CORR.G/C3   45 356 01 00:   DENSITY CORRECTION
 RHOB.G/C3   45 350 01 00:   BULK DENSITY
 SGRD.OHMM   07 220 05 00:   SHALLOW SHORT GUARD RESISTIVITY
 ILD .OHMM   07 120 46 00:   DEEP INDUCTION RESISTIVITY
 ILM .OHMM   07 120 44 00:   INDUCTION LOG MEDIUM RESISTIVITY
~PARAMETER INFORMATION
#MNEM.UNIT          VALUE    DESCRIPTION
#----------   ------------   ------------------------------
 EKB .F         5141.0000:   Kelly bushing
 EGL .F         5131.0000:   Ground level
 EDF .F            0.0000:   Drilling floor
 TD  .F         3100.0000:   Total depth
 DATE.        17-AUG-1977:   Date logged
 CLNT.            A2DTECH:   Client Code
 SL  . 2272' FNL & 1060' FEL:   Surface Location
 PD  .                 GL:   Permanent Datum
 EPD .F              5131:   Elevation Permanent Datum
 LMF .                 KB:   Log Measured From
 DMF .                 KB:   Drilling Measured From
 DD  .F              3100:   Depth driller
 DL  .F              3100:   Depth logger
 BLI .F              3098:   Bottom log interval
 TLI .F               200:   Top log interval
 CS1 .IN            8.625:   Casing size
 CBD1.      8.625" @ 215':   Casing driller 1
 CBL1.F               218:   Casing logger 1
 BS1 .IN            7.875:   Bit size
 DFT .            KCL MUD:   Type fluid in hole
 DFD .                8.8:   Density
 DFV .                 33:   Viscosity
 DFPH.                9.5:   pH
 DFL .               10.6:   Fluid loss
 MSS .           FLOWLINE:   Source of sample
 RMS .OHMM            .67:   Rm
 MST .F                98:   Rm Meas. temp.
 RMF .OHMM            .64:   Rmf
 MFST.F                98:   Rmf Meas. temp.
 RMC .OHMM            .31:   Rmc
 MCST.F                98:   Rmc Meas. temp.
 MFSS.           MEASURED:   Source Rmf.
 RMB .OHMM            .57:   Rm. at BHT
 BHT .F               115:   BHT.
 TCS .HRS               3:   Time Circ. stopped
 MRT .F               115:   Maximum recorded temp.
 LUN .               8611:   Logging unit number
 LUL .             CASPER:   Logging unit location
 ENGI.            C. DOAK:   Recorded By
 WITN.     MR. PETTINGILL:   Witnessed by
 ORIG.           5" PRINT:   Origin of data
 UWI .     49025104120000:   Unique Well ID
 DICO. A2D TECHNOLOGIES, INC.:   Digitizing Company
 BSD1.               3100:   Depth drilled with bit1
~OTHER INFORMATION
~A   DEPT       CALD      SPR       NPHI          GRD      CORR        RHOB     SGRD        ILD        ILM   
# ...
 1149.0000    10.8650   -70.9420     0.2690   102.3430     0.0580     2.5090    12.7110     9.6330    10.3050
 1149.5000    10.8030   -70.9720     0.2710   101.8740     0.0560     2.5040    12.9030     9.7090    10.2630
 1150.0000    10.7700   -71.0020     0.2730   101.4020     0.0540     2.4990    12.9470     9.7860    10.2210
 1150.5000    10.8370   -71.0320     0.2750   101.4560     0.0520     2.5010    12.9470     9.8370    10.1790
 1151.0000    10.9040   -71.0620     0.2770   102.3740     0.0500     2.5000    12.9470     9.7670    10.1370
 1151.5000    10.9710   -71.0920     0.2760   102.3420     0.0480     2.4930    12.9470     9.6390    10.1110
 1152.0000    10.9520   -71.1220     0.2750   101.7180     0.0490     2.4860    12.6650     9.5110    10.0190
 1152.5000    10.9160   -71.1520     0.2760   101.0700     0.0490     2.4930    12.4000     9.3830     9.8650
 1153.0000    10.8810   -71.1820     0.2790   100.4310     0.0500     2.5010    12.1340     9.2550     9.7280
 1153.5000    10.8460   -71.2120     0.2820   100.9410     0.0500     2.5080    11.8690     9.1270     9.5910
 1154.0000    10.8340   -71.2420     0.2850   101.4420     0.0520     2.5080    11.6030     8.9990     9.4540
 1154.5000    10.8580   -71.2720     0.2880   101.9360     0.0550     2.5150    11.3380     8.8710     9.3900
 1155.0000    10.8820   -71.3020     0.2910   102.4290     0.0570     2.5300    11.0720     8.7430     9.3550
 1155.5000    10.9060   -71.3320     0.2940   102.9230     0.0600     2.5440    10.8960     8.6150     9.3200
 1156.0000    10.9300   -71.3620     0.2980   103.4170     0.0620     2.5420    10.7670     8.5510     9.2840
 1156.5000    10.9540   -71.3920     0.2990   103.8940     0.0590     2.5330    10.6380     8.5010     9.2490
 1157.0000    10.9790   -71.4220     0.3000   103.3790     0.0570     2.5240    10.5090     8.4520     9.2230
 1157.5000    10.9400   -71.4520     0.3010   102.5780     0.0550     2.5180    10.3800     8.4030     9.3150
 1158.0000    10.8940   -71.4820     0.3020   101.7700     0.0550     2.5120    10.2510     8.3530     9.3130
 1158.5000    10.8890   -71.5120     0.3050   101.6760     0.0560     2.5100    10.1220     8.3040     9.3120
 1159.0000    10.9630   -71.5420     0.3080   103.0570     0.0580     2.5090     9.9930     8.2550     9.3120
 1159.5000    11.0350   -71.5720     0.3120   104.4410     0.0590     2.5080     9.8640     8.2050     9.3110
 1160.0000    11.1060   -71.6040     0.3120   105.8240     0.0600     2.5070     9.7350     8.1560     9.3110
 1160.5000    11.1540   -71.5430     0.3120   107.0630     0.0620     2.5060     9.6070     8.1170     9.3120
 1161.0000    11.1450   -71.4340     0.3100   107.3190     0.0610     2.5040     9.4840     7.9340     9.1210
 1161.5000    11.1370   -71.3230     0.3080   107.4080     0.0570     2.4990     9.3970     7.8510     9.0020
 1162.0000    11.1330   -71.2130     0.3060   107.1630     0.0530     2.4910     9.3970     7.7690     8.8830
 1162.5000    11.1280   -71.1030     0.3060   106.9160     0.0490     2.4830     9.3180     7.6830     8.7640
 1163.0000    11.1220   -70.9930     0.3080   106.6730     0.0450     2.4670     9.2310     7.6830     8.6440
 1163.5000    11.1170   -70.8830     0.3110   106.4300     0.0410     2.4480     9.1450     7.7540     8.5250
 1164.0000    11.1120   -70.7730     0.3130   106.1860     0.0370     2.4300     9.0580     7.8560     8.4060
 1164.5000    11.1060   -70.6630     0.3150   105.9430     0.0350     2.4120     8.9710     7.9060     8.3430
 1165.0000    11.1010   -70.5540     0.3160   105.7010     0.0340     2.3960     8.8950     7.9560     8.2340
 1165.5000    11.0960   -70.4440     0.3180   105.4590     0.0330     2.3840     8.8040     7.9690     8.1130
 1166.0000    11.0900   -70.3340     0.3190   105.2030     0.0320     2.3530     8.7390     7.8250     7.9910
 1166.5000    11.0850   -70.2240     0.3200   104.2300     0.0320     2.3200     8.6730     7.6230     7.8690
 1167.0000    11.0790   -70.1140     0.3220   102.1110     0.0310     2.2880     8.6070     7.4190     7.7480
 1167.5000    11.1300   -70.0040     0.3220   100.0070     0.0280     2.2550     8.5420     7.2720     7.6260
 1168.0000    11.2050   -69.8890     0.3210    97.9000     0.0230     2.2190     8.2610     6.5880     7.3830
 1168.5000    11.2810   -69.8620     0.3210    95.8160     0.0190     2.1700     7.5070     5.8790     6.6510
 1169.0000    11.3560   -69.9420     0.3240    94.4330     0.0150     2.1220     6.7540     5.5760     6.0000
 1169.5000    11.4720   -70.0450     0.3300    94.4880     0.0110     2.0880     6.4560     6.0070     7.1230
 1170.0000    11.5980   -70.1470     0.3360    96.0770     0.0060     2.0800     6.9700     6.3190     8.5290
 1170.5000    11.6130   -70.2490     0.3430    98.4030     0.0170     2.2390     7.3910     6.6310     9.9350
 1171.0000    11.6210   -70.3520     0.3460   100.7450     0.0290     2.4100     7.8120     6.9430    11.3410
 1171.5000    11.5860   -70.4540     0.3490   103.0930     0.0410     2.4220     8.2340     7.2060    12.2550
 1172.0000    11.5250   -70.5560     0.3460   105.4420     0.0490     2.4370     8.5750     7.2060    10.4240
 1172.5000    11.4630   -70.6590     0.3400   107.7530     0.0510     2.4660     8.8140     7.2060     7.8250
 1173.0000    11.4000   -70.7600     0.3340   109.1640     0.0540     2.5010     8.9770     7.3390     7.8600
 1173.5000    11.3380   -70.8360     0.3250   108.4310     0.0560     2.5030     8.8160     7.4750     7.9010
 1174.0000    11.2740   -70.8610     0.3130   107.7410     0.0580     2.4980     8.6870     7.4750     7.9430
 1174.5000    11.2110   -70.8870     0.3110   107.0440     0.0500     2.4880     8.4970     7.4300     7.9690
 1175.0000    11.1470   -70.9130     0.3090   106.3500     0.0420     2.4780     8.3740     7.3700     7.9290
 1175.5000    11.0840   -70.9390     0.3070   105.6520     0.0450     2.4670     8.2460     7.3100     7.8240
 1176.0000    11.0220   -70.9640     0.3050   104.9400     0.0490     2.4570     8.1180     7.2500     7.7190
 1176.5000    11.0310   -70.9900     0.3040   104.2610     0.0530     2.4520     7.9910     7.1900     7.6130
 1177.0000    11.0440   -71.0160     0.3040   104.2820     0.0570     2.4470     7.8630     7.1300     7.5080
 1177.5000    11.0560   -71.0410     0.3060   104.5380     0.0600     2.4430     7.7360     7.0700     7.4030
 1178.0000    11.0680   -71.0670     0.3120   105.5940     0.0580     2.4390     7.6830     7.0110     7.3390
 1178.5000    11.0800   -71.0930     0.3180   106.6090     0.0550     2.4500     7.8250     7.0300     7.3040
 1179.0000    11.0930   -71.1180     0.3240   107.6260     0.0520     2.4610     8.1170     7.0540     7.2720
 1179.5000    11.1050   -71.1440     0.3300   108.6440     0.0510     2.4730     8.3150     7.0780     7.2060
 1180.0000    11.1170   -71.1700     0.3290   109.3140     0.0600     2.4910     8.5000     7.1020     7.2060
 1180.5000    11.1290   -71.1960     0.3260   108.1320     0.0680     2.5090     8.6850     7.1260     7.3080
 1181.0000    11.1420   -71.2200     0.3240   107.0010     0.0650     2.5160     8.8710     7.1500     7.5900
 1181.5000    11.1550   -71.2210     0.3210   105.8400     0.0610     2.5110     8.9770     7.1750     7.8720
 1182.0000    11.1270   -71.2210     0.3200   106.1250     0.0580     2.5030     8.9770     7.2060     7.9690
 1182.5000    11.0910   -71.2210     0.3230   106.6400     0.0540     2.4950     9.0590     7.1750     7.9690
 1183.0000    11.0560   -71.2210     0.3280   106.7850     0.0510     2.4920     9.0260     7.1310     7.9690
 1183.5000    11.0200   -71.2210     0.3310   104.9420     0.0570     2.5000     8.9950     7.0860     7.9690
 1184.0000    10.9850   -71.2210     0.3310   103.1020     0.0640     2.5020     8.9770     7.0410     7.8970
 1184.5000    10.9490   -71.2200     0.3270   101.2670     0.0590     2.4840     8.8470     6.9970     7.6830
 1185.0000    10.9140   -71.1940     0.3220    99.3740     0.0530     2.4710     8.6460     6.9520     7.5430
