~VERSION INFORMATION
 VERS.                2.0:   CWLS LOG ASCII STANDARD - VERSION 2.0
 WRAP.                 NO:   ONE LINE PER DEPTH STEP
~WELL INFORMATION
#MNEM.UNIT      DATA TYPE    INFORMATION
#----------   ------------   ------------------------------
 STRT.F            0.0000:   START DEPTH
 STOP.F         4134.5000:   STOP DEPTH
 STEP.F            0.5000:   STEP LENGTH
 NULL.          -999.2500:   NO VALUE
 COMP. LAWRENCE ALLISON & ASSOCIATES:   COMPANY
 WELL. LAWRENCE NPR 3 "X" #72-10:   WELL
 FLD .            WILDCAT:   FIELD
 LOC .      S10 T38N R78W:   LOCATION
 CNTY.            NATRONA:   COUNTY
 STAT.            WYOMING:   STATE
 CTRY. UNITED STATES OF AMERICA:   COUNTRY
 SRVC.      DRESSER ATLAS:   SERVICE COMPANY
 DATE.        29-JUL-1983:   LOGDATE
 API .     49025109390000:   API NUMBER
~CURVE INFORMATION
#MNEM.UNIT       API CODE    CURVE DESCRIPTION
#----------   ------------   ------------------------------
 DEPT.F                  :   
 CALD.IN     45 280 60 00:   CALIPER FROM DENSITY LOG
 DEN .G/C3   45 350 01 00:   BULK DENSITY
 CORR.G/C3   45 356 01 00:   DENSITY CORRECTION
 TEND.LBS    45 635 01 00:   TENSION FROM DENSITY LOG
 NPHI.DEC    42 890 03 00:   NEUTRON POROSITY SANDSTONE
 GRD .GAPI   45 310 01 00:   GAMMA RAY FROM DENSITY LOG
 SPR .MV     07 010 01 00:   SPONTANEOUS POTENTIAL
 RILD.OHMM   07 120 46 00:   DEEP INDUCTION RESISTIVITY
 RILM.OHMM   07 120 44 00:   INDUCTION LOG MEDIUM RESISTIVITY
 RFOC.OHMM   07 220 04 00:   RESISTIVITY FOCUSED LOG RES.
 TENR.LBS    07 635 01 00:   TENSION FROM RESISTIVITY
 AC  .US/F   60 250 00 00:   ACCOUSTIC
 TENS.LBS    60 635 01 00:   TENSION FROM SONIC
 GRR .GAPI   07 310 01 00:   GAMMA RAY FROM RESISTIVITY
~PARAMETER INFORMATION
#MNEM.UNIT          VALUE    DESCRIPTION
#----------   ------------   ------------------------------
 EKB .F         5182.0000:   Kelly bushing
 EGL .F         5172.0000:   Ground level
 EDF .F            0.0000:   Drilling floor
 TD  .F         4139.0000:   Total depth
 DATE.        29-JUL-1983:   Date logged
 CLNT.            A2DTECH:   Client Code
 SL  . 900' FNL & 900' FEL:   Surface Location
 PD  .                 GL:   Permanent Datum
 EPD .F              5172:   Elevation Permanent Datum
 LMF .                 KB:   Log Measured From
 DMF .                 KB:   Drilling Measured From
 DAPD.F                10:   Feet Above Permanent Datum
 DD  .F              4139:   Depth driller
 DL  .F              4134:   Depth logger
 BLI .F              4132:   Bottom log interval
 CS1 .IN            9.625:   Casing size
 CBD1.      9.625" @ 476':   Casing driller 1
 BS1 .IN            7.875:   Bit size
 BSD1.F              4139:   Depth drilled with bit1
 DFT .               LSND:   Type fluid in hole
 DFD .                6.6:   Density
 DFV .                 41:   Viscosity
 DFPH.                8.5:   pH
 DFL .                 10:   Fluid loss
 MSS .           FLOWLINE:   Source of sample
 RMS .OHMM            .27:   Rm
 MST .F                91:   Rm Meas. temp.
 RMF .OHMM            .19:   Rmf
 MFST.F                87:   Rmf Meas. temp.
 RMC .OHMM            .34:   Rmc
 MCST.F                87:   Rmc Meas. temp.
 MFSS.               MEAS:   Source Rmf.
 MCSS.               CALC:   Source Rmc.
 RMB .OHMM            .19:   Rm. at BHT
 BHT .F               130:   BHT.
 TCS .HRS               3:   Time Circ. stopped
 MRT .F               130:   Maximum recorded temp.
 LUN .               6274:   Logging unit number
 LUL .               GLTF:   Logging unit location
 ENGI.             RAUTIC:   Recorded By
 WITN.             STRONG:   Witnessed by
 ORIG.           5" PRINT:   Origin of data
 UWI .     49025109390000:   Unique Well ID
 DICO. A2D TECHNOLOGIES, INC.:   Digitizing Company
~OTHER INFORMATION
~A    DEPT    CALD        DEN       CORR       TEND       NPHI        GRD        SPR       RILD       RILM       RFOC       TENR         AC       TENS         GRR  
# ...
  710.5000     9.8380     2.4990     0.0360   -65.1790     0.2980   122.7550   -58.9870     5.9770     5.8630     6.2030   -59.2830  -999.2500  -999.2500   104.7170
  711.0000     9.8390     2.4990     0.0440   -66.1790     0.2920   122.4790   -58.8430     6.0090     5.8630     6.2150   -60.0740  -999.2500  -999.2500   101.3020
  711.5000     9.8370     2.4980     0.0510   -67.1780     0.2860   122.0850   -58.7110     6.0400     5.8630     6.2270   -60.8640  -999.2500  -999.2500    97.8350
  712.0000     9.8280     2.4980     0.0590   -68.1780     0.2840   121.6140   -58.7690     6.0710     5.8630     6.2390   -61.6550  -999.2500  -999.2500    94.2810
  712.5000     9.8190     2.4930     0.0520   -69.1780     0.2920   116.7990   -58.8410     6.0820     5.8630     6.2500   -62.4450  -999.2500  -999.2500    92.4370
  713.0000     9.8100     2.4880     0.0340   -70.1780     0.2950   112.6230   -58.9120     6.1380     5.8630     6.2620   -62.2650  -999.2500  -999.2500    92.9230
  713.5000     9.8020     2.4840     0.0160   -71.1780     0.2870   109.6350   -58.9830     6.1380     5.8630     6.2740   -60.9330  -999.2500  -999.2500    96.3560
  714.0000     9.7930     2.4830     0.0150   -72.1770     0.2800   107.9800   -59.0540     6.1380     5.8630     6.2860   -59.6020  -999.2500  -999.2500    99.8170
  714.5000     9.7840     2.4840     0.0150   -72.1780     0.2820   107.8500   -59.1240     6.1380     5.8630     6.2970   -58.2700  -999.2500  -999.2500   102.4430
  715.0000     9.7820     2.4860     0.0180   -71.1790     0.2850   110.1500   -59.1950     6.1380     5.8880     6.3110   -57.8840  -999.2500  -999.2500   102.5800
  715.5000     9.7880     2.4870     0.0250   -70.1800     0.2880   111.9350   -59.2660     6.1950     5.9240     6.3090   -57.8840  -999.2500  -999.2500   102.0990
  716.0000     9.7930     2.4870     0.0330   -69.1810     0.2880   108.3640   -59.3370     6.1950     5.9600     6.3330   -57.8840  -999.2500  -999.2500   103.1960
  716.5000     9.7990     2.4870     0.0410   -68.1820     0.2810   104.8840   -59.4080     6.1950     5.9960     6.3750   -57.8840  -999.2500  -999.2500   104.6170
  717.0000     9.8040     2.4880     0.0470   -67.1830     0.2790   101.7600   -59.4790     6.2780     6.0320     6.4180   -59.1660  -999.2500  -999.2500   104.7700
  717.5000     9.8090     2.4880     0.0400   -66.1840     0.2920   100.6800   -59.5320     6.3230     6.0680     6.4270   -60.4970  -999.2500  -999.2500   102.6730
  718.0000     9.8150     2.4900     0.0260   -65.1850     0.3020    99.7100   -59.5760     6.3680     6.0820     6.4270   -61.8290  -999.2500  -999.2500   102.2620
  718.5000     9.8190     2.4960     0.0130   -64.1860     0.3100    99.5290   -59.6200     6.3680     6.0970     6.4110   -63.2820  -999.2500  -999.2500   102.3400
  719.0000     9.8060     2.5020     0.0080   -63.1870     0.3000   101.6030   -59.6630     6.1970     6.1200     6.3730   -65.1800  -999.2500  -999.2500   101.7680
  719.5000     9.7940     2.5080     0.0260   -62.1880     0.3000   105.5760   -59.7070     6.2030     6.1380     6.3340   -67.0770  -999.2500  -999.2500   100.7320
  720.0000     9.7820     2.5140     0.0370   -61.1890     0.3010   111.5750   -59.7510     6.2150     6.1000     6.2960   -68.9750  -999.2500  -999.2500    99.6940
  720.5000     9.7700     2.5200     0.0460   -60.1900     0.2980   117.8140   -59.7950     6.2270     6.0630     6.2570   -70.8720  -999.2500  -999.2500    98.9840
  721.0000     9.7570     2.5180     0.0430   -59.1910     0.2950   119.4930   -59.8400     6.2390     6.0260     6.2520   -72.7690  -999.2500  -999.2500   100.0720
  721.5000     9.7450     2.5090     0.0050   -58.1920     0.2950   120.2550   -59.8830     6.2520     5.9900     6.2520   -74.6670  -999.2500  -999.2500   101.5920
  722.0000     9.7330     2.5070    -0.0140   -57.1930     0.2900   114.8980   -59.8410     6.2520     5.9710     6.2520   -76.5640  -999.2500  -999.2500   102.4490
  722.5000     9.7210     2.5110    -0.0170   -56.1940     0.2810   109.7400   -59.5220     6.3680     5.9710     6.2780   -78.1800  -999.2500  -999.2500   100.0750
  723.0000     9.7090     2.5150    -0.0130   -55.1950     0.2720   104.4340   -59.2050     6.4480     6.1490     6.3270   -79.2130  -999.2500  -999.2500    99.3660
  723.5000     9.6990     2.5200     0.0130   -54.1960     0.2640   100.3930   -58.9120     6.7230     6.3680     6.3770   -80.2460  -999.2500  -999.2500    98.9990
  724.0000     9.6970     2.5220     0.0380   -53.1970     0.2570    99.9810   -58.9060     7.0440     6.4860     6.4270   -81.2780  -999.2500  -999.2500    98.6290
  724.5000     9.6940     2.5240     0.0520   -52.1980     0.2540   100.7700   -58.8830     7.3770     6.7920     6.8310   -82.3110  -999.2500  -999.2500    98.2590
  725.0000     9.6910     2.5260     0.0390   -51.1990     0.2550   100.6890   -58.8490     7.5840     7.1550     7.2470   -83.3440  -999.2500  -999.2500    96.9710
  725.5000     9.6880     2.5300     0.0270   -50.2000     0.2580   100.2860   -58.8140     7.9400     7.5560     7.6630   -84.3760  -999.2500  -999.2500    94.7290
  726.0000     9.6850     2.5340     0.0100   -49.2010     0.2600    99.8680   -58.7790     8.4760     8.0810     8.3140   -85.4090  -999.2500  -999.2500    92.4820
  726.5000     9.6820     2.5370     0.0220   -48.2020     0.2630    99.4280   -58.7440     9.0040     8.6060     8.2980   -86.4410  -999.2500  -999.2500    90.1850
  727.0000     9.6670     2.5360     0.0330   -45.2050     0.2630    97.8980   -58.7100     9.5330     9.1310     8.2640   -72.0410  -999.2500  -999.2500    88.4920
  727.5000     9.6400     2.5360     0.0450   -37.7120     0.2580    95.9240   -58.7080    10.0610     9.6560     8.2290   -88.2490  -999.2500  -999.2500    88.5460
  728.0000     9.6270     2.5500     0.0480   -30.5770     0.2380    88.1870   -58.7070    10.5890    10.1810     8.1940   -72.4770  -999.2500  -999.2500    88.4300
  728.5000     9.6520     2.5640     0.0510   -23.4410     0.2160    77.4050   -58.5440    11.0550    10.6560     8.2380   -72.7680  -999.2500  -999.2500    85.1220
  729.0000     9.6750     2.5720     0.0520   -16.3050     0.1980    68.0000   -58.1300    11.4140    11.2600     8.1620   -73.0580  -999.2500  -999.2500    78.8880
  729.5000     9.6980     2.5640     0.0260    -7.7420     0.2000    67.5210   -57.7190    11.5150    10.9540     9.9580   -73.3490  -999.2500  -999.2500    68.8480
  730.0000     9.7220     2.5470     0.0190    -7.7420     0.2030    78.7260   -57.3080    11.6150    10.6410    12.5880   -73.6400  -999.2500  -999.2500    65.1380
  730.5000     9.7450     2.5340     0.0120   -11.0390     0.2460    87.5420   -56.8960    11.7150    10.3490    14.6990   -73.9310  -999.2500  -999.2500    73.4400
  731.0000     9.7690     2.5230     0.0060   -14.0360     0.2570    96.5780   -56.5230    11.8160    10.0580    12.7410   -74.2220  -999.2500  -999.2500    82.4570
  731.5000     9.7920     2.5190     0.0000   -17.0330     0.2550   100.0250   -56.6980    11.8980     9.9000    10.3340   -74.5120  -999.2500  -999.2500    88.7440
  732.0000     9.8160     2.5160     0.0020   -20.0300     0.2500   101.2080   -56.9500    11.6430     9.7200     8.7050   -74.8030  -999.2500  -999.2500    87.1590
  732.5000     9.8390     2.5140     0.0060   -23.0270     0.2450    91.7610   -57.1220    11.2690     9.6940     8.7050   -75.0940  -999.2500  -999.2500    86.4510
  733.0000     9.8620     2.5120     0.0150   -26.0240     0.2450    90.1620   -57.1210    10.8950     9.5710     8.7050   -75.3850  -999.2500  -999.2500    88.9130
  733.5000     9.8770     2.5060     0.0300   -29.0210     0.2500    90.9970   -57.2070    10.5210     9.4480     8.7050   -75.6760  -999.2500  -999.2500    91.2640
  734.0000     9.8650     2.5010     0.0360   -32.0180     0.2580    93.6640   -57.2990    10.2710     9.3250     8.6350   -75.9660  -999.2500  -999.2500    93.6180
  734.5000     9.8550     2.4970     0.0330   -35.0150     0.2650    96.2750   -57.3600    10.5260     9.2830     8.5680   -76.2570  -999.2500  -999.2500    95.0990
