~VERSION INFORMATION
 VERS.                2.0:   CWLS LOG ASCII STANDARD - VERSION 2.0
 WRAP.                 NO:   ONE LINE PER DEPTH STEP
~WELL INFORMATION
#MNEM.UNIT      DATA TYPE    INFORMATION
#----------   ------------   ------------------------------
 STRT.F          170.5000:   START DEPTH
 STOP.F         3160.0000:   STOP DEPTH
 STEP.F            0.5000:   STEP LENGTH
 NULL.          -999.2500:   NO VALUE
 COMP.  FENIX AND SCISSON:   COMPANY
 WELL.    FENIX "A" #85-3:   WELL
 FLD .       TEA POT DOME:   FIELD
 LOC .       S3 T38N R78W:   LOCATION
 CNTY.            NATRONA:   COUNTY
 STAT.            WYOMING:   STATE
 CTRY. UNITED STATES OF AMERICA:   COUNTRY
 SRVC.           BIRDWELL:   SERVICE COMPANY
 DATE.        20-DEC-1977:   LOGDATE
 API .     49025104450000:   API NUMBER
~CURVE INFORMATION
#MNEM.UNIT       API CODE    CURVE DESCRIPTION
#----------   ------------   ------------------------------
 DEPT.F                  :   
 CALD.IN     45 280 60 00:   CALIPER FROM DENSITY LOG
 GRD .GAPI   45 310 01 00:   GAMMA RAY FROM DENSITY LOG
 RHOB.G/C3   45 350 01 00:   BULK DENSITY
 CORR.G/C3   45 356 01 00:   DENSITY CORRECTION
 SPR .MV     05 010 01 00:   SPONTANEOUS POTENTIAL
 SN  .OHMM   05 040 00 00:   SHORT NORMAL
 ILD .OHMM   05 120 46 00:   DEEP INDUCTION RESISTIVITY
~PARAMETER INFORMATION
#MNEM.UNIT          VALUE    DESCRIPTION
#----------   ------------   ------------------------------
 EKB .F         5165.0000:   Kelly bushing
 EGL .F         5155.0000:   Ground level
 TD  .F         3151.0000:   Total depth
 DATE.        20-DEC-1977:   Date logged
 CLNT.            A2DTECH:   Client Code
 SL  . 2000' FSL & 100'FEL:   Surface Location
 PD  .                 GL:   Permanent Datum
 EPD .F              5155:   Elevation Permanent Datum
 LMF .                 KB:   Log Measured From
 DMF .                 KB:   Drilling Measured From
 DAPD.F                10:   Feet Above Permanent Datum
 DD  .F              3150:   Depth driller
 DL  .F              3151:   Depth logger
 BLI .F              3146:   Bottom log interval
 TLI .F               200:   Top log interval
 CS1 .IN            8.625:   Casing size
 CBD1.      8.625" @ 223':   Casing driller 1
 BS1 .IN            7.875:   Bit size
 BSD1.F              3150:   Depth drilled with bit1
 DFT .                KCL:   Type fluid in hole
 DFD .                8.9:   Density
 DFV .                 40:   Viscosity
 DFPH.                 11:   pH
 DFL .                7.2:   Fluid loss
 MSS .           FLOWLINE:   Source of sample
 RMS .OHMM            0.4:   Rm
 MST .F                62:   Rm Meas. temp.
 RMF .OHMM           0.48:   Rmf
 MFST.F                63:   Rmf Meas. temp.
 RMC .OHMM           0.52:   Rmc
 MCST.F                63:   Rmc Meas. temp.
 MFSS.               MEAS:   Source Rmf.
 MCSS.               MEAS:   Source Rmc.
 TCS .HRS             3.5:   Time Circ. stopped
 MRT .F               118:   Maximum recorded temp.
 LUN .               2958:   Logging unit number
 LUL .             CASPER:   Logging unit location
 ENGI.             MILLER:   Recorded By
 WITN.         HERRINGTON:   Witnessed by
 ORIG.           5" PRINT:   Origin of data
 UWI .     49025104450000:   Unique Well ID
 DICO. A2D TECHNOLOGIES, INC.:   Digitizing Company
~OTHER INFORMATION
~A   DEPT     CALD        GRD       RHOB        CORR       SPR         SN        ILD   
# ...
  398.0000    12.7737    99.6309     2.5257     0.0350   -72.6940     7.1006     6.4115
  398.5000    12.7927   101.8057     2.5266     0.0359   -72.4928     6.9068     5.0906
  399.0000    12.8114   102.7878     2.5266     0.0369   -72.4898     6.5956     5.1859
  399.5000    12.8899   101.9809     2.5275     0.0378   -72.4868     6.5359     5.2347
  400.0000    12.9285    99.9814     2.5265     0.0378   -72.4838     6.4767     5.2843
  400.5000    12.9640    99.6155     2.5254     0.0436   -72.1019     6.7511     5.2207
  401.0000    13.0265    95.9895     2.5234     0.0447   -72.0754     6.9780     5.2385
  401.5000    13.0257    92.9999     2.5234     0.0467   -71.8710     7.5858     5.2397
  402.0000    13.0448    92.7931     2.5143     0.0477   -71.4683     8.0954     5.4896
  402.5000    13.1037    93.1826     2.5003     0.0526   -71.2638     8.0977     6.3079
  403.0000    13.1428    94.1685     2.4953     0.0616   -71.0593     8.4833     8.4833
  403.5000    13.1818    95.5520     2.4802     0.0756   -71.0531     8.8055     9.6582
  404.0000    13.2607    96.3391     2.4582     0.0805   -70.4521     8.8075     9.6609
  404.5000    13.2997    96.3311     2.4332     0.0535   -70.4459     8.8100     9.4865
  405.0000    13.3587    96.1243     2.3822     0.0054   -69.8449     8.8119     9.2295
  405.5000    13.3978    96.5139     2.3372    -0.0297   -69.6404     8.7328     9.1471
  406.0000    13.4966    96.3071     2.4450     0.0153   -69.2376     8.9825     9.3205
  406.5000    13.5954    96.1019     2.5539     0.0363   -68.8348     9.4972     9.5854
  407.0000    13.7141    95.4960     2.5489     0.0383   -68.2338     9.5881    10.0419
  407.5000    13.8129    93.3014     2.5428     0.0372   -67.8322    10.1381    10.5201
  408.0000    13.9117    86.3346     2.5368     0.0362   -67.4294    10.0475    10.8186
  408.5000    14.0304    77.9762     2.5338     0.0351   -66.8283    10.2380    11.7622
  409.0000    14.0894    67.4329     2.5317     0.0351   -66.4255    10.2409    12.2083
  409.5000    14.2280    63.2506     2.5357     0.0381   -65.8244    10.2437    13.0285
  410.0000    14.3867    58.6690     2.5406     0.0440   -65.4216    10.3418    13.3988
  410.5000    14.5452    57.2696     2.5396     0.0440   -65.0187    10.3447    13.6543
  411.0000    14.6440    56.6652     2.5335     0.0450   -64.6158    10.3476    13.5308
  411.5000    14.7030    56.0609     2.5275     0.0459   -64.0147    10.3505    12.9230
  412.0000    14.7818    56.8480     2.5175     0.0499   -63.6118    10.3534    12.3424
  412.5000    14.8009    57.4364     2.5164     0.0539   -63.2089    10.3563    12.0081
  413.0000    14.8001    57.0308     2.5044     0.0548   -62.8060    10.2639    12.0107
  413.5000    14.7794    56.2277     2.4954     0.0548   -62.2048    10.3615    12.0141
  414.0000    14.7587    55.8221     2.4853     0.0547   -61.6036    10.3644    12.2418
  414.5000    14.7380    55.8141     2.4573     0.0707   -61.3989    10.2719    12.5898
  415.0000    14.7372    55.6074     2.4533     0.0827   -60.9960    10.2748    12.8284
  415.5000    14.6965    55.5994     2.4452     0.0687   -60.5931    10.1830    13.3157
  416.0000    14.6360    56.7856     2.3472     0.0576   -60.3884    10.1859    13.6941
  416.5000    14.5555    57.1752     2.3492     0.0475   -60.3833    10.1888    13.6980
  417.0000    14.5547    56.5709     2.3551     0.0475   -60.1787    10.1916    13.8291
  417.5000    14.5539    55.1714     2.3531     0.0455   -59.7757    10.1945    13.8314
  418.0000    14.5531    54.1695     2.3510     0.0424   -59.7694    10.1973    14.6264
  418.5000    14.5125    54.1615     2.3500     0.0354   -59.5634    10.2002    14.7665
  419.0000    14.4320    54.7498     2.3500     0.0363   -59.3600    10.2030    14.9062
  419.5000    14.3914    55.1394     2.3499     0.0333   -59.3537    10.2059    14.7747
  420.0000    14.3507    55.7277     2.3499     0.0252   -59.3473    10.2088    14.6428
  420.5000    14.3499    55.5210     2.3498     0.0232   -59.3410    10.2116    14.6469
  421.0000    14.3690    55.5130     2.3508     0.0322   -59.3359    10.3094    14.7872
  421.5000    14.3682    56.3001     2.3507     0.0402   -59.1312    10.6024    14.6551
  422.0000    14.3276    56.0933     2.3587     0.0521   -58.7269    10.8034    14.6593
  422.5000    14.3069    56.2841     2.3576     0.0491   -58.7206    10.8064    14.6625
  423.0000    14.2663    56.4749     2.3316     0.0440   -58.7142    10.9099    14.5316
  423.5000    14.2455    57.0632     2.3256     0.0440   -58.5082    10.9123    14.5357
  424.0000    14.2049    57.2524     2.3245     0.0370   -58.7028    10.9154    14.5398
  424.5000    14.1643    58.8362     2.3245     0.0349   -58.8935    11.1223    15.0920
  425.0000    14.1435    60.6172     2.3244     0.0379   -58.8884    11.2288    15.3772
  425.5000    14.0631    60.4105     2.3294     0.0398   -58.8820    11.2319    15.6687
  426.0000    14.0224    59.4086     2.3373     0.0468   -58.8757    11.6585    16.1149
  426.5000    13.9818    59.6009     2.3383     0.0578   -58.8693    11.7701    17.0392
  427.0000    13.9810    61.7795     2.3232     0.0337   -58.6646    11.9933    17.3622
  427.5000    14.0001    63.7593     2.3022     0.0387   -58.8566    12.1094    17.3671
  428.0000    13.9794    64.5464     2.3002     0.0276   -58.8502    12.3376    17.0536
  428.5000    13.9786    64.9360     2.2991     0.0176   -59.4390    12.3411    16.9013
  429.0000    13.9977    65.9219     2.2991     0.0095   -59.6310    12.4592    16.5962
  429.5000    13.9770    68.1005     2.3000     0.0145   -60.2198    12.4627    16.4480
  430.0000    13.9563    68.8876     2.3020     0.0145   -60.8085    12.4662    16.3012
  430.5000    13.9156    68.6808     2.3039     0.0074   -61.1990    12.5856    16.4573
  431.0000    13.8352    66.8838     2.3109     0.0104   -61.3910    12.7061    16.4619
  431.5000    13.7746    65.4843     2.3188     0.0153   -61.5831    12.7096    16.7739
  432.0000    13.7340    63.8861     2.3658     0.0414   -61.5767    12.7132    16.9336
  432.5000    13.7332    63.0830     2.3777     0.0443   -61.7688    12.8349    17.2545
  433.0000    13.7324    63.0750     2.3747     0.0423   -61.7625    12.8378    17.2594
  433.5000    13.7316    63.2658     2.3717     0.0412   -61.7561    12.8414    17.2642
  434.0000    13.7508    62.6614     2.3656     0.0342   -61.7498    12.8450    17.1101
  434.5000    13.7500    62.8522     2.3646     0.0321   -61.7435    12.8486    16.6465
  435.0000    13.7691    63.4405     2.3765     0.0371   -61.7372    12.8522    16.4979
  435.5000    13.7683    63.4325     2.3945     0.0401   -61.5324    12.8558    16.2001
  436.0000    13.7476    63.2258     2.4064     0.0400   -61.1306    12.9789    16.2046
  436.5000    13.7269    63.6153     2.4124     0.0380   -61.5210    13.2249    16.0337
  437.0000    13.6863    64.6028     2.4114     0.0360   -61.5147    13.2286    15.9165
  437.5000    13.6257    65.5887     2.4103     0.0359   -61.5084    13.3553    15.9174
  438.0000    13.5054    66.1771     2.4133     0.0359   -61.7005    13.4831    16.0734
  438.5000    13.4449    65.1752     2.4082     0.0318   -61.8925    13.4869    16.3781
  439.0000    13.3443    64.1733     2.3952     0.0278   -61.8862    13.7426    16.3809
  439.5000    13.2439    62.7722     2.3881     0.0277   -61.8799    13.7464    17.0049
  440.0000    13.0639    61.7703     2.3861     0.0317   -61.8736    14.0070    17.0097
  440.5000    12.9236    61.5635     2.3880     0.0337   -62.0657    14.4051    18.1514
  441.0000    12.7834    60.5616     2.3900     0.0327   -61.8609    14.6782    19.7358
  441.5000    12.7228    60.1561     2.3869     0.0266   -62.0530    14.9564    20.2934
  442.0000    12.6623    59.9493     2.3739     0.0185   -62.2451    15.0996    22.0611
  442.5000    12.6615    57.7531     2.3659     0.0125   -62.2388    15.3850    22.8989
  443.0000    12.6806    58.7406     2.3648     0.0044   -62.4309    15.1072    22.9053
