~VERSION INFORMATION
 VERS.                2.0:   CWLS LOG ASCII STANDARD - VERSION 2.0
 WRAP.                 NO:   ONE LINE PER DEPTH STEP
~WELL INFORMATION
#MNEM.UNIT      DATA TYPE    INFORMATION
#----------   ------------   ------------------------------
 STRT.F            1.0000:   START DEPTH
 STOP.F         2854.0000:   STOP DEPTH
 STEP.F            0.5000:   STEP LENGTH
 NULL.          -999.2500:   NO VALUE
 COMP.          INTEX OIL:   COMPANY
 WELL. INTEX N.P.R. "AX" #42-29:   WELL
 FLD .             TEAPOT:   FIELD
 LOC .      S29 T39N R78W:   LOCATION
 CNTY.            NATRONA:   COUNTY
 STAT.            WYOMING:   STATE
 CTRY. UNITED STATES OF AMERICA:   COUNTRY
 SRVC.       SCHLUMBERGER:   SERVICE COMPANY
 DATE.        30-MAY-1986:   LOGDATE
 API .     49025095240000:   API NUMBER
~CURVE INFORMATION
#MNEM.UNIT       API CODE    CURVE DESCRIPTION
#----------   ------------   ------------------------------
 DEPT.F                  :   
 SPR .MV     05 010 01 00:   SPONTANEOUS POTENTIAL FROM RES.
 ASN .OHMM   05 041 16 00:   AMPLIFIED SHORT NORMAL 16"
 ILD .OHMM   05 120 46 00:   INDUCTION LOG DEEP
 GRD .GAPI   45 310 01 00:   GAMMA RAY FROM DENSITY LOG
 CALD.IN     45 280 60 00:   CALIPER FROM DENSITY LOG
 CORR.G/C3   45 356 01 00:   DENSITY CORRECTION
 RHOB.G/C3   45 350 01 00:   BULK DENSITY
 CALI.IN     30 280 01 00:   CALIPER FROM GAMMA RAY LOG
 GR  .GAPI   30 310 01 00:   GAMMA RAY
~PARAMETER INFORMATION
#MNEM.UNIT          VALUE    DESCRIPTION
#----------   ------------   ------------------------------
 EKB .F         5020.3000:   Kelly bushing
 EGL .F         5010.0000:   Ground level
 EDF .F            0.0000:   Drilling floor
 TD  .F         2860.0000:   Total depth
 CLNT.            A2DTECH:   Client Code
 DATE.        30-MAY-1986:   Date Logged [DD-MMM-YYYY]
 DD  .F              2860:   Depth driller
 DL  .F              2855:   Depth logger
 BLI .F              2854:   Bottom log interval
 TLI .F               164:   Top log interval
 CS1 .              8.625:   Casing size
 CBD1.      8.625" @ 167':   Casing driller 1
 CBL1.IN              164:   Casing logger 1
 BS1 .IN            7.875:   Bit size
 BSD1.F              2860:   Depth drilled with bit1
 DFT .  LIGND-SULFATE LCM:   Type fluid in hole
 DFD .                8.9:   Density
 DFV .                 33:   Viscosity
 DFPH.               11.0:   pH
 DFL .                9.2:   Fluid loss
 MSS .           FLOWLINE:   Source of sample
 RMS .OHMM           1.47:   Rm
 MST .F                55:   Rm Meas. temp.
 RMF .OHMM           1.13:   Rmf
 MFST.F                75:   Rmf Meas. temp.
 RMB .OHMM           0.78:   Rm. at BHT
 BHT .F               108:   BHT.
 TCS .HRS               3:   Time Circ. stopped
 MRT .F               108:   Maximum recorded temp.
 LUN .               3527:   Logging unit number
 LUL .               CSPR:   Logging unit location
 ENGI.            MANGOLO:   Recorded By
 WITN.             TUTTLE:   Witnessed by
 ORIG.      1" 2.5" PRINT:   Origin of data
 UWI .     49025095240000:   Unique Well ID
 DICO. A2D TECHNOLOGIES, INC.:   Digitizing Company
 PD  .                 GL:   Permanent Datum
 EPD .               5010:   Elevation Permanent Datum
 LMF .                 KB:   Log Measured From
 DMF .                 KB:   Drilling Measured From
 DAPD.              10.32:   Feet Above Permanent Datum
 MFSS.         MEAS PRESS:   Source Rmf.
~OTHER INFORMATION
~A    DEPT     SPR        ASN        ILD        GRD       CALD       CORR       RHOB        CALI        GR   
# ...
 2300.5000   -39.0244    12.0061     7.8550   117.3134     9.1279     0.0020     2.5378  -999.2500  -999.2500
 2301.0000   -38.7195    11.8541     7.7039   118.6567     9.1370     0.0120     2.5429  -999.2500  -999.2500
 2301.5000   -38.4146    11.7021     7.5529   118.2090     9.1569     0.0291     2.5512  -999.2500  -999.2500
 2302.0000   -39.0244    11.5502     7.5529   115.0746     9.1867     0.0522     2.5624  -999.2500  -999.2500
 2302.5000   -38.7195    11.5502     7.5529   111.0448     9.1952     0.0654     2.5756  -999.2500  -999.2500
 2303.0000   -38.4146    11.3982     7.5529   107.9104     9.2155     0.0732     2.5802  -999.2500  -999.2500
 2303.5000   -37.8049    11.5502     7.5529   108.3582     9.2144     0.0777     2.5662  -999.2500  -999.2500
 2304.0000   -37.8295    11.5502     7.7603   109.2537     9.2229     0.0762     2.5756  -999.2500  -999.2500
 2304.5000   -37.8325    11.5502     7.6903   110.5970     9.2526     0.0647     2.5783  -999.2500  -999.2500
 2305.0000   -38.1404    11.5502     7.6885   108.2838     9.2822     0.0638     2.5767  -999.2500  -999.2500
 2305.5000   -38.1434    11.5502     7.6870   104.5759     9.3029     0.0873     2.5881  -999.2500  -999.2500
 2306.0000   -38.1465    11.5502     7.6855   102.4417     9.3327     0.1381     2.5973  -999.2500  -999.2500
 2306.5000   -38.1495    11.3982     7.5330   102.0896     9.3624     0.1714     2.5809  -999.2500  -999.2500
 2307.0000   -38.1525    11.0942     7.3804   103.1583     9.3922     0.1679     2.5618  -999.2500  -999.2500
 2307.5000   -37.8506    10.9422     7.0768   105.4706     9.4219     0.1396     2.5609  -999.2500  -999.2500
 2308.0000   -37.8536    10.9422     6.9243   108.5906     9.4295     0.1187     2.5735  -999.2500  -999.2500
 2308.5000   -37.8673    10.9422     6.9228   111.1910     9.4507     0.1113     2.5795  -999.2500  -999.2500
 2309.0000   -37.8597    10.7903     6.9213   112.8358     9.4497     0.1114     2.5825  -999.2500  -999.2500
 2309.5000   -37.8628    10.6383     6.9198   112.7079     9.4488     0.1212     2.5871  -999.2500  -999.2500
 2310.0000   -37.8658    10.6383     7.0695   110.9256     9.4478     0.1372     2.5977  -999.2500  -999.2500
 2310.5000   -37.8319    10.4863     7.0679   109.1984     9.3856     0.0932     2.5703  -999.2500  -999.2500
 2311.0000   -37.5232    10.6383     7.0664   107.8595     9.3233     0.0329     2.5429  -999.2500  -999.2500
 2311.5000   -37.6204    10.6383     7.2160   107.4627     9.2917     0.0155     2.5276  -999.2500  -999.2500
 2312.0000   -37.9350    10.6383     7.2145   108.7688     9.2601     0.0071     2.5268  -999.2500  -999.2500
 2312.5000   -37.8808    10.7903     7.2130   116.0956     9.2285     0.0091     2.5398  -999.2500  -999.2500
 2313.0000   -37.5091    10.9422     7.3626   119.7777     9.2258     0.0328     2.5595  -999.2500  -999.2500
 2313.5000   -36.9722    10.9422     7.3611   121.5350     9.1960     0.0426     2.5671  -999.2500  -999.2500
 2314.0000   -37.0590    10.9422     7.3595   117.6692     9.1951     0.0243     2.5549  -999.2500  -999.2500
 2314.5000   -37.6784    10.9422     7.2069   114.0325     9.1942     0.0140     2.5442  -999.2500  -999.2500
 2315.0000   -37.9930    10.9422     7.0544   112.2152     9.1932     0.0184     2.5351  -999.2500  -999.2500
 2315.5000   -38.2043    10.7903     7.0529   112.4401     9.1923     0.0155     2.5472  -999.2500  -999.2500
 2316.0000   -38.2073    10.6383     7.0232   113.1701     9.1914     0.0096     2.5476  -999.2500  -999.2500
 2316.5000   -38.0941    10.4863     6.8988   111.7740     9.1905     0.0126     2.5350  -999.2500  -999.2500
 2317.0000   -37.7856    10.3343     6.8610   112.2241     9.1896     0.0156     2.5319  -999.2500  -999.2500
 2317.5000   -37.6067    10.3343     6.7447   112.3001     9.1886     0.0171     2.5411  -999.2500  -999.2500
 2318.0000   -37.3049    10.3343     6.7432   112.7569     9.1877     0.0186     2.5365  -999.2500  -999.2500
 2318.5000   -37.3079    10.1824     6.7417   113.8797     9.1868     0.0186     2.5227  -999.2500  -999.2500
 2319.0000   -37.1615    10.0304     6.5891   115.8706     9.1859     0.0186     2.5242  -999.2500  -999.2500
 2319.5000   -37.0092    10.0304     6.4365   115.2800     9.1850     0.0186     2.5303  -999.2500  -999.2500
 2320.0000   -37.3171    10.0304     6.2840   114.9246     9.1841     0.0201     2.5242  -999.2500  -999.2500
 2320.5000   -37.3201    10.0304     6.1314   117.8682     9.1918     0.0098     2.5181  -999.2500  -999.2500
 2321.0000   -37.3232     9.6895     6.0614   120.3885     9.2130     0.0142     2.5304  -999.2500  -999.2500
 2321.5000   -37.0213     9.9392     5.9048   121.7820     9.1813     0.0217     2.5380  -999.2500  -999.2500
 2322.0000   -37.0250     9.6960     5.8248   123.9478     9.1804     0.0380     2.5427  -999.2500  -999.2500
 2322.5000   -37.0280     9.4225     5.6722   120.5388     9.1794     0.0779     2.5503  -999.2500  -999.2500
 2323.0000   -36.7261     9.3009     5.6707   119.0077     9.1895     0.1001     2.5620  -999.2500  -999.2500
 2323.5000   -36.7291     9.2097     5.7578   119.4598     9.2085     0.1386     2.5841  -999.2500  -999.2500
 2324.0000   -37.0370     9.3009     5.8187   116.7082     9.2073     0.0558     2.5691  -999.2500  -999.2500
 2324.5000   -37.6498     9.4529     5.8170   113.8962     9.2187     0.0396     2.5423  -999.2500  -999.2500
 2325.0000   -37.9577     9.6049     5.9668   114.2694     9.2362     0.0381     2.5742  -999.2500  -999.2500
 2325.5000   -37.9607     9.7264     5.9650   115.4571     9.2353     0.0381     2.5851  -999.2500  -999.2500
 2326.0000   -37.9637     9.7872     6.1146   116.1693     9.2344     0.0352     2.5690  -999.2500  -999.2500
 2326.5000   -37.6619     9.8480     6.1131   115.2701     9.2334     0.0337     2.5620  -999.2500  -999.2500
 2327.0000   -37.3600     9.8784     6.1116   114.9596     9.2325     0.0352     2.5635  -999.2500  -999.2500
 2327.5000   -37.3630     9.8480     6.1101   116.5962     9.2316     0.0249     2.5421  -999.2500  -999.2500
 2328.0000   -37.3660     9.7872     6.1086   115.8891     9.2306     0.0160     2.5299  -999.2500  -999.2500
 2328.5000   -37.3690     9.7568     6.1071   114.7065     9.2297     0.0205     2.5399  -999.2500  -999.2500
 2329.0000   -37.3721     9.6657     6.1057   113.2968     9.2288     0.0235     2.5471  -999.2500  -999.2500
 2329.5000   -37.6800     9.6049     6.1042   114.7992     9.2279     0.0317     2.5522  -999.2500  -999.2500
 2330.0000   -37.6830     9.5441     5.9516   118.4464     9.2270     0.0414     2.5587  -999.2500  -999.2500
 2330.5000   -37.6860     9.5137     5.9501   118.1046     9.2082     0.0518     2.5653  -999.2500  -999.2500
 2331.0000   -37.6890     9.4833     5.7976   118.1753     9.1945     0.0398     2.5678  -999.2500  -999.2500
 2331.5000   -37.6920     9.5137     5.7961   119.7324     9.1934     0.0271     2.5621  -999.2500  -999.2500
 2332.0000   -37.3902     9.5441     5.7946   119.2594     9.1618     0.0212     2.5559  -999.2500  -999.2500
 2332.5000   -37.3933     9.6376     5.9442   117.4018     9.1609     0.0177     2.5489  -999.2500  -999.2500
 2333.0000   -37.3963     9.7960     6.0937   113.6980     9.1600     0.0236     2.5595  -999.2500  -999.2500
 2333.5000   -37.3994    10.0000     6.2613   108.6097     9.1284     0.0306     2.5641  -999.2500  -999.2500
 2334.0000   -37.4024     9.8490     6.5659   104.4444     9.0968     0.0276     2.5607  -999.2500  -999.2500
 2334.5000   -37.4548    10.1824     6.8967   106.7406     9.0959     0.0292     2.5744  -999.2500  -999.2500
 2335.0000   -38.0180    10.6383     7.3263   110.8830     9.0643     0.0326     2.5760  -999.2500  -999.2500
 2335.5000   -37.6541    11.0942     7.6309   114.1023     9.0634     0.0234     2.5462  -999.2500  -999.2500
 2336.0000   -37.3455    11.3982     7.7845   112.7062     9.0625     0.0082     2.5340  -999.2500  -999.2500
 2336.5000   -37.1124    11.5502     7.8960   111.3102     9.0309     0.0010     2.5295  -999.2500  -999.2500
