~VERSION INFORMATION
 VERS.                2.0:   CWLS LOG ASCII STANDARD - VERSION 2.0
 WRAP.                 NO:   ONE LINE PER DEPTH STEP
~WELL INFORMATION
#MNEM.UNIT      DATA TYPE    INFORMATION
#----------   ------------   ------------------------------
 STRT.F            8.0000:   START DEPTH
 STOP.F         3021.0000:   STOP DEPTH
 STEP.F            0.5000:   STEP LENGTH
 NULL.          -999.2500:   NO VALUE
 COMP. LAWRENCE ALLISON & ASSOCIATES W:   COMPANY
 WELL. LAWRENCE ALLISON #68-28:   WELL
 FLD .              NPR 3:   FIELD
 LOC .      S28 T39N R78W:   LOCATION
 CNTY.            NATRONA:   COUNTY
 STAT.            WYOMING:   STATE
 CTRY. UNITED STATES OF AMERICA:   COUNTRY
 SRVC.      DRESSER ATLAS:   SERVICE COMPANY
 DATE.        19-DEC-1986:   LOGDATE
 API .     49025111580000:   API NUMBER
~CURVE INFORMATION
#MNEM.UNIT       API CODE    CURVE DESCRIPTION
#----------   ------------   ------------------------------
 DEPT.F                  :   
 SPR .MV     07 010 01 00:   SPONTANEOUS POTENTIAL
 TENR.LBS    07 635 01 00:   TENSION FROM RESISTIVITY
 RILD.OHMM   07 120 46 00:   DEEP INDUCTION RESISTIVITY
 RILM.OHMM   07 120 44 00:   INDUCTION LOG MEDIUM RESISTIVITY
 RFOC.OHMM   07 220 04 00:   RESISTIVITY FOCUSED LOG RES.
 CALD.IN     45 280 60 00:   CALIPER FROM DENSITY LOG
 CORR.G/C3   45 356 01 00:   DENSITY CORRECTION
 RHOB.G/C3   45 350 01 00:   BULK DENSITY
 CNC .DEC    42 890 03 00:   NEUTRON POROSITY SANDSTONE
 GRR .GAPI   07 310 01 00:   GAMMA RAY FROM RESISTIVITY
~PARAMETER INFORMATION
#MNEM.UNIT          VALUE    DESCRIPTION
#----------   ------------   ------------------------------
 EKB .F         5106.0000:   Kelly bushing
 EGL .F         5094.0000:   Ground level
 EDF .F            0.0000:   Drilling floor
 EPD .F         5094.0000:   Permanent datum
 TD  .F         3010.0000:   Total depth
 CLNT.            A2DTECH:   Client Code
 SL  . 1559'EL & 533' FSL:   Surface Location
 DATE.        19-DEC-1986:   Date Logged [DD-MMM-YYYY]
 DD  .F              3003:   Depth driller
 DL  .F              3010:   Depth logger
 BLI .F              3007:   Bottom log interval
 TLI .F                 0:   Top log interval
 CS1 .              8.625:   Casing size
 CBD1.      8.625" @ 389':   Casing driller 1
 CBL1.IN              405:   Casing logger 1
 BS1 .IN            7.875:   Bit size
 BSD1.F              3003:   Depth drilled with bit1
 DFT .        KCL POLYMER:   Type fluid in hole
 DFD .                9.0:   Density
 DFV .                 42:   Viscosity
 DFPH.                9.3:   pH
 DFL .                8.8:   Fluid loss
 MSS .           FLOWLINE:   Source of sample
 RMS .OHMM          0.484:   Rm
 MST .F                68:   Rm Meas. temp.
 RMF .OHMM          0.392:   Rmf
 MFST.F                68:   Rmf Meas. temp.
 MFSS.               MEAS:   Source Rmf.
 RMC .OHMM          0.605:   Rmc
 MCST.F                68:   Rmc Meas. temp.
 MCSS.               CALC:   Source Rmc.
 RMB .OHMM          0.269:   Rm. at BHT
 BHT .F               122:   BHT.
 TCS .HRS             3.5:   Time Circ. stopped
 MRT .F               122:   Maximum recorded temp.
 LUN .            HL-6274:   Logging unit number
 LUL .           GILLETTE:   Logging unit location
 ENGI.             RAUTIO:   Recorded By
 WITN.             STRONG:   Witnessed by
 ORIG.        2" 5" PRINT:   Origin of data
 UWI .     49025111580000:   Unique Well ID
 DICO. A2D TECHNOLOGIES, INC.:   Digitizing Company
~OTHER INFORMATION
~A    DEPT     SPR       TENR       RILD       RILM       RFOC       CALD       CORR       RHOB        CNC        GRR   
# ...
  912.5000   -34.0086   -88.6374     9.1010     8.9281     9.1725  -999.2500  -999.2500  -999.2500  -999.2500   103.6757
  913.0000   -33.8465   -88.4083     9.1029     8.9293     9.1704  -999.2500  -999.2500  -999.2500  -999.2500   106.8247
  913.5000   -33.6844   -88.1793     9.0945     8.9351     9.1681  -999.2500  -999.2500  -999.2500  -999.2500   108.4050
  914.0000   -33.6783   -87.9472     9.0414     8.9964     9.2329  -999.2500  -999.2500  -999.2500  -999.2500   106.2294
  914.5000   -33.6722   -87.7138     9.0438     9.0630     9.2305  -999.2500  -999.2500  -999.2500  -999.2500   104.0538
  915.0000   -33.8222   -87.4347     9.0457     9.0643     9.2285  -999.2500  -999.2500  -999.2500  -999.2500   104.3821
  915.5000   -33.9720   -87.2057     8.9822     8.8718     9.2265  -999.2500  -999.2500  -999.2500  -999.2500   106.2938
  916.0000   -33.9824   -86.9766     8.9846     8.7459     9.2246  -999.2500  -999.2500  -999.2500  -999.2500   109.4881
  916.5000   -34.2702   -86.7808     8.9215     8.7475     9.1565  -999.2500  -999.2500  -999.2500  -999.2500   110.6878
  917.0000   -34.5761   -86.5184     8.9238     8.8756     9.1545  -999.2500  -999.2500  -999.2500  -999.2500   105.3862
  917.5000   -34.7275   -86.2893     8.9257     8.8769     9.2187  -999.2500  -999.2500  -999.2500  -999.2500   102.5846
  918.0000   -34.8774   -86.0602     8.9276     8.8141     9.2168  -999.2500  -999.2500  -999.2500  -999.2500   107.2947
  918.5000   -34.8698   -85.8312     8.9295     8.8157     9.1487  -999.2500  -999.2500  -999.2500  -999.2500   110.7529
  919.0000   -34.7077   -85.6021     8.9314     8.8169     9.1467  -999.2500  -999.2500  -999.2500  -999.2500   110.1423
  919.5000   -34.3896   -85.3730     8.9334     8.8819     9.1444  -999.2500  -999.2500  -999.2500  -999.2500   107.6537
  920.0000   -34.2275   -85.1439     8.9357     8.8831     9.1424  -999.2500  -999.2500  -999.2500  -999.2500   106.7262
  920.5000   -34.0653   -84.9144     8.9376     8.8844     9.0749  -999.2500  -999.2500  -999.2500  -999.2500   108.3103
  921.0000   -33.7472   -84.6811     8.9394     8.8860     9.0730  -999.2500  -999.2500  -999.2500  -999.2500   108.6386
  921.5000   -33.5850   -84.4479     8.9413     8.8872     9.0711  -999.2500  -999.2500  -999.2500  -999.2500   107.0330
  922.0000   -33.5788   -84.1703     9.0079     8.8885     9.0691  -999.2500  -999.2500  -999.2500  -999.2500   102.6772
  922.5000   -33.4154   -83.9412     9.0098     8.8897     9.0672  -999.2500  -999.2500  -999.2500  -999.2500   103.3676
  923.0000   -33.4093   -83.7122     9.0117     8.8910     9.0653  -999.2500  -999.2500  -999.2500  -999.2500   106.8258
  923.5000   -33.4032   -83.4831     9.0137     8.8922     9.0634  -999.2500  -999.2500  -999.2500  -999.2500   110.2840
  924.0000   -33.3970   -83.2540     9.0156     8.9578     9.0615  -999.2500  -999.2500  -999.2500  -999.2500   111.8642
  924.5000   -33.5485   -83.0249     9.0827     8.9590     9.0596  -999.2500  -999.2500  -999.2500  -999.2500   109.3756
  925.0000   -33.5408   -82.7958     9.0846     8.9603     9.0575  -999.2500  -999.2500  -999.2500  -999.2500   106.5741
  925.5000   -33.6907   -82.5668     9.0865     8.8973     9.0552  -999.2500  -999.2500  -999.2500  -999.2500   103.7725
  926.0000   -33.8409   -82.3377     9.0232     8.8985     9.0533  -999.2500  -999.2500  -999.2500  -999.2500    99.7189
  926.5000   -34.1465   -82.1086     9.0256     8.8998     9.0514  -999.2500  -999.2500  -999.2500  -999.2500    98.1461
  927.0000   -34.2964   -81.8795     9.0275     8.9011     9.1154  -999.2500  -999.2500  -999.2500  -999.2500   103.8306
  927.5000   -34.2901   -81.6485     8.9641     8.9026     9.1130  -999.2500  -999.2500  -999.2500  -999.2500   108.0291
  928.0000   -34.1267   -81.4152     8.9665     8.7766     9.1774  -999.2500  -999.2500  -999.2500  -999.2500   112.9296
  928.5000   -33.9646   -81.1820     8.7766     8.6523     9.1091  -999.2500  -999.2500  -999.2500  -999.2500   118.2657
  929.0000   -33.9585   -80.9059     8.5907     8.5911     9.0418  -999.2500  -999.2500  -999.2500  -999.2500   119.2161
  929.5000   -33.7963   -80.6768     8.4695     8.4698     8.7832  -999.2500  -999.2500  -999.2500  -999.2500   112.6625
  930.0000   -33.9478   -80.4478     8.4101     8.4099     8.6558  -999.2500  -999.2500  -999.2500  -999.2500   108.2960
  930.5000   -34.2521   -88.0520     8.4731     8.4114     8.5919  -999.2500  -999.2500  -999.2500  -999.2500   105.4944
  931.0000   -34.7141   -79.9896     8.4749     8.4125     8.5900  -999.2500  -999.2500  -999.2500  -999.2500   106.7617
  931.5000   -35.0215   -71.9845     8.5405     8.4745     8.6503  -999.2500  -999.2500  -999.2500  -999.2500   108.6549
  932.0000   -35.3261   -63.9793     8.6639     8.6608     8.7740  -999.2500  -999.2500  -999.2500  -999.2500   106.7923
  932.5000   -35.6318   -71.5836     8.7919     8.7247     8.8994  -999.2500  -999.2500  -999.2500  -999.2500   104.3037
  933.0000   -35.7817   -79.0825     8.8574     8.8564     9.0265  -999.2500  -999.2500  -999.2500  -999.2500   101.7987
  933.5000   -35.7754   -78.8442     8.9234     8.9177     9.0894  -999.2500  -999.2500  -999.2500  -999.2500    99.2831
  934.0000   -35.6119   -86.3918     8.9898     8.9838     9.0875  -999.2500  -999.2500  -999.2500  -999.2500   101.8496
  934.5000   -35.1378   -93.9381     9.0567     9.1154     9.0855  -999.2500  -999.2500  -999.2500  -999.2500   105.9338
  935.0000   -34.8197   -93.7014     9.0587     9.1825     9.1494  -999.2500  -999.2500  -999.2500  -999.2500   107.5140
  935.5000   -34.3456   -93.4227     9.0606     9.1838     9.1473  -999.2500  -999.2500  -999.2500  -999.2500   106.8995
  936.0000   -34.0274  -101.0269     9.1281     9.1851     9.1454  -999.2500  -999.2500  -999.2500  -999.2500   107.8577
  936.5000   -33.7093  -100.7406     9.0643     9.1864     9.1435  -999.2500  -999.2500  -999.2500  -999.2500   110.6899
  937.0000   -33.5472  -100.5115     9.0663     9.1877     9.1414  -999.2500  -999.2500  -999.2500  -999.2500   113.8351
  937.5000   -33.6973  -100.2824     9.0683     9.1890     9.1391  -999.2500  -999.2500  -999.2500  -999.2500   117.6063
  938.0000   -33.6910  -100.0533     9.1358     9.1903     9.2037  -999.2500  -999.2500  -999.2500  -999.2500   118.6357
  938.5000   -33.9969   -99.8242     9.1378     9.1916     9.2013  -999.2500  -999.2500  -999.2500  -999.2500   115.1269
  939.0000   -34.3172   -99.5952     9.1402     9.1270     9.2658  -999.2500  -999.2500  -999.2500  -999.2500   111.3052
  939.5000   -34.7647   -99.3661     9.1421     9.1942     9.2638  -999.2500  -999.2500  -999.2500  -999.2500   108.7920
  940.0000   -35.0706   -99.1370     9.2102     9.1956     9.2619  -999.2500  -999.2500  -999.2500  -999.2500   105.4801
  940.5000   -35.0630   -98.9079     9.2788     9.1972     9.2599  -999.2500  -999.2500  -999.2500  -999.2500   105.8084
  941.0000   -35.0569   -98.6781     9.2807     9.1985     9.2579  -999.2500  -999.2500  -999.2500  -999.2500   105.8237
  941.5000   -34.8948   -98.4448     9.2827     9.2662     9.2560  -999.2500  -999.2500  -999.2500  -999.2500   103.6481
  942.0000   -34.8886   -98.2115     9.2847     9.2676     9.2540  -999.2500  -999.2500  -999.2500  -999.2500    99.5946
  942.5000   -34.8825   -90.1583     9.2866     9.2689     9.2521  -999.2500  -999.2500  -999.2500  -999.2500   104.9307
  943.0000   -35.0340   -89.9292     9.2886     9.2037     9.2500  -999.2500  -999.2500  -999.2500  -999.2500   109.3279
  943.5000   -35.0263   -89.7356     9.3578     9.2050     9.2477  -999.2500  -999.2500  -999.2500  -999.2500   113.0991
  944.0000   -35.0202   -89.4710     9.3597     9.2063     9.2457  -999.2500  -999.2500  -999.2500  -999.2500   114.3663
  944.5000   -34.8580   -89.2419     9.3618     9.2076     9.2438  -999.2500  -999.2500  -999.2500  -999.2500   114.3819
  945.0000   -34.6749   -89.0129     9.4319     9.2089     9.2418  -999.2500  -999.2500  -999.2500  -999.2500   114.7944
  945.5000   -34.2203   -88.7838     9.4339     9.2102     9.2398  -999.2500  -999.2500  -999.2500  -999.2500   117.5460
