~VERSION INFORMATION
 VERS.                2.0:   CWLS LOG ASCII STANDARD - VERSION 2.0
 WRAP.                 NO:   ONE LINE PER DEPTH STEP
~WELL INFORMATION
#MNEM.UNIT      DATA TYPE    INFORMATION
#----------   ------------   ------------------------------
 STRT.F           14.0000:   START DEPTH
 STOP.F         3030.0000:   STOP DEPTH
 STEP.F            0.5000:   STEP LENGTH
 NULL.          -999.2500:   NO VALUE
 COMP. LAWRENCE ALLISON & ASSOC. WEST:   COMPANY
 WELL. LAWRENCE "X" #37-28:   WELL
 FLD .          N.P.R. #3:   FIELD
 LOC .      S28 T39N R78W:   LOCATION
 CNTY.            NATRONA:   COUNTY
 STAT.            WYOMING:   STATE
 CTRY. UNITED STATES OF AMERICA:   COUNTRY
 SRVC.      DRESSER ATLAS:   SERVICE COMPANY
 DATE.        22-SEP-1986:   LOGDATE
 API .     49025111090000:   API NUMBER
~CURVE INFORMATION
#MNEM.UNIT       API CODE    CURVE DESCRIPTION
#----------   ------------   ------------------------------
 DEPT.F                  :   
 GRR .GAPI   07 310 01 00:   GAMMA RAY FROM RESISTIVITY
 SPR .MV     07 010 01 00:   SPONTANEOUS POTENTIAL
 TENR.LBS    07 635 01 00:   TENSION FROM RESISTIVITY
 RILD.OHMM   07 120 46 00:   DEEP INDUCTION RESISTIVITY
 RILM.OHMM   07 120 44 00:   INDUCTION LOG MEDIUM RESISTIVITY
 RFOC.OHMM   07 220 04 00:   RESISTIVITY FOCUSED LOG RES.
 CNC .DEC    42 890 03 00:   NEUTRON PORISITY SANDSTONE
 RHOB.G/C3   45 350 01 00:   BULK DENSITY
 CORR.G/C3   45 356 01 00:   DENSITY CORRECTION
 TEND.LBS    45 635 01 00:   TENSION FROM DENSITY LOG
 CALD.IN     45 280 60 00:   CALIPER FROM DENSITY LOG
~PARAMETER INFORMATION
#MNEM.UNIT          VALUE    DESCRIPTION
#----------   ------------   ------------------------------
 EKB .F         5124.0000:   Kelly bushing
 EGL .F         5113.0000:   Ground level
 EDF .F         5123.0000:   Drilling floor
 TD  .F         3026.0000:   Total depth
 DATE.        22-SEP-1986:   Date logged
 CLNT.            A2DTECH:   Client Code
 SL  . 1097' FSL & 1722' FWL:   Surface Location
 PD  .                 GL:   Permanent Datum
 EPD .F              5113:   Elevation Permanent Datum
 LMF .                 KB:   Log Measured From
 DMF .                 KB:   Drilling Measured From
 DAPD.F                11:   Feet Above Permanent Datum
 DD  .F              3026:   Depth driller
 DL  .F              3023:   Depth logger
 BLI .F              3020:   Bottom log interval
 CS1 .IN            8.625:   Casing size
 CBD1.      8.625" @ 517':   Casing driller 1
 CBL1.F               518:   Casing logger 1
 BS1 .IN            7.875:   Bit size
 BSD1.F              3026:   Depth drilled with bit1
 DFT .            KCL-GEL:   Type fluid in hole
 DFD .                8.6:   Density
 DFV .                 41:   Viscosity
 DFPH.                9.5:   pH
 DFL .                6.8:   Fluid loss
 MSS .           FLOWLINE:   Source of sample
 RMS .OHMM           0.37:   Rm
 MST .F                58:   Rm Meas. temp.
 RMF .OHMM           0.33:   Rmf
 MFST.F                63:   Rmf Meas. temp.
 RMC .OHMM           0.59:   Rmc
 MCST.F                58:   Rmc Meas. temp.
 MFSS.               MEAS:   Source Rmf.
 MCSS.               CALC:   Source Rmc.
 RMB .OHMM           0.16:   Rm. at BHT
 BHT .F               131:   BHT.
 TCS .HRS               3:   Time Circ. stopped
 MRT .F               131:   Maximum recorded temp.
 LUN .            HL 6426:   Logging unit number
 LUL .                 RS:   Logging unit location
 ENGI.               RALL:   Recorded By
 WITN.             STRONG:   Witnessed by
 ORIG.           5" PRINT:   Origin of data
 UWI .     49025111090000:   Unique Well ID
 DICO. A2D TECHNOLOGIES, INC.:   Digitizing Company
~OTHER INFORMATION
~A   DEPT      GRR        SPR       TENR       RILD       RILM       RFOC        CNC       RHOB       CORR       TEND       CALD   
# ...
 1844.0000   118.1450   -22.5560   -43.9700     7.3480     8.0400     9.2760  -999.2500  -999.2500  -999.2500  -999.2500  -999.2500
 1844.5000   117.4490   -22.4020   -44.8570     7.4140     8.0980     9.1530  -999.2500  -999.2500  -999.2500  -999.2500  -999.2500
 1845.0000   117.8740   -22.3970   -46.1010     7.4970     8.1490     9.0220  -999.2500  -999.2500  -999.2500  -999.2500  -999.2500
 1845.5000   118.0650   -22.5340   -47.3460     7.5490     8.3240     9.0800  -999.2500  -999.2500  -999.2500  -999.2500  -999.2500
 1846.0000   119.6510   -22.6860   -48.5900     7.6430     8.4790     9.1580  -999.2500  -999.2500  -999.2500  -999.2500  -999.2500
 1846.5000   120.5680   -22.8120   -49.8350     7.7380     8.6330     9.4920  -999.2500  -999.2500  -999.2500  -999.2500  -999.2500
 1847.0000   121.6360   -22.9750   -51.0800     7.8320     8.7870     9.8060  -999.2500  -999.2500  -999.2500  -999.2500  -999.2500
 1847.5000   122.1750   -23.1170   -52.3240     7.9270     8.9390     9.8970  -999.2500  -999.2500  -999.2500  -999.2500  -999.2500
 1848.0000   120.2080   -23.0800   -53.5690     7.9990     8.9720     9.9530  -999.2500  -999.2500  -999.2500  -999.2500  -999.2500
 1848.5000   120.2710   -22.9650   -54.8130     8.0600     9.0250     9.9080  -999.2500  -999.2500  -999.2500  -999.2500  -999.2500
 1849.0000   124.3090   -22.9160   -56.0580     8.1190     9.0780     9.8640  -999.2500  -999.2500  -999.2500  -999.2500  -999.2500
 1849.5000   128.5100   -22.8030   -57.3030     8.1780     9.1420     9.8200  -999.2500  -999.2500  -999.2500  -999.2500  -999.2500
 1850.0000   129.9970   -22.7380   -58.5470     8.2370     9.2190     9.8570  -999.2500  -999.2500  -999.2500  -999.2500  -999.2500
 1850.5000   128.6250   -22.9170   -59.7920     8.3010     9.2950     9.9610  -999.2500  -999.2500  -999.2500  -999.2500  -999.2500
 1851.0000   124.6960   -23.1350   -61.0360     8.3730     9.3620    10.0650  -999.2500  -999.2500  -999.2500  -999.2500  -999.2500
 1851.5000   119.3200   -23.3600   -62.2810     8.4520     9.5300    10.1760  -999.2500  -999.2500  -999.2500  -999.2500  -999.2500
 1852.0000   118.7190   -23.5240   -63.5250     8.5350     9.7150    10.3320  -999.2500  -999.2500  -999.2500  -999.2500  -999.2500
 1852.5000   126.2490   -23.4130   -64.0700     8.4400     9.6090    10.4450  -999.2500  -999.2500  -999.2500  -999.2500  -999.2500
 1853.0000   133.3830   -23.2510   -64.0700     8.3410     9.4680    10.5590  -999.2500  -999.2500  -999.2500  -999.2500  -999.2500
 1853.5000   132.6680   -23.1300   -64.0700     8.2420     9.3280    10.4400  -999.2500  -999.2500  -999.2500  -999.2500  -999.2500
 1854.0000   131.0150   -22.9780   -64.0700     8.1430     9.1870    10.2890  -999.2500  -999.2500  -999.2500  -999.2500  -999.2500
 1854.5000   133.7960   -22.8450   -64.0700     8.0440     9.0510    10.1380  -999.2500  -999.2500  -999.2500  -999.2500  -999.2500
 1855.0000   136.1330   -22.7020   -64.0700     7.9450     8.9210     9.9240  -999.2500  -999.2500  -999.2500  -999.2500  -999.2500
 1855.5000   138.1150   -22.5670   -64.0700     7.8470     8.7900     9.5590  -999.2500  -999.2500  -999.2500  -999.2500  -999.2500
 1856.0000   137.0300   -22.4200   -64.0700     7.7480     8.7750     9.1630  -999.2500  -999.2500  -999.2500  -999.2500  -999.2500
 1856.5000   127.9920   -22.3300   -64.0700     7.6370     8.8530     9.0220  -999.2500  -999.2500  -999.2500  -999.2500  -999.2500
 1857.0000   119.7730   -22.3860   -64.0700     7.6910     8.9260     9.1910  -999.2500  -999.2500  -999.2500  -999.2500  -999.2500
 1857.5000   118.1350   -22.4530   -64.0700     7.7520     8.9990    10.0820  -999.2500  -999.2500  -999.2500  -999.2500  -999.2500
 1858.0000   119.2540   -22.4950   -64.0700     7.8130     9.0720    10.1760  -999.2500  -999.2500  -999.2500  -999.2500  -999.2500
 1858.5000   121.7870   -22.5570   -64.0700     7.8740     9.1360    10.0760  -999.2500  -999.2500  -999.2500  -999.2500  -999.2500
 1859.0000   125.1410   -22.6070   -64.0700     7.9250     9.1940     9.8890  -999.2500  -999.2500  -999.2500  -999.2500  -999.2500
 1859.5000   127.6150   -22.6620   -64.0700     8.0630     9.2510     9.8710  -999.2500  -999.2500  -999.2500  -999.2500  -999.2500
 1860.0000   128.1060   -22.7180   -63.4280     8.2070     9.3660     9.9880  -999.2500  -999.2500  -999.2500  -999.2500  -999.2500
 1860.5000   126.2770   -22.7660   -62.5920     8.3520     9.5230    10.0820  -999.2500  -999.2500  -999.2500  -999.2500  -999.2500
 1861.0000   122.9620   -22.8280   -61.7570     8.4960     9.6810    10.4370  -999.2500  -999.2500  -999.2500  -999.2500  -999.2500
 1861.5000   120.5150   -22.8710   -60.9220     8.6400     9.8380    10.8570  -999.2500  -999.2500  -999.2500  -999.2500  -999.2500
 1862.0000   120.3110   -22.9370   -60.0860     8.7350     9.8180    10.8400  -999.2500  -999.2500  -999.2500  -999.2500  -999.2500
 1862.5000   122.1620   -23.1300   -59.2510     8.8300     9.8470    10.8010  -999.2500  -999.2500  -999.2500  -999.2500  -999.2500
 1863.0000   126.0670   -23.3590   -58.4160     8.9250     9.8760    10.7620  -999.2500  -999.2500  -999.2500  -999.2500  -999.2500
 1863.5000   130.2380   -23.5350   -57.5810     9.0200     9.9050    10.7240  -999.2500  -999.2500  -999.2500  -999.2500  -999.2500
 1864.0000   134.4920   -23.7720   -56.7450     9.1060     9.9340    10.6850  -999.2500  -999.2500  -999.2500  -999.2500  -999.2500
 1864.5000   138.1570   -23.9230   -55.9100     9.0260     9.9630    10.6580  -999.2500  -999.2500  -999.2500  -999.2500  -999.2500
 1865.0000   139.4070   -23.8080   -55.0750     8.9370     9.9890    10.7730  -999.2500  -999.2500  -999.2500  -999.2500  -999.2500
 1865.5000   136.0670   -23.6530   -54.0200     8.8480     9.8540    10.8620  -999.2500  -999.2500  -999.2500  -999.2500  -999.2500
 1866.0000   128.9210   -23.5360   -53.5670     8.7590     9.7340    10.9500  -999.2500  -999.2500  -999.2500  -999.2500  -999.2500
 1866.5000   122.4710   -23.4000   -52.9530     8.6700     9.6130    11.0600  -999.2500  -999.2500  -999.2500  -999.2500  -999.2500
 1867.0000   118.0970   -23.2670   -52.3390     8.6060     9.3750    10.8280  -999.2500  -999.2500  -999.2500  -999.2500  -999.2500
 1867.5000   117.4920   -23.1380   -51.7250     8.5840     9.1060    10.4620  -999.2500  -999.2500  -999.2500  -999.2500  -999.2500
 1868.0000   121.2920   -23.0100   -51.1120     8.5630     9.1910    10.1620  -999.2500  -999.2500  -999.2500  -999.2500  -999.2500
 1868.5000   126.7150   -22.8670   -50.4980     8.5410     9.5370     9.7150  -999.2500  -999.2500  -999.2500  -999.2500  -999.2500
 1869.0000   133.2730   -22.7640   -49.8840     8.5190     9.5370    10.3340  -999.2500  -999.2500  -999.2500  -999.2500  -999.2500
 1869.5000   138.1120   -22.6020   -49.2700     8.4980     9.5370    10.9460  -999.2500  -999.2500  -999.2500  -999.2500  -999.2500
 1870.0000   137.7650   -22.5450   -48.6560     8.4760     9.5370    11.2660  -999.2500  -999.2500  -999.2500  -999.2500  -999.2500
 1870.5000   134.3660   -22.8840   -48.0420     8.4560     8.9390    11.3370  -999.2500  -999.2500  -999.2500  -999.2500  -999.2500
 1871.0000   129.9110   -23.2130   -47.4280     8.5980     8.8560    11.1480  -999.2500  -999.2500  -999.2500  -999.2500  -999.2500
 1871.5000   125.0430   -23.4870   -46.8140     8.7750     9.2760    10.6850  -999.2500  -999.2500  -999.2500  -999.2500  -999.2500
 1872.0000   120.9900   -23.8080   -46.2000     8.8170     9.7850    10.2670  -999.2500  -999.2500  -999.2500  -999.2500  -999.2500
 1872.5000   121.1320   -23.7850   -45.5860     8.8770    10.2700     9.9890  -999.2500  -999.2500  -999.2500  -999.2500  -999.2500
 1873.0000   124.4970   -23.5460   -44.9720     8.9360    10.1120    10.6050  -999.2500  -999.2500  -999.2500  -999.2500  -999.2500
 1873.5000   124.4490   -23.2380   -44.3590     8.9960     9.6260    11.0820  -999.2500  -999.2500  -999.2500  -999.2500  -999.2500
 1874.0000   121.1970   -22.9530   -43.9700     8.9990     9.6700    11.4350  -999.2500  -999.2500  -999.2500  -999.2500  -999.2500
