~VERSION INFORMATION
 VERS.                2.0:   CWLS LOG ASCII STANDARD - VERSION 2.0
 WRAP.                 NO:   ONE LINE PER DEPTH STEP
~WELL INFORMATION
#MNEM.UNIT      DATA TYPE    INFORMATION
#----------   ------------   ------------------------------
 STRT.F          200.0000:   START DEPTH
 STOP.F         3142.0000:   STOP DEPTH
 STEP.F            0.5000:   STEP LENGTH
 NULL.          -999.2500:   NO VALUE
 COMP.    FENIX & SCISSON:   COMPANY
 WELL.  FENIX "AX" #37-10:   WELL
 FLD .              NPR-3:   FIELD
 LOC .      S10 T38N R78W:   LOCATION
 CNTY.            NATRONA:   COUNTY
 STAT.            WYOMING:   STATE
 CTRY. UNITED STATES OF AMERICA:   COUNTRY
 SRVC.              WELEX:   SERVICE COMPANY
 DATE.        19-SEP-1977:   LOGDATE
 API .     49025104190000:   API NUMBER
~CURVE INFORMATION
#MNEM.UNIT       API CODE    CURVE DESCRIPTION
#----------   ------------   ------------------------------
 DEPT.F                  :   
 CALD.IN     45 280 60 00:   CALIPER FROM DENSITY LOG
 GRD .GAPI   45 310 01 00:   GAMMA RAY FROM DENSITY LOG
 RHOB.G/C3   45 350 01 00:   BULK DENSITY
 CORR.G/C3   45 356 01 00:   DENSITY CORRECTION
 NPHI.DEC    42 890 03 00:   NEUTRON POROSITY SANDSTONE
 SPR .MV     07 010 01 00:   SPONTANEOUS POTENTIAL
 SGRD.OHMM   07 220 05 00:   SHALLOW GUARD RESISTIVITY
 ILD .OHMM   07 120 46 00:   INDUCTION LOG DEEP RESISTIVITY
 ILM .OHMM   07 120 44 00:   INDUCTION LOG MEDIUM RESISTIVITY
 TENR.LBS    07 635 01 00:   TENSION FROM RESISTIVITY
~PARAMETER INFORMATION
#MNEM.UNIT          VALUE    DESCRIPTION
#----------   ------------   ------------------------------
 EKB .F         5221.0000:   Kelly bushing
 EGL .F         5211.0000:   Ground level
 EDF .F            0.0000:   Drilling floor
 TD  .F         3150.0000:   Total depth
 DATE.        19-SEP-1977:   Date logged
 CLNT.            A2DTECH:   Client Code
 SL  . 1190' FSL & 1750' FWL:   Surface Location
 PD  .                 GL:   Permanent Datum
 DD  .F              3150:   Depth driller
 DL  .F              3146:   Depth logger
 BLI .F              3144:   Bottom log interval
 CS1 .IN            8.625:   Casing size
 CBD1.      8.625" @ 215':   Casing driller 1
 BS1 .IN            7.875:   Bit size
 DFT .            KCL/MUD:   Type fluid in hole
 DFD .                8.9:   Density
 TCS .HRS               2:   Time Circ. stopped
 MRT .F               116:   Maximum recorded temp.
 ENGI.            C. DOAK:   Recorded By
 WITN.      B. HARRINGTON:   Witnessed by
 ORIG.           5" PRINT:   Origin of data
 UWI .     49025104190000:   Unique Well ID
 DICO. A2D TECHNOLOGIES, INC.:   Digitizing Company
 DAPD.F                10:   Feet Above Permanent Datum
 BSD1.F              3150:   Depth drilled with bit1
 EPD .F              5211:   Elevation Permanent Datum
 LMF .                 KB:   Log Measured From
 DMF .                 KB:   Drilling Measured From
 TLI .F               200:   Top log interval
 CBL1.                213:   Casing logger 1
 DFV .                 37:   Viscosity
 DFPH.                 11:   pH
 DFL .                5.8:   Fluid loss
 MSS .           MEASURED:   Source of sample
 RMS .               2.82:   Rm
 MST .                 94:   Rm Meas. temp.
 RMF .               1.61:   Rmf
 MFST.                 94:   Rmf Meas. temp.
 MFSS.               MEAS:   Source Rmf.
 RMC .               3.12:   Rmc
 MCST.                 94:   Rmc Meas. temp.
 MCSS.               MEAS:   Source Rmc.
 RMB .               2.28:   Rm. at BHT
 BHT .                116:   BHT.
 LUN .               8611:   Logging unit number
 LUL .             CASPER:   Logging unit location
~OTHER INFORMATION
~A   DEPT       CALD       GRD        RHOB      CORR      NPHI        SPR       SGRD        ILD        ILM       TENR   
# ...
 2344.0000     8.9709    63.7014     2.4800     0.0081     0.2463   -71.7495    13.4555     6.1677     7.8298  1816.3273
 2344.5000     8.9712    64.8902     2.4761     0.0101     0.2511   -71.5483     9.9397     5.8373     7.0780  1796.3673
 2345.0000     9.0111    65.0908     2.4761     0.0161     0.2527   -71.3491     9.8489     5.7840     7.0133  1816.3273
 2345.5000     9.0114    65.0938     2.4820     0.0181     0.2576   -70.7514     9.7590     6.0002     6.9492  1816.3273
 2346.0000     9.0116    64.8991     2.4860     0.0182     0.2664   -70.5510    10.8951     5.4741     6.7605  1856.2476
 2346.5000     9.0317    63.9139     2.4920     0.0182     0.2740   -70.3506    10.1239     4.8141     6.2820  1816.3273
 2347.0000     9.0320    62.3358     2.4960     0.0182     0.2668   -70.1502     6.6988     5.8911     6.9492  1816.3273
 2347.5000     9.0125    61.1535     2.4980     0.0182     0.2579   -70.1482    10.9033     5.9454     6.9492  1816.3273
 2348.0000     9.0128    60.9588     2.4980     0.0203     0.2503   -69.9478    13.7201     6.0002     6.7605  1796.3673
 2348.5000     8.9934    60.5665     2.5000     0.0163     0.2398   -69.9458     9.3213     5.8911     6.2246  1796.3673
 2349.0000     8.9739    60.3719     2.5000     0.0163     0.2430   -69.9438     6.8858     5.6788     6.1677  1796.3673
 2349.5000     8.9742    59.7796     2.4980     0.0064     0.2426   -69.5450     6.4573     5.3745     6.1677  1816.3273
 2350.0000     8.9350    58.9920     2.4960    -0.0035     0.2366   -70.1374     6.7605     5.0866     6.1677  1796.4001
 2350.5000     9.1131    58.4020     2.4941    -0.0074     0.2324   -70.1405     6.9430     4.8145     5.8850  1843.0605
 2351.0000     9.1530    58.0097     2.4941    -0.0094     0.2289   -70.3415     6.9501     4.6838     5.7318  1795.6729
 2351.5000     9.1533    57.8139     2.4941    -0.0133     0.2345   -70.3441     6.7001     4.4332     5.8385  1815.2715
 2352.0000     9.1536    57.4228     2.4941    -0.0133     0.2397   -70.5450     6.6393     4.2347     6.1130  1814.9081
 2352.5000     9.1143    57.4257     2.4941    -0.0153     0.2349   -70.5476     6.7010     4.0823     6.1134  1814.5448
 2353.0000     9.1146    57.6263     2.4921    -0.0172     0.2317   -70.5501     6.5796     4.0452     5.9477  1794.2185
 2353.5000     9.0952    58.2222     2.4901    -0.0172     0.2276   -70.5527     6.1707     3.9719     4.9508  1774.1093
 2354.0000     9.0559    58.8181     2.4901    -0.0212     0.2272   -70.5553     7.0172     4.0087     4.9057  1813.4553
 2354.5000     9.0365    59.6116     2.4882    -0.0231     0.2393   -70.7562     7.7633     3.9001     4.8612  1793.1271
 2355.0000     9.0368    60.4046     2.4832    -0.0231     0.2453   -70.7588     6.1143     3.9003     4.8171  1812.7284
 2355.5000     9.0569    61.0005     2.4773    -0.0211     0.2509   -70.7613     6.2857     3.9365     4.9519  1792.3994
 2356.0000     9.0570    61.2011     2.4703    -0.0250     0.2553   -70.7639     6.4028     4.0467     4.9070  1752.1035
 2356.5000     9.0771    61.4017     2.4644    -0.0250     0.2585   -70.7665     6.5824     3.9010     4.9526  1811.6379
 2357.0000     9.0379    61.2070     2.4624    -0.0270     0.2621   -70.7690     6.8925     3.9735     4.9529  1771.4866
 2357.5000     9.0185    61.0123     2.4624    -0.0269     0.2661   -70.9704     6.8929     3.8658     4.9079  1770.9766
 2358.0000     9.0188    61.2153     2.4644    -0.0249     0.2613   -70.9725     6.3468     3.8660     4.8189  1810.5482
 2358.5000     8.9993    61.4136     2.4684    -0.0249     0.2557   -70.9751     6.0059     3.8663     4.8193  1790.2166
 2359.0000     8.9798    62.0083     2.4684    -0.0229     0.2585   -71.5726     6.0063     3.8312     4.7755  1809.8210
 2359.5000     8.9999    62.7310     2.4684    -0.0209     0.2609   -71.7735     6.0066     3.7273     4.6461  1809.4575
 2360.0000     8.9605    63.4538     2.4684    -0.0209     0.2528   -72.1727     5.8976     3.7619     4.9548  1789.1248
 2360.5000     8.9607    64.1766     2.4684    -0.0208     0.2496   -72.1752     5.8439     3.6265     4.5204  1808.7303
 2361.0000     8.9610    64.9865     2.4645    -0.0149     0.2508   -72.1778     5.8461     3.5935     4.4384  1808.3668
 2361.5000     8.9613    65.5818     2.4645    -0.0129     0.2472   -72.3786     5.7929     3.5609     4.3580  1788.0327
 2362.0000     8.9616    66.1777     2.4645    -0.0088     0.2395   -72.5794     5.4326     3.5285     4.2789  1787.6687
 2362.5000     9.0017    66.3783     2.4665    -0.0068     0.2363   -72.5820     5.6882     3.4329     4.3187  1807.2758
 2363.0000     9.0613    66.5789     2.4685    -0.0048     0.2399   -72.9811     5.8474     3.3706     4.2403  1786.9412
 2363.5000     9.0813    66.1866     2.4744    -0.0008     0.2419   -72.9836     5.7944     3.3095     4.1254  1806.5492
 2364.0000     9.0816    65.9920     2.4784     0.0012     0.2467   -72.9861     5.5858     3.1903     4.0879  1866.1027
 2364.5000     9.1610    66.1926     2.4844     0.0012     0.2519   -73.1869     5.3847     3.0474     3.9407  1785.8490
 2365.0000     9.1808    66.3932     2.4884     0.0032     0.2579   -73.1894     4.6923     3.0475     3.8692  1825.2859
 2365.5000     9.1809    66.9891     2.4884     0.0032     0.2591   -72.9937     4.3570     3.0198     3.6922  1805.0944
 2366.0000     9.1990    66.3991     2.4904     0.0053     0.2591   -72.9962     3.6622     2.9923     3.5264  1844.6785
 2366.5000     9.2172    65.4139     2.4904     0.0073     0.2583   -72.9987     4.0147     3.0201     3.9780  1804.3668
 2367.0000     9.2353    64.8263     2.4904     0.0073     0.2555   -73.0012     5.3373     3.0481     3.9058  1863.9274
 2367.5000     9.2535    65.2246     2.4904     0.0073     0.2498   -73.0038     5.5372     3.0764     3.9061  1803.6392
 2368.0000     9.2716    67.2039     2.4944     0.0093     0.2406   -73.0063     5.0984     3.0766     3.8318  1803.2761
 2368.5000     9.2898    65.0329     2.4984     0.0094     0.2249   -72.8105     5.0521     3.1338     3.9030  1802.9122
 2369.0000     9.3079    64.4429     2.5044     0.0134     0.2245   -72.8130     4.8702     3.2512     3.9757  1802.5483
 2369.5000     9.3218    63.8530     2.5063     0.0134     0.2309   -72.8156     4.9154     3.3117     4.0127  1862.1150
 2370.0000     9.3003    64.6465     2.5083     0.0134     0.2369   -73.0163     5.3886     3.1632     4.1252  1861.7523
 2370.5000     9.3041    63.8589     2.5084     0.0134     0.2441   -72.8206     5.1002     3.4046     4.0503  1841.4120
 2371.0000     9.3079    63.6642     2.5084     0.0135     0.2498   -72.6249     5.0537     3.4362     4.1639  1801.0929
 2371.5000     9.3118    62.4814     2.5084     0.0095     0.2485   -72.6274     5.1478     3.4364     4.2807  1800.7290
 2372.0000     9.3156    63.2749     2.5064     0.0075     0.2441   -73.4229     5.2435     3.5003     4.3604  1800.3650
 2372.5000     9.3195    63.4755     2.5064     0.0056     0.2365   -72.6325     5.1484     3.5005     4.3208  1819.9803
 2373.0000     9.3240    63.6761     2.5064     0.0036     0.2276   -72.6350     5.3907     3.5330     4.3210  1799.6378
 2373.5000     9.3242    64.2720     2.5025     0.0036     0.2196   -72.8357     5.4911     3.5658     4.3612  1859.2139
 2374.0000     9.3245    64.4726     2.5045     0.0037     0.2135   -72.8383     5.2449     3.5989     4.3615  1858.8511
 2374.5000     9.2855    64.6732     2.5064     0.0017     0.2010   -73.2372     5.3918     3.6323     4.4021  1798.5458
 2375.0000     9.2265    64.6762     2.5065     0.0017     0.2055   -73.2397     5.6977     3.6661     4.4430  1798.2546
 2375.5000     9.2268    64.6792     2.5084     0.0018     0.2135   -73.2422     5.6981     3.7001     4.2860  1837.7810
 2376.0000     9.2074    65.0774     2.5085     0.0018     0.2135   -73.2447     5.1037     3.6664     4.4059  1857.3998
 2376.5000     9.2076    65.2780     2.5094     0.0038     0.2107   -73.2472     4.8303     3.6332     4.6559  1857.1095
 2377.0000     9.1882    65.8733     2.5103     0.0058     0.2134   -73.4479     6.4216     3.6002     4.6563  1816.7812
