~VERSION INFORMATION
 VERS.                2.0:   CWLS LOG ASCII STANDARD - VERSION 2.0
 WRAP.                 NO:   ONE LINE PER DEPTH STEP
~WELL INFORMATION
#MNEM.UNIT      DATA TYPE    INFORMATION
#----------   ------------   ------------------------------
 STRT.F           30.0000:   START DEPTH
 STOP.F         3240.0000:   STOP DEPTH
 STEP.F            0.5000:   STEP LENGTH
 NULL.          -999.2500:   NO VALUE
 COMP. LAWRENCE-ALLISON ASSOCIATES WES:   COMPANY
 WELL. LAWRENCE "AX" #87AX28:   WELL
 FLD .   TEAPOT N.P.R. #3:   FIELD
 LOC .      S28 T39N R78W:   LOCATION
 CNTY.            NATRONA:   COUNTY
 STAT.            WYOMING:   STATE
 CTRY. UNITED STATES OF AMERICA:   COUNTRY
 SRVC.       SCHLUMBERGER:   SERVICE COMPANY
 DATE.        28-MAY-1982:   LOGDATE
 API .     49025108860000:   API NUMBER
~CURVE INFORMATION
#MNEM.UNIT       API CODE    CURVE DESCRIPTION
#----------   ------------   ------------------------------
 DEPT.F                  :   
 TENR.LBS    07 635 01 00:   TENSION FROM RESISTIVITY
 GRR .GAPI   07 310 01 00:   GAMMA RAY FROM RESISTIVITY
 SPR .MV     07 010 01 00:   SPONTANEOUS POTENTIAL FROM RES.
 ILD .OHMM   07 120 46 00:   DEEP INDUCTION RESISTIVITY
 ILM .OHMM   07 120 44 00:   INDUCTION LOG MEDIUM RESISTIVITY
 SFL .OHMM   07 220 01 00:   SHALLOW FOCUSED LOG RESISITIVITY
 TEND.LBS    45 635 01 00:   TENSION FORM DENSITY LOG
 NPHI.DEC    42 890 03 00:   NEUTRON POROSITY SANDSTONE
 CALD.IN     45 280 60 00:   CALIPER FROM DENSITY LOG
 CORR.G/C3   45 356 01 00:   DENSITY CORRECTION
 RHOB.G/C3   45 350 01 00:   BULK DENSITY
~PARAMETER INFORMATION
#MNEM.UNIT          VALUE    DESCRIPTION
#----------   ------------   ------------------------------
 EKB .F         5070.0000:   Kelly bushing
 EGL .F         5060.0000:   Ground level
 TD  .F         3220.0000:   Total depth
 CLNT.            A2DTECH:   Client Code
 SL  . 1341' FSL & 162' FEL:   Surface Location
 PD  .                 GL:   Permanent Datum
 EPD .F              5060:   Elevation Permanent Datum
 LMF .                 KB:   Log Measured From
 DMF .                 KB:   Drilling Measured From
 DAPD.F                10:   Feet Above Permanent Datum
 DATE.        28-MAY-1982:   Date Logged [DD-MMM-YYYY]
 DD  .F              3220:   Depth driller
 DL  .F              3215:   Depth logger
 BLI .F              3212:   Bottom log interval
 TLI .F               489:   Top log interval
 CS1 .IN            9.625:   Casing size
 CBD1.      9.625" @ 461':   Casing driller 1
 CBL1.F               489:   Casing logger 1
 BS1 .IN            9.750:   Bit size
 BSD1.F              3220:   Depth drilled with bit1
 DFT .          POLY./KCL:   Type fluid in hole
 DFD .                8.8:   Density
 DFV .                 44:   Viscosity
 DFPH.                7.0:   pH
 DFL .                8.0:   Fluid loss
 MSS .           MUD TANK:   Source of sample
 RMS .OHMM          0.778:   Rm
 MST .F                65:   Rm Meas. temp.
 RMF .OHMM          0.710:   Rmf
 MFST.F                67:   Rmf Meas. temp.
 MFSS.               MEAS:   Source Rmf.
 RMB .OHMM          0.447:   Rm. at BHT
 BHT .F               118:   BHT.
 TCS .HRS            2000:   Time Circ. stopped
 TLAB.HRS            2430:   Time logger at bottom
 MRT .F               118:   Maximum recorded temp.
 LUN .               8043:   Logging unit number
 LUL .               CSPR:   Logging unit location
 ENGI.             DENNIS:   Recorded By
 WITN.             STRONG:   Witnessed by
 ORIG.           5" PRINT:   Origin of data
 UWI .     49025108860000:   Unique Well ID
 DICO. A2D TECHNOLOGIES, INC.:   Digitizing Company
~OTHER INFORMATION
~A   DEPT     TENR         GRR       SPR        ILD        ILM        SFL       TEND       NPHI       CALD       CORR       RHOB   
# ...
 2104.0000  1189.4545    79.3609   -35.9128     6.4609     6.1617     7.7452  1402.8813    -0.0787    11.1608     0.0051     2.4999
 2104.5000  1189.5270    77.7662   -35.9039     6.5127     6.1671     7.4797  1403.0099    -0.0848    11.1608     0.0012     2.5007
 2105.0000  1189.5996    78.4687   -36.0481     6.5638     6.1715     7.2753  1403.1384    -0.0849    11.1761     0.0013     2.5008
 2105.5000  1189.6722    80.3645   -36.1946     6.6161     6.2647     7.2294  1403.2670    -0.0822    11.1761     0.0130     2.5001
 2106.0000  1189.7448    84.0118   -36.3369     6.6204     6.3141     7.2365  1403.3956    -0.0770    11.1914     0.0107     2.4947
 2106.5000  1189.8174    87.0113   -36.4809     6.6247     6.3638     7.3988  1403.5242    -0.0728    11.1914     0.0045     2.4837
 2107.0000  1189.8900    89.5515   -36.4717     6.6291     6.4599     7.8392  1403.6527    -0.0802    11.2067     0.0007     2.4693
 2107.5000  1189.9625    92.7808   -36.4608     6.6334     6.4716     8.3058  1403.7814    -0.0921    11.2067    -0.0001     2.4640
 2108.0000  1190.0352    90.9564   -36.3010     6.4952     6.4244     8.9266  1403.9099    -0.0945    11.2221     0.0008     2.4648
 2108.5000  1190.1078    89.3618   -36.4452     6.1854     5.8184     8.0293  1404.0385    -0.0857    11.2374     0.0024     2.4711
 2109.0000  1190.1803    90.5293   -36.4341     5.9299     5.3835     7.2724  1404.1670    -0.0766    11.2527     0.0079     2.4797
 2109.5000  1190.2529    95.1947   -36.4251     5.6849     5.0526     6.5868  1404.2957    -0.0596    11.2680     0.0134     2.4899
 2110.0000  1190.3256    99.9718   -36.5697     5.5285     4.8101     5.8814  1404.4242    -0.0402    11.2680     0.0181     2.4922
 2110.5000  1190.3981   101.5898   -36.5605     5.3001     4.7454     5.4421  1404.5527    -0.0128    11.2833     0.0221     2.4745
 2111.0000  1190.4707   100.6843   -36.5698     5.1176     4.7882     5.1813  1404.6814     0.0015    11.2986     0.0245     2.4645
 2111.5000  1190.5433   100.0119   -36.6958     5.0124     4.8907     5.0757  1404.8099     0.0139    11.3139     0.0253     2.4615
 2112.0000  1190.6158    99.7922   -36.8400     5.0165     5.0358     5.4174  1404.9385     0.0337    11.3292     0.0074     2.4530
 2112.5000  1190.6885    99.8089   -36.8289     5.0558     5.1118     6.3876  1405.0670     0.0239    11.3446    -0.0043     2.4399
 2113.0000  1190.7611   100.7625   -36.9754     5.0953     5.0782     7.1142  1405.1957    -0.0142    11.3599    -0.0019     2.4361
 2113.5000  1190.8336   102.8251   -36.9642     5.2091     5.0466     7.3257  1405.3242    -0.0457    11.3752     0.0052     2.4494
 2114.0000  1190.9062   103.7573   -37.1087     5.3253     5.0503     7.0245  1405.4528    -0.0502    11.3905     0.0107     2.4588
 2114.5000  1190.9789   104.2301   -37.2527     5.4054     5.0541     6.4079  1405.5813    -0.0265    11.4058     0.0131     2.4619
 2115.0000  1191.0514   103.7840   -37.3969     5.3661     5.0947     5.7626  1405.7100    -0.0101    11.4211     0.0069     2.4612
 2115.5000  1191.1240   103.1082   -37.2327     5.2610     5.1716     5.8511  1405.8385    -0.0062    11.4364     0.0085     2.4559
 2116.0000  1191.1967   101.7433   -36.9175     5.3021     5.2497     5.9398  1405.9670    -0.0154    11.4518     0.0156     2.4504
 2116.5000  1191.2692    99.9190   -36.6023     5.3819     5.3670     5.9445  1406.0957    -0.0181    11.4671     0.0211     2.4460
 2117.0000  1191.3418    97.0765   -36.2871     5.4629     5.4481     5.9070  1406.2242    -0.0106    11.4671     0.0149     2.4422
 2117.5000  1191.4144    92.1389   -36.1251     5.5451     5.5705     5.9116  1406.3528    -0.0121    11.4824     0.0011     2.4384
 2118.0000  1191.4869    91.4598   -35.9630     5.6285     5.6945     6.4943  1406.4813    -0.0259    11.4824    -0.0046     2.4369
 2118.5000  1191.5596    98.1380   -35.9541     5.5463     5.7813     7.8926  1406.6100    -0.0677    11.4824    -0.0045     2.4378
 2119.0000  1191.6322   101.8267   -35.9449     5.3620     5.6631     7.9941  1406.7385    -0.0698    11.4977    -0.0029     2.4418
 2119.5000  1191.7047   102.0665   -35.9341     5.1405     5.3150     7.7218  1406.8671    -0.0491    11.5283     0.0018     2.4480
 2120.0000  1191.7773    99.7860   -36.0805     5.0349     4.9883     6.8949  1406.9956    -0.0194    11.6202     0.0066     2.4543
 2120.5000  1191.8500    93.8270   -36.3779     4.9659     4.8171     5.6517  1407.1243    -0.0048    11.6968     0.0123     2.4621
 2121.0000  1191.9225    90.1362   -36.6753     4.9345     4.8551     5.2669  1407.2528    -0.0014    11.6968     0.0188     2.4684
 2121.5000  1191.9951    89.7189   -36.8195     4.9733     4.9285     5.3886  1407.3813    -0.0198    11.6815     0.0219     2.4754
 2122.0000  1192.0677    90.1950   -36.9617     4.9773     4.9681     5.6663  1407.5100    -0.0295    11.6662     0.0040     2.4849
 2122.5000  1192.1403    87.6815   -37.1057     4.9806     5.0073     5.9186  1407.6385    -0.0387    11.6508     0.0017     2.4919
 2123.0000  1192.2129    87.0024   -37.2500     5.0195     5.0109     6.0513  1407.7671    -0.0418    11.6202     0.0009     2.4966
 2123.5000  1192.2855    88.1677   -37.2388     5.0228     4.9780     6.0994  1407.8956    -0.0409    11.5896     0.0034     2.5006
 2124.0000  1192.3580    90.2484   -37.2299     5.0401     5.0182     6.0609  1408.0243    -0.0352    11.5743     0.0082     2.4975
 2124.5000  1192.4307    92.8221   -37.0679     5.0654     5.0218     6.0225  1408.1528    -0.0282    11.5590     0.0128     2.4914
 2125.0000  1192.5033    96.4000   -37.2143     5.0327     4.9897     5.8511  1408.2814    -0.0258    11.5436     0.0160     2.4907
 2125.5000  1192.5758   101.0881   -37.0501     5.0010     4.9579     5.5386  1408.4100    -0.0268    11.5130     0.0184     2.4923
 2126.0000  1192.6484   109.1413   -37.0412     5.0042     4.9623     5.5036  1408.5386    -0.0286    11.4824     0.0185     2.4932
 2126.5000  1192.7211   111.4517   -36.8790     4.9719     4.9659     5.5080  1408.6671    -0.0293    11.4518     0.0170     2.4878
 2127.0000  1192.7936   113.0730   -36.8566     4.9389     4.9695     5.5123  1408.7957    -0.0068    11.4211     0.0186     2.4794
 2127.5000  1192.8662   114.9240   -36.6845     4.9070     4.8679     5.5562  1408.9243     0.0057    11.3905     0.0234     2.4795
 2128.0000  1192.9388   122.2881   -36.5125     4.8414     4.8016     5.5606  1409.0529    -0.0011    11.3599     0.0351     2.4811
 2128.5000  1193.0114   139.5651   -36.3819     4.7419     4.7323     5.5699  1409.1814    -0.0109    11.3599     0.0219     2.4803
 2129.0000  1193.0840   142.7589   -36.2198     4.6452     4.6410     5.6505  1409.3099    -0.0167    11.3905     0.0126     2.4727
 2129.5000  1193.1566   135.8843   -36.0578     4.6144     4.6113     5.6954  1409.4386    -0.0145    11.3905     0.0017     2.4612
 2130.0000  1193.2291   129.6955   -35.8957     4.5527     4.5819     5.5396  1409.5671     0.0000    11.3895     0.0041     2.4566
 2130.5000  1193.3018   120.5205   -35.7335     4.5225     4.5860     5.2367  1409.6957     0.0100    11.3599     0.0190     2.4613
 2131.0000  1193.3744   115.2505   -35.5694     4.5262     4.5893     5.0214  1409.8243     0.0072    11.3446     0.0331     2.4614
 2131.5000  1193.4469   115.9530   -35.5605     4.5292     4.5600     4.9897  1409.9529    -0.0004    11.3292     0.0452     2.4599
 2132.0000  1193.5195   116.8852   -35.3984     4.6411     4.5968     5.0353  1410.0814    -0.0127    11.2986     0.0613     2.4631
 2132.5000  1193.5922   118.3040   -35.3895     4.9065     4.7671     5.2543  1410.2100    -0.0054    11.2680     0.0676     2.4639
 2133.0000  1193.6647   119.9014   -35.2275     5.1613     4.9790     5.4883  1410.3386    -0.0004    11.2374     0.0521     2.4555
 2133.5000  1193.7373   121.2930   -35.2186     5.3907     5.2375     5.8985  1410.4672     0.0024    11.2067     0.0318     2.4447
 2134.0000  1193.8099   123.3738   -35.0565     5.5903     5.4704     6.3393  1410.5957     0.0006    11.1914     0.0123     2.4378
