~VERSION INFORMATION
 VERS.                2.0:   CWLS LOG ASCII STANDARD - VERSION 2.0
 WRAP.                 NO:   ONE LINE PER DEPTH STEP
~WELL INFORMATION
#MNEM.UNIT      DATA TYPE    INFORMATION
#----------   ------------   ------------------------------
 STRT.F          620.0000:   START DEPTH
 STOP.F         4350.5000:   STOP DEPTH
 STEP.F            0.5000:   STEP LENGTH
 NULL.          -999.2500:   NO VALUE
 COMP.    FENIX & SCISSON:   COMPANY
 WELL. FENIX NPR 3 "LX" #25-10:   WELL
 FLD .                NPR:   FIELD
 LOC .      S10 T38N R78W:   LOCATION
 CNTY.            NATRONA:   COUNTY
 STAT.            WYOMING:   STATE
 CTRY. UNITED STATES OF AMERICA:   COUNTRY
 SRVC.              WELEX:   SERVICE COMPANY
 DATE.        06-MAR-1980:   LOGDATE
 API .     49025108070000:   API NUMBER
~CURVE INFORMATION
#MNEM.UNIT       API CODE    CURVE DESCRIPTION
#----------   ------------   ------------------------------
 DEPT.F                  :   
 CALD.IN     45 280 60 00:   CALIPER FROM DENSITY LOG
 GRD .GAPI   45 310 01 00:   GAMMA RAY FROM DENSITY LOG
 RHOB.G/C3   45 350 01 00:   BULK DENSITY
 CORR.G/C3   45 356 01 00:   DENSITY CORRECTION
 NPHI.DEC    42 890 03 00:   NEUTRON POROSITY SANDSTONE
 SPR .MV     07 010 01 00:   SPONTANEOUS POTENTIAL
 ILD .OHMM   07 120 46 00:   DEEP INDUCTION RESISTIVITY
 ILM .OHMM   07 120 44 00:   INDUCTION LOG MEDIUM RESISTIVITY
 SGRD.OHMM   07 220 05 00:   SHALLOW SHORT GUARD RESISTIVITY
~PARAMETER INFORMATION
#MNEM.UNIT          VALUE    DESCRIPTION
#----------   ------------   ------------------------------
 EKB .F         5247.0000:   Kelly bushing
 EGL .F         5237.0000:   Ground level
 EDF .F            0.0000:   Drilling floor
 TD  .F         4352.0000:   Total depth
 DATE.        06-MAR-1980:   Date logged
 CLNT.            A2DTECH:   Client Code
 SL  . 1075' FWL & 2450' FSL:   Surface Location
 PD  .                 GL:   Permanent Datum
 EPD .F              5237:   Elevation Permanent Datum
 LMF .                 KB:   Log Measured From
 DMF .                 KB:   Drilling Measured From
 DAPD.F                10:   Feet Above Permanent Datum
 DD  .F              4350:   Depth driller
 DL  .F              4352:   Depth logger
 BLI .F              4350:   Bottom log interval
 TLI .F               630:   Top log interval
 CS1 .IN            8.625:   Casing size
 CBD1.      8.625" @ 600':   Casing driller 1
 CBL1.F               632:   Casing logger 1
 BS1 .IN            7.875:   Bit size
 BSD1.F              4350:   Depth drilled with bit1
 DFT .           CHEM/GEL:   Type fluid in hole
 DFD .                8.9:   Density
 DFV .                 47:   Viscosity
 DFPH.               10.3:   pH
 DFL .                 10:   Fluid loss
 MSS .           FLOWLINE:   Source of sample
 RMS .OHMM            .89:   Rm
 MST .F                90:   Rm Meas. temp.
 RMF .OHMM            .71:   Rmf
 MFST.F                90:   Rmf Meas. temp.
 RMC .OHMM           1.06:   Rmc
 MCST.F                90:   Rmc Meas. temp.
 MFSS.               MEAS:   Source Rmf.
 MCSS.               MEAS:   Source Rmc.
 RMB .OHMM            .60:   Rm. at BHT
 BHT .F               112:   BHT.
 TCS .HRS               1:   Time Circ. stopped
 MRT .F               132:   Maximum recorded temp.
 LUN .               1892:   Logging unit number
 LUL .             CASPER:   Logging unit location
 ENGI.               REIN:   Recorded By
 WITN.           DINSMORE:   Witnessed by
 ORIG.           5" PRINT:   Origin of data
 UWI .     49025108070000:   Unique Well ID
 DICO. A2D TECHNOLOGIES, INC.:   Digitizing Company
~OTHER INFORMATION
~A   DEPT     CALD        GRD       RHOB       CORR       NPHI         SPR       ILD        ILM         SGRD 
# ...
 3795.5000     9.5490   125.4430     2.5310     0.1850     0.1780   -27.3570     5.9240     7.4490    11.0360
 3796.0000     9.5510   126.3950     2.5270     0.1810     0.1770   -27.4750     5.9420     7.6070    10.3950
 3796.5000     9.5520   125.9980     2.5250     0.1780     0.1760   -27.5970     5.9590     7.7650    10.7860
 3797.0000     9.5510   127.8460     2.5240     0.1760     0.1750   -27.6210     5.9770     7.9470    11.0380
 3797.5000     9.5520   129.9870     2.5230     0.1770     0.1750   -27.3980     5.9950     7.8480    10.8720
 3798.0000     9.5520   132.3150     2.5240     0.1790     0.1750   -27.1810     6.0130     7.7320    10.6780
 3798.5000     9.5520   134.9130     2.5240     0.1810     0.1730   -26.9570     6.0310     7.6150    10.6780
 3799.0000     9.5520   138.0240     2.5270     0.1820     0.1710   -26.7340     6.0490     7.4980    10.6780
 3799.5000     9.5520   141.2460     2.5310     0.1850     0.1710   -26.5140     6.0670     7.3820    10.6780
 3800.0000     9.5520   143.7970     2.5360     0.1910     0.1720   -26.2900     6.0840     7.4400    10.8690
 3800.5000     9.5520   144.9360     2.5400     0.1960     0.1740   -26.0640     6.1020     7.4980    11.0590
 3801.0000     9.5520   145.9250     2.5430     0.2020     0.1740   -25.9360     6.1190     7.5560    11.2860
 3801.5000     9.5520   146.9530     2.5430     0.2070     0.1730   -26.1130     6.1360     7.6140    11.0330
 3802.0000     9.5520   147.3120     2.5420     0.2130     0.1720   -26.2860     6.1210     7.6510    10.7210
 3802.5000     9.5520   146.6260     2.5390     0.2200     0.1710   -26.4690     6.1060     7.6120    10.2910
 3803.0000     9.5520   145.6740     2.5350     0.2270     0.1710   -26.6470     6.0890     7.5730    10.3580
 3803.5000     9.5520   145.4010     2.5290     0.2340     0.1710   -26.8260     6.0750     7.5340    10.6610
 3804.0000     9.5520   147.0320     2.5220     0.2410     0.1740   -27.0060     6.0590     7.5000    10.9630
 3804.5000     9.5520   150.5780     2.5150     0.2480     0.1770   -27.1840     6.0440     7.4680    11.4170
 3805.0000     9.5520   154.6910     2.5070     0.2570     0.1790   -27.3650     6.0250     7.4370    11.3950
 3805.5000     9.5520   158.7890     2.5040     0.2670     0.1820   -27.5470     5.7850     7.4050    10.9710
 3806.0000     9.5520   161.1280     2.4990     0.2790     0.1820   -27.6610     5.4990     7.2540    10.4830
 3806.5000     9.5520   162.1120     2.5030     0.2940     0.1820   -27.5950     5.2130     6.7340     8.4850
 3807.0000     9.5520   162.3960     2.5090     0.3050     0.1810   -27.5340     4.9280     6.2150     6.6700
 3807.5000     9.5520   159.6280     2.5120     0.3120     0.1780   -27.4670     4.6420     5.6950     6.4290
 3808.0000     9.5520   152.0820     2.5270     0.2760     0.1740   -27.4030     4.3560     5.1760     5.9360
 3808.5000     9.5520   150.7910     2.5490     0.2260     0.1710   -27.3380     4.0890     4.4850     5.2950
 3809.0000     9.5520   142.9250     2.5580     0.2080     0.1730   -27.2730     4.1100     4.8560     8.3700
 3809.5000     9.5520   140.5750     2.5590     0.2140     0.1750   -27.2080     4.1870     5.4100    11.2490
 3810.0000     9.5520   140.8170     2.5580     0.2200     0.1750   -27.1430     4.3030     5.9650    13.1210
 3810.5000     9.5530   142.2760     2.5570     0.2280     0.1760   -27.0780     4.5180     6.3890    12.3900
 3811.0000     9.5550   144.6900     2.5550     0.2360     0.1780   -27.0130     4.7340     6.6720    11.2860
 3811.5000     9.5570   146.9020     2.5540     0.2450     0.1820   -26.9480     4.9490     6.9560    11.3730
 3812.0000     9.5590   148.9940     2.5480     0.2520     0.1860   -26.8830     5.1640     7.2390    11.5500
 3812.5000     9.5620   150.8110     2.5400     0.2550     0.1900   -26.8180     5.3790     7.3820    11.7100
 3813.0000     9.5640   152.6230     2.5310     0.2510     0.1910   -26.7530     5.7010     7.5190    11.1050
 3813.5000     9.5660   154.6470     2.5270     0.2450     0.1890   -26.6890     5.6610     7.2580    10.1590
 3814.0000     9.5680   155.0030     2.5260     0.2320     0.1840   -26.6210     5.5830     6.9690     9.0440
 3814.5000     9.5700   153.7340     2.5310     0.2160     0.1790   -26.5610     5.5050     6.6800     6.3560
 3815.0000     9.5720   154.0610     2.5360     0.2000     0.1740   -26.4980     5.4260     6.3910     7.8640
 3815.5000     9.5740   155.8580     2.5330     0.1840     0.1710   -26.6200     5.3480     6.1380    10.8810
 3816.0000     9.5760   157.3670     2.5300     0.1720     0.1720   -26.7590     5.1980     6.9960    12.3770
 3816.5000     9.5780   159.0450     2.5260     0.1640     0.1740   -26.9050     5.2810     7.6590    12.2470
 3817.0000     9.5800   160.6700     2.5250     0.1670     0.1750   -27.0450     5.4360     7.5610    12.1080
 3817.5000     9.5820   162.4370     2.5310     0.1700     0.1760   -27.1900     5.5920     7.4740    11.9690
 3818.0000     9.5840   164.3860     2.5400     0.1740     0.1780   -27.3310     5.7470     7.3820    11.8290
 3818.5000     9.5860   166.3640     2.5490     0.1770     0.1790   -27.4680     5.9030     7.7200    11.7100
 3819.0000     9.5880   168.3600     2.5550     0.1810     0.1800   -27.6320     6.0590     8.0960    11.9210
 3819.5000     9.5910   170.3470     2.5530     0.1840     0.1800   -27.5520     6.2140     8.0960    12.2030
 3820.0000     9.5890   172.2950     2.5520     0.1920     0.1810   -27.2650     6.2520     8.0960    12.6080
 3820.5000     9.5840   174.3630     2.5510     0.1990     0.1810   -27.0050     6.2520     8.0960    12.3360
 3821.0000     9.5800   176.2500     2.5500     0.2070     0.1810   -26.7440     6.2520     8.0960    11.8540
 3821.5000     9.5760   177.9840     2.5450     0.2140     0.1810   -26.4730     6.2520     8.0960    11.3710
 3822.0000     9.5710   175.0830     2.5370     0.2220     0.1810   -26.2200     6.2520     7.7570    10.8770
 3822.5000     9.5670   172.0940     2.5300     0.2290     0.1840   -25.9570     6.2520     7.5190    10.8770
 3823.0000     9.5630   168.6560     2.5220     0.2370     0.1860   -26.0920     6.1970     7.5710    11.2430
 3823.5000     9.5580   165.9030     2.5150     0.2440     0.1890   -26.3610     6.1250     7.6150    11.4960
 3824.0000     9.5540   163.1010     2.5070     0.2520     0.1920   -26.6280     6.0540     7.6590    10.7950
 3824.5000     9.5500   162.1580     2.5000     0.2550     0.1950   -26.8860     5.8920     7.3670     9.9060
 3825.0000     9.5460   159.8040     2.4840     0.2530     0.1980   -27.1570     5.6670     7.0730     9.0170
 3825.5000     9.5410   156.0380     2.4710     0.2510     0.1970   -27.4140     5.4420     6.7780     8.1290
 3826.0000     9.5370   152.3190     2.4590     0.2390     0.1970   -27.6610     5.2170     6.4830     7.2470
 3826.5000     9.5330   155.4870     2.4660     0.2230     0.1930   -27.6130     4.9920     6.1380     8.3800
 3827.0000     9.5280   155.4340     2.4810     0.2070     0.1900   -27.5570     4.7670     6.1800     6.7920
 3827.5000     9.5240   153.8290     2.5110     0.1910     0.1890   -27.4900     4.5420     6.2330     4.9180
 3828.0000     9.5190   152.8890     2.5010     0.1750     0.1880   -27.4300     4.2430     6.2860     5.3760
 3828.5000     9.5150   154.5020     2.5330     0.1630     0.1880   -27.3670     4.3160     6.3380    13.5740
 3829.0000     9.5140   155.3720     2.5340     0.1610     0.1870   -27.3060     4.4330     6.4950    14.3460
 3829.5000     9.5320   152.7110     2.5350     0.1580     0.1880   -27.2420     4.5680     6.7900    12.8700
 3830.0000     9.5480   152.1950     2.5370     0.1560     0.1880   -27.1780     4.8050     7.0840    11.4960
 3830.5000     9.5650   151.5270     2.5440     0.1540     0.1860   -27.1270     5.0870     7.3790    11.9100
 3831.0000     9.5810   150.8970     2.5440     0.1520     0.1850   -26.9270     5.3690     7.6740    12.3090
 3831.5000     9.5980   149.1360     2.5440     0.1500     0.1830   -26.5390     5.6520     7.9680    12.6080
