~VERSION INFORMATION
 VERS.                2.0:   CWLS LOG ASCII STANDARD - VERSION 2.0
 WRAP.                 NO:   ONE LINE PER DEPTH STEP
~WELL INFORMATION
#MNEM.UNIT      DATA TYPE    INFORMATION
#----------   ------------   ------------------------------
 STRT.F          450.0000:   START DEPTH
 STOP.F         3098.0000:   STOP DEPTH
 STEP.F            0.5000:   STEP LENGTH
 NULL.          -999.2500:   NO VALUE
 COMP. FENIX & SCISSON - U.S NAVY:   COMPANY
 WELL. FENIX NPR 3 "AX" #11-33:   WELL
 FLD .              N P R:   FIELD
 LOC .      S33 T39N R78W:   LOCATION
 CNTY.            NATRONA:   COUNTY
 STAT.            WYOMING:   STATE
 CTRY. UNITED STATES OF AMERICA:   COUNTRY
 SRVC.              WELEX:   SERVICE COMPANY
 DATE.        12-MAR-1977:   LOGDATE
 API .     49025103210000:   API NUMBER
~CURVE INFORMATION
#MNEM.UNIT       API CODE    CURVE DESCRIPTION
#----------   ------------   ------------------------------
 DEPT.F                  :   
 CALD.IN     45 280 60 00:   CALIPER FROM DENSITY LOG
 GRD .GAPI   45 310 01 00:   GAMMA RAY FROM DENSITY LOG
 RHOB.G/C3   45 350 01 00:   BULK DENSITY
 CORR.G/C3   45 356 01 00:   DENSITY CORRECTION
 SPR .MV     07 010 01 00:   SPONTANEOUS POTENTIAL
 SGRD.MV     07 010 01 00:   SHALLOW GUARD RESISTIVITY
 ILD .OHMM   07 120 46 00:   DEEP INDUCTION RESISTIVITY
 ILM .OHMM   07 120 44 00:   INDUCTION LOG MEDIUM RESISTIVITY
~PARAMETER INFORMATION
#MNEM.UNIT          VALUE    DESCRIPTION
#----------   ------------   ------------------------------
 EKB .F         5133.0000:   Kelly bushing
 EGL .F         5122.0000:   Ground level
 TD  .F         3130.0000:   Total depth
 DATE.        12-MAR-1977:   Date logged
 CLNT.            A2DTECH:   Client Code
 SL  . 331' FNL & 430' FWL:   Surface Location
 PD  .                 GL:   Permanent Datum
 DD  .F              3130:   Depth driller
 DL  .F              3102:   Depth logger
 BLI .F              3100:   Bottom log interval
 CS1 .IN            8.625:   Casing size
 CBD1.      8.625" @ 459':   Casing driller 1
 CBL1.F               455:   Casing logger 1
 BS1 .IN            7.875:   Bit size
 DFT .                KCL:   Type fluid in hole
 DFD .                9.3:   Density
 DFV .                 36:   Viscosity
 DFL .               16.2:   Fluid loss
 MSS .           FLOWLINE:   Source of sample
 RMS .OHMM           0.37:   Rm
 MST .F                50:   Rm Meas. temp.
 RMF .OHMM           0.32:   Rmf
 MFST.F                55:   Rmf Meas. temp.
 RMC .OHMM           0.58:   Rmc
 MCST.F                55:   Rmc Meas. temp.
 MFSS.               MEAS:   Source Rmf.
 RMB .OHMM           .168:   Rm. at BHT
 BHT .F               110:   BHT.
 TCS .HRS               4:   Time Circ. stopped
 MRT .F               110:   Maximum recorded temp.
 LUN .               0716:   Logging unit number
 LUL .             VERNAT:   Logging unit location
 ENGI.        E. CALLAHAN:   Recorded By
 WITN.            K. JAPP:   Witnessed by
 ORIG.           5" PRINT:   Origin of data
 UWI .     49025103210000:   Unique Well ID
 DICO. A2D TECHNOLOGIES, INC.:   Digitizing Company
 DAPD.F                11:   Feet Above Permanent Datum
 BSD1.               3950:   Depth drilled with bit1
 MCSS.               CALC:   Source Rmc.
 EPD .F              5122:   Elevation Permanent Datum
 LMF .                 KB:   Log Measured From
 DMF .                 KB:   Drilling Measured From
 TLI .F               455:   Top log interval
~OTHER INFORMATION
~A   DEPT       CALD       GRD        RHOB      CORR       SPR       SGRD        ILD        ILM   
# ...
 3042.0000     7.9651   124.3007     2.4490     0.0256   -34.4312     5.9289     4.1363     5.0690
 3042.5000     7.9649   123.7049     2.4366     0.0216   -34.8250     5.8215     4.0994     5.0230
 3043.0000     7.9647   121.5235     2.4296     0.0215   -35.0206     5.7687     4.1002     5.0238
 3043.5000     7.9645   120.1349     2.4306     0.0275   -35.8107     5.7696     4.1014     5.0243
 3044.0000     7.9842   118.7462     2.4435     0.0335   -36.2045     5.8776     4.1786     5.2140
 3044.5000     8.0038   118.7449     2.4575     0.0329   -36.7960     6.4462     4.2574     5.2628
 3045.0000     8.0037   120.5273     2.4669     0.0323   -36.7934     7.8245     4.3377     5.4112
 3045.5000     8.0035   121.1206     2.4475     0.0318   -37.1872     7.9750     4.2998     5.6177
 3046.0000     7.9636   122.7049     2.4285     0.0433   -36.7882     7.6171     4.3002     5.3161
 3046.5000     7.9040   123.4964     2.4474     0.0573   -36.7856     6.1026     4.3009     5.3174
 3047.0000     7.9435   124.1374     2.4524     0.0612   -36.5847     6.8170     4.3422     5.4679
 3047.5000     7.9235   124.3351     2.4534     0.0512   -36.5821     7.2726     4.3431     5.5199
 3048.0000     7.9233   123.7392     2.4424     0.0492   -36.3818     6.5118     4.2650     5.5213
 3048.5000     7.9429   123.1433     2.4544     0.0432   -36.1810     6.9469     4.2660     5.2685
 3049.0000     7.9427   122.9438     2.4554     0.0491   -35.7820     6.5134     4.2671     5.0786
 3049.5000     7.9227   122.9427     2.4653     0.0639   -35.9776     5.4183     4.2290     5.0328
 3050.0000     7.9027   119.5230     2.4833     0.0830   -35.9749     7.0138     4.1146     5.0335
 3050.5000     7.9422   117.9360     2.4593     0.0510   -35.5759     6.8864     4.0858     5.0862
 3051.0000     7.9222   116.1506     2.4453     0.0390   -35.3750     5.6756     4.1140     5.0392
 3051.5000     7.9220   115.7528     2.4503     0.0410   -34.9760     5.5725     4.0761     4.9926
 3052.0000     7.9416   115.5532     2.4573     0.0470   -34.3787     6.0026     3.9646     4.9011
 3052.5000     7.9613   114.7590     2.4717     0.0330   -33.7813     6.8268     3.9644     4.8111
 3053.0000     7.9611   114.1629     2.4523     0.0210   -33.1840     5.8380     4.0378     4.6795
 3053.5000     7.9609   111.3863     2.4453     0.0130   -32.7849     5.3234     4.0749     4.6791
 3054.0000     7.9805   110.5920     2.4298     0.0309   -32.3858     5.7858     4.1123     4.8564
 3054.5000     7.9803   110.1941     2.4502     0.0289   -31.9866     6.1154     4.0772     4.9932
 3055.0000     7.9603   108.0121     2.4582     0.0328   -31.7857     6.7693     4.1535     5.1814
 3055.5000     7.9602   107.4159     2.4692     0.0348   -31.7831     6.9593     4.3500     5.3275
 3056.0000     7.9401   106.2250     2.4891     0.0348   -31.9787     7.3560     4.5140     5.5794
 3056.5000     7.9400   107.8095     2.4761     0.0467   -31.9760     8.0671     4.7275     5.8432
 3057.0000     7.9398   110.5829     2.4931     0.0527   -31.7751     8.6057     4.9969     6.1762
 3057.5000     7.8999   110.5826     2.5040     0.0626   -31.7725     9.9557     5.1852     6.4089
 3058.0000     7.8997   112.8687     2.4741     0.0287   -32.1663     8.4474     5.4304     6.5757
 3058.5000     7.8996   116.1296     2.4561     0.0306   -32.5602     8.3710     5.5702     6.1645
 3059.0000     7.8597   117.1203     2.4683     0.0306   -32.9540     8.9114     5.5696     6.5145
 3059.5000     7.8199   119.1015     2.4805     0.0306   -33.1497     8.2771     5.4173     6.7582
 3060.0000     7.8395   120.4880     2.4845     0.0306   -33.7418     7.8312     5.0008     6.1811
 3060.5000     7.8592   122.0732     2.4501     0.0106   -33.5409     5.9583     4.9397     5.9583
 3061.0000     7.8789   123.0632     2.4620     0.0185   -33.5383     5.9591     4.7605     5.6908
 3061.5000     7.8984   123.8542     2.4448     0.0085   -33.9321     6.6567     4.6304     5.4353
 3062.0000     7.8587   124.4962     2.4236     0.0145   -34.3261     6.9713     4.4625     5.2395
 3062.5000     7.8189   124.2969     2.4490     0.0264   -34.7200     6.1854     4.3807     5.1920
 3063.0000     7.7790   124.0974     2.4500     0.0344   -34.9156     5.7997     4.3191     5.1452
 3063.5000     7.7788   124.0961     2.4430     0.0304   -35.3090     5.5908     4.2410     5.1459
 3064.0000     7.7786   122.4606     2.4430     0.0323   -35.7029     5.6955     4.2414     5.1462
 3064.5000     7.8182   120.8731     2.4500     0.0303   -35.7003     5.9352     4.2420     5.1947
 3065.0000     7.9170   119.4834     2.4699     0.0343   -35.8960     6.3887     4.3214     5.3907
 3065.5000     7.9367   118.8875     2.4814     0.0422   -36.0917     7.0046     4.3218     5.4917
 3066.0000     7.9167   118.6876     2.4991     0.0442   -36.0890     6.6274     4.3625     5.5945
 3066.5000     7.9363   121.2642     2.5168     0.0521   -36.4830     6.5660     4.3632     5.8590
 3067.0000     7.9361   123.2457     2.4923     0.0382   -36.6787     7.6080     4.3637     5.8598
 3067.5000     7.9161   125.4255     2.4792     0.0092   -37.0727     7.6778     4.3642     5.8602
 3068.0000     7.9159   130.3810     2.4669     0.0251   -37.6649     7.2643     4.4173     5.6493
 3068.5000     7.8364   129.3890     2.4788     0.0321   -37.8606     6.6857     4.3766     5.4457
 3069.0000     7.8362   127.6032     2.5027     0.0540   -37.6597     6.3257     4.3362     5.2013
 3069.5000     7.8361   129.3866     2.4859     0.0540   -38.0542     6.9993     4.2962     5.0601
 3070.0000     7.8359   129.9802     2.4688     0.0470   -38.0517     6.4422     4.1404     4.9227
 3070.5000     7.8357   130.3756     2.4897     0.0320   -37.8508     6.2086     4.1021     4.8785
 3071.0000     7.8156   130.7710     2.4588     0.0220   -37.6493     5.8743     3.9900     4.8792
 3071.5000     7.8155   131.7615     2.4568     0.0100   -37.6467     5.6615     3.9170     4.8798
 3072.0000     7.8153   130.3719     2.4401     0.0040   -37.2475     5.4062     3.8098     4.8805
 3072.5000     7.8151   129.9741     2.4219     0.0019   -36.8483     5.3563     3.7746     4.7957
 3073.0000     7.7554   128.7823     2.3999    -0.0041   -36.4491     5.4553     3.7744     4.7079
 3073.5000     7.7553   128.5835     2.3949    -0.0021   -36.4465     5.7119     3.7395     4.5373
 3074.0000     7.7750   130.3671     2.3959     0.0038   -36.2455     5.6591     3.7392     4.4954
 3074.5000     7.7748   128.1844     2.4168     0.0058   -36.2429     5.3544     3.7046     4.4950
 3075.0000     7.7745   130.3646     2.4148     0.0038   -36.2403     5.1604     3.7044     4.4947
 3075.5000     7.7744   129.7684     2.4298     0.0058   -36.2377     5.1127     3.6701     4.3739
 3076.0000     7.7941   128.5775     2.4308     0.0117   -36.0368     6.2028     3.6699     4.2164
 3076.5000     7.8137   130.5593     2.4593     0.0316   -36.2325     5.6567     3.6728     4.2169
 3077.0000     7.8333   132.5408     2.4896     0.0356   -36.2299     5.2546     3.5734     4.2175
 3077.5000     7.8332   130.5566     2.4733     0.0395   -36.4256     4.9262     3.4445     4.0660
 3078.0000     7.8529   133.3317     2.4915     0.0495   -36.4230     4.8359     3.3824     4.0662
 3078.5000     7.8725   132.1410     2.4880     0.0515   -36.6187     5.1101     3.2907     3.9560
 3079.0000     7.8921   130.3548     2.4686     0.0494   -36.6161     4.8350     3.2311     3.8134
 3079.5000     7.8520   128.5689     2.4905     0.0554   -36.8118     4.7466     3.1725     3.8139
 3080.0000     7.8519   130.3519     2.4715     0.0594   -36.8092     4.5745     3.0866     3.8497
 3080.5000     7.8517  -999.2500     2.4426     0.0334   -36.6083     4.7458     3.0587     3.8859
 3081.0000     7.8317  -999.2500     2.4426     0.0274   -36.6056     4.8336     3.0311     3.9586
 3081.5000     7.8315  -999.2500     2.4369     0.0194   -36.4047     4.8779     3.0314     4.0328
 3082.0000     7.8313  -999.2500     2.4491     0.0363   -36.6004     4.9226     3.0041     4.0706
