~VERSION INFORMATION
 VERS.                2.0:   CWLS LOG ASCII STANDARD - VERSION 2.0
 WRAP.                 NO:   ONE LINE PER DEPTH STEP
~WELL INFORMATION
#MNEM.UNIT      DATA TYPE    INFORMATION
#----------   ------------   ------------------------------
 STRT.F          164.0000:   START DEPTH
 STOP.F         3223.5000:   STOP DEPTH
 STEP.F            0.5000:   STEP LENGTH
 NULL.          -999.2500:   NO VALUE
 COMP.    FENIX & SCISSON:   COMPANY
 WELL. FENIX & SCISSON "AX" #64-34:   WELL
 FLD . NAVAL PETROLEUM RESERVE #3:   FIELD
 LOC .      S34 T39N R78W:   LOCATION
 CNTY.            NATRONA:   COUNTY
 STAT.            WYOMING:   STATE
 CTRY. UNITED STATES OF AMERICA:   COUNTRY
 SRVC.       SCHLUMBERGER:   SERVICE COMPANY
 DATE.        30-DEC-1980:   LOGDATE
 API .     49025108660000:   API NUMBER
~CURVE INFORMATION
#MNEM.UNIT       API CODE    CURVE DESCRIPTION
#----------   ------------   ------------------------------
 DEPT.F                  :   
 GRD .GAPI   45 310 01 00:   GAMMA RAY FROM DENSITY LOG
 RHOB.G/C3   45 350 01 00:   BULK DENSITY
 CALD.IN     45 280 60 00:   CALIPER FROM DENSITY LOG
 CORR.G/C3   45 356 01 00:   DENSITY CORRECTION
 SPR .MV     07 010 01 00:   SPONTANEOUS POTENTIAL
 TENR.LBS    06 635 01 00:   TENSION FROM RESISTIVITY
 ILD .OHMM   07 120 46 00:   DEEP INDUCTION RESISTIVITY
 ILM .OHMM   07 120 44 00:   INDUCTION LOG MEDIUM RESISTIVITY
 SFL .OHMM   07 220 01 00:   SHALLOW FOCUSED LOG RESISTIVITY
~PARAMETER INFORMATION
#MNEM.UNIT          VALUE    DESCRIPTION
#----------   ------------   ------------------------------
 EKB .F         5088.0000:   Kelly bushing
 EGL .F         5078.0000:   Ground level
 TD  .F         3225.0000:   Total depth
 CLNT.            A2DTECH:   Client Code
 SL  . 3107' FSL & 3680' FWL:   Surface Location
 PD  .                 GL:   Permanent Datum
 EPD .F              5078:   Elevation Permanent Datum
 LMF .                 KB:   Log Measured From
 DMF .                 KB:   Drilling Measured From
 DAPD.F                10:   Feet Above Permanent Datum
 DATE.        30-DEC-1980:   Date Logged [DD-MMM-YYYY]
 DD  .F              3225:   Depth driller
 DL  .F              3225:   Depth logger
 BLI .F              3219:   Bottom log interval
 TLI .F               190:   Top log interval
 CS1 .IN            8.625:   Casing size
 CBD1.      8.625" @ 205':   Casing driller 1
 CBL1.F               190:   Casing logger 1
 BS1 .IN            7.875:   Bit size
 BSD1.F              3225:   Depth drilled with bit1
 DFT .              FRESH:   Type fluid in hole
 DFD .                  9:   Density
 DFV .                 46:   Viscosity
 MSS .           MUD TANK:   Source of sample
 RMS .OHMM           2.47:   Rm
 MST .F                57:   Rm Meas. temp.
 RMF .OHMM           1.45:   Rmf
 MFST.F                57:   Rmf Meas. temp.
 MFSS.               MEAS:   Source Rmf.
 RMB .OHMM            1.2:   Rm. at BHT
 BHT .F               124:   BHT.
 TCS .HRS            0400:   Time Circ. stopped
 MRT .F               124:   Maximum recorded temp.
 LUN .               8034:   Logging unit number
 LUL .               CSPR:   Logging unit location
 ENGI.             LARSON:   Recorded By
 WITN.              FIVAS:   Witnessed by
 ORIG.        2" 5" PRINT:   Origin of data
 UWI .     49025108660000:   Unique Well ID
 DICO. A2D TECHNOLOGIES, INC:   Digitizing Company
 TLAB.HRS            2030:   Time logger at bottom
~OTHER INFORMATION
~A   DEPT       GRD      RHOB       CALD       CORR        SPR       TENR        ILD        ILM        SFL   
# ...
 2354.0000   103.1786     2.4986     8.3855     0.0373   -36.7926  1457.0229     6.3899     6.4736     7.3503
 2354.5000   103.7740     2.4995     8.3844     0.0356   -36.5591  1457.0229     6.4308     6.4687     7.7807
 2355.0000   104.0687     2.5081     8.3833     0.0341   -36.3239  1457.0229     6.4708     6.5106     7.6086
 2355.5000   103.9024     2.5113     8.3822     0.0333   -36.0968  1457.0229     6.5121     6.5528     7.5481
 2356.0000   102.5250     2.5137     8.3661     0.0325   -36.2143  1457.0229     6.6475     6.6899     7.9314
 2356.5000   102.2070     2.5231     8.3648     0.0325   -36.3657  1457.0229     6.7885     6.8323     9.2871
 2357.0000   103.4093     2.5248     8.3638     0.0333   -36.5167  1457.0229     6.8799     6.9251    10.7190
 2357.5000   103.0941     2.5191     8.3710     0.0345   -36.6673  1457.0229     6.9240     6.9199    11.1842
 2358.0000   101.4133     2.5163     8.3772     0.0369   -36.8150  1457.0229     6.7690     6.8089    10.4720
 2358.5000    98.8220     2.5280     8.3910     0.0426   -36.8554  1457.0229     6.6190     6.6156     8.6138
 2359.0000    95.7754     2.5382     8.4052     0.0521   -36.6883  1457.0229     6.5661     6.5631     7.0854
 2359.5000    94.6505     2.5460     8.3888     0.0580   -36.5083  1457.0229     6.5607     6.4643     6.7317
 2360.0000    92.2591     2.5516     8.4029     0.0620   -37.1934  1457.0229     6.5051     6.4594     6.9432
 2360.5000    87.2398     2.5664     8.4020     0.0532   -38.0202  1457.0229     6.4087     6.4069     7.6512
 2361.0000    85.2555     2.5781     8.4009     0.0503   -38.7965  1457.0229     6.3575     6.4021     8.0993
 2361.5000    87.2165     2.5859     8.3998     0.0557   -38.9673  1457.0229     6.3067     6.3057     7.9774
 2362.0000    91.6055     2.5821     8.4140     0.0533   -39.1567  1457.0229     6.2114     6.2557     7.6325
 2362.5000    94.8305     2.5713     8.4127     0.0506   -39.3476  1457.0229     6.1605     6.2059     7.5177
 2363.0000    96.8903     2.5558     8.4117     0.0463   -39.5447  1457.0229     6.1113     6.1556     7.5664
 2363.5000    99.0031     2.5481     8.4323     0.0428   -39.3035  1457.0229     6.0625     6.1068     7.7260
 2364.0000   101.7229     2.5435     8.4400     0.0434   -38.8935  1457.0229     6.0575     6.1022     7.7807
 2364.5000   106.2635     2.5389     8.4541     0.0587   -38.4785  1457.0229     6.0525     6.1418     7.3725
 2365.0000   111.8665     2.5211     8.4528     0.0759   -38.0640  1457.0229     6.0913     6.1360     6.9174
 2365.5000   125.3572     2.5127     8.4518     0.0914   -37.6494  1457.0229     6.1303     6.2205     6.7158
 2366.0000   134.6020     2.5182     8.4508     0.1219   -37.2357  1457.0229     6.2129     6.3061     6.7593
 2366.5000   142.1805     2.5967     8.5104     0.1424   -36.8715  1457.0229     6.2980     6.3929     6.9053
 2367.0000   140.9520     2.6053     8.8427     0.2054   -36.7067  1457.0229     6.4301     6.4824     7.4107
 2367.5000   138.6622     2.5603     9.0548     0.2471   -36.5386  1457.0229     6.5638     6.6643     7.9014
 2368.0000   132.8842     2.4656     8.8404     0.2122   -36.3700  1457.0229     6.7031     6.7573     8.4854
 2368.5000   129.0790     2.3818     8.5970     0.1515   -36.2052  1457.0229     6.9919     6.8987     8.8538
 2369.0000   128.4632     2.3787     8.5353     0.1304   -36.1892  1457.0229     7.1917     7.0952     8.9852
 2369.5000   129.9661     2.4076     8.4889     0.1233   -36.4742  1457.0229     7.5001     7.4159     9.3634
 2370.0000   132.5341     2.4542     8.4424     0.1146   -36.7527  1457.0229     7.8249     7.8358    10.6523
 2370.5000   134.3434     2.4784     8.3775     0.0772   -36.9131  1457.0229     8.1051     8.1762    10.8009
 2371.0000   132.2044     2.4699     8.3038     0.0591   -36.9116  1457.0229     8.3351     8.4092    10.7907
 2371.5000   130.3718     2.4638     8.3027     0.0352   -36.9063  1457.0229     8.5794     8.6488    10.7052
 2372.0000   128.8427     2.4654     8.3171     0.0216   -37.2056  1457.0229     8.8132     8.8936    11.4119
 2372.5000   126.5549     2.4888     8.3394     0.0216   -37.6155  1457.0229     9.0633     9.1470    11.9934
 2373.0000   123.9636     2.5160     8.3603     0.0241   -38.0284  1457.0229     9.2555     9.2747    12.2464
 2373.5000   120.9924     2.5326     8.3918     0.0426   -38.4390  1457.0229     9.3810     9.4686    12.1470
 2374.0000   120.1467     2.5372     8.4340     0.0654   -38.7601  1457.0229     9.7843     9.6730    12.0507
 2374.5000   121.1943     2.5295     8.4934     0.1036   -38.7534  1457.0229    10.1347     9.8725    12.3048
 2375.0000   122.7001     2.4907     8.5529     0.1132   -38.7541  1457.0229    10.2017    10.0084    12.5643
 2375.5000   124.0541     2.3509     8.6731     0.1294   -38.7542  1457.0229    10.1913    10.1462    12.6457
 2376.0000   124.4977     2.2380     8.8399     0.1503   -38.6679  1457.0229    10.2565    10.2841    12.2748
 2376.5000   122.2070     2.1657     9.2769     0.1646   -38.0702  1457.0229    10.6217    10.4366    12.1798
 2377.0000   120.3266     2.1188     9.5183     0.2201   -37.4743  1457.0229    11.1617    11.0344    12.2587
 2377.5000   118.5418     2.0388     9.7903     0.2339   -36.8795  1457.0229    11.8993    11.6810    12.6054
 2378.0000   118.2266     1.9993     9.6830     0.1974   -36.2805  1457.0229    12.4145    12.5452    12.8712
 2378.5000   118.0662     2.0592     8.9698     0.1486   -35.9647  1457.0229    12.6752    12.7193    13.0483
 2379.0000   118.6586     2.1254     8.8324     0.1158   -35.7717  1457.0229    12.9388    12.8905    13.2253
 2379.5000   121.0719     2.3344     8.8918     0.1015   -35.8275  1457.2704    13.3087    13.2578    13.8992
 2380.0000   125.9161     2.4114     8.9365     0.1093   -36.0857  1457.8547    13.5858    13.7343    17.3912
 2380.5000   130.7603     2.4207     8.7837     0.2048   -36.3608  1458.4393    13.6724    13.6254    18.7807
 2381.0000   131.3585     2.4185     8.6766     0.1909   -36.8137  1459.0237    13.4632    13.4199    20.0241
 2381.5000   129.2196     2.4170     8.6150     0.0926   -36.9211  1459.6083    13.3556    13.1205    20.8933
 2382.0000   127.0835     2.4458     8.6968     0.0516   -36.9115  1460.1927    13.0595    12.8300    21.1809
 2382.5000   123.3794     2.5063     9.3703     0.0636   -37.0351  1460.7773    12.6783    12.7282    16.0915
 2383.0000   121.8979     2.5338    10.1723     0.1488   -37.2096  1461.3618    12.1297    12.4464    13.8211
 2383.5000   119.7618     2.5354    10.8076     0.2000   -37.3845  1461.9463    11.8608    12.5271    12.3066
 2384.0000   115.6530     2.4778    11.3975     0.1999   -37.5568  1462.5308    11.5978    12.2474    11.4423
 2384.5000   111.8478     2.2776    11.1995     0.1947   -37.7487  1463.1152    11.1784    11.8902    11.2638
 2385.0000   109.4082     2.1516    10.6107     0.1601   -38.3593  1463.6998    10.9304    11.5434    11.4230
 2385.5000   108.1821     2.1358    10.3336     0.1575   -38.9835  1464.2842    10.9194    11.2877    13.5697
 2386.0000   109.0785     2.2355    10.2114     0.2128   -39.0317  1464.8688    10.8322    11.0358    15.1076
 2386.5000   109.9802     2.4278    10.1195     0.2483   -38.7779  1465.4531    10.7456    10.7914    14.7733
 2387.0000   109.0552     2.3829    10.0427     0.2373   -38.5207  1466.0377    10.5074    10.5525    13.4395
 2387.5000   107.5261     2.3057    10.0417     0.2131   -38.2638  1466.6222    10.1986    10.3935    12.1405
 2388.0000   108.4249     2.1211    10.5404     0.1724   -38.0074  1467.2068     9.9725    10.2270     9.7727
 2388.5000   110.2313     2.0528    10.8881     0.1545   -37.7509  1467.7913     9.8218     9.9365     9.4879
 2389.0000   112.3440     2.1461    10.7808     0.1496   -37.4951  1468.3757     9.6734     9.7868     9.7640
 2389.5000   113.6981     2.2487    10.6737     0.1489   -37.2382  1468.9602     9.5241     9.5701    10.1797
 2390.0000   113.5347     2.2791    10.6727     0.1530   -37.0660  1469.5447     9.3141     9.3582    11.0113
