~VERSION INFORMATION
 VERS.                2.0:   CWLS LOG ASCII STANDARD - VERSION 2.0
 WRAP.                 NO:   ONE LINE PER DEPTH STEP
~WELL INFORMATION
#MNEM.UNIT      DATA TYPE    INFORMATION
#----------   ------------   ------------------------------
 STRT.F          212.0000:   START DEPTH
 STOP.F         2806.0000:   STOP DEPTH
 STEP.F            0.5000:   STEP LENGTH
 NULL.          -999.2500:   NO VALUE
 COMP.    FENIX & SCISSON:   COMPANY
 WELL.    FENIX AX #12-21:   WELL
 FLD .        TEAPOT DOME:   FIELD
 LOC .      S21 T39N R78W:   LOCATION
 CNTY.            NATRONA:   COUNTY
 STAT.            WYOMING:   STATE
 CTRY. UNITED STATES OF AMERICA:   COUNTRY
 SRVC.           BIRDWELL:   SERVICE COMPANY
 DATE.        14-AUG-1973:   LOGDATE
 API .     49025106930000:   API NUMBER
~CURVE INFORMATION
#MNEM.UNIT       API CODE    CURVE DESCRIPTION
#----------   ------------   ------------------------------
 DEPT.F                  :   
 SN  .OHMM   05 040 16 00:   SHORT NORMAL 16"
 ILD .OHMM   05 120 46 00:   INDUCTION LOG DEEP RESISTIVITY
 RHOB.G/C3   45 350 01 00:   BULK DENSITY
 CORR.G/C3   45 356 01 00:   DENSITY CORRECTION
 GRD .GAPI   45 310 01 00:   GAMMA RAY FROM DENSITY LOG
 CALD.IN     45 280 60 00:   CALIPER FROM DENSITY LOG
 SPR .MV     05 010 01 00:   SPONTANEOUS POTENTIAL
~PARAMETER INFORMATION
#MNEM.UNIT          VALUE    DESCRIPTION
#----------   ------------   ------------------------------
 EKB .F         4998.0000:   Kelly bushing
 EGL .F         4988.0000:   Ground level
 EDF .F            0.0000:   Drilling floor
 EPD .F         4988.0000:   Permanent datum
 TD  .F         2809.0000:   Total depth
 DATE.        14-AUG-1973:   Date logged
 CLNT.            A2DTECH:   Client Code
 SL  . 1300' FNL & 300' FWL:   Surface Location
 PD  .                 GL:   Permanent Datum
 DD  .F              2800:   Depth driller
 DL  .F              2809:   Depth logger
 BLI .F              2803:   Bottom log interval
 TLI .F               235:   Top log interval
 CS1 .IN            8.625:   Casing size
 BS1 .IN            7.875:   Bit size
 BSD1.F              2800:   Depth drilled with bit1
 DFT .                GEL:   Type fluid in hole
 DFD .                9.7:   Density
 DFV .                 34:   Viscosity
 DFPH.                 12:   pH
 MSS .           FLOWLINE:   Source of sample
 RMS .OHMM            .15:   Rm
 MST .F                57:   Rm Meas. temp.
 RMF .OHMM            .95:   Rmf
 MFST.F                69:   Rmf Meas. temp.
 RMC .OHMM            1.5:   Rmc
 MCST.F                78:   Rmc Meas. temp.
 MFSS.               MEAS:   Source Rmf.
 RMB .OHMM            .87:   Rm. at BHT
 BHT .F               115:   BHT.
 TCS .HRS               3:   Time Circ. stopped
 MRT .F               115:   Maximum recorded temp.
 LUN .               3006:   Logging unit number
 LUL .               CASP:   Logging unit location
 ENGI.             MILLER:   Recorded By
 WITN.           MCGINLEY:   Witnessed by
 UWI .     49025106930000:   Unique Well ID
 DICO. A2D TECHNOLOGIES, INC.:   Digitizing Company
 ORIG.           5" PRINT:   Origin of data
~OTHER INFORMATION
~A   DEPT       SN        ILD       RHOB       CORR         GRD      CALD        SPR   
# ...
 1577.0000     8.4680     6.0830     2.4900     0.0230   100.5800     8.3190   -11.6300
 1577.5000     8.4680     6.0990     2.4850     0.0190    96.4280     8.3190   -11.6430
 1578.0000     8.4680     6.1150     2.4850     0.0150    97.7690     8.3190   -11.6560
 1578.5000     8.4680     6.1380     2.4760     0.0110   101.3630     8.3190   -11.6700
 1579.0000     8.4680     6.1330     2.4740     0.0120   101.5730     8.3090   -11.6830
 1579.5000     8.4680     6.1240     2.4750     0.0130   100.8880     8.2990   -11.6960
 1580.0000     8.4680     6.1140     2.4770     0.0130   100.1760     8.2880   -11.7090
 1580.5000     8.4680     6.1040     2.4760     0.0140    99.5660     8.2820   -11.7220
 1581.0000     8.4680     6.0950     2.4760     0.0170    99.4500     8.2990   -11.7350
 1581.5000     8.4680     6.0850     2.4760     0.0200    99.3140     8.3160   -11.7480
 1582.0000     8.4690     6.0750     2.4790     0.0220    99.1820     8.3330   -11.7340
 1582.5000     8.4220     6.0660     2.4810     0.0250    98.7020     8.3160   -11.5680
 1583.0000     8.3740     6.0560     2.4860     0.0280    98.1730     8.2810   -11.3990
 1583.5000     8.3260     6.0460     2.4850     0.0310    97.6470     8.2680   -11.3640
 1584.0000     8.2770     6.0370     2.4850     0.0340    97.1230     8.2860   -11.3630
 1584.5000     8.2380     6.0270     2.4860     0.0360    92.3430     8.3040   -11.3640
 1585.0000     8.0470     5.9120     2.4880     0.0390    95.8170     8.3220   -11.3630
 1585.5000     7.8510     5.7110     2.4900     0.0400    96.2030     8.3390   -11.3150
 1586.0000     7.6540     5.4510     2.4930     0.0390    97.2250     8.3440   -11.2650
 1586.5000     7.3100     5.1910     2.4740     0.0400   100.3030     8.3490   -11.2150
 1587.0000     6.8370     4.9310     2.4640     0.0450   100.4540     8.3540   -11.1670
 1587.5000     6.4710     4.8350     2.4600     0.0550   100.4300     8.3540   -11.1070
 1588.0000     6.2310     4.7800     2.4440     0.0590    99.9090     8.3380   -11.0120
 1588.5000     6.1790     4.7260     2.4410     0.0750    89.2150     8.3240   -10.9170
 1589.0000     6.1380     4.6710     2.5120     0.1180    88.0410     8.2930   -10.8210
 1589.5000     6.1880     4.6170     2.5050     0.0930    87.8400     8.2880   -10.7250
 1590.0000     6.3780     4.5740     2.5050     0.0650    89.0650     8.8530   -10.6300
 1590.5000     6.4270     4.5320     2.4920     0.0640   101.1840     8.2820   -10.5880
 1591.0000     6.4140     4.7640     2.4790     0.0670    99.4490     8.3050   -10.6210
 1591.5000     6.3990     5.0610     2.4750     0.0710    98.9380     8.3230   -10.6550
 1592.0000     6.3830     5.0550     2.5020     0.1080    98.2980     8.3460   -10.6880
 1592.5000     6.3680     5.0400     2.5330     0.0810    97.4260     8.3940   -10.7220
 1593.0000     7.0720     5.0250     2.5090     0.0600    97.4680     8.6060   -10.7550
 1593.5000     7.1770     5.0150     2.5220     0.0580    98.1800     8.3050   -10.7890
 1594.0000     7.1770     5.0610     2.5250     0.0570    99.6230     8.2970   -10.8230
 1594.5000     7.1770     5.0980     2.5360     0.0560   100.2100     8.3000   -10.8560
 1595.0000     7.1770     5.1550     2.5380     0.0550   100.3260     8.3240   -10.8900
 1595.5000     7.1770     5.1390     2.5260     0.0450   101.3140     8.3490   -10.9240
 1596.0000     7.1760     5.1060     2.5060     0.0350   105.7820     8.3740   -10.9580
 1596.5000     7.1760     5.0730     2.4880     0.0320   109.2860     8.3690   -10.9680
 1597.0000     7.1770     5.0400     2.4880     0.0320   109.8540     8.3590   -10.9680
 1597.5000     7.1280     5.0070     2.4820     0.0310   111.7460     8.3480   -10.9680
 1598.0000     7.0000     4.9730     2.4730     0.0320   114.7920     8.3390   -10.9680
 1598.5000     6.7700     4.9400     2.4750     0.0350   112.9410     8.3450   -10.9680
 1599.0000     6.5400     4.9090     2.4820     0.0430   109.9710     8.3520   -10.9690
 1599.5000     6.3100     4.8810     2.4890     0.0490   110.3310     8.3590   -10.9670
 1600.0000     6.1020     4.6910     2.4980     0.0580   109.9430     8.3650   -10.7590
 1600.5000     5.9140     4.4830     2.5010     0.0650   107.4030     8.3720   -10.5270
 1601.0000     5.7260     4.2750     2.4950     0.0700   106.0120     8.3770   -10.2930
 1601.5000     5.5380     4.0670     2.4860     0.0710   105.6470     8.3740   -10.1680
 1602.0000     5.1830     3.8410     2.4670     0.0730   105.7300     8.3710   -10.1460
 1602.5000     4.8120     3.8550     2.4520     0.0850    95.8500     8.3680   -10.1240
 1603.0000     4.7440     3.8710     2.4500     0.1020    96.8030     8.3630   -10.1020
 1603.5000     4.6760     3.8870     2.4910     0.1560    98.0640     8.3590   -10.0810
 1604.0000     4.6240     3.9020     2.5640     0.1970    99.2990     8.3860   -10.0590
 1604.5000     5.0320     3.9210     2.5000     0.1300    99.9240     9.0550   -10.0370
 1605.0000     5.2500     3.9470     2.4980     0.0860    96.6610     8.3980   -10.0160
 1605.5000     5.2100     3.9740     2.5000     0.0790    93.1020     8.3120    -9.9950
 1606.0000     5.1180     4.0000     2.4890     0.0740    89.5160     8.1330    -9.9870
 1606.5000     5.0040     4.0260     2.4680     0.0690    88.4650     8.4440   -10.0100
 1607.0000     4.8900     4.0530     2.4690     0.0710    90.7450     8.4940   -10.0320
 1607.5000     4.7770     4.0590     2.4610     0.0880    92.4510     8.3440   -10.0540
 1608.0000     4.6590     4.0590     2.5120     0.1000    93.8610     8.4200   -10.0760
 1608.5000     5.0020     4.0590     2.4710     0.0980    93.1590     8.8980   -10.0980
 1609.0000     5.3580     4.0590     2.5260     0.0880    92.7300     8.5120   -10.1200
 1609.5000     5.6860     4.0590     2.4790     0.0590    92.6790     8.9750   -10.1420
 1610.0000     5.8060     4.2690     2.4800     0.0350    92.6190     8.2130   -10.1640
 1610.5000     5.7720     4.4850     2.4710     0.0330    92.5110     8.3110   -10.1860
 1611.0000     5.7590     4.7000     2.4580     0.0390    91.1050     8.3020   -10.2080
 1611.5000     5.7870     4.7770     2.4900     0.0930    89.6170     8.3160   -10.2300
 1612.0000     5.8090     4.8170     2.5270     0.0820    87.9620     8.3070   -10.2520
 1612.5000     6.1080     4.9180     2.4910     0.0530    89.6140     8.9490   -10.2740
 1613.0000     6.7920     5.0600     2.4600     0.0380    89.8640     8.4000   -10.2970
 1613.5000     7.1620     5.2010     2.4930     0.0650    89.4380     8.3680   -10.3190
 1614.0000     7.2860     5.3430     2.5290     0.0940    86.8640     8.3840   -10.3410
 1614.5000     7.5510     5.4840     2.5000     0.0550    89.2930     8.5980   -10.3620
 1615.0000     7.7490     5.6260     2.5080     0.0290    94.4790     8.3050   -10.3680
 1615.5000     7.7960     5.6510     2.5110     0.0290    99.6900     8.2640   -10.3490
 1616.0000     7.7440     5.7030     2.5110     0.0290   104.4290     8.2750   -10.3300
 1616.5000     7.7020     5.6630     2.5120     0.0300   100.2200     8.3000   -10.3110
 1617.0000     7.6600     5.5690     2.5090     0.0300    98.8290     8.3280   -10.2920
 1617.5000     7.5870     5.4750     2.5060     0.0300    99.5100     8.3060   -10.2730
 1618.0000     7.5080     5.3810     2.5020     0.0310   101.7850     8.3170   -10.2540
 1618.5000     7.4290     5.3480     2.4970     0.0310   103.4490     8.3430   -10.2350
 1619.0000     7.3490     5.3580     2.4870     0.0310   102.9350     8.3610   -10.2160
 1619.5000     7.2430     5.3660     2.4780     0.0430   102.4740     8.3690   -10.1980
 1620.0000     7.2750     5.3740     2.5210     0.0620   102.7400     8.3780   -10.1790
 1620.5000     7.3230     5.3820     2.5030     0.0520   104.5170     8.5460   -10.1600
 1621.0000     7.3720     5.3900     2.5160     0.0470   106.5090     8.4340   -10.1410
 1621.5000     7.4450     5.3970     2.5270     0.0470   105.2290     8.4510   -10.1220
 1622.0000     7.4100     5.3200     2.5210     0.0480    99.8390     8.4900   -10.1030
