~VERSION INFORMATION
 VERS.                2.0:   CWLS LOG ASCII STANDARD - VERSION 2.0
 WRAP.                 NO:   ONE LINE PER DEPTH STEP
~WELL INFORMATION
#MNEM.UNIT      DATA TYPE    INFORMATION
#----------   ------------   ------------------------------
 STRT.F          204.0000:   START DEPTH
 STOP.F         3104.0000:   STOP DEPTH
 STEP.F            0.5000:   STEP LENGTH
 NULL.          -999.2500:   NO VALUE
 COMP.    FENIX & SCISSON:   COMPANY
 WELL. FENIX NPR 83 "AX" #3-10:   WELL
 FLD .                NPR:   FIELD
 LOC .      S10 T38N R78W:   LOCATION
 CNTY.            NATRONA:   COUNTY
 STAT.            WYOMING:   STATE
 CTRY. UNITED STATES OF AMERICA:   COUNTRY
 SRVC.              WELEX:   SERVICE COMPANY
 DATE.        14-JUL-1977:   LOGDATE
 API .     49025103980000:   API NUMBER
~CURVE INFORMATION
#MNEM.UNIT       API CODE    CURVE DESCRIPTION
#----------   ------------   ------------------------------
 DEPT.F                  :   
 ILD .OHMM   07 120 46 00:   DEEP INDUCTION RESISTIVITY
 GURD.OHMM   07 220 05 00:   GUARD LOG RESISTIVITY
 ILM .OHMM   07 120 44 00:   INDUCTION LOG MEDIUM RESISTIVITY
 SPR .MV     07 010 01 00:   SPONTANEOUS POTENTIAL
 CALD.IN     45 280 60 00:   CALIPER FROM DENSITY LOG
 GRD .GAPI   45 310 01 00:   GAMMA RAY FROM DENSITY LOG
 RHOB.G/C3   45 350 01 00:   BULK DENSITY
 CORR.G/C3   45 356 01 00:   DENSITY CORRECTION
 NPHI.DEC    42 890 03 00:   NEUTRON POROSITY SANDSTONE
~PARAMETER INFORMATION
#MNEM.UNIT          VALUE    DESCRIPTION
#----------   ------------   ------------------------------
 EKB .F         5176.0000:   Kelly bushing
 EGL .F         5166.0000:   Ground level
 TD  .F         3105.0000:   Total depth
 DATE.        14-JUL-1977:   Date logged
 CLNT.            A2DTECH:   Client Code
 SL  . 1650' FNL & 100' FEL:   Surface Location
 PD  .                 GL:   Permanent Datum
 DD  .F              3094:   Depth driller
 DL  .F              3105:   Depth logger
 BLI .F              3103:   Bottom log interval
 CS1 .IN            8.625:   Casing size
 CBD1.      8.625" @ 218':   Casing driller 1
 CBL1.F               220:   Casing logger 1
 BS1 .IN            7.875:   Bit size
 DFT .            KCL/GEL:   Type fluid in hole
 DFD .                9.4:   Density
 DFV .                 36:   Viscosity
 DFPH.                  8:   pH
 DFL .                 12:   Fluid loss
 MSS .           FLOWLINE:   Source of sample
 RMS .OHMM           1.54:   Rm
 MST .F               100:   Rm Meas. temp.
 RMF .OHMM            1.5:   Rmf
 MFST.F               100:   Rmf Meas. temp.
 RMC .OHMM           3.47:   Rmc
 MCST.F               100:   Rmc Meas. temp.
 MFSS.               FANN:   Source Rmf.
 RMB .OHMM           1.36:   Rm. at BHT
 BHT .F               113:   BHT.
 TCS .HRS             2.5:   Time Circ. stopped
 MRT .F               113:   Maximum recorded temp.
 LUN .               8766:   Logging unit number
 LUL .             CASPER:   Logging unit location
 ENGI. G. BENTSEN/T. JOYNER:   Recorded By
 WITN.      B. HARRINGTON:   Witnessed by
 ORIG.           5" PRINT:   Origin of data
 UWI .     49025103980000:   Unique Well ID
 DICO. A2D TECHNOLOGIES, INC.:   Digitizing Company
 DAPD.F                10:   Feet Above Permanent Datum
 BSD1.F              3094:   Depth drilled with bit1
 MCSS.                KIT:   Source Rmc.
 TLI .F               210:   Top log interval
 EPD .F              5166:   Elevation Permanent Datum
 LMF .                 KB:   Log Measured From
 DMF .                 KB:   Drilling Measured From
~OTHER INFORMATION
~A   DEPT      ILD       GURD        ILM        SPR       CALD        GRD       RHOB       CORR       NPHI   
# ...
 1153.0000     6.1490     7.5810     6.4770   -61.5730    10.2970   102.0620     2.4980     0.0270     0.4400
 1153.5000     6.1940     7.6410     6.5170   -61.5300    10.3110   101.6690     2.4950     0.0250     0.4400
 1154.0000     6.2390     7.7020     6.5560   -61.4880    10.3240   103.3950     2.4920     0.0270     0.4400
 1154.5000     6.3690     7.7630     6.6010   -61.4450    10.3380   105.0670     2.4930     0.0280     0.4390
 1155.0000     6.5090     7.8230     6.5700   -61.4020    10.3510   106.3560     2.4950     0.0300     0.4350
 1155.5000     6.6490     7.8670     6.5250   -61.3600    10.3650   105.2260     2.4970     0.0310     0.4330
 1156.0000     6.7900     7.8670     6.4800   -61.3170    10.3780   104.1200     2.5000     0.0330     0.4300
 1156.5000     6.9300     7.8670     6.4350   -61.2790    10.3920   103.0010     2.5020     0.0340     0.4260
 1157.0000     7.0710     7.8670     6.3890   -61.2530    10.4060   103.7390     2.5040     0.0370     0.4220
 1157.5000     7.1770     7.8670     6.3440   -61.2270    10.4190   104.6550     2.5060     0.0400     0.4190
 1158.0000     7.1910     7.8670     6.2990   -61.2010    10.4330   105.6200     2.5100     0.0440     0.4150
 1158.5000     7.2060     7.8670     6.2540   -61.1750    10.4460   103.4200     2.5190     0.0470     0.4110
 1159.0000     7.2200     7.8660     6.2090   -61.1490    10.4600   100.7080     2.5280     0.0500     0.4090
 1159.5000     7.2350     7.9420     6.1640   -61.1230    10.4540    98.0070     2.5350     0.0530     0.4070
 1160.0000     7.4280     8.0560     6.1300   -61.0970    10.4450    96.2900     2.5310     0.0510     0.4050
 1160.5000     7.7130     8.1630     6.2150   -61.0710    10.4360    98.8580     2.5180     0.0490     0.4020
 1161.0000     7.9980     8.1630     6.2820   -61.0450    10.4270   101.2960     2.5040     0.0470     0.4010
 1161.5000     8.2830     8.1630     6.3480   -61.0190    10.4180   102.7280     2.4750     0.0450     0.4000
 1162.0000     8.5680     8.1630     6.4150   -60.9930    10.4080   101.9750     2.4520     0.0430     0.3990
 1162.5000     8.9530     7.9780     6.4820   -60.9670    10.3990   101.2610     2.4410     0.0430     0.3950
 1163.0000     8.7380     7.8010     6.5490   -60.9410    10.3900   100.5270     2.4300     0.0450     0.3910
 1163.5000     8.2590     7.6250     6.6160   -60.9150    10.3820    99.8080     2.4190     0.0470     0.3860
 1164.0000     7.7800     7.4480     6.6830   -60.8880    10.3820   100.0300     2.4080     0.0490     0.3820
 1164.5000     7.3020     7.1730     6.7500   -60.8620    10.4330   100.2430     2.3940     0.0500     0.3770
 1165.0000     6.8230     7.1980     6.8160   -60.8360    10.5160   100.4480     2.3800     0.0470     0.3740
 1165.5000     6.3440     7.2540     6.8830   -60.8100    10.6000   100.5840     2.3660     0.0420     0.3720
 1166.0000     6.0180     7.3100     6.9500   -60.7840    10.6840   100.0050     2.3530     0.0360     0.3710
 1166.5000     6.2340     7.3660     7.0170   -60.7580    10.7670    99.3720     2.3520     0.0320     0.3710
 1167.0000     6.4930     7.4220     7.3100   -60.7320    10.8120    98.7390     2.3920     0.0350     0.3710
 1167.5000     6.7520     7.5920     7.7350   -60.7060    10.8060    98.1000     2.4380     0.0390     0.3720
 1168.0000     7.0100     7.8290     8.1600   -60.6800    10.8010    97.4870     2.4690     0.0420     0.3720
 1168.5000     7.2630     8.0660     8.5840   -60.6540    10.7960    98.0970     2.4720     0.0450     0.3690
 1169.0000     7.3910     8.3020     9.0090   -60.6280    10.7990    98.7880     2.4760     0.0450     0.3650
 1169.5000     7.4920     8.5390     9.4330   -60.6020    10.8070    99.4740     2.4770     0.0460     0.3620
 1170.0000     7.5940     8.7080     9.8580   -60.5760    10.8150   100.1590     2.4740     0.0420     0.3580
 1170.5000     7.6960     8.8370    10.1890   -60.5500    10.8230   100.8630     2.4710     0.0370     0.3550
 1171.0000     7.7980     8.9660    10.1700   -60.5230    10.8300   100.7050     2.4680     0.0320     0.3520
 1171.5000     7.9000     9.0950    10.1550   -60.4970    10.8120   100.3590     2.4660     0.0260     0.3490
 1172.0000     8.0010     9.2230    10.1390   -60.5420    10.7640   100.0090     2.4630     0.0220     0.3480
 1172.5000     8.1030     9.3520    10.1240   -60.5940    10.7170    99.6610     2.4700     0.0250     0.3470
 1173.0000     8.1700     9.3770    10.1080   -60.6460    10.6690    99.3130     2.4820     0.0280     0.3460
 1173.5000     8.1850     9.3770    10.0960   -60.6980    10.6220    98.9660     2.4940     0.0290     0.3460
 1174.0000     8.2010     9.3770    13.1000   -60.7500    10.5740    98.6180     2.5000     0.0270     0.3450
 1174.5000     8.2160     9.3830    15.5850   -60.8030    10.5260    98.2710     2.4830     0.0250     0.3440
 1175.0000     8.2320     9.3920    15.5850   -60.8550    10.4790    97.9210     2.4750     0.0230     0.3410
 1175.5000     8.2470     9.4000    14.2090   -60.9070    10.4630    97.5750     2.4780     0.0210     0.3430
 1176.0000     8.2630     9.4090    12.1450   -60.9590    10.4670    97.2240     2.4820     0.0190     0.3440
 1176.5000     8.2780     9.4170    11.4120   -61.0110    10.4720    98.2130     2.4710     0.0190     0.3450
 1177.0000     8.2940     9.4260    10.6710   -61.0630    10.4760   100.4470     2.4640     0.0180     0.3460
 1177.5000     8.3090     9.4350    10.4010   -61.1150    10.4810   102.6890     2.4650     0.0200     0.3480
 1178.0000     8.3150     9.4430    10.2080   -61.1670    10.4850   104.8960     2.4680     0.0210     0.3510
 1178.5000     8.3160     9.4520    10.0160   -61.2190    10.4890   106.4300     2.4720     0.0220     0.3540
 1179.0000     8.3150     9.4640     9.8230   -61.2710    10.4940   106.1600     2.4740     0.0230     0.3580
 1179.5000     8.3150     9.4170     9.6310   -61.3240    10.4980   106.1130     2.4760     0.0250     0.3640
 1180.0000     8.3150     9.3370     9.4380   -61.3760    10.5030   107.1100     2.4790     0.0220     0.3670
 1180.5000     8.3150     9.2570     9.2460   -61.4280    10.5070   108.1420     2.4800     0.0170     0.3680
 1181.0000     8.3150     9.1770     9.0540   -61.4830    10.5120   109.1710     2.4740     0.0150     0.3690
 1181.5000     8.3160     9.0970     8.8610   -61.4970    10.5160   110.1920     2.4680     0.0150     0.3730
 1182.0000     8.3150     9.0170     8.6690   -61.5090    10.5140   111.2480     2.4690     0.0150     0.3740
 1182.5000     8.3160     8.9370     8.4710   -61.5220    10.4880   110.4130     2.4700     0.0140     0.3760
 1183.0000     8.3160     8.8570     8.2050   -61.5350    10.4620   108.7150     2.4720     0.0140     0.3780
 1183.5000     8.2540     8.7760     7.9320   -61.5470    10.4410   106.9870     2.4730     0.0140     0.3800
 1184.0000     8.1470     8.6960     7.6580   -61.5600    10.4530   105.2520     2.4740     0.0130     0.3840
 1184.5000     8.0140     8.6160     7.3740   -61.5730    10.4650   103.4970     2.4740     0.0130     0.3870
 1185.0000     8.0510     8.5490     7.3260   -61.5850    10.4780   104.6750     2.4740     0.0170     0.3920
 1185.5000     8.1170     8.4830     7.2750   -61.5980    10.4790   106.2280     2.4810     0.0200     0.3960
 1186.0000     8.1830     8.4150     7.2240   -61.6110    10.4770   107.8540     2.4900     0.0230     0.4010
 1186.5000     8.2390     8.3460     7.1740   -61.6240    10.4750   105.4920     2.4980     0.0270     0.4030
 1187.0000     8.2220     8.2780     7.1230   -61.6360    10.4740   102.3310     2.5080     0.0290     0.4040
 1187.5000     8.1920     8.2090     7.0720   -61.6490    10.4720   103.3360     2.5090     0.0310     0.4060
 1188.0000     8.1620     8.1410     7.0220   -61.6620    10.4700   104.6970     2.5060     0.0330     0.4060
 1188.5000     8.1320     8.0720     6.9710   -61.6740    10.4680   106.0340     2.5030     0.0350     0.4080
 1189.0000     8.1020     8.0160     6.9200   -61.6870    10.4660   107.2150     2.5000     0.0360     0.4060
