~VERSION INFORMATION
 VERS.                2.0:   CWLS LOG ASCII STANDARD - VERSION 2.0
 WRAP.                 NO:   ONE LINE PER DEPTH STEP
~WELL INFORMATION
#MNEM.UNIT      DATA TYPE    INFORMATION
#----------   ------------   ------------------------------
 STRT.F         3500.0000:   START DEPTH
 STOP.F         6855.0000:   STOP DEPTH
 STEP.F            0.5000:   STEP LENGTH
 NULL.          -999.2500:   NO VALUE
 COMP.          U.S. NAVY:   COMPANY
 WELL.  US NAVY "G" #1-10:   WELL
 FLD . TEAPOT NAVAL RESERVE:   FIELD
 LOC .      S10 T38N R78W:   LOCATION
 CNTY.            NATRONA:   COUNTY
 STAT.            WYOMING:   STATE
 CTRY. UNITED STATES OF AMERICA:   COUNTRY
 SRVC.         LANE WELLS:   SERVICE COMPANY
 DATE.        23-MAR-1952:   LOGDATE
 API .     49025063380000:   API NUMBER
~CURVE INFORMATION
#MNEM.UNIT       API CODE    CURVE DESCRIPTION
#----------   ------------   ------------------------------
 DEPT.F                  :   
 GRN .GAPI   35 310 01 00:   GAMMA RAY
 NEUT.NAPI   35 330 01 00:   NEUTRON
~PARAMETER INFORMATION
#MNEM.UNIT          VALUE    DESCRIPTION
#----------   ------------   ------------------------------
 EKB .F         5195.0000:   Kelly bushing
 EGL .F         5184.0000:   Ground level
 EDF .F         5195.0000:   Drilling floor
 EPD .F            0.0000:   Permanent datum
 TD  .F         6861.0000:   Total depth
 CLNT.            A2DTECH:   Client Code
 PD  .                 GL:   Permanent Datum
 DATE.        23-MAR-1952:   Date Logged [DD-MMM-YYYY]
 DD  .F              6861:   Depth driller
 DL  .F              6861:   Depth logger
 BLI .F              6855:   Bottom log interval
 TLI .F              3500:   Top log interval
 BSD1.F              6861:   Depth drilled with bit1
 DFT .                MUD:   Type fluid in hole
 ENGI.            GAMBERG:   Recorded By
 WITN.           GRIBBENS:   Witnessed by
 ORIG.         2.5" PRINT:   Origin of data
 UWI .     49025063380000:   Unique Well ID
 DICO. A2D TECHNOLOGIES, INC.:   Digitizing Company
~OTHER INFORMATION
~A  DEPT       GRN        NEUT  
# ...
 4836.5000   102.2613   456.5415
 4837.0000   101.2829   461.6685
 4837.5000   101.2805   459.3647
 4838.0000   100.0583   444.5204
 4838.5000    99.7480   418.9767
 4839.0000    98.6619   383.1212
 4839.5000    97.4221   337.1494
 4840.0000    95.5127   342.4106
 4840.5000    93.9483   347.7294
 4841.0000    94.9216   358.0058
 4841.5000    95.8949   368.2737
 4842.0000    96.8682   378.5454
 4842.5000    96.8658   396.0889
 4843.0000    96.3039   428.3681
 4843.5000    93.5758   505.2679
 4844.0000    89.7824   599.3035
 4844.5000    87.4902   673.5370
 4845.0000    84.2364   710.6420
 4845.5000    82.0653   742.7964
 4846.0000    80.0191   760.1642
 4846.5000    79.7728   762.5508
 4847.0000    80.2583   752.3219
 4847.5000    81.4755   718.2826
 4848.0000    83.1805   688.0065
 4848.5000    84.4439   633.7980
 4849.0000    86.0079   554.2634
 4849.5000    88.8951   480.2179
 4850.0000    91.1385   415.8376
 4850.5000    92.0518   363.8336
 4851.0000    93.4227   353.9088
 4851.5000    95.1142   351.4098
 4852.0000    97.0630   361.2870
 4852.5000    98.7680   394.9348
 4853.0000    99.2535   449.0184
 4853.5000    99.0073   499.3529
 4854.0000    95.7269   543.7678
 4854.5000    93.2533   591.5828
 4855.0000    91.5127   619.5524
 4855.5000    90.1444   629.5625
 4856.0000    84.6885   608.6094
 4856.5000    84.8473   593.7341
 4857.0000    86.0629   573.9083
 4857.5000    87.0362   549.8799
 4858.0000    87.0341   530.1017
 4858.5000    87.0315   492.9967
 4859.0000    88.9804   448.4659
 4859.5000    90.4624   430.7390
 4860.0000    90.9270   393.9079
 4860.5000    90.6262   357.2080
 4861.0000    90.4345   346.3013
 4861.5000    91.6044   348.0991
 4862.0000    93.1092   354.5241
 4862.5000    94.5727   359.5346
 4863.0000    95.3021   379.3603
 4863.5000    96.0314   401.6612
 4864.0000    90.9072   441.2888
 4864.5000    88.9536   485.8670
 4865.0000    87.9677   545.9841
 4865.5000    86.6384   588.5628
 4866.0000    81.9080   660.5746
 4866.5000    79.0634   713.2537
 4867.0000    74.6649   743.3401
 4867.5000    70.9062   768.0112
 4868.0000    69.6325   797.5924
 4868.5000    68.6898   785.5733
 4869.0000    69.4192   743.5178
 4869.5000    72.0998   698.9870
 4870.0000    80.1463   649.5057
 4870.5000    86.5182   599.4122
 4871.0000    89.3301   542.7652
 4871.5000    93.6134   490.1126
 4872.0000    96.9662   426.5988
 4872.5000   100.2638   364.4297
 4873.0000   103.1352   343.8947
 4873.5000   106.0755   350.4865
 4874.0000   108.9069   351.0568
 4874.5000   108.9046   337.8496
 4875.0000   108.4144   320.5465
 4875.5000   108.1682   303.2435
 4876.0000   109.6293   298.3206
 4876.5000   109.3576   296.6291
 4877.0000   108.6019   295.8927
 4877.5000   108.4028   283.5402
 4878.0000   109.1611   278.6134
 4878.5000   111.0267   293.4901
 4879.0000   113.6520   290.4940
 4879.5000   112.2947   281.3398
 4880.0000   111.4313   262.8713
 4880.5000   113.9974   241.6594
 4881.0000   113.7511   228.8634
 4881.5000   112.7672   214.4346
 4882.0000   109.7523   204.5573
 4882.5000   108.8661   209.5315
 4883.0000   109.3515   219.4561
 4883.5000   107.4872   219.2534
 4884.0000   105.6649   209.0168
 4884.5000   106.3061   202.2005
 4885.0000   106.5042   211.8812
 4885.5000   102.9972   228.3970
 4886.0000   101.3052   238.2188
 4886.5000   102.9926   234.4802
 4887.0000   103.9658   244.4100
 4887.5000   102.4997   259.2852
 4888.0000   104.9364   279.1108
 4888.5000   107.8609   284.0850
 4889.0000   109.3309   279.0574
 4889.5000   110.3489   265.4430
 4890.0000   111.0246   242.5742
 4890.5000   109.0628   225.1005
 4891.0000   107.0245   217.9723
 4891.5000   106.8707   214.9258
 4892.0000   107.0828   230.9739
 4892.5000   102.4752   281.8111
 4893.0000   101.4973   323.9139
 4893.5000   100.5193   353.6406
 4894.0000    97.1027   393.2683
 4894.5000    98.1594   418.1203
 4895.0000    98.3171   425.4939
 4895.5000    98.4421   406.3101
 4896.0000    99.2874   391.9749
 4896.5000    98.7972   395.2198
 4897.0000    96.1120   396.0885
 4897.5000    93.6706   388.4901
 4898.0000    92.2048   386.7302
 4898.5000    92.4464   410.8200
 4899.0000    89.8712   447.9724
 4899.5000    84.7167   465.3228
 4900.0000    79.5943   475.2475
 4900.5000    77.8393   475.2723
 4901.0000    78.9137   482.4702
 4901.5000    80.7239   505.2222
 4902.0000    79.9899   527.5284
 4902.5000    79.0119   539.7277
 4903.0000    80.4730   539.7525
 4903.5000    82.6658   537.3063
 4904.0000    84.8715   529.9043
 4904.5000    85.1002   512.6013
 4905.0000    85.1547   475.4962
 4905.5000    86.2987   473.0193
 4906.0000    88.7672   483.3736
 4906.5000    90.4581   488.3648
 4907.0000    92.6483   490.4424
 4907.5000    96.5484   464.7176
 4908.0000    96.0583   438.0097
 4908.5000    95.5681   409.7206
 4909.0000    96.0536   389.0639
 4909.5000    96.5391   389.0876
 4910.0000    93.8064   413.8638
 4910.5000    87.2657   463.3924
 4911.0000    83.8488   522.8220
 4911.5000    80.8857   586.2767
 4912.0000    81.1112   623.8765
 4912.5000    83.2934   644.7994
 4913.0000    83.8394   649.1584
 4913.5000    81.7112   640.3127
 4914.0000    80.1657   594.2474
 4914.5000    79.5903   542.7977
 4915.0000    80.9021   505.1399
 4915.5000    83.0949   462.8726
 4916.0000    84.7999   413.0211
 4916.5000    85.7731   355.0452
 4917.0000    87.2939   309.4034
 4917.5000    89.4009   277.7190
 4918.0000    93.0620   258.3653
 4918.5000    96.8922   250.1757
 4919.0000    98.3510   257.5422
 4919.5000    99.3219   277.2850
 4920.0000    99.3171   326.7307
 4920.5000    99.0311   371.6150
 4921.0000    98.1012   408.0799
 4921.5000    94.6151   443.4091
 4922.0000    91.5831   480.0669
 4922.5000    89.5455   507.4902
 4923.0000    87.5805   519.2994
 4923.5000    90.0138   533.4525
 4924.0000    92.6921   556.4254
 4924.5000    95.3703   573.6929
 4925.0000    97.5608   576.1089
 4925.5000   100.1173   576.0497
 4926.0000   100.9266   548.4290
 4926.5000   102.5501   497.3922
 4927.0000   103.8820   449.3004
 4927.5000   104.6098   370.4496
 4928.0000   105.3360   340.6052
 4928.5000   105.0874   359.9705
 4929.0000   103.6193   372.9112
 4929.5000   102.6321   375.0618
 4930.0000   101.5612   374.3383
 4930.5000   101.4102   389.7844
 4931.0000   103.8623   392.6273
 4931.5000   105.7198   367.3382
 4932.0000   106.0293   349.5445
 4932.5000   105.0250   344.9876
 4933.0000   101.1406   348.9872
 4933.5000    95.6396   393.0324
 4934.0000    95.2517   458.8553
 4934.5000    95.6313   483.3539
 4935.0000    90.6332   473.3803
 4935.5000    88.9213   465.8953
 4936.0000    86.7215   495.5390
 4936.5000    82.3265   544.9848
 4937.0000    80.3706   572.1533
 4937.5000    80.6595   577.2492
 4938.0000    82.6485   579.4606
 4938.5000    83.5785   563.7591
 4939.0000    84.1541   534.3378
 4939.5000    85.1669   492.6260
 4940.0000    86.8940   454.9606
 4940.5000    89.5700   423.1943
 4941.0000    92.5260   383.5311
 4941.5000    94.9603   348.8184
 4942.0000    97.1508   343.2775
 4942.5000    98.1219   356.1258
 4943.0000    98.6048   370.4410
 4943.5000    98.5693   428.1382
 4944.0000    97.4764   454.9808
 4944.5000    95.8508   472.2861
 4945.0000    95.6593   484.1963
 4945.5000    96.1424   490.7166
 4946.0000    93.9831   506.6717
 4946.5000    88.9880   533.8402
 4947.0000    86.3699   551.1077
 4947.5000    86.1135   555.9990
 4948.0000    89.7752   550.9893
 4948.5000    90.7463   531.1262
 4949.0000    91.2293   536.7726
 4949.5000    93.7826   545.8611
 4950.0000    96.1790   506.1327
 4950.5000    97.1907   427.6862
 4951.0000    98.2859   394.2176
 4951.5000   100.4734   352.5254
 4952.0000   100.3237   342.5652
 4952.5000   102.4137   341.4393
 4953.0000   105.5797   382.0507
 4953.5000   105.5175   396.8430
 4954.0000   106.7899   399.2590
 4954.5000   109.2242   385.0513
 4955.0000   112.1464   362.1767
 4955.5000   110.5787   344.6820
 4956.0000   108.8746   328.0764
 4956.5000   109.3380   299.9078
 4957.0000   110.2625   272.6365
 4957.5000   110.3071   252.7753
