~VERSION INFORMATION
 VERS.                2.0:   CWLS LOG ASCII STANDARD - VERSION 2.0
 WRAP.                 NO:   ONE LINE PER DEPTH STEP
~WELL INFORMATION
#MNEM.UNIT      DATA TYPE    INFORMATION
#----------   ------------   ------------------------------
 STRT.F          180.0000:   START DEPTH
 STOP.F         3044.0000:   STOP DEPTH
 STEP.F            0.5000:   STEP LENGTH
 NULL.          -999.2500:   NO VALUE
 COMP.    FENIX & SCISSON:   COMPANY
 WELL.   FENIX "A" #55-29:   WELL
 FLD .           N P R #3:   FIELD
 LOC .      S29 T39N R78W:   LOCATION
 CNTY.            NATRONA:   COUNTY
 STAT.            WYOMING:   STATE
 CTRY. UNITED STATES OF AMERICA:   COUNTRY
 SRVC.              WELEX:   SERVICE COMPANY
 DATE.        21-JUL-1977:   LOGDATE
 API .     49025104020000:   API NUMBER
~CURVE INFORMATION
#MNEM.UNIT       API CODE    CURVE DESCRIPTION
#----------   ------------   ------------------------------
 DEPT.F                  :   
 CALD.IN     45 280 60 00:   CALIPER FROM DENSITY LOG
 RHOB.G/C3   45 350 01 00:   BULK DENSITY
 CORR.G/C3   45 356 01 00:   DENSITY CORRECTION
 GRD .GAPI   45 310 01 00:   GAMMA RAY FROM DENSITY LOG
 SPR .MV     07 010 01 00:   SPONTANEOUS POTENTIAL
 ILD .OHMM   07 120 46 00:   DEEP INDUCTION RESISTIVITY
 ILM .OHMM   07 120 44 00:   INDUCTION LOG MEDIUM RESISTIVITY
 SGRD.OHMM   07 220 05 00:   SHALLOW SHORT GUARD RESISTIVITY
~PARAMETER INFORMATION
#MNEM.UNIT          VALUE    DESCRIPTION
#----------   ------------   ------------------------------
 EKB .F         4995.0000:   Kelly bushing
 EGL .F         4985.0000:   Ground level
 EDF .F            0.0000:   Drilling floor
 EPD .F         4985.0000:   Permanent datum
 TD  .F         3045.0000:   Total depth
 DATE.        21-JUL-1977:   Date logged
 CLNT.            A2DTECH:   Client Code
 SL  . 2310' FSL & 2310' FEL:   Surface Location
 PD  .                 GL:   Permanent Datum
 DD  .F              3045:   Depth driller
 DL  .F              3045:   Depth logger
 BLI .F              3043:   Bottom log interval
 CS1 .IN            8.625:   Casing size
 CBD1.      8.625" @ 230':   Casing driller 1
 CBL1.F               216:   Casing logger 1
 BS1 .IN            7.875:   Bit size
 DFT .            KCL-MUD:   Type fluid in hole
 DFD .                8.8:   Density
 DFV .                 45:   Viscosity
 DFPH.                7.5:   pH
 DFL .                8.4:   Fluid loss
 MSS .           FLOWLINE:   Source of sample
 RMS .OHMM            .45:   Rm
 MST .F                86:   Rm Meas. temp.
 RMF .OHMM            .33:   Rmf
 MFST.F                86:   Rmf Meas. temp.
 RMC .OHMM            .72:   Rmc
 MCST.F                86:   Rmc Meas. temp.
 MFSS.               MEAS:   Source Rmf.
 RMB .OHMM            .30:   Rm. at BHT
 BHT .F               127:   BHT.
 TCS .HRS             2.5:   Time Circ. stopped
 MRT .F               127:   Maximum recorded temp.
 LUN .               8611:   Logging unit number
 LUL .             CASPER:   Logging unit location
 ENGI.            C. DOAK:   Recorded By
 WITN.      W. PETTINGILL:   Witnessed by
 ORIG.           5" PRINT:   Origin of data
 UWI .     49025104020000:   Unique Well ID
 DICO. A2D TECHNOLOGIES, INC.:   Digitizing Company
 DAPD.                 10:   Feet Above Permanent Datum
 BSD1.               3045:   Depth drilled with bit1
 MCSS.               MEAS:   Source Rmc.
 LMF .                 KB:   Log Measured From
 DMF .                 KB:   Drilling Measured From
 TLI .                200:   Top log interval
~OTHER INFORMATION
~A   DEPT       CALD     RHOB       CORR         GRD       SPR        ILD        ILM       SGRD   
# ...
  787.5000     8.4290     2.4610     0.0650    87.1870   -63.3790     8.7730     9.7660    13.8620
  788.0000     8.4090     2.4690     0.0630    84.3710   -63.4160     8.7180     9.7110    13.6660
  788.5000     8.3900     2.4780     0.0610    81.9520   -63.4540     8.6520     9.6570    13.4040
  789.0000     8.3700     2.4810     0.0580    82.6900   -63.4840     8.5870     9.6020    13.1200
  789.5000     8.3620     2.4810     0.0560    83.7810   -63.5130     8.5290     9.5200    13.0150
  790.0000     8.3620     2.4750     0.0540    82.8300   -63.5410     8.5060     9.5320    13.1460
  790.5000     8.3620     2.4690     0.0510    83.0480   -63.5690     8.4740     9.5560    13.2780
  791.0000     8.3620     2.4630     0.0510    84.3360   -63.5970     8.4510     9.5790    13.4090
  791.5000     8.3620     2.4580     0.0510    83.4790   -63.6250     8.4890     9.6030    13.5400
  792.0000     8.3620     2.4500     0.0510    81.6300   -63.6530     8.5330     9.6260    13.6100
  792.5000     8.3620     2.4410     0.0510    82.8600   -63.7010     8.5770     9.6500    13.6100
  793.0000     8.3620     2.4470     0.0510    85.5570   -63.7600     8.6210     9.6730    13.6100
  793.5000     8.3620     2.4520     0.0510    86.6580   -63.8200     8.6640     9.6960    13.1720
  794.0000     8.3620     2.4580     0.0520    84.9590   -63.8800     8.7080     9.7700    12.7650
  794.5000     8.3620     2.4630     0.0550    82.3010   -63.9400     8.7520     9.8590    13.1200
  795.0000     8.3620     2.4580     0.0580    78.8780   -63.9990     8.7960     9.9660    15.9740
  795.5000     8.3590     2.4520     0.0610    75.4290   -64.0590     8.8400     9.7830    18.3210
  796.0000     8.3480     2.4580     0.0650    76.7290   -64.1190     8.8830     9.5530    14.5350
  796.5000     8.3370     2.4670     0.0650    80.4450   -64.1790     8.9290     9.3240    13.6410
  797.0000     8.3270     2.4750     0.0630    84.0240   -64.2380     8.8350     9.1630    13.3570
  797.5000     8.3220     2.4810     0.0610    87.3110   -64.2980     8.7380     9.1250    13.0720
  798.0000     8.3220     2.4800     0.0600    88.7050   -64.3580     8.6410     9.0860    13.0010
  798.5000     8.3220     2.4760     0.0580    89.9190   -64.4180     8.5440     9.0480    13.0490
  799.0000     8.3220     2.4780     0.0580    89.6730   -64.4770     8.4480     9.0090    13.1200
  799.5000     8.3090     2.4790     0.0610    89.3040   -64.5370     8.3510     8.9710    13.4390
  800.0000     8.2950     2.4750     0.0630    88.7400   -64.5970     8.2540     8.9320    13.6100
  800.5000     8.2810     2.4700     0.0630    87.1120   -64.6570     8.1570     8.8930    13.1560
  801.0000     8.2670     2.4650     0.0660    85.0600   -64.7160     8.1470     8.8550    12.7730
  801.5000     8.2640     2.4610     0.0690    82.8450   -64.7760     8.1470     8.8160    12.8210
  802.0000     8.2670     2.4590     0.0670    84.0860   -64.8360     8.1470     8.7780    12.8820
  802.5000     8.2700     2.4600     0.0610    84.7640   -64.8960     8.1470     8.7390    12.7220
  803.0000     8.2730     2.4600     0.0550    84.7810   -64.9550     8.1250     8.6860    12.4780
  803.5000     8.2760     2.4550     0.0490    84.8640   -65.0140     8.0770     8.6970    12.1930
  804.0000     8.2790     2.4510     0.0470    85.5520   -65.0600     8.0280     8.7210    12.5330
  804.5000     8.2820     2.4520     0.0500    86.4020   -65.0870     7.9800     8.7450    12.2470
  805.0000     8.2900     2.4570     0.0560    87.6170   -65.1140     7.9320     8.7690    12.1930
  805.5000     8.2980     2.4610     0.0620    88.7260   -65.1400     7.8830     8.7930    12.3050
  806.0000     8.3070     2.4660     0.0680    89.1080   -65.1670     7.8530     8.8170    12.1870
  806.5000     8.3150     2.4730     0.0700    90.7880   -65.1930     7.8670     8.8410    11.6470
  807.0000     8.3240     2.4740     0.0680    91.8880   -65.2200     7.8780     8.8650    12.1860
  807.5000     8.3320     2.4650     0.0670    92.0270   -65.2460     7.8890     8.8890    12.7420
  808.0000     8.3410     2.4560     0.0650    92.1890   -65.2730     7.9000     8.9130    13.1200
  808.5000     8.3420     2.4510     0.0630    92.3370   -65.2990     7.9110     8.9290    12.9100
  809.0000     8.3420     2.4530     0.0610    93.7840   -65.3260     7.9220     8.9040    12.6860
  809.5000     8.3420     2.4550     0.0630    94.5290   -65.3520     7.9330     8.8860    12.5330
  810.0000     8.3420     2.4570     0.0650    94.3040   -65.3790     7.9440     8.8680    12.5210
  810.5000     8.3420     2.4670     0.0670    95.2820   -65.4050     7.9550     8.8500    12.4840
  811.0000     8.3420     2.4780     0.0680    95.3840   -65.4310     7.9660     8.8310    12.4460
  811.5000     8.3420     2.4880     0.0690    93.4920   -65.4220     7.9770     8.8130    12.4180
  812.0000     8.3420     2.4900     0.0710    91.8880   -65.3730     7.9880     8.7950    12.4180
  812.5000     8.3420     2.4910     0.0750    91.3250   -65.3250     7.9990     8.7660    12.4180
  813.0000     8.3420     2.4900     0.0740    90.8980   -65.2760     8.0050     8.7920    12.4180
  813.5000     8.3410     2.4880     0.0730    90.4540   -65.2380     8.0120     8.8500    12.1930
  814.0000     8.3380     2.4850     0.0710    90.0170   -65.1900     8.0180     8.9080    12.5060
  814.5000     8.3360     2.4780     0.0710    90.6650   -65.1430     8.0250     8.9670    13.0010
  815.0000     8.3330     2.4710     0.0720    92.7830   -65.0970     8.0310     9.0250    12.7800
  815.5000     8.3310     2.4710     0.0750    91.7420   -65.0500     8.0370     9.0830    12.8810
  816.0000     8.3280     2.4770     0.0800    90.1950   -65.0030     8.0440     9.1410    13.2410
  816.5000     8.3250     2.4840     0.0810    90.1240   -64.9570     8.0500     9.1730    12.7650
  817.0000     8.3230     2.4940     0.0780    91.2720   -64.9100     8.0560     9.1280    12.8820
  817.5000     8.3290     2.5030     0.0750    90.9100   -64.8630     8.0660     9.0920    13.4860
  818.0000     8.3380     2.5090     0.0730    90.1670   -64.8170     8.0730     9.0560    12.8540
  818.5000     8.3480     2.4950     0.0690    89.5030   -64.7700     8.1660     9.0110    11.3540
  819.0000     8.3570     2.4830     0.0710    89.0910   -64.7230     8.3120     9.1900     9.8760
  819.5000     8.3660     2.4780     0.0750    89.4110   -64.6770     8.4580     9.4890    13.9900
  820.0000     8.3750     2.4780     0.0760    91.3800   -64.6300     8.6040     9.7870    14.6460
  820.5000     8.3800     2.4810     0.0730    93.3550   -64.5830     8.7500    10.0580    14.6460
  821.0000     8.3740     2.4840     0.0700    95.3380   -64.5370     8.9090    10.0580    14.6460
  821.5000     8.3690     2.4850     0.0670    97.3450   -64.4900     9.1160    10.0740    14.6460
  822.0000     8.3630     2.4800     0.0650    97.3490   -64.4450     9.3230    10.0890    14.7800
  822.5000     8.3510     2.4720     0.0650    96.9970   -64.4050     9.5200    10.1030    14.6010
  823.0000     8.3120     2.4660     0.0660    96.6660   -64.3650     9.5400    10.1180    14.3280
  823.5000     8.2720     2.4650     0.0690    96.3680   -64.3250     9.5580    10.1330    14.1180
  824.0000     8.2850     2.4660     0.0720    94.6370   -64.2850     9.5770    10.1470    14.3170
  824.5000     8.3160     2.4810     0.0720    92.6950   -64.2450     9.5950    10.1620    14.7800
  825.0000     8.3090     2.4970     0.0690    91.3780   -64.2050     9.6140    10.1760    14.5140
  825.5000     8.3230     2.4990     0.0650    90.7240   -64.1650     9.6320    10.1910    14.2480
  826.0000     8.3360     2.4990     0.0650    90.7070   -64.1250     9.6510    10.2060    14.1180
  826.5000     8.3490     2.4960     0.0660    89.1200   -64.0850     9.6690    10.2200    14.3640
  827.0000     8.3620     2.4920     0.0690    87.2550   -64.0660     9.6960    10.2420    14.6810
  827.5000     8.3760     2.4890     0.0720    87.5160   -64.0850     9.6830    10.2090    14.9970
