~VERSION INFORMATION
 VERS.                2.0:   CWLS LOG ASCII STANDARD - VERSION 2.0
 WRAP.                 NO:   ONE LINE PER DEPTH STEP
~WELL INFORMATION
#MNEM.UNIT      DATA TYPE    INFORMATION
#----------   ------------   ------------------------------
 STRT.F          330.0000:   START DEPTH
 STOP.F         2880.0000:   STOP DEPTH
 STEP.F            0.5000:   STEP LENGTH
 NULL.          -999.2500:   NO VALUE
 COMP.   TESORO PETROLEUM:   COMPANY
 WELL. TESORO NPR "AX" #3-21:   WELL
 FLD .        TEAPOT DOME:   FIELD
 LOC .      S21 T39N R78W:   LOCATION
 CNTY.            NATRONA:   COUNTY
 STAT.            WYOMING:   STATE
 CTRY. UNITED STATES OF AMERICA:   COUNTRY
 SRVC.       SCHLUMBERGER:   SERVICE COMPANY
 DATE.        17-AUG-1972:   LOGDATE
 API .     49025102150000:   API NUMBER
~CURVE INFORMATION
#MNEM.UNIT       API CODE    CURVE DESCRIPTION
#----------   ------------   ------------------------------
 DEPT.F                  :   
 GRD .GAPI   45 310 01 00:   GAMMA RAY FROM DENSITY LOG
 CALD.IN     45 280 60 00:   CALIPER FROM DENSITY LOG
 CORR.G/C3   45 356 01 00:   DENSITY CORRECTION
 RHOB.G/C3   45 350 01 00:   BULK DENSITY
 SPR .MV     05 010 01 00:   SPONTANEOUS POTENTIAL FROM RES.
 ILD .OHMM   05 120 46 00:   INDUCTION LOG DEEP
 ASN .OHMM   05 041 16 00:   AMPLIFIED SHORT NORMAL 16"
~PARAMETER INFORMATION
#MNEM.UNIT          VALUE    DESCRIPTION
#----------   ------------   ------------------------------
 EKB .F         4985.0000:   Kelly bushing
 EGL .F         4975.0000:   Ground level
 EDF .F            0.0000:   Drilling floor
 EPD .F         4975.0000:   Permanent datum
 TD  .F         2880.0000:   Total depth
 CLNT.            A2DTECH:   Client Code
 DATE.        17-AUG-1972:   Date Logged [DD-MMM-YYYY]
 DD  .F              2875:   Depth driller
 DL  .F              2880:   Depth logger
 BLI .F              2879:   Bottom log interval
 TLI .F               330:   Top log interval
 CS1 .              10.75:   Casing size
 CBD1.       10.75" @ 327:   Casing driller 1
 CBL1.IN              330:   Casing logger 1
 BS1 .IN                9:   Bit size
 BSD1.F              2875:   Depth drilled with bit1
 DFT .           CHEM-GEL:   Type fluid in hole
 DFD .                9.3:   Density
 DFV .                 61:   Viscosity
 DFPH.                9.0:   pH
 DFL .                 66:   Fluid loss
 MSS .           FLOWLINE:   Source of sample
 RMS .OHMM           1.86:   Rm
 MST .F                76:   Rm Meas. temp.
 RMF .OHMM           1.58:   Rmf
 MFST.F                76:   Rmf Meas. temp.
 MFSS.               MEAS:   Source Rmf.
 RMB .OHMM           1.25:   Rm. at BHT
 BHT .F               113:   BHT.
 TCS .HRS               3:   Time Circ. stopped
 MRT .F               113:   Maximum recorded temp.
 LUN .               7037:   Logging unit number
 LUL .               CSPR:   Logging unit location
 ENGI.              GOLAS:   Recorded By
 WITN.                MAY:   Witnessed by
 ORIG.      1" 2.5" PRINT:   Origin of data
 UWI .     49025102150000:   Unique Well ID
 DICO. A2D TECHNOLOGIES, INC.:   Digitizing Company
~OTHER INFORMATION
~A   DEPT      GRD       CALD       CORR       RHOB        SPR          ILD        ASN 
# ...
 2377.5000    67.7837     8.9938     0.0444     2.3875   -16.2055    32.6787    33.2501
 2378.0000    70.5610     9.0247     0.0614     2.4224   -16.8334    32.1348    32.6539
 2378.5000    71.9597     9.0247     0.0722     2.4301   -17.0925    31.5021    31.7591
 2379.0000    73.0771     9.0116     0.0676     2.4286   -17.4344    29.9132    31.0135
 2379.5000    79.6343     8.9938     0.0506     2.4101   -17.7353    28.4039    30.7157
 2380.0000    84.1192     8.9938     0.0429     2.3994   -17.9765    27.8085    30.4180
 2380.5000    85.2462     8.9630     0.0352     2.3933   -18.0386    27.6534    30.1202
 2381.0000    85.4597     8.9321     0.0398     2.4010   -18.2682    27.6526    30.1210
 2381.5000    84.3120     8.8848     0.0568     2.4288   -18.2649    27.8062    30.1217
 2382.0000    82.3548     8.8395     0.0692     2.4442   -18.1785    28.5770    30.7195
 2382.5000    75.9117     8.8395     0.0630     2.4242   -17.9613    32.4343    31.9142
 2383.0000    64.8416     8.8395     0.0599     2.4181   -17.8632    34.4397    33.2583
 2383.5000    61.6082     8.8704     0.0676     2.4150   -17.6577    35.3649    34.9008
 2384.0000    61.1630     8.9012     0.0707     2.4012   -17.5476    35.0555    36.0956
 2384.5000    63.9611     8.9012     0.0723     2.4027   -17.3542    31.6597    36.8426
 2385.0000    64.4696     8.8704     0.0661     2.4243   -17.4704    28.4182    36.9925
 2385.5000    67.7846     8.8613     0.0430     2.4321   -17.6459    24.7137    36.6948
 2386.0000    78.7138     9.0247     0.0013     2.4629   -17.6428    22.7068    34.2745
 2386.5000    85.6060     9.1790     0.0060     2.5292   -17.3423    21.0085    29.6050
 2387.0000    92.0034     9.2407     0.0183     2.5477   -17.0417    18.6929    25.5637
 2387.5000    95.5961     9.2099     0.0183     2.5015   -16.8899    16.9946    22.7304
 2388.0000    98.1409     9.2099     0.0044     2.4769   -16.2855    15.7428    20.9791
 2388.5000    93.9800     9.2099     0.0045     2.4523   -15.8423    14.6700    20.0934
 2389.0000    90.3084     9.1790     0.0092     2.4400   -15.8393    14.2145    19.3408
 2389.5000    96.0825     9.1790     0.0123     2.4215   -16.4791    14.0431    18.7378
 2390.0000    95.8606     9.2099     0.0169     2.4185   -17.0238    13.7294    18.1643
 2390.5000    95.2744     9.2099     0.0201     2.4602   -17.1339    13.4159    17.6804
 2391.0000    94.9513     9.2407     0.0303     2.4842   -16.4221    13.1023    17.1141
 2391.5000    96.3343     9.2716     0.0539     2.5095   -15.8239    12.7889    16.6232
 2392.0000    99.1387     9.2716     0.0411     2.4749   -15.2257    12.3209    15.9144
 2392.5000   101.3117     9.3025     0.0180     2.4649   -14.9252    12.1205    15.4168
 2393.0000   103.0046     9.2572     0.0153     2.4997   -14.9222    11.6940    15.1627
 2393.5000   104.8670     9.2876     0.0200     2.5027   -14.9193    11.5841    14.7663
 2394.0000   105.4122     9.3180     0.0234     2.5003   -14.6187    11.6368    14.7095
 2394.5000   104.2807     9.3484     0.0295     2.5073   -14.6157    11.9489    14.5574
 2395.0000   102.8843     9.3488     0.0376     2.5151   -14.9107    12.1992    14.5347
 2395.5000   101.0264     9.3492     0.0300     2.5049   -14.9075    12.4845    14.9868
 2396.0000   100.3263     9.3497     0.0162     2.4974   -15.2023    12.8148    14.9971
 2396.5000    99.6438     9.3501     0.0107     2.5015   -15.4968    13.0425    14.7709
 2397.0000    98.9368     9.3506     0.0197     2.5109   -15.4939    13.3544    14.9288
 2397.5000   101.6527     9.3510     0.0266     2.5118   -15.4909    13.5121    15.6156
 2398.0000   106.2032     9.3515     0.0243     2.4991   -15.4880    13.7377    15.8817
 2398.5000   107.3452     9.3519     0.0107     2.4868   -15.4850    13.4921    15.9681
 2399.0000   106.6154     9.3524     0.0027     2.4822   -15.4821    13.4273    15.9688
 2399.5000   103.3846     9.3529     0.0035     2.5007   -15.1815    13.2722    15.9695
 2400.0000    97.3846     9.3533     0.0082     2.4970   -14.8810    13.2715    16.1195
 2400.5000    98.7692     9.3538     0.0071     2.4849   -14.8780    13.2707    16.1203
 2401.0000   100.1538     9.3542     0.0046     2.4725   -14.8750    13.2700    16.1210
 2401.5000   102.0000     9.3546     0.0046     2.4578   -14.8720    13.4236    16.1217
 2402.0000   104.7692     9.3551     0.0046     2.4488   -14.8929    13.5771    15.6723
 2402.5000   100.6154     9.3405     0.0014     2.4426   -15.1936    13.5763    15.6724
 2403.0000    97.8462     9.3261    -0.0031     2.4350   -15.7561    13.8842    16.2696
 2403.5000    96.9231     9.2966    -0.0015     2.4269   -15.7530    13.8727    16.7175
 2404.0000    94.6154     9.2671     0.0093     2.4566   -15.7500    13.9217    17.0161
 2404.5000    91.3846     9.2377     0.0108     2.4702   -15.7470    14.1383    17.1655
 2405.0000    91.8462     9.2381     0.0185     2.4763   -15.4464    14.4830    17.1657
 2405.5000    93.6923     9.2085     0.0355     2.4830   -15.3780    14.8602    17.1658
 2406.0000    96.4679     9.2390     0.0362     2.4804   -15.1428    15.1727    17.1789
 2406.5000    97.3846     9.2394     0.0231     2.4774   -15.1399    15.4856    17.3336
 2407.0000    95.8830     9.2698     0.0185     2.4823   -15.1428    15.6441    17.6606
 2407.5000    91.7199     9.2702     0.0262     2.4973   -15.1825    15.8599    18.0906
 2408.0000    88.9662     9.3006     0.0151     2.5186   -15.2222    16.1663    18.5437
 2408.5000    86.1021     9.3310     0.0030     2.4904   -15.3829    16.3187    18.6983
 2409.0000    86.6334     9.3614    -0.0002     2.4765   -15.8541    16.4707    18.8086
 2409.5000    90.2841     9.3918    -0.0031     2.4663   -16.3116    16.1595    18.7593
 2410.0000    92.7377     9.3623     0.0195     2.4753   -16.7559    15.6943    18.4009
 2410.5000    95.1977     9.3318     0.0633     2.5083   -17.0589    15.5377    18.0029
 2411.0000    94.8091     9.2733     0.0518     2.4874   -17.0632    15.3811    17.5500
 2411.5000    94.1538     9.2438     0.0350     2.4619   -17.3652    15.2245    17.4661
 2412.0000    94.6336     9.2103     0.0245     2.4560   -17.3696    15.0679    17.4662
 2412.5000    96.4615     9.1848     0.0135     2.4396   -17.0759    14.9113    17.3856
 2413.0000    94.7049     9.1853     0.0236     2.4127   -16.7827    14.7546    17.1681
 2413.5000    92.1715     9.1857     0.0340     2.4486   -17.0851    14.5980    17.1682
 2414.0000    93.5826     9.2162     0.0330     2.4606   -17.0894    14.5957    17.3176
 2414.5000    97.3737     9.2256     0.0220     2.4562   -17.0938    14.5934    17.3178
 2415.0000    97.1461     9.2470     0.0170     2.4397   -17.0982    14.4367    17.1687
 2415.5000    96.0000     9.2475     0.0154     2.4263   -16.1730    14.4344    16.7441
 2416.0000    96.7932     9.2479     0.0139     2.4204   -15.0236    14.4321    16.4227
 2416.5000    99.2308     9.2484     0.0108     2.4312   -15.6687    14.4298    17.3414
 2417.0000   100.6154     9.2189     0.0108     2.4401   -15.9842    14.4917    17.3185
 2417.5000   101.5385     9.2193     0.0170     2.4464   -16.8948    14.9588    17.1694
 2418.0000    98.7692     9.1898     0.0463     2.4538   -17.2104    15.3487    17.3576
 2418.5000    92.3077     9.1903     0.0496     2.4583   -17.4271    15.9766    17.7055
 2419.0000    88.1538     9.1908     0.0355     2.4595   -17.3196    15.9614    18.0653
 2419.5000    90.4615     9.1912     0.0261     2.4502   -16.8875    15.8044    18.4185
 2420.0000    92.3077     9.1618     0.0231     2.4523   -15.9524    16.1107    18.7224
 2420.5000    90.0000     9.1622     0.0411     2.4776   -15.9568    16.2631    19.0263
 2421.0000    88.6154     9.1626     0.0463     2.4996   -15.9613    16.7235    19.3301
 2421.5000    88.6154     9.1331     0.0238     2.5016   -16.2643    17.1842    19.7079
 2422.0000    89.5385     9.1036     0.0163     2.4763   -17.1615    17.6449    19.5468
 2422.5000    90.4615     9.0741     0.0108     2.4496   -17.7611    18.1056    19.3240
