~VERSION INFORMATION
 VERS.                2.0:   CWLS LOG ASCII STANDARD - VERSION 2.0
 WRAP.                 NO:   ONE LINE PER DEPTH STEP
~WELL INFORMATION
#MNEM.UNIT      DATA TYPE    INFORMATION
#----------   ------------   ------------------------------
 STRT.F            0.0000:   START DEPTH
 STOP.F         1165.5000:   STOP DEPTH
 STEP.F            0.5000:   STEP LENGTH
 NULL.          -999.2500:   NO VALUE
 COMP.   JOHN BROWN E & C:   COMPANY
 WELL. BROWN NPR 3 "X" 1 #63-14:   WELL
 FLD .                NPR:   FIELD
 LOC .      S14 T38N R78W:   LOCATION
 CNTY.            NATRONA:   COUNTY
 STAT.            WYOMING:   STATE
 CTRY. UNITED STATES OF AMERICA:   COUNTRY
 SRVC.     ATLAS WIRELINE:   SERVICE COMPANY
 DATE.        15-JAN-1992:   LOGDATE
 API .     49025224960000:   API NUMBER
~CURVE INFORMATION
#MNEM.UNIT       API CODE    CURVE DESCRIPTION
#----------   ------------   ------------------------------
 DEPT.F                  :   
 GRR .GAPI   07 310 01 00:   GAMMA RAY FROM RESISTIVITY
 RILD.OHMM   07 120 46 00:   INDUCTION LOG DEEP RESISTIVITY
 RILM.OHMM   07 120 44 00:   INDUCTION LOG MEDIUM RESISTIVITY
 TENR.LBS    07 635 01 00:   TENSION
~PARAMETER INFORMATION
#MNEM.UNIT          VALUE    DESCRIPTION
#----------   ------------   ------------------------------
 EKB .F         5270.0000:   Kelly bushing
 EGL .F         5260.0000:   Ground level
 EDF .F         5269.0000:   Drilling floor
 TD  .F         1160.0000:   Total depth
 DATE.        15-JAN-1992:   Date logged
 CLNT.            A2DTECH:   Client Code
 SL  . 1893' FNL & 1971' FEL:   Surface Location
 PD  .                 GL:   Permanent Datum
 EPD .F              5260:   Elevation Permanent Datum
 LMF .                 KB:   Log Measured From
 DMF .                 KB:   Drilling Measured From
 DAPD.F                10:   Feet Above Permanent Datum
 DD  .F              1160:   Depth driller
 DL  .F              1158:   Depth logger
 BLI .F              1150:   Bottom log interval
 CS1 .IN            9.625:   Casing size
 CBD1.       9.625" @ 50':   Casing driller 1
 CBL1.F                48:   Casing logger 1
 BS1 .IN             8.75:   Bit size
 BSD1.F              1160:   Depth drilled with bit1
 DFT .                AIR:   Type fluid in hole
 MRT .F                90:   Maximum recorded temp.
 LUN .            HL-6274:   Logging unit number
 LUL .             CASPER:   Logging unit location
 ENGI.             RAUTIO:   Recorded By
 WITN.        GARY STRONG:   Witnessed by
 ORIG.           5" PRINT:   Origin of data
 UWI .     49025224960000:   Unique Well ID
 DICO. A2D TECHNOLOGIES, INC.:   Digitizing Company
 TLI .F                 0:   Top log interval
~OTHER INFORMATION
~A    DEPT      GRR      RILD       RILM       TENR   
# ...
  292.0000   126.8890     5.8100     5.9890    16.3060
  292.5000   133.5450     5.7590     5.9360    16.1910
  293.0000   139.3570     5.6960     5.8840    16.0760
  293.5000   138.6010     5.6330     5.8310    15.9610
  294.0000   133.8730     5.5690     5.7780    15.8460
  294.5000   129.6000     5.5610     5.7710    15.7310
  295.0000   130.2750     5.5740     5.7710    15.6160
  295.5000   131.0300     5.5860     5.7710    15.5010
  296.0000   132.0940     5.5980     5.7710    15.3860
  296.5000   133.9490     5.6100     5.7710    15.2710
  297.0000   137.5930     5.6220     5.7710    15.1560
  297.5000   139.6450     5.6340     5.7710    15.0400
  298.0000   137.3210     5.6460     5.7720    14.9250
  298.5000   132.8470     5.6600     5.7710    14.8100
  299.0000   129.3820     5.6700     5.6950    14.6950
  299.5000   131.3020     5.5090     5.5260    14.5800
  300.0000   135.1450     5.2820     5.3570    14.4650
  300.5000   137.0380     5.0710     5.1880    14.3500
  301.0000   132.3230     4.9180     5.0200    14.2350
  301.5000   128.3020     4.8830     4.9640    14.1200
  302.0000   129.0550     4.8480     4.9430    14.0050
  302.5000   128.6960     4.8120     4.9210    13.8900
  303.0000   126.4530     4.7770     4.9000    13.7750
  303.5000   126.1790     4.7500     4.8840    13.6600
  304.0000   129.4170     4.7880     4.9310    13.5450
  304.5000   134.6600     4.8250     4.9700    13.4300
  305.0000   137.1020     4.8630     5.0100    13.3140
  305.5000   130.2860     4.9010     5.0490    13.1990
  306.0000   125.9110     4.9380     5.0880    13.0840
  306.5000   124.3110     4.9760     5.1270    12.9690
  307.0000   127.2200     5.0140     5.1670    12.8540
  307.5000   130.4390     5.0510     5.2060    12.7390
  308.0000   132.1160     5.0860     5.2450    12.6240
  308.5000   131.4800     5.1370     5.2850    12.5090
  309.0000   130.8560     5.1890     5.3150    12.3940
  309.5000   130.2200     5.2600     5.3310    12.2790
  310.0000   129.6010     5.2400     5.3460    12.1640
  310.5000   129.4380     5.2070     5.3580    12.0490
  311.0000   130.8450     5.1740     5.2960    11.9340
  311.5000   131.2720     5.1230     5.2370    11.8190
  312.0000   130.5600     5.0620     5.1770    11.7030
  312.5000   129.5150     5.0010     5.1170    11.5880
  313.0000   129.5150     4.9400     5.0580    11.4730
  313.5000   129.0230     4.8780     4.9980    11.3580
  314.0000   127.4380     4.8170     4.9380    11.2430
  314.5000   125.8610     4.7560     4.8780    11.1280
  315.0000   123.7370     4.7060     4.8190    11.0130
  315.5000   121.5490     4.6030     4.7500    10.8980
  316.0000   121.9630     4.3240     4.5410    10.7830
  316.5000   125.3950     4.0110     4.2420    10.6680
  317.0000   129.9810     3.6990     3.9600    10.5530
  317.5000   134.5280     3.3860     3.6530    10.4380
  318.0000   135.4450     3.1050     3.3460    10.3230
  318.5000   135.7820     2.9100     3.0390    10.2080
  319.0000   136.6440     2.6970     2.7860    10.0920
  319.5000   138.0440     2.5750     2.6970     9.9770
  320.0000   139.4560     2.6300     2.7040     9.8620
  320.5000   141.7110     2.7050     2.7480     9.7470
  321.0000   145.6310     2.8420     2.8910     9.6320
  321.5000   147.7650     3.0980     3.2120     9.5170
  322.0000   138.2300     3.3550     3.5320     9.4020
  322.5000   128.3020     3.6110     3.8530     9.2870
  323.0000   120.5310     3.8680     4.1740     9.1720
  323.5000   122.6350     4.2170     4.6300     9.0570
  324.0000   127.1470     4.7450     5.0210     8.9420
  324.5000   131.5830     5.1160     5.2430     8.8270
  325.0000   134.6550     5.3140     5.4510     8.7120
  325.5000   131.4480     5.5120     5.6580     8.5970
  326.0000   127.4250     5.7100     5.8660     8.4820
  326.5000   124.8460     5.9000     6.0730     8.3660
  327.0000   127.8620     6.0400     6.2810     8.2510
  327.5000   131.4000     6.1810     6.4890     8.1360
  328.0000   131.8640     6.3210     6.6960     8.0210
  328.5000   129.5370     6.4620     6.8200     7.9060
  329.0000   125.6200     6.5710     6.7860     7.7910
  329.5000   121.9890     6.5510     6.7580     7.6760
  330.0000   122.6280     6.5350     6.7310     7.5610
  330.5000   123.3400     6.5190     6.7030     7.4460
  331.0000   125.4800     6.4130     6.6010     7.3310
  331.5000   127.7500     6.2830     6.4630     7.2160
  332.0000   130.0000     6.1530     6.3260     7.1010
  332.5000   131.6730     6.0220     6.1880     6.9860
  333.0000   131.3720     5.8480     6.0450     6.8710
  333.5000   129.7200     5.6440     5.8440     6.8250
  334.0000   128.1020     5.4410     5.6340     6.9020
  334.5000   127.2730     5.2530     5.4240     6.9780
  335.0000   128.5990     4.9760     5.2000     7.0540
  335.5000   131.2540     4.6990     4.9210     7.1300
  336.0000   132.7210     4.4230     4.6430     7.2070
  336.5000   131.6700     4.1460     4.3650     7.2830
  337.0000   129.3810     3.8370     4.0870     7.3590
  337.5000   128.9690     3.8990     3.9450     7.4350
  338.0000   128.8150     3.9880     4.0970     7.5120
  338.5000   128.8440     4.0770     4.2490     7.5880
  339.0000   129.8680     4.1710     4.4100     7.6640
  339.5000   130.8710     4.3550     4.6020     7.7400
  340.0000   130.8860     4.5490     4.8040     7.8170
  340.5000   129.0960     4.7060     5.0050     7.8930
  341.0000   126.2010     4.8930     5.2060     7.9690
  341.5000   122.9980     5.0800     5.4080     8.0450
  342.0000   123.2120     5.2600     5.5610     8.1220
  342.5000   125.2140     5.2600     5.4770     8.1980
  343.0000   127.2680     5.1870     5.3960     8.2740
  343.5000   129.3050     5.1300     5.3160     8.3500
  344.0000   129.1450     5.0720     5.2360     8.4270
  344.5000   128.7600     5.0210     5.1550     8.5030
  345.0000   131.1800     4.9190     5.0750     8.5790
  345.5000   134.3090     4.8390     4.9940     8.6550
  346.0000   135.8550     4.4390     4.6980     8.7320
  346.5000   131.2930     3.9730     4.2060     8.8080
  347.0000   124.7010     3.5060     3.7510     8.8840
  347.5000   118.4820     3.0400     3.3550     8.9600
  348.0000   116.6380     2.5890     2.9590     9.0370
  348.5000   118.2740     2.3960     2.5620     9.1130
  349.0000   119.8480     2.3470     2.4360     9.1890
  349.5000   121.3430     2.3470     2.4360     9.2650
  350.0000   117.8800     2.5690     2.6350     9.3420
  350.5000   109.0610     2.7740     2.9470     9.4180
  351.0000    98.5970     2.9790     3.2600     9.4940
  351.5000    94.6200     3.1830     3.5810     9.5700
  352.0000    97.0670     3.4360     3.9590     9.6470
  352.5000   106.6140     3.8960     4.3370     9.7230
  353.0000   115.7400     4.3690     4.5780     9.7990
  353.5000   121.4190     4.6060     4.5880     9.8750
  354.0000   127.2300     4.8390     4.5970     9.9520
  354.5000   132.2550     4.8390     4.6060    10.0280
  355.0000   131.3860     4.8390     4.6190    10.1040
  355.5000   125.9180     4.8390     4.6120    10.1800
  356.0000   120.5780     4.8390     4.6000    10.2570
  356.5000   117.6350     4.7520     4.5880    10.3330
  357.0000   119.6340     4.6690     4.5760    10.4090
  357.5000   122.3570     4.5860     4.5260    10.4850
  358.0000   125.0950     4.5340     4.4510    10.5610
  358.5000   127.0090     4.2530     4.2270    10.6380
  359.0000   125.1540     3.9850     4.0240    10.7140
  359.5000   121.8520     3.6970     3.8200    10.7900
  360.0000   118.5950     3.4980     3.6160    10.8660
  360.5000   119.5820     3.2840     3.4120    10.9430
  361.0000   122.6530     3.0690     3.2080    11.0190
  361.5000   125.7050     2.8550     3.0050    11.0950
  362.0000   128.0260     2.6720     2.8780    11.1710
  362.5000   125.2800     2.6720     2.8250    11.2480
  363.0000   123.4740     2.8870     3.0060    11.3240
  363.5000   123.4810     3.1010     3.1860    11.4000
  364.0000   122.5080     3.3160     3.5160    11.4760
  364.5000   119.9080     3.5310     3.8780    11.5530
