~VERSION INFORMATION
 VERS.                2.0:   CWLS LOG ASCII STANDARD - VERSION 2.0
 WRAP.                 NO:   ONE LINE PER DEPTH STEP
~WELL INFORMATION
#MNEM.UNIT      DATA TYPE    INFORMATION
#----------   ------------   ------------------------------
 STRT.F           31.5000:   START DEPTH
 STOP.F         3370.0000:   STOP DEPTH
 STEP.F            0.5000:   STEP LENGTH
 NULL.          -999.2500:   NO VALUE
 COMP. LAWRENCE ALLISON & ASSOC - WEST:   COMPANY
 WELL. LAWRENCE "AX" #46-34:   WELL
 FLD .             NPR #3:   FIELD
 LOC .      S34 T39N R78W:   LOCATION
 CNTY.            NATRONA:   COUNTY
 STAT.            WYOMING:   STATE
 CTRY. UNITED STATES OF AMERICA:   COUNTRY
 SRVC.       SCHLUMBERGER:   SERVICE COMPANY
 DATE.        30-APR-1986:   LOGDATE
 API .     49025111380000:   API NUMBER
~CURVE INFORMATION
#MNEM.UNIT       API CODE    CURVE DESCRIPTION
#----------   ------------   ------------------------------
 DEPT.F                  :   
 TENR.LBS    07 635 01 00:   TENSION FROM RESISTIVITY
 GRR .GAPI   07 310 01 00:   GAMMA RAY FROM RESISTIVITY
 CALR.IN     07 280 01 00:   CALIPER FROM RESISTIVITY
 SPR .MV     07 010 01 00:   SPONTANEOUS POTENTIAL
 TEND.LBS    45 635 01 00:   TENSION FROM DENSITY LOG
 DEN .G/C3   45 350 01 00:   BULK DENSITY
 CORR.G/C3   45 356 01 00:   DENSITY CORRECTION
 CNC .DEC    42 890 03 00:   NEUTRON PORISITY SANDSTONE
 RFOC.OHMM   07 220 04 00:   RESISTIVITY FOCUSED LOG
 RILD.OHMM   07 120 46 00:   RESISTIVITY INDUCTION LOG DEEP
 RILM.OHMM   07 120 44 00:   RESISTIVITY INDUCTION LOG MEDIUM
~PARAMETER INFORMATION
#MNEM.UNIT          VALUE    DESCRIPTION
#----------   ------------   ------------------------------
 EKB .F         5094.0000:   Kelly bushing
 EGL .F         5082.0000:   Ground level
 EDF .F            0.0000:   Drilling floor
 TD  .F         3370.0000:   Total depth
 DATE.        30-APR-1986:   Date logged
 CLNT.            A2DTECH:   Client Code
 SL  . 2462' FWL & 1545' FSL:   Surface Location
 PD  .                 GL:   Permanent Datum
 EPD .F              5082:   Elevation Permanent Datum
 LMF .                 KB:   Log Measured From
 DMF .                 KB:   Drilling Measured From
 DAPD.F                12:   Feet Above Permanent Datum
 DD  .F              3370:   Depth driller
 DL  .F              3369:   Depth logger
 BLI .F              3367:   Bottom log interval
 CS1 .IN            8.625:   Casing size
 CBD1.      8.625" @ 642':   Casing driller 1
 CBL1.F               642:   Casing logger 1
 BS1 .IN            7.875:   Bit size
 BSD1.F              3370:   Depth drilled with bit1
 DFT .        POLYMER/KCL:   Type fluid in hole
 DFD .                8.9:   Density
 DFV .                 36:   Viscosity
 DFPH.                8.5:   pH
 DFL .               10.2:   Fluid loss
 MSS .           FLOWLINE:   Source of sample
 RMS .OHMM           .319:   Rm
 MST .F                79:   Rm Meas. temp.
 RMF .OHMM            .24:   Rmf
 MFST.F                79:   Rmf Meas. temp.
 RMC .OHMM            .40:   Rmc
 MCST.F                79:   Rmc Meas. temp.
 MFSS.               CALC:   Source Rmf.
 MCSS.               CALC:   Source Rmc.
 RMB .OHMM            .21:   Rm. at BHT
 BHT .F               117:   BHT.
 TCS .HRS               4:   Time Circ. stopped
 MRT .F               117:   Maximum recorded temp.
 LUN .            HL-6264:   Logging unit number
 LUL .           GILLETTE:   Logging unit location
 ENGI.     P. M. FAHLSING:   Recorded By
 WITN.             STRONG:   Witnessed by
 ORIG.        2" 5" PRINT:   Origin of data
 UWI .     49025111380000:   Unique Well ID
 DICO. A2D TECHNOLOGIES, INC.:   Digitizing Company
 TLI .                  0:   Top log interval
~OTHER INFORMATION
~A   DEPT     TENR        GRR       CALR        SPR       TEND        DEN       CORR        CNC       RFOC       RILD       RILM   
# ...
 2959.5000   -17.0910   123.2800    10.5970   -78.9040   -59.2590     2.5440     0.0970     0.2750     5.4080     4.4030     4.4920
 2960.0000   -14.2930   124.1470    10.5990   -78.8970   -54.3760     2.5510     0.0800     0.2750     5.1600     4.3690     4.5720
 2960.5000   -20.5830   126.7100    10.6050   -79.0510   -57.1040     2.5520     0.0430     0.2730     5.1600     4.4190     4.6480
 2961.0000   -27.8760   126.7530    10.6050   -79.3380   -59.8310     2.5510     0.0260     0.2670     5.1600     4.4930     4.7250
 2961.5000   -44.3830   125.1100    10.6120   -79.7010   -62.5590     2.5550     0.0530     0.2540     5.6470     4.5670     4.8010
 2962.0000   -40.3040   123.0580    10.6280   -79.6990   -51.6110     2.5610     0.0830     0.2420     6.2090     4.6420     4.8780
 2962.5000   -34.6320   121.1430    10.6150   -79.2200   -43.5550     2.5660     0.1050     0.2510     6.1590     4.7160     4.9730
 2963.0000   -28.9590   120.4470    10.5960   -78.9010   -43.5550     2.5680     0.1060     0.2580     6.0910     4.7910     5.0490
 2963.5000   -24.3230   119.9480    10.5860   -79.0130   -43.5550     2.5680     0.0980     0.2650     6.0240     4.8820     5.1010
 2964.0000   -29.1180   119.6700    10.5680   -79.2890   -43.5550     2.5680     0.0850     0.2630     5.9280     4.9430     5.1540
 2964.5000   -33.9810   118.3120    10.5560   -79.5450   -43.5550     2.5680     0.0810     0.2540     6.0710     4.9940     5.2070
 2965.0000   -38.8430   116.3610    10.5600   -79.8300   -43.5550     2.5750     0.0940     0.2430     6.2660     5.0450     5.2600
 2965.5000   -44.3830   114.6630    10.5670   -79.8890   -43.5550     2.5810     0.1060     0.2380     6.2160     5.0970     5.3130
 2966.0000   -36.3960   113.8210    10.5720   -79.6170   -38.9990     2.5880     0.1110     0.2420     6.1670     5.1480     5.3650
 2966.5000   -27.1130   114.5540    10.5780   -79.4120   -31.5960     2.5880     0.1160     0.2460     6.1190     5.1990     5.4180
 2967.0000   -25.0780   115.7940    10.5840   -79.2560   -23.4140     2.5870     0.1200     0.2490     6.0950     5.2510     5.4050
 2967.5000   -26.5800   116.8830    10.5900   -79.0900   -46.0990     2.5870     0.1240     0.2500     6.1630     5.3050     5.3360
 2968.0000   -28.0810   116.7400    10.5880   -79.1090   -71.2490     2.5820     0.1290     0.2480     6.3730     5.2010     5.2730
 2968.5000   -29.5830   116.0550    10.5840   -79.3190   -59.8080     2.5750     0.1300     0.2450     6.5830     5.1250     5.2110
 2969.0000   -31.0840   115.9020    10.5820   -79.5050   -52.8980     2.5750     0.1260     0.2420     6.7920     5.0490     5.1600
 2969.5000   -32.5860   114.9540    10.5790   -79.4970   -45.9890     2.5760     0.1150     0.2400     7.0020     4.9730     4.9320
 2970.0000   -34.3530   114.7040    10.5770   -79.2930   -46.6780     2.5750     0.1010     0.2430     6.6980     4.6460     4.7050
 2970.5000   -34.3530   117.7840    10.5740   -78.9870   -51.4980     2.5670     0.0880     0.2460     6.3210     4.3190     4.4340
 2971.0000   -39.3970   120.9130    10.5720   -78.6840   -56.3190     2.5600     0.0820     0.2500     6.0950     3.9460     4.1040
 2971.5000   -44.2590   123.7360    10.5700   -78.3810   -61.1390     2.5530     0.0820     0.2540     6.0970     3.6390     3.7750
 2972.0000   -49.1210   126.9030    10.5700   -78.0750   -65.9600     2.5460     0.0930     0.2580     6.0390     3.2820     3.4460
 2972.5000   -54.4130   132.3340    10.5700   -77.7750   -70.7800     2.5390     0.1050     0.2700     5.4550     2.9240     3.1170
 2973.0000   -51.8280   142.7110    10.5700   -77.4660   -75.6010     2.5260     0.1280     0.2940     4.7960     2.7540     2.8030
 2973.5000   -48.9910   152.1730    10.5700   -77.1680   -80.4210     2.4940     0.1160     0.3210     3.8760     2.7620     2.9680
 2974.0000   -46.1550   162.2190    10.5700   -76.8570   -53.0990     2.3950     0.1140     0.3070     3.1030     2.7690     3.1460
 2974.5000   -43.3190   162.2900    10.5700   -76.7040   -49.6520     2.3980     0.0870     0.2970     2.7770     2.7770     3.3240
 2975.0000   -40.4830   145.0730    10.5700   -76.8790   -46.2050     2.4110     0.0950     0.2830     3.1230     3.0930     3.4670
 2975.5000   -37.6460   131.8400    10.5700   -77.1530   -43.5130     2.4500     0.1040     0.2610     4.0700     3.4150     3.8910
 2976.0000   -34.8100   122.6910    10.5700   -77.4110   -43.3780     2.4450     0.1010     0.2400     5.0160     3.7370     4.2440
 2976.5000   -31.9740   115.8820    10.5700   -77.6850   -43.1990     2.5190     0.0690     0.2370     5.4480     4.0590     4.5980
 2977.0000   -29.1370   113.3100    10.5700   -77.9430   -43.0190     2.5380     0.0660     0.2330     5.5930     4.3810     4.9520
 2977.5000   -26.3010   110.1120    10.5700   -78.2170   -42.8390     2.5420     0.0610     0.2260     5.7370     4.7030     5.1120
 2978.0000   -23.4650   107.7570    10.5700   -78.4760   -42.6590     2.5430     0.0560     0.2230     5.8820     4.9470     5.1600
 2978.5000   -20.6290   108.2350    10.5700   -78.7480   -42.4790     2.5440     0.0650     0.2240     6.0270     5.0190     5.0430
 2979.0000   -17.7920   111.2680    10.5700   -79.0080   -42.2990     2.5420     0.0790     0.2280     6.1520     4.9440     4.9370
 2979.5000   -14.2930   113.9550    10.5700   -79.0900   -42.1200     2.5390     0.0840     0.2340     6.1390     4.8410     4.8320
 2980.0000   -14.9670   116.5930    10.5700   -79.0690   -41.9400     2.5350     0.0860     0.2400     5.9440     4.7380     4.7260
 2980.5000   -15.8480   118.6350    10.5700   -79.0530   -41.7600     2.5330     0.0880     0.2480     5.7490     4.6350     4.6610
 2981.0000   -16.7280   120.5160    10.5700   -79.0360   -41.5800     2.5370     0.0910     0.2520     5.5530     4.5340     4.6610
 2981.5000   -17.6080   122.7140    10.5700   -79.0170   -41.4000     2.5400     0.0940     0.2460     5.3580     4.5340     4.6610
 2982.0000   -18.4880   121.0740    10.5700   -79.0010   -41.2200     2.5410     0.0870     0.2410     5.1630     4.5340     4.6610
 2982.5000   -19.3680   118.6610    10.5700   -78.9820   -41.0400     2.5420     0.0780     0.2470     5.0190     4.5340     4.6610
 2983.0000   -20.2490   115.7730    10.5700   -78.9630   -40.8610     2.5420     0.0800     0.2490     5.3630     4.5340     4.6610
 2983.5000   -21.1290   113.5870    10.5700   -78.9520   -40.6810     2.5450     0.0930     0.2450     5.6350     4.5340     4.6610
 2984.0000   -22.0090   115.8780    10.5700   -78.9210   -40.5010     2.5480     0.1030     0.2420     5.8740     4.5340     4.5820
 2984.5000   -22.8890   118.9080    10.5700   -78.9260   -40.3210     2.5490     0.0960     0.2420     5.9830     4.2860     4.5110
 2985.0000   -23.7700   121.1210    10.5700   -78.8820   -40.1410     2.5490     0.0890     0.2420     6.1520     3.9380     4.4510
 2985.5000   -24.3230   120.1000    10.5700   -78.9230   -39.9610     2.5490     0.0850     0.2410     6.1520     3.5830     4.0270
 2986.0000   -24.3230   124.6360    10.5700   -78.8730   -39.7820     2.5510     0.0920     0.2390     6.0390     3.2500     3.6610
 2986.5000   -24.3230   132.4580    10.5700   -78.3740   -39.6020     2.5530     0.1000     0.2490     5.5090     2.9340     3.2940
 2987.0000   -24.3230   138.8620    10.5700   -77.8670   -39.4220     2.5540     0.1080     0.2660     4.9770     2.6270     2.9280
 2987.5000   -18.0540   151.3500    10.5740   -77.4910   -39.2420     2.5470     0.1160     0.2900     4.5760     2.7010     2.6520
 2988.0000   -14.2930   165.0510    10.5830   -76.9780   -39.0620     2.5280     0.1240     0.3120     3.7160     2.7010     2.6520
 2988.5000   -14.2930   179.6120    10.5900   -76.5340   -38.8820     2.5090     0.1260     0.3020     3.0250     2.7420     3.0190
 2989.0000   -14.2930   194.5620    10.5910   -76.2690   -38.7030     2.4960     0.1200     0.2840     2.6760     2.7520     3.3100
 2989.5000   -14.2930   183.2740    10.5920   -76.1280   -38.5230     2.5010     0.1040     0.2710     3.2480     2.9460     3.6010
