~VERSION INFORMATION
 VERS.                2.0:   CWLS LOG ASCII STANDARD - VERSION 2.0
 WRAP.                 NO:   ONE LINE PER DEPTH STEP
~WELL INFORMATION
#MNEM.UNIT      DATA TYPE    INFORMATION
#----------   ------------   ------------------------------
 STRT.F          602.0000:   START DEPTH
 STOP.F         5553.0000:   STOP DEPTH
 STEP.F            0.5000:   STEP LENGTH
 NULL.          -999.2500:   NO VALUE
 COMP.         U. S. NAVY:   COMPANY
 WELL. U. S. 1-TP-33 NPR #3-33:   WELL
 FLD . TEAPOT NAVAL RESERVE:   FIELD
 LOC .      S33 T39N R78W:   LOCATION
 CNTY.            NATRONA:   COUNTY
 STAT.            WYOMING:   STATE
 CTRY. UNITED STATES OF AMERICA:   COUNTRY
 SRVC.       SCHLUMBERGER:   SERVICE COMPANY
 DATE.        24-JUN-1952:   LOGDATE
 API .     49025065260000:   API NUMBER
~CURVE INFORMATION
#MNEM.UNIT       API CODE    CURVE DESCRIPTION
#----------   ------------   ------------------------------
 DEPT.F                  :   
 SPR .MV     01 010 01 00:   SPONTANEOUS POTENTIAL FROM RES.
 ASN .OHMM   01 041 16 00:   AMPLIFIED SHORT NORMAL 16"
 LAT .OHMM   01 070 08 00:   LATERAL 8'
 LN  .OHMM   01 060 64 00:   LONG NORMAL 64"
~PARAMETER INFORMATION
#MNEM.UNIT          VALUE    DESCRIPTION
#----------   ------------   ------------------------------
 EKB .F         5160.0000:   Kelly bushing
 EGL .F         5147.0000:   Ground level
 TD  .F         5553.0000:   Total depth
 CLNT.            A2DTECH:   Client Code
 DATE.        24-JUN-1952:   Date Logged [DD-MMM-YYYY]
 DD  .F              5549:   Depth driller
 DL  .F              5553:   Depth logger
 BLI .F              5553:   Bottom log interval
 TLI .F               602:   Top log interval
 CBL1.F               602:   Casing logger 1
 BSD1.F              5549:   Depth drilled with bit1
 DFT .           GYP BASE:   Type fluid in hole
 DFD .                9.8:   Density
 DFV .                 44:   Viscosity
 MSS .           FLOWLINE:   Source of sample
 RMS .OHMM            1.4:   Rm
 MST .F                60:   Rm Meas. temp.
 RMB .OHMM           0.48:   Rm. at BHT
 BHT .F               175:   BHT.
 TCS .HRS             1.5:   Time Circ. stopped
 MRT .F               175:   Maximum recorded temp.
 LUN .                563:   Logging unit number
 ENGI.             SANDER:   Recorded By
 WITN.            GRIBBIN:   Witnessed by
 ORIG.      1" 2.5" PRINT:   Origin of data
 UWI .     49025065260000:   Unique Well ID
 DICO. A2D TECHNOLOGIES, INC.:   Digitizing Company
~OTHER INFORMATION
~A  DEPTH      SPR        ASN        LAT         LN
# ...
 4836.0000   -33.8971    16.2665    27.6187    23.3115
 4836.5000   -33.8957    16.2675    27.1230    23.1967
 4837.0000   -33.8943    16.1533    26.6687    23.0769
 4837.5000   -33.8929    16.1264    26.2144    23.0769
 4838.0000   -33.8914    16.0697    25.7601    23.0769
 4838.5000   -33.6634    15.9272    25.2476    23.1314
 4839.0000   -33.6029    15.6996    24.6794    23.2998
 4839.5000   -33.4879    15.5862    24.1102    23.6467
 4840.0000   -33.3143    15.4727    23.2002    24.1027
 4840.5000   -33.3129    15.3593    22.2048    24.5617
 4841.0000   -33.3114    15.2744    21.4629    24.9037
 4841.5000   -33.3100    15.2754    21.0361    25.1643
 4842.0000   -33.4258    15.6191    20.6914    25.5083
 4842.5000   -33.5929    16.1343    20.8053    25.8529
 4843.0000   -33.5957    16.8209    21.3385    26.1068
 4843.5000   -33.8235    17.6237    21.8596    26.3991
 4844.0000   -33.8743    18.4327    22.1771    26.7435
 4844.5000   -33.8729    19.2285    22.4129    27.0881
 4845.0000   -33.8714    19.8616    22.7464    27.4929
 4845.5000   -33.8778    20.2671    23.1714    27.7767
 4846.0000   -34.1059    20.4972    23.8399    28.1211
 4846.5000   -33.9721    20.7303    24.8006    28.5049
 4847.0000   -33.8657    20.8443    25.9915    28.9523
 4847.5000   -33.8643    20.9599    26.7553    29.3447
 4848.0000   -33.8629    20.9092    27.3943    29.1472
 4848.5000   -33.8611    20.5217    27.9143    28.8465
 4849.0000   -33.8600    19.5896    28.3493    28.4150
 4849.5000   -33.7307    18.0170    28.7129    27.8570
 4850.0000   -33.5714    16.9172    28.9286    27.3504
 4850.5000   -33.5550    16.1669    29.0796    27.1445
 4851.0000   -33.2826    15.6735    28.7514    26.8398
 4851.5000   -33.2814    15.4402    27.7600    26.5431
 4852.0000   -33.2800    15.2178    26.2915    26.3333
 4852.5000   -33.2036    15.4877    24.9231    26.2108
 4853.0000   -32.9915    16.0012    24.0550    25.9967
 4853.5000   -33.2755    16.5748    23.6768    25.8465
 4854.0000   -33.2743    17.1648    23.5826    25.7317
 4854.5000   -33.2729    17.7218    24.1558    25.5928
 4855.0000   -33.3500    18.2129    24.6751    25.3561
 4855.5000   -33.5779    18.6184    25.3208    25.2449
 4856.0000   -33.8398    18.9132    25.9143    24.9628
 4856.5000   -33.8386    19.0326    26.3547    24.7863
 4857.0000   -33.8371    19.1443    26.7344    24.8711
 4857.5000   -33.8357    18.9324    27.2447    25.2148
 4858.0000   -33.8085    18.5370    27.7429    25.4445
 4858.5000   -33.5470    18.0803    28.2001    25.7618
 4859.0000   -33.3471    17.6053    28.6272    26.0461
 4859.5000   -33.2586    17.3865    28.8845    26.3081
 4860.0000   -33.2571    17.0775    29.0858    26.6526
 4860.5000   -33.2557    16.7875    29.1729    26.9967
 4861.0000   -33.2541    16.6539    28.9634    27.4330
 4861.5000   -33.4551    16.8944    28.3423    27.8924
 4862.0000   -33.6829    17.3326    27.1773    28.3150
 4862.5000   -33.8214    17.8722    26.4909    28.6502
 4863.0000   -33.8200    18.6012    26.0414    28.9174
 4863.5000   -33.8184    19.6104    25.8957    29.3016
 4864.0000   -33.8171    21.0545    25.9086    29.9657
 4864.5000   -33.8157    21.8165    26.0416    30.7286
 4865.0000   -33.8143    22.6992    26.5252    31.4833
 4865.5000   -33.8129    23.4626    27.2313    32.9060
 4866.0000   -33.8113    23.9688    27.9916    33.8078
 4866.5000   -33.8100    24.2117    28.6766    34.6231
 4867.0000   -33.8086    24.5372    29.4774    35.2222
 4867.5000   -33.8071    24.8023    30.1413    35.6471
 4868.0000   -33.8057    25.0829    30.8088    35.8974
 4868.5000   -33.8042    25.3619    31.4903    36.0018
 4869.0000   -33.8029    25.0767    32.4032    35.8097
 4869.5000   -33.8014    24.5402    33.4845    35.2692
 4870.0000   -33.7001    23.4964    34.6005    34.2744
 4870.5000   -33.4692    22.1877    36.7368    32.3362
 4871.0000   -33.2256    20.7722    38.9819    31.1418
 4871.5000   -33.2243    19.0649    40.0920    29.8798
 4872.0000   -33.2229    18.3175    40.6631    28.6174
 4872.5000   -33.1178    17.5951    40.9608    27.4309
 4873.0000   -32.8871    16.8101    40.9413    26.4957
 4873.5000   -32.6471    15.9158    40.3490    25.5946
 4874.0000   -32.6457    15.0588    38.8606    24.6760
 4874.5000   -32.6443    14.6344    37.1531    23.8148
 4875.0000   -32.7500    14.4878    35.5349    22.9521
 4875.5000   -32.9777    14.4889    33.9420    21.9272
 4876.0000   -33.2114    14.4900    31.9101    21.3534
 4876.5000   -33.2100    14.4911    28.7606    20.8684
 4877.0000   -33.2086    14.4921    27.3949    20.4707
 4877.5000   -33.2071    14.5702    26.4664    20.1264
 4878.0000   -33.2057    14.5893    26.0215    19.7944
 4878.5000   -33.2043    14.4564    25.9682    19.6581
 4879.0000   -32.9758    14.2100    26.0829    19.5648
 4879.5000   -32.7451    14.0006    26.0843    19.4501
 4880.0000   -32.5143    13.7727    26.0000    19.3352
 4880.5000   -32.3414    13.5448    25.9443    19.2308
 4881.0000   -32.3387    13.3544    25.9457    19.3732
 4881.5000   -32.1079    13.3558    25.9472    19.3732
 4882.0000   -32.0514    13.2522    25.8358    19.4430
 4882.5000   -32.1679    13.1387    25.7233    19.5157
 4883.0000   -32.3343    13.0723    25.5558    19.5301
 4883.5000   -32.3329    13.0917    25.3294    19.6581
 4884.0000   -32.3314    13.2179    25.0972    19.6581
 4884.5000   -32.3300    13.3229    24.7655    19.6581
 4885.0000   -32.4499    13.5136    24.5072    19.7044
 4885.5000   -32.6129    13.6972    24.3340    19.8006
 4886.0000   -32.6114    13.7951    24.1730    19.8006
 4886.5000   -32.6100    13.7963    23.8186    19.8006
 4887.0000   -32.6086    13.7973    23.4922    19.7225
 4887.5000   -32.4822    13.7238    23.2322    19.7086
 4888.0000   -32.3200    13.6562    22.9544    19.8234
 4888.5000   -32.3186    13.6572    22.5915    19.9430
 4889.0000   -32.3169    13.6584    22.1115    20.0529
 4889.5000   -32.3157    13.8649    21.6830    20.1678
 4890.0000   -32.3143    14.0210    21.1501    20.2826
 4890.5000   -32.3129    14.1366    20.6811    20.4242
 4891.0000   -32.3114    14.2686    20.2994    20.6553
 4891.5000   -32.3097    14.5234    19.6901    20.7694
 4892.0000   -32.3086    14.6266    19.4800    20.9705
 4892.5000   -32.3071    14.6687    19.3304    21.2002
 4893.0000   -32.3814    14.7592    19.2179    21.4298
 4893.5000   -32.5901    14.9733    19.1054    21.6594
 4894.0000   -32.5883    15.1018    18.9830    21.8889
 4894.5000   -32.5871    15.2045    18.7765    22.3901
 4895.0000   -32.5857    15.4657    18.6250    23.0271
 4895.5000   -32.5843    15.8543    18.4664    23.6808
 4896.0000   -32.5829    16.3134    18.2741    24.2470
 4896.5000   -32.5812    16.8264    18.2759    24.7863
 4897.0000   -32.5800    17.2315    18.4814    25.2602
 4897.5000   -32.7178    17.6905    18.7107    25.9681
 4898.0000   -32.8629    18.1497    19.0728    26.7713
 4898.5000   -32.8614    18.6088    19.6132    27.5753
 4899.0000   -32.8598    19.1241    19.9973    28.4900
 4899.5000   -32.8586    19.7276    20.2996    29.0833
 4900.0000   -32.8571    20.2723    20.8571    29.6296
 4900.5000   -32.9421    20.6311    21.4996    30.0889
 4901.0000   -33.1402    21.1762    22.0571    30.5480
 4901.5000   -33.1384    21.5650    22.5759    31.0541
 4902.0000   -33.1371    21.8655    23.0700    31.4665
 4902.5000   -33.1357    21.9968    23.7804    31.7748
 4903.0000   -33.1343    21.9979    24.6201    31.9088
 4903.5000   -33.1329    21.9719    25.4740    31.8286
 4904.0000   -33.1313    21.7136    25.8688    31.3390
 4904.5000   -32.9236    21.7145    26.1604    30.6957
 4905.0000   -32.8429    21.5747    26.5715    30.1660
 4905.5000   -32.7479    21.3467    26.9897    29.7070
 4906.0000   -32.5543    21.0928    27.3229    29.1994
 4906.5000   -32.5527    20.5729    27.5902    28.4900
 4907.0000   -32.5514    19.9819    27.7815    27.9334
 4907.5000   -32.5500    19.1561    28.0107    27.6941
 4908.0000   -32.5486    18.4468    28.2029    27.8036
 4908.5000   -32.5471    18.1292    28.3265    28.2049
