~VERSION INFORMATION
 VERS.                2.0:   CWLS LOG ASCII STANDARD - VERSION 2.0
 WRAP.                 NO:   ONE LINE PER DEPTH STEP
~WELL INFORMATION
#MNEM.UNIT      DATA TYPE    INFORMATION
#----------   ------------   ------------------------------
 STRT.F           31.5000:   START DEPTH
 STOP.F         4204.0000:   STOP DEPTH
 STEP.F            0.5000:   STEP LENGTH
 NULL.          -999.2500:   NO VALUE
 COMP.   LAWRENCE ALLISON:   COMPANY
 WELL. LAWRENCE 3 "X" #32-10:   WELL
 FLD .                NPR:   FIELD
 LOC .      S10 T38N R78W:   LOCATION
 CNTY.            NATRONA:   COUNTY
 STAT.            WYOMING:   STATE
 CTRY. UNITED STATES OF AMERICA:   COUNTRY
 SRVC.      DRESSER ATLAS:   SERVICE COMPANY
 DATE.        05-NOV-1983:   LOGDATE
 API .     49025109460000:   API NUMBER
~CURVE INFORMATION
#MNEM.UNIT       API CODE    CURVE DESCRIPTION
#----------   ------------   ------------------------------
 DEPT.F                  :   
 CALD.IN     45 280 60 00:   CALIPER FROM DENSITY LOG
 CNC .DEC    42 890 01 00:   NEUTRON POROSITY LIMESTONE
 CORR.G/C3   45 356 01 00:   DENSITY CORRECTION
 TEND.LBS    45 635 01 00:   TENSION FORM DENSITY LOG
 RHOB.G/C3   45 350 01 00:   BULK DENSITY
 DT  .US/F   60 520 00 00:   DELTA TIME
 TENS.LBS    60 635 01 00:   TENSION FROM SONIC
 GRR .GAPI   07 310 01 00:   GAMMA RAY FROM RESISTIVITY
 TENR.LBS    06 635 01 00:   TENSION FROM RESISTIVITY
 RFOC.OHMM   07 220 04 00:   RESISTIVITY FOCUSED LOG RES.
 RILM.OHMM   07 120 44 00:   INDUCTION LOG MEDIUM RESISTIVITY
 RILD.OHMM   07 120 46 00:   DEEP INDUCTION RESISTIVITY
 SPR .MV     07 010 01 00:   SPONTANEOUS POTENTIAL
~PARAMETER INFORMATION
#MNEM.UNIT          VALUE    DESCRIPTION
#----------   ------------   ------------------------------
 EKB .F         5237.0000:   Kelly bushing
 EGL .F         5227.0000:   Ground level
 TD  .F         4202.0000:   Total depth
 CLNT.            A2DTECH:   Client Code
 SL  . 1871' FWL & 1152' FNL:   Surface Location
 PD  .                 GL:   Permanent Datum
 EPD .F              5227:   Elevation Permanent Datum
 LMF .                 KB:   Log Measured From
 DMF .                 KB:   Drilling Measured From
 DAPD.F                10:   Feet Above Permanent Datum
 DATE.        05-NOV-1983:   Date Logged [DD-MMM-YYYY]
 DD  .F              4200:   Depth driller
 DL  .F              4202:   Depth logger
 BLI .F              4200:   Bottom log interval
 TLI .F                30:   Top log interval
 CS1 .IN            8.625:   Casing size
 CBD1.      8.625" @ 545':   Casing driller 1
 CBL1.F               545:   Casing logger 1
 BS1 .IN            7.875:   Bit size
 BSD1.F              4200:   Depth drilled with bit1
 DFT .            GEL KCL:   Type fluid in hole
 DFD .                8.9:   Density
 DFV .                 42:   Viscosity
 DFPH.                8.5:   pH
 DFL .               12.4:   Fluid loss
 MSS .           FLOWLINE:   Source of sample
 RMS .OHMM           0.43:   Rm
 MST .F                97:   Rm Meas. temp.
 RMF .OHMM           0.42:   Rmf
 MFST.F                74:   Rmf Meas. temp.
 MFSS.               MEAS:   Source Rmf.
 RMC .OHMM           0.53:   Rmc
 MCST.F                97:   Rmc Meas. temp.
 MCSS.               CALC:   Source Rmc.
 RMB .OHMM           0.32:   Rm. at BHT
 BHT .F               131:   BHT.
 TCS .HRS               3:   Time Circ. stopped
 MRT .F               131:   Maximum recorded temp.
 LUN .               6307:   Logging unit number
 LUL .               GLTE:   Logging unit location
 ENGI.            DEYOUNG:   Recorded By
 WITN.             STRONG:   Witnessed by
 ORIG.        2" 5" PRINT:   Origin of data
 UWI .     49025109460000:   Unique Well ID
 DICO. A2D TECHNOLOGIES, INC.:   Digitizing Company
~OTHER INFORMATION
~A   DEPT     CALD        CNC       CORR       TEND       RHOB         DT       TENS         GRR      TENR       RFOC       RILM       RILD        SPR   
# ...
 1513.5000     9.9861     0.2723    -0.0194   -21.8798     2.5310  -999.2500  -999.2500   104.1109   -46.8964     7.8656     7.5849     7.5400   -36.6482
 1514.0000     9.9846     0.2824    -0.0275   -21.7188     2.5280  -999.2500  -999.2500   103.1970   -46.5276     7.9763     7.5829     7.5379   -36.3562
 1514.5000     9.9831     0.2888    -0.0197   -21.5583     2.5279  -999.2500  -999.2500   104.6926   -46.1587     8.1482     7.5808     7.5358   -36.0624
 1515.0000     9.9815     0.2869     0.0001   -21.4176     2.5302  -999.2500  -999.2500   111.0076   -45.7899     8.3161     7.5787     7.5338   -35.6180
 1515.5000     9.9800     0.2839     0.0016   -21.2620     2.5356  -999.2500  -999.2500   116.2683   -45.4210     8.3735     7.6307     7.5317   -34.5711
 1516.0000     9.9784     0.2793    -0.0124   -21.0891     2.5409  -999.2500  -999.2500   117.7665   -45.0522     8.3720     7.6281     7.5829   -33.5243
 1516.5000     9.9777     0.2768    -0.0217   -20.9286     2.5393  -999.2500  -999.2500   116.2476   -44.6833     8.2543     7.6260     7.5803   -33.2304
 1517.0000     9.9776     0.2860    -0.0234   -20.8012     2.5301  -999.2500  -999.2500   112.4721   -44.3145     7.9130     7.6239     7.5782   -32.9366
 1517.5000     9.9765     0.2910    -0.0082   -20.6471     2.5193  -999.2500  -999.2500   110.2028   -43.9456     7.8017     7.6757     7.6298   -32.9443
 1518.0000     9.9755     0.2917     0.0132   -20.4931     2.5146  -999.2500  -999.2500   109.2888   -43.5768     7.8006     7.6735     7.6277   -32.9533
 1518.5000     9.9745     0.2879     0.0162   -20.3113     2.5254  -999.2500  -999.2500   108.3748   -43.2079     8.0214     7.5636     7.5719   -33.2618
 1519.0000     9.9735     0.2882     0.0130   -20.1849     2.5388  -999.2500  -999.2500   105.5030   -42.8390     8.1336     7.5615     7.5166   -33.4198
 1519.5000     9.9724     0.2869     0.0252   -20.0308     2.5514  -999.2500  -999.2500   105.1913   -42.4702     8.2477     7.5066     7.4618   -33.4272
 1520.0000     9.9714     0.2850     0.0266   -19.8669     2.5660  -999.2500  -999.2500   105.3317   -42.1013     8.1886     7.5043     7.4598   -33.4346
 1520.5000     9.9704     0.2822     0.0172   -22.8004     2.5591  -999.2500  -999.2500   102.0055   -41.7325     7.9610     7.4858     7.4576   -33.5926
 1521.0000     9.9694     0.2812     0.0063   -22.6502     2.5483  -999.2500  -999.2500    98.2300   -41.3636     7.8490     7.4476     7.4031   -34.0518
 1521.5000     9.9684     0.2816     0.0016   -22.4962     2.5444  -999.2500  -999.2500    96.7137   -40.9942     8.0712     7.3825     7.3486   -34.6616
 1522.0000     9.9673     0.2854     0.0092   -19.2372     2.5544  -999.2500  -999.2500    98.0587   -40.6267     8.7175     7.3392     7.2949   -34.9701
 1522.5000     9.9663     0.2879     0.0183   -19.0890     2.5597  -999.2500  -999.2500   101.5122   -40.3691     9.3541     7.3372     7.2929   -35.4293
 1523.0000     9.9653     0.2848     0.0274   -22.0225     2.5612  -999.2500  -999.2500   104.5139   -40.1328     9.3362     7.3293     7.2909   -36.0413
 1523.5000     9.9643     0.2746     0.0195   -21.8744     2.5550  -999.2500  -999.2500   105.8590   -39.8955     8.6252     7.2762     7.2379   -36.4985
 1524.0000     9.9633     0.2645    -0.0098   -21.7257     2.5286  -999.2500  -999.2500   106.0018   -39.6582     8.0090     7.1776     7.1681   -36.6827
 1524.5000     9.9622     0.2606    -0.0176   -21.5410     2.5166  -999.2500  -999.2500   105.2358   -39.4210     8.0642     7.1753     7.1323   -36.9667
 1525.0000     9.9612     0.2597     0.0008   -18.3359     2.5304  -999.2500  -999.2500   104.0207   -39.1837     8.1202     7.1230     7.0802   -36.9741
 1525.5000     9.9602     0.2705     0.0298   -18.1631     2.5557  -999.2500  -999.2500   103.8454   -38.9464     8.0620     7.1212     7.0783   -36.8309
 1526.0000     9.9592     0.2791     0.0481   -18.0277     2.5741  -999.2500  -999.2500   104.9035   -38.7091     8.0046     7.1190     7.0763   -36.6858
 1526.5000     9.9582     0.2832     0.0458   -17.8736     2.5756  -999.2500  -999.2500   106.2551   -38.4719     7.9475     7.1675     7.1245   -36.5426
 1527.0000     9.9571     0.2858     0.0095   -17.7062     2.5694  -999.2500  -999.2500   107.0080   -38.2346     7.8909     7.2162     7.1724   -36.2488
 1527.5000     9.9561     0.2867    -0.0014   -17.5655     2.5656  -999.2500  -999.2500   107.5833   -37.9973     7.8347     7.3165     7.2217   -35.9550
 1528.0000     9.9551     0.2832    -0.0061   -17.3976     2.5609  -999.2500  -999.2500   107.2691   -37.7600     7.8889     7.4225     7.3218   -35.5105
 1528.5000     9.9541     0.2782    -0.0139   -17.2573     2.5570  -999.2500  -999.2500   106.3552   -37.5228     7.9434     7.5841     7.4769   -35.0680
 1529.0000     9.9530     0.2734    -0.0171   -17.1032     2.5539  -999.2500  -999.2500   103.4834   -37.2855     8.1680     7.7344     7.6347   -34.6235
 1529.5000     9.9520     0.2734    -0.0089   -16.9408     2.5539  -999.2500  -999.2500    98.9549   -37.0482     8.5179     7.6775     7.6866   -34.1791
 1530.0000     9.9510     0.2747     0.0149   -16.7926     2.5539  -999.2500  -999.2500    95.3301   -36.8109     8.7591     7.5680     7.5763   -33.8654
 1530.5000     9.9500     0.2753     0.0286   -16.6410     2.5569  -999.2500  -999.2500    93.2113   -36.5737     8.8817     7.5127     7.4681   -33.5915
 1531.0000     9.9490     0.2769     0.0469   -16.8766     2.5592  -999.2500  -999.2500    95.3094   -36.3364     8.9431     7.4056     7.4136   -33.2995
 1531.5000     9.9479     0.2785     0.0452   -19.4298     2.5599  -999.2500  -999.2500   100.8713   -36.0991     8.7554     7.3515     7.3305   -33.3069
 1532.0000     9.9469     0.2808     0.0313   -19.2446     2.5568  -999.2500  -999.2500   105.8308   -35.8619     8.3934     7.3495     7.3052   -33.4649
 1532.5000     9.9459     0.2827     0.0202   -19.0965     2.5537  -999.2500  -999.2500   109.1337   -35.6246     8.0463     7.3475     7.3032   -33.6228
 1533.0000     9.9449     0.2824     0.0095   -18.9522     2.5529  -999.2500  -999.2500   107.9186   -35.3873     7.8226     7.4497     7.4049   -33.9314
 1533.5000     9.9439     0.2786     0.0186   -18.7982     2.5544  -999.2500  -999.2500   107.3058   -35.1500     7.7114     7.5004     7.4553   -34.2400
 1534.0000     9.9428     0.2691     0.0339   -20.3496     2.5567  -999.2500  -999.2500   109.1446   -34.9128     7.5998     7.6585     7.5591   -34.6992
 1534.5000     9.9418     0.2576     0.0399   -21.5716     2.5582  -999.2500  -999.2500   109.8453   -34.6755     7.5499     7.7105     7.6650   -35.4596
 1535.0000     9.9408     0.2529     0.0382   -21.4003     2.5590  -999.2500  -999.2500   102.6034   -34.4382     7.6555     7.8178     7.7171   -36.3706
 1535.5000     9.9398     0.2659     0.0087   -21.2635     2.5482  -999.2500  -999.2500    98.2256   -34.2009     7.9832     7.9266     7.8241   -37.1310
 1536.0000     9.9388     0.2697    -0.0066   -21.1040     2.5351  -999.2500  -999.2500    95.9562   -33.9637     8.4428     7.9239     7.8773   -37.3033
 1536.5000     9.9377     0.2700    -0.0021   -20.9553     2.5304  -999.2500  -999.2500    93.8374   -33.7264     8.8045     7.9217     7.8751   -37.4734
 1537.0000     9.9373     0.2704     0.0086   -20.7706     2.5350  -999.2500  -999.2500    92.1704   -33.4891     9.1818     7.9195     7.8724   -37.7574
 1537.5000     9.9372     0.2704     0.0146   -20.6224     2.5422  -999.2500  -999.2500    96.0757   -33.2518     9.2454     7.8065     7.8149   -37.9154
 1538.0000     9.9372     0.2691     0.0145   -20.4743     2.5503  -999.2500  -999.2500   103.2943   -33.0146     9.1151     7.6952     7.6491   -37.7722
 1538.5000     9.9372     0.2748    -0.0271   -20.3390     2.5495  -999.2500  -999.2500   107.9526   -32.7773     8.8616     7.5795     7.5933   -37.1771
 1539.0000     9.9372     0.2764    -0.0428   -20.1849     2.5433  -999.2500  -999.2500   107.3398   -32.5400     8.4358     7.4767     7.4322   -36.4315
