~VERSION INFORMATION
 VERS.                2.0:   CWLS LOG ASCII STANDARD - VERSION 2.0
 WRAP.                 NO:   ONE LINE PER DEPTH STEP
~WELL INFORMATION
#MNEM.UNIT      DATA TYPE    INFORMATION
#----------   ------------   ------------------------------
 STRT.F          298.0000:   START DEPTH
 STOP.F         3084.0000:   STOP DEPTH
 STEP.F            0.5000:   STEP LENGTH
 NULL.          -999.2500:   NO VALUE
 COMP. LAWERNCE ALLISON AND ASSOCIATED:   COMPANY
 WELL. LAWERNCE "TX" #77-20:   WELL
 FLD .        TEAPOT DOME:   FIELD
 LOC .      S20 T39N R78W:   LOCATION
 CNTY.            NATRONA:   COUNTY
 STAT.            WYOMING:   STATE
 CTRY. UNITED STATES OF AMERICA:   COUNTRY
 SRVC.       SCHLUMBERGER:   SERVICE COMPANY
 DATE.        22-JAN-1982:   LOGDATE
 API .     49025108840000:   API NUMBER
~CURVE INFORMATION
#MNEM.UNIT       API CODE    CURVE DESCRIPTION
#----------   ------------   ------------------------------
 DEPT.F                  :   
 CALD.IN     45 280 60 00:   CALIPER FROM DENSITY LOG
 GRD .GAPI   45 310 01 00:   GAMMA RAY FROM DENSITY LOG
 TEND.LBS    45 635 01 00:   TENSION FROM DENSITY LOG
 RHOB.G/C3   45 350 01 00:   BULK DENSITY
 NPHI.DEC    42 890 03 00:   NEUTRON POROSITY SANDSTONE
 CORR.G/C3   45 356 01 00:   DENSITY CORRECTION
 SFLU.OHMM   07 220 01 00:   SPHERICALLY FOCUSED LOG UNAVERAGED RESISTIVITY
 ILD .OHMM   07 120 46 00:   INDUCTION LOG DEEP RESISTIVITY
 ILM .OHMM   07 120 44 00:   INDUCTION LOG MEDIUM RESISTIVITY
 TENR.LBS    07 635 01 00:   TENSION
 SPR .MV     07 010 01 00:   SPONTANEOUS POTENTIAL
~PARAMETER INFORMATION
#MNEM.UNIT          VALUE    DESCRIPTION
#----------   ------------   ------------------------------
 EKB .F         5022.0000:   Kelly bushing
 EGL .F         5012.0000:   Ground level
 EDF .F         5021.0000:   Drilling floor
 TD  .F         3079.0000:   Total depth
 DATE.        22-JAN-1982:   Date logged
 CLNT.            A2DTECH:   Client Code
 SL  . 986' FSL & 779' FEL:   Surface Location
 PD  .                 GL:   Permanent Datum
 EPD .F              5012:   Elevation Permanent Datum
 LMF .                 KB:   Log Measured From
 DMF .                 KB:   Drilling Measured From
 DAPD.F                10:   Feet Above Permanent Datum
 DD  .F              3079:   Depth driller
 DL  .F              3070:   Depth logger
 BLI .F              3064:   Bottom log interval
 TLI .F               328:   Top log interval
 CS1 .IN            9.625:   Casing size
 CBD1.      9.625" @ 300':   Casing driller 1
 CBL1.F               328:   Casing logger 1
 BS1 .IN            7.875:   Bit size
 BSD1.F              3079:   Depth drilled with bit1
 DFT .           CHEM/GEL:   Type fluid in hole
 DFD .                8.9:   Density
 DFV .                 50:   Viscosity
 DFPH.               10.5:   pH
 DFL .                  8:   Fluid loss
 MSS .           FLOWLINE:   Source of sample
 RMS .OHMM           2.53:   Rm
 MST .F                49:   Rm Meas. temp.
 RMF .OHMM           2.04:   Rmf
 MFST.F                49:   Rmf Meas. temp.
 RMC .OHMM           3.80:   Rmc
 MCST.F                49:   Rmc Meas. temp.
 MFSS.               MEAS:   Source Rmf.
 MCSS.               CALC:   Source Rmc.
 RMB .OHMM           1.04:   Rm. at BHT
 BHT .F               119:   BHT.
 TCS .HRS            0330:   Time Circ. stopped
 TLAB.HRS            0800:   Time logger at bottom
 MRT .F               119:   Maximum recorded temp.
 LUN .               8043:   Logging unit number
 LUL .               CSPR:   Logging unit location
 ENGI.            PERAKIS:   Recorded By
 WITN.              SCOTT:   Witnessed by
 ORIG.           5" PRINT:   Origin of data
 UWI .     49025108840000:   Unique Well ID
 DICO. A2D TECHNOLOGIES, INC.:   Digitizing Company
~OTHER INFORMATION
~A   DEPT       CALD       GRD      TEND         RHOB       NPHI     CORR       SFLU        ILD        ILM       TENR        SPR   
# ...
 1762.0000    10.0580   127.7910   924.0370     2.4590     0.3540    -0.0030    10.6610     8.7680     9.0510   904.7050   -24.5460
 1762.5000    10.0580   126.7780   920.7150     2.4540     0.3610    -0.0030    10.7260     8.7630     9.0550   898.4770   -24.6780
 1763.0000    10.0590   122.1230   915.8910     2.4470     0.3530    -0.0010    10.7920     8.7590     9.0590   892.2490   -24.8410
 1763.5000    10.0600   119.7580   911.0660     2.4490     0.3450     0.0020    10.8470     8.7540     9.0630   886.0210   -24.8630
 1764.0000    10.0600   119.3780   906.2410     2.4570     0.3520     0.0050    10.5360     8.7490     9.0670   891.9330   -24.5980
 1764.5000    10.0610   120.1130   901.4160     2.4660     0.3680     0.0090    10.2560     8.7280     9.0720   907.5830   -24.3390
 1765.0000    10.0620   121.1340   896.5920     2.4740     0.3830     0.0130    10.2560     8.7050     9.0760   923.8580   -24.0790
 1765.5000    10.0620   123.2450   891.7670     2.4800     0.3780     0.0160    10.4400     8.6820     9.0800   939.7740   -23.8160
 1766.0000    10.0630   124.5320   886.9420     2.4760     0.3700     0.0120    10.7690     8.6580     9.0830   931.9480   -23.8880
 1766.5000    10.0640   125.6240   882.1170     2.4580     0.3630     0.0040    10.9490     8.6350     8.9620   923.8580   -24.2490
 1767.0000    10.0640   124.7510   877.2930     2.4500     0.3560     0.0000    10.9490     8.6120     8.8570   883.2490   -24.5590
 1767.5000    10.0650   122.7460   872.4680     2.4550     0.3480    -0.0010    10.7850     8.5890     8.7500   883.2490   -24.6960
 1768.0000    10.0650   120.6720   867.6430     2.4660     0.3400     0.0050    10.4970     8.5660     8.7290   883.2490   -24.8730
 1768.5000    10.0660   120.5820   862.9440     2.4770     0.3380     0.0190    10.2100     8.5430     8.7070   885.2120   -25.1740
 1769.0000    10.0670   119.5850   883.7360     2.4770     0.3500     0.0160     9.9720     8.5200     8.6850   896.5140   -24.9570
 1769.5000    10.0670   118.2220   903.5530     2.4630     0.3620     0.0100    10.0040     8.4970     8.6630   907.8170   -24.7070
 1770.0000    10.0680   117.7220   904.8150     2.4530     0.3740     0.0030    10.0860     8.4730     8.6410   919.1200   -24.4560
 1770.5000    10.0690   119.8260   906.3500     2.4430     0.3840    -0.0010    10.1690     8.4500     8.6190   930.4230   -24.3610
 1771.0000    10.0690   123.7950   907.8850     2.4410     0.3890    -0.0010    10.2520     8.4270     8.5970   941.7260   -24.5830
 1771.5000    10.0700   127.7430   909.4200     2.4390     0.3830     0.0000    10.3340     8.4040     8.5750   953.0290   -24.8180
 1772.0000    10.0700   128.1270   910.9550     2.4370     0.3670     0.0000    10.4710     8.3810     8.5530   964.4670   -25.0530
 1772.5000    10.0710   125.7900   912.4900     2.4380     0.3460     0.0010    10.6230     8.3580     8.5310   942.1320   -25.0790
 1773.0000    10.0720   123.5370   914.0260     2.4490     0.3530     0.0080    10.7460     8.3350     8.5090   919.5260   -24.8970
 1773.5000    10.0720   122.7980   915.5610     2.4590     0.3650     0.0160    10.6800     8.3120     8.4870   896.9200   -24.7160
 1774.0000    10.0730   124.2280   917.0960     2.4610     0.3800     0.0160    10.3370     8.2880     8.4650   883.9720   -24.5350
 1774.5000    10.0740   125.9310   918.6310     2.4580     0.3760     0.0120     9.9940     8.2650     8.4430   887.6710   -24.3600
 1775.0000    10.0740   127.6590   920.1660     2.4540     0.3710     0.0090     9.7880     8.2420     8.4210   891.3710   -24.4750
 1775.5000    10.0750   129.5930   921.7010     2.4530     0.3660     0.0110     9.9030     8.2190     8.3990   895.0700   -24.6730
 1776.0000    10.0740   133.6490   923.2360     2.4560     0.3610     0.0140     9.9720     8.1960     8.3770   898.7690   -24.8730
 1776.5000    10.0710   139.6360   924.7720     2.4620     0.3440     0.0140     9.9950     8.2280     8.3510   902.4680   -24.9500
 1777.0000    10.0690   145.7610   926.3070     2.4670     0.3330     0.0140    10.0500     8.2600     8.4540   906.1670   -24.9490
 1777.5000    10.0660   149.7800   927.8420     2.4610     0.3370     0.0080    10.1060     8.3880     8.6250   909.8660   -24.8710
 1778.0000    10.0630   148.0510   929.3770     2.4470     0.3500     0.0020    10.1600     8.5770     8.7960   913.5650   -24.4710
 1778.5000    10.0600   140.6750   930.9120     2.4310     0.3650     0.0000    10.6820     8.7670     8.9660   917.2640   -24.1450
 1779.0000    10.0580   133.5960   932.4470     2.4280     0.3650     0.0000    11.6890     8.9150     9.1370   920.9640   -24.2010
 1779.5000    10.0550   127.2690   933.9820     2.4420     0.3570     0.0050    11.5800     8.9320     9.1900   922.3820   -24.3150
 1780.0000    10.0520   126.1180   935.5180     2.4570     0.3480     0.0140    11.3700     8.9500     9.2170   915.6010   -24.5010
 1780.5000    10.0500   128.6160   937.0530     2.4730     0.3530     0.0290    10.9040     8.9670     9.2430   908.8190   -24.8580
 1781.0000    10.0470   131.5020   938.5880     2.4800     0.3620     0.0420    10.4490     8.9840     9.2700   903.5530   -25.2190
 1781.5000    10.0440   134.4680   940.1230     2.4640     0.3690     0.0340    10.4490     9.0010     9.2970   907.8050   -25.2360
 1782.0000    10.0420   133.4310   941.6580     2.4460     0.3690     0.0180    10.8300     9.0180     9.3230   911.9570   -25.0540
 1782.5000    10.0390   129.1960   943.1930     2.4270     0.3570     0.0010    11.1710     9.0360     9.3500   916.1090   -25.1770
 1783.0000    10.0370   124.5390   943.3370     2.4200     0.3430     0.0000    11.4690     9.0530     9.3770   920.2610   -25.3430
 1783.5000    10.0390   119.8840   938.4350     2.4250     0.3370     0.0010    11.7100     9.0700     9.4030   924.4130   -25.5270
 1784.0000    10.0540   115.9880   933.5320     2.4360     0.3390     0.0060    11.8870     9.0830     9.4290   928.5650   -25.7170
 1784.5000    10.0690   113.9690   928.6290     2.4400     0.3390     0.0100    12.1340     8.6490     9.1260   932.7170   -25.6310
 1785.0000    10.0840   114.8140   923.7270     2.4320     0.3380     0.0130    11.7370     8.2980     8.7640   936.8690   -25.4530
 1785.5000    10.0990   114.7620   918.8240     2.4320     0.3440     0.0150    10.6780     7.9470     8.4020   941.0210   -25.2740
 1786.0000    10.1140   111.9370   913.9220     2.4490     0.3520     0.0330     9.1310     7.8220     8.2730   944.1620   -25.0950
 1786.5000    10.1280   108.7960   909.0190     2.4720     0.3600     0.0800     8.2730     8.3230     8.5080   933.5430   -24.9170
 1787.0000    10.1140   106.7610   904.1170     2.4840     0.3620     0.0830     9.1120     8.6260     8.8890   923.3710   -24.7380
 1787.5000    10.0300   107.8700   899.2140     2.4510     0.3540     0.0420     9.8800     8.7790     9.3530   913.1980   -24.5590
 1788.0000     9.9490   110.2110   894.3110     2.4250     0.3490     0.0110    11.8910     8.9320     9.8180   903.5530   -24.3770
 1788.5000     9.8910   112.5570   889.4090     2.4150     0.3530    -0.0070    13.4410     9.0850    10.2830   905.5240   -24.5180
 1789.0000     9.8920   115.0460   884.5060     2.4130     0.3640    -0.0100    13.9120     9.4180    10.7480   907.8360   -24.7640
 1789.5000     9.8910   121.8890   883.4890     2.3990     0.3710    -0.0090    14.3550     9.9670    11.2130   910.1480   -25.0130
 1790.0000     9.8900   126.6650   885.1780     2.3940     0.3680    -0.0060    14.6350    10.5160    11.6780   912.4600   -25.1920
 1790.5000     9.8890   130.7790   886.8660     2.4000     0.3640    -0.0040    14.9000    11.0650    12.0210   914.7720   -25.3840
 1791.0000     9.8880   132.8020   888.5550     2.4050     0.3590    -0.0010    15.0420    11.6140    12.0210   917.0840   -25.5710
 1791.5000     9.8870   134.2370   890.2440     2.4100     0.3580     0.0020    15.1830    11.7980    12.0210   919.3950   -25.7580
 1792.0000     9.8860   134.8120   891.9320     2.4100     0.3530     0.0040    14.4790    11.4720    11.7250   921.7070   -25.9450
