~VERSION INFORMATION
 VERS.                2.0:   CWLS LOG ASCII STANDARD - VERSION 2.0
 WRAP.                 NO:   ONE LINE PER DEPTH STEP
~WELL INFORMATION
#MNEM.UNIT      DATA TYPE    INFORMATION
#----------   ------------   ------------------------------
 STRT.F           10.0000:   START DEPTH
 STOP.F         2950.0000:   STOP DEPTH
 STEP.F            0.5000:   STEP LENGTH
 NULL.          -999.2500:   NO VALUE
 COMP.    FENIX & SCISSON:   COMPANY
 WELL.   PENIX SHX #11-23:   WELL
 FLD .  TEAPOT DOME NPR-3:   FIELD
 LOC .      S23 T38N R78W:   LOCATION
 CNTY.            NATRONA:   COUNTY
 STAT.            WYOMING:   STATE
 CTRY. UNITED STATES OF AMERICA:   COUNTRY
 SRVC.           BIRDWELL:   SERVICE COMPANY
 DATE.        19-MAY-1979:   LOGDATE
 API .     49025107790000:   API NUMBER
~CURVE INFORMATION
#MNEM.UNIT       API CODE    CURVE DESCRIPTION
#----------   ------------   ------------------------------
 DEPT.F                  :   
 ILD .OHMM   05 120 46 00:   INDUCTION LOG DEEP
 SN  .OHMM   05 040 16 00:   SHORT NORMAL 16"
 CALD.IN     45 280 60 00:   CALIPER FROM DENSITY LOG
 GRD .GAPI   45 310 01 00:   GAMMA RAY FROM DENSITY LOG
 RHOB.G/C3   45 350 01 00:   BULK DENSITY
 CORR.G/C3   45 356 01 00:   DENSITY CORRECTION
~PARAMETER INFORMATION
#MNEM.UNIT          VALUE    DESCRIPTION
#----------   ------------   ------------------------------
 EKB .F         5275.0000:   Kelly bushing
 EGL .F         5265.0000:   Ground level
 EDF .F            0.0000:   Drilling floor
 TD  .F         2995.0000:   Total depth
 DATE.        19-MAY-1979:   Date logged
 CLNT.            A2DTECH:   Client Code
 SL  . 337' FNL & 237' FWL:   Surface Location
 PD  .                 GL:   Permanent Datum
 EPD .F              5265:   Elevation Permanent Datum
 LMF .                 KB:   Log Measured From
 DMF .                 KB:   Drilling Measured From
 DAPD.F                10:   Feet Above Permanent Datum
 DD  .F              2995:   Depth driller
 DL  .F              2950:   Depth logger
 BLI .F              2944:   Bottom log interval
 TLI .F              1050:   Top log interval
 CS1 .IN            9.625:   Casing size
 CBD1.     9.625" @ 2050':   Casing driller 1
 CBL1.F              1050:   Casing logger 1
 BS1 .IN             8.75:   Bit size
 BSD1.F              2995:   Depth drilled with bit1
 DFT . AIR/FORRATION FLUIDS:   Type fluid in hole
 TCS .HRS              12:   Time Circ. stopped
 LUN .               3029:   Logging unit number
 LUL .             CASPER:   Logging unit location
 ENGI.         B. ROLLINS:   Recorded By
 ORIG.         2.5" PRINT:   Origin of data
 UWI .     49025107790000:   Unique Well ID
 DICO. A2D TECHNOLOGIES, INC.:   Digitizing Company
~OTHER INFORMATION
~A   DEPT      ILD         SN       CALD        GRD       RHOB         CORR 
# ...
 1362.0000     8.7820  -999.2500     9.4010   153.7210     2.4850     0.0240
 1362.5000    10.1830  -999.2500     9.3930   161.1470     2.4780     0.0200
 1363.0000     9.6310  -999.2500     9.3860   164.9290     2.4870     0.0300
 1363.5000     8.2150  -999.2500     9.3780   163.2310     2.4940     0.0330
 1364.0000     5.9560  -999.2500     9.3710   161.0170     2.4810     0.0310
 1364.5000     7.4360  -999.2500     9.3630   160.8280     2.5010     0.0460
 1365.0000     7.2240  -999.2500     9.3560   161.1420     2.5220     0.0480
 1365.5000     6.8070  -999.2500     9.3480   161.6310     2.4990     0.0230
 1366.0000     6.3900  -999.2500     9.3410   165.9990     2.4780     0.0130
 1366.5000     6.6400  -999.2500     9.3330   169.9040     2.4700     0.0110
 1367.0000     7.1660  -999.2500     9.3250   174.3900     2.4850     0.0290
 1367.5000     7.2990  -999.2500     9.3180   169.2880     2.5020     0.0480
 1368.0000     6.7400  -999.2500     9.3100   163.1070     2.4930     0.0350
 1368.5000     7.0740  -999.2500     9.3030   163.9640     2.4720     0.0200
 1369.0000     7.4360  -999.2500     9.2990   163.5460     2.4710     0.0070
 1369.5000     8.1340  -999.2500     9.3440   157.1620     2.4840     0.0190
 1370.0000     7.7750  -999.2500     9.3800   159.5810     2.4970     0.0260
 1370.5000     7.0570  -999.2500     9.3810   163.8170     2.4920     0.0300
 1371.0000     9.9960  -999.2500     9.3870   159.4390     2.4990     0.0340
 1371.5000     7.8600  -999.2500     9.3920   160.9140     2.5130     0.0350
 1372.0000     9.7330  -999.2500     9.3970   162.0920     2.5060     0.0290
 1372.5000     7.7160  -999.2500     9.4020   159.2320     2.4960     0.0200
 1373.0000     9.2830  -999.2500     9.4070   154.0760     2.4990     0.0110
 1373.5000     8.8220  -999.2500     9.4140   156.0230     2.5010     0.0160
 1374.0000     7.2090  -999.2500     9.4130   159.7680     2.5050     0.0150
 1374.5000     7.5470  -999.2500     9.4500   164.2030     2.5120     0.0140
 1375.0000     8.6210  -999.2500     9.4560   159.2500     2.5130     0.0100
 1375.5000     8.3700  -999.2500     9.4630   162.3550     2.5070     0.0200
 1376.0000     7.4360  -999.2500     9.4240   166.8480     2.5010     0.0320
 1376.5000     7.7850  -999.2500     9.4300   168.3270     2.5040     0.0430
 1377.0000     8.6210  -999.2500     9.4450   160.7950     2.5050     0.0550
 1377.5000     7.8600  -999.2500     9.4630   156.9410     2.5150     0.0520
 1378.0000     8.4570  -999.2500     9.4770   158.3420     2.5200     0.0410
 1378.5000     8.9920  -999.2500     9.4930   168.0400     2.5030     0.0300
 1379.0000     8.0060  -999.2500     9.4720   165.8930     2.4950     0.0260
 1379.5000     8.3340  -999.2500     9.4330   159.0570     2.4950     0.0270
 1380.0000     8.8790  -999.2500     9.3900   161.2680     2.5030     0.0350
 1380.5000     9.2580  -999.2500     9.3910   161.5270     2.5070     0.0440
 1381.0000     9.1590  -999.2500     9.4220   153.8750     2.5080     0.0540
 1381.5000     9.0600  -999.2500     9.4540   155.8570     2.5090     0.0490
 1382.0000     8.9620  -999.2500     9.4270   157.2120     2.5030     0.0430
 1382.5000     8.8630  -999.2500     9.3910   161.9110     2.5050     0.0370
 1383.0000     8.7820  -999.2500     9.3520   167.6100     2.5050     0.0310
 1383.5000     8.7500  -999.2500     9.3140   166.6500     2.5080     0.0260
 1384.0000     8.7220  -999.2500     9.2930   166.4970     2.5100     0.0230
 1384.5000     8.6950  -999.2500     9.2920   161.5780     2.4950     0.0200
 1385.0000     8.6670  -999.2500     9.2890   158.0830     2.4790     0.0160
 1385.5000     8.6400  -999.2500     9.2870   160.2500     2.4710     0.0180
 1386.0000     8.5790  -999.2500     9.2840   165.2240     2.4690     0.0310
 1386.5000     8.4460  -999.2500     9.2820   163.5720     2.4800     0.0470
 1387.0000     8.3140  -999.2500     9.2790   164.6890     2.4890     0.0550
 1387.5000     8.1560  -999.2500     9.2770   160.9810     2.4850     0.0460
 1388.0000     8.1400  -999.2500     9.2740   164.4420     2.4980     0.0420
 1388.5000     8.1020  -999.2500     9.2720   171.1270     2.4920     0.0270
 1389.0000     8.0640  -999.2500     9.2690   173.1600     2.4880     0.0140
 1389.5000     8.0260  -999.2500     9.2670   174.5710     2.4980     0.0100
 1390.0000     7.9890  -999.2500     9.2630   175.8120     2.5030     0.0110
 1390.5000     7.9510  -999.2500     9.2630   175.1990     2.5010     0.0190
 1391.0000     7.9130  -999.2500     9.2600   177.2610     2.5040     0.0350
 1391.5000     7.8750  -999.2500     9.2490   172.2680     2.5230     0.0500
 1392.0000     6.6550  -999.2500     9.3170   167.6330     2.5280     0.0460
 1392.5000     6.6550  -999.2500     9.3370   162.5060     2.5220     0.0310
 1393.0000     7.4070  -999.2500     9.2400   164.6600     2.5190     0.0300
 1393.5000     6.7790  -999.2500     9.2000   167.1480     2.5170     0.0430
 1394.0000     7.8600  -999.2500     9.3070   167.9440     2.5170     0.0570
 1394.5000     8.0060  -999.2500     9.3210   171.5720     2.5200     0.0640
 1395.0000     8.0060  -999.2500     9.3370   178.3540     2.5270     0.0560
 1395.5000     8.0060  -999.2500     9.3450   179.0480     2.5270     0.0380
 1396.0000     8.0060  -999.2500     9.3800   179.4660     2.5180     0.0300
 1396.5000     8.0060  -999.2500     9.3730   179.7580     2.5060     0.0310
 1397.0000     8.0060  -999.2500     9.3800   174.0470     2.5050     0.0390
 1397.5000     7.5380  -999.2500     9.3480   166.9120     2.5060     0.0390
 1398.0000     6.9050  -999.2500     9.2960   167.3990     2.4940     0.0320
 1398.5000     8.3080  -999.2500     9.2970   177.6240     2.5000     0.0260
 1399.0000     8.0070  -999.2500     9.3680   179.6390     2.4880     0.0140
 1399.5000     7.4360  -999.2500     9.4330   181.3920     2.4780     0.0110
 1400.0000     7.6730  -999.2500     9.4540   178.4880     2.4870     0.0240
 1400.5000     7.9170  -999.2500     9.4410   171.9520     2.4970     0.0440
 1401.0000     8.0060  -999.2500     9.4300   166.7940     2.5100     0.0610
 1401.5000     8.0060  -999.2500     9.4220   164.4770     2.5310     0.0760
 1402.0000     8.1560  -999.2500     9.4000   162.9400     2.5240     0.0530
 1402.5000     7.1660  -999.2500     9.3690   162.8850     2.4900     0.0280
 1403.0000     7.4800  -999.2500     9.3410   163.1540     2.5000     0.0300
 1403.5000     7.7160  -999.2500     9.3130   164.3520     2.5010     0.0300
 1404.0000     7.4360  -999.2500     9.2900   169.6800     2.5070     0.0310
 1404.5000     7.7160  -999.2500     9.3290   170.0260     2.5000     0.0310
 1405.0000     7.6400  -999.2500     9.3310   171.8840     2.4870     0.0270
 1405.5000     7.4640  -999.2500     9.3250   173.2440     2.4830     0.0390
 1406.0000     7.2880  -999.2500     9.3170   183.8040     2.5090     0.0690
 1406.5000     7.1590  -999.2500     9.3120   182.8650     2.5010     0.0550
 1407.0000     7.1380  -999.2500     9.3050   173.0930     2.4710     0.0290
 1407.5000     7.1170  -999.2500     9.2990   171.7650     2.4790     0.0290
 1408.0000     7.0960  -999.2500     9.2960   172.6470     2.4900     0.0400
 1408.5000     7.0750  -999.2500     9.3310   167.8220     2.4810     0.0410
 1409.0000     7.0540  -999.2500     9.3780   163.8610     2.4620     0.0390
 1409.5000     6.7790  -999.2500     9.4250   159.3020     2.4530     0.0340
 1410.0000     7.0000  -999.2500     9.4470   156.0240     2.4590     0.0260
 1410.5000     7.2990  -999.2500     9.4010   156.9490     2.4750     0.0200
 1411.0000     6.9900  -999.2500     9.3540   163.6410     2.4940     0.0470
 1411.5000     6.5330  -999.2500     9.3070   168.2000     2.5150     0.0710
 1412.0000     6.6270  -999.2500     9.4540   166.1560     2.5260     0.0780
 1412.5000     6.8840  -999.2500     9.4780   163.5300     2.5250     0.0550
 1413.0000     7.0340  -999.2500     9.4300   173.7450     2.5250     0.0320
 1413.5000     7.0340  -999.2500     9.3990   177.2410     2.5160     0.0130
