~VERSION INFORMATION
 VERS.                2.0:   CWLS LOG ASCII STANDARD - VERSION 2.0
 WRAP.                 NO:   ONE LINE PER DEPTH STEP
~WELL INFORMATION
#MNEM.UNIT      DATA TYPE    INFORMATION
#----------   ------------   ------------------------------
 STRT.F           53.0000:   START DEPTH
 STOP.F         3110.0000:   STOP DEPTH
 STEP.F            0.5000:   STEP LENGTH
 NULL.          -999.2500:   NO VALUE
 COMP. LAWRENCE ALLISON & ASSOCIATES W:   COMPANY
 WELL. LAWRENCE NPR 3 "AX" #31-34:   WELL
 FLD .      NPR - WILDCAT:   FIELD
 LOC .      S34 T39N R78W:   LOCATION
 CNTY.            NATRONA:   COUNTY
 STAT.            WYOMING:   STATE
 CTRY. UNITED STATES OF AMERICA:   COUNTRY
 SRVC.      DRESSER ATLAS:   SERVICE COMPANY
 DATE.        11-JUL-1986:   LOGDATE
 API .     49025111020000:   API NUMBER
~CURVE INFORMATION
#MNEM.UNIT       API CODE    CURVE DESCRIPTION
#----------   ------------   ------------------------------
 DEPT.F                  :   
 DEN .G/C3   45 350 01 00:   BULK DENSITY
 TEND.LBS    45 635 01 00:   TENSION FROM DENSITY LOG
 CORR.G/C3   45 356 01 00:   DENSITY CORRECTION
 NPHI.DEC    42 890 03 00:   NEUTRON POROSITY SANDSTONE
 SPR .MV     07 010 01 00:   SPONTANEOUS POTENTIAL
 RILM.OHMM   07 120 44 00:   INDUCTION LOG MEDIUM RESISTIVITY
 RILD.OHMM   07 120 46 00:   DEEP INDUCTION RESISTIVITY
 RFOC.OHMM   07 220 04 00:   RESISTIVITY FOCUSED LOG RES.
 TENR.LBS    07 635 01 00:   TENSION FROM RESISTIVITY
 GRR .GAPI   07 310 01 00:   GAMMA RAY FROM RESISTIVITY
 CALR.IN     07 280 01 00:   CALIPER FROM RESISTIVITY
~PARAMETER INFORMATION
#MNEM.UNIT          VALUE    DESCRIPTION
#----------   ------------   ------------------------------
 EKB .F          5074.800:   Kelly bushing
 EGL .F          5063.000:   Ground level
 EDF .F            0.0000:   Drilling floor
 EPD .F            0.0000:   Permanent datum
 TD  .F         3108.0000:   Total depth
 DATE.        11-JUL-1986:   Date logged
 CLNT.            A2DTECH:   Client Code
 SL  . 1796' FWL & 318' FNL:   Surface Location
 PD  .                 GL:   Permanent Datum
 DAPD.F                11:   Feet Above Permanent Datum
 DD  .F              3103:   Depth driller
 DL  .F              3108:   Depth logger
 BLI .F              3106:   Bottom log interval
 CS1 .IN            8.625:   Casing size
 CBD1.      8.625" @ 602':   Casing driller 1
 CBL1.F               596:   Casing logger 1
 BS1 .IN            7.875:   Bit size
 BSD1.F              3103:   Depth drilled with bit1
 DFT .            KCL/GEL:   Type fluid in hole
 DFD .                  9:   Density
 DFV .                 42:   Viscosity
 MSS .           MUD/TANK:   Source of sample
 RMS .OHMM           .352:   Rm
 MST .F                82:   Rm Meas. temp.
 RMF .OHMM           .264:   Rmf
 MFST.F                82:   Rmf Meas. temp.
 RMC .OHMM            .44:   Rmc
 MCST.F                82:   Rmc Meas. temp.
 MFSS.               CALC:   Source Rmf.
 MCSS.               CALC:   Source Rmc.
 RMB .OHMM            .23:   Rm. at BHT
 BHT .F               115:   BHT.
 TCS .HRS               3:   Time Circ. stopped
 MRT .F               115:   Maximum recorded temp.
 LUN .            HL-6264:   Logging unit number
 LUL .           GILLETTE:   Logging unit location
 ENGI.     P. M. FASHSING:   Recorded By
 WITN.             STRONG:   Witnessed by
 ORIG.           5" PRINT:   Origin of data
 UWI .     49025111020000:   Unique Well ID
 DICO. A2D TECHNOLOGIES, INC.:   Digitizing Company
~OTHER INFORMATION
~A   DEPT      DEN       TEND       CORR       NPHI        SPR       RILM       RILD       RFOC       TENR         GRR      CALR   
# ...
 3072.5000  -999.2500   145.2410     0.0920     0.2930   -64.2310     2.5110     2.3610     3.0780   112.3040  -999.2500  -999.2500
 3073.0000  -999.2500   148.1080     0.0920     0.2900   -64.1830     2.4970     2.3430     3.1960   115.5200  -999.2500  -999.2500
 3073.5000  -999.2500   150.9760     0.0920     0.3090   -64.1360     2.4690     2.3200     3.2230   119.0790  -999.2500  -999.2500
 3074.0000  -999.2500   153.8430     0.0920     0.3300   -64.0880     2.4240     2.2890     3.1470   122.6970  -999.2500  -999.2500
 3074.5000  -999.2500   157.3960     0.0920     0.3360   -64.0400     2.3790     2.2580     3.0370   126.3150  -999.2500  -999.2500
 3075.0000  -999.2500   161.2060     0.0920     0.3300   -63.9920     2.3340     2.2270     2.9280   129.9340  -999.2500  -999.2500
 3075.5000  -999.2500   165.0160     0.0920     0.3210   -63.9450     2.3400     2.1970     2.8190   133.5520  -999.2500  -999.2500
 3076.0000  -999.2500   168.8260     0.0920     0.3140   -63.8970     2.3460     2.1660     2.7550   136.6720  -999.2500  -999.2500
 3076.5000  -999.2500   172.6360     0.0920     0.3180   -63.8490     2.3520     2.1350     2.8510   139.2050  -999.2500  -999.2500
 3077.0000  -999.2500   176.4460     0.0920     0.3230   -63.8020     2.3560     2.1040     2.9930   141.7370  -999.2500  -999.2500
 3077.5000  -999.2500   180.2550     0.0920     0.3160   -63.7520     2.2990     2.0730     3.1640   144.2700  -999.2500  -999.2500
 3078.0000  -999.2500   184.0650     0.0920     0.3040   -63.6420     2.2560     2.0430     3.0500   146.4150  -999.2500  -999.2500
 3078.5000  -999.2500   187.8750     0.0920     0.3000   -63.5310     2.2080     2.0140     2.8620   149.1900  -999.2500  -999.2500
 3079.0000  -999.2500   191.6850     0.0920     0.3080   -63.4200     2.2500     2.0140     2.5830   151.9660  -999.2500  -999.2500
 3079.5000  -999.2500   195.4950     0.0920     0.3160   -63.3100     2.3120     2.0930     2.6580   154.7410  -999.2500  -999.2500
 3080.0000  -999.2500   199.3040     0.0920     0.3180   -63.1990     2.3730     2.1460     2.8010   157.5170  -999.2500  -999.2500
 3080.5000  -999.2500   203.1140     0.0920     0.3040   -63.0890     2.4550     2.2000     2.9440   160.2920  -999.2500  -999.2500
 3081.0000  -999.2500   206.9240     0.0920     0.2850   -62.9780     2.6140     2.2530     3.0870   163.0680  -999.2500  -999.2500
 3081.5000  -999.2500   210.7340     0.0920     0.2570   -62.8680     2.7730     2.3210     3.3280   165.8430  -999.2500  -999.2500
 3082.0000  -999.2500   214.5440     0.0920     0.2670   -62.7570     2.9120     2.4270     3.6690   168.6190  -999.2500  -999.2500
 3082.5000  -999.2500   218.3530     0.0920     0.2990   -62.6470     2.9200     2.5330     4.0580   171.3940  -999.2500  -999.2500
 3083.0000  -999.2500   222.1630     0.0920     0.3190   -62.5070     2.9280     2.6390     4.4090   174.1700  -999.2500  -999.2500
 3083.5000  -999.2500   225.9730     0.0920     0.3270   -62.1900     2.9360     2.7450     4.0860   176.9450  -999.2500  -999.2500
 3084.0000  -999.2500   229.7830     0.0920     0.3270   -61.8700     3.0890     2.9170     3.6320   179.7210  -999.2500  -999.2500
 3084.5000  -999.2500   233.5930     0.0920     0.3270   -61.5490     3.3170     3.1230     3.2530   182.4960  -999.2500  -999.2500
 3085.0000  -999.2500   237.4030     0.0920     0.3270   -61.2160     3.5440     3.3300     3.5750   187.6880  -999.2500  -999.2500
 3085.5000  -999.2500   241.2120     0.0920     0.3270   -61.2360     3.7720     3.5360     4.1730   197.4290  -999.2500  -999.2500
 3086.0000  -999.2500   246.0630     0.0920     0.3270   -61.3590     4.0260     3.7430     4.7490   207.1700  -999.2500  -999.2500
 3086.5000  -999.2500   251.3700     0.0920     0.3270   -61.4820     4.3730     3.9500     5.3020   216.9110  -999.2500  -999.2500
 3087.0000  -999.2500   256.6770     0.0920     0.3270   -61.4630     4.7200     4.1990     5.4760   226.6520  -999.2500  -999.2500
 3087.5000  -999.2500   261.9840     0.0920     0.3270   -61.1090     5.0680     4.8020     5.6380   224.3260  -999.2500  -999.2500
 3088.0000  -999.2500   267.2910     0.0920     0.3270   -60.7700     5.4150     5.1500     5.8040   231.0940  -999.2500  -999.2500
 3088.5000  -999.2500   272.5990     0.0920     0.3270   -60.4310     5.5580     5.3800     6.0600   237.8620  -999.2500  -999.2500
 3089.0000  -999.2500   277.9060     0.0920     0.3270   -60.0920     5.5720     5.5520     6.2020   244.6300  -999.2500  -999.2500
 3089.5000  -999.2500   283.2130     0.0920     0.3270   -59.7570     5.5860     5.5290     6.1170   251.3980  -999.2500  -999.2500
 3090.0000  -999.2500   288.5200     0.0920     0.3270   -59.5640     5.6040     5.5100     6.0590   258.1660  -999.2500  -999.2500
 3090.5000  -999.2500   293.8270     0.0920     0.3270   -59.6490     5.4290     5.3370     5.9540   264.9340  -999.2500  -999.2500
 3091.0000  -999.2500   299.1350     0.0920  -999.2500   -59.7290     5.1950     5.0420     5.8140   271.7010  -999.2500  -999.2500
 3091.5000  -999.2500   304.4420     0.0920  -999.2500   -59.8100     4.9610     4.7460     5.5110   278.4690  -999.2500  -999.2500
 3092.0000  -999.2500   309.7490     0.0920  -999.2500   -59.8910     4.7280     4.4510     5.2130   285.2370  -999.2500  -999.2500
 3092.5000  -999.2500   316.0630     0.0920  -999.2500   -59.9710     4.5580     4.2500     4.9140   292.0050  -999.2500  -999.2500
 3093.0000  -999.2500   322.5750     0.0920  -999.2500   -60.0520     4.4090     4.3090     4.6160   298.7730  -999.2500  -999.2500
 3093.5000  -999.2500   329.0880     0.0920  -999.2500   -60.1330     4.4340     4.3550     4.4910   305.5410  -999.2500  -999.2500
 3094.0000  -999.2500   335.6000     0.0920  -999.2500   -60.2140     4.4590     4.4000     4.7830   312.3090  -999.2500  -999.2500
 3094.5000  -999.2500   342.1130     0.0920  -999.2500   -60.2940     4.4910     4.4500     5.2540   319.0760  -999.2500  -999.2500
 3095.0000  -999.2500   348.6250     0.0920  -999.2500   -60.3420     4.4590     4.4110     5.7240   325.8440  -999.2500  -999.2500
 3095.5000  -999.2500   355.1380     0.0920  -999.2500   -60.3410     4.3950     4.3670     6.1450   332.6120  -999.2500  -999.2500
 3096.0000  -999.2500   361.6500     0.0920  -999.2500   -60.3410     4.3310     4.3230     5.7740   339.3800  -999.2500  -999.2500
 3096.5000  -999.2500   368.1630     0.0920  -999.2500   -60.3410     4.2670     4.2890     5.4520   346.1480  -999.2500  -999.2500
 3097.0000  -999.2500   374.6750     0.0920  -999.2500   -60.3410     4.2020     4.2940     5.1310   352.9160  -999.2500  -999.2500
 3097.5000  -999.2500   381.1880     0.0920  -999.2500   -60.3410     4.1380     4.2990     4.8090   359.6840  -999.2500  -999.2500
 3098.0000  -999.2500   387.7000     0.0920  -999.2500   -60.3410     4.0740     4.3040     4.5210   366.4510  -999.2500  -999.2500
 3098.5000  -999.2500   394.2130     0.0920  -999.2500   -60.3350     4.0100     4.3090     4.4360   373.2190  -999.2500  -999.2500
 3099.0000  -999.2500   400.7250     0.0920  -999.2500   -60.4430     3.9810     4.3140     4.3690   379.9870  -999.2500  -999.2500
 3099.5000  -999.2500   407.2380     0.0920  -999.2500   -60.6340     3.9750     4.3190     4.3690   386.7550  -999.2500  -999.2500
 3100.0000  -999.2500   412.3400     0.0920  -999.2500   -62.4440     3.9700     4.3230     4.4590   393.5230  -999.2500  -999.2500
 3100.5000  -999.2500   417.2210     0.0920  -999.2500   -69.6510     3.9640     4.3280     4.6600   400.2910  -999.2500  -999.2500
 3101.0000  -999.2500   422.1010     0.0920  -999.2500   -76.9290     3.9590     4.3330     4.6400   407.0590  -999.2500  -999.2500
 3101.5000  -999.2500   426.9820     0.0920  -999.2500   -84.9370     3.9530     4.3380     4.5710   411.2560  -999.2500  -999.2500
 3102.0000  -999.2500   431.8620     0.0920  -999.2500   -90.7390     3.9480     4.3430     4.2780   414.5750  -999.2500  -999.2500
 3102.5000  -999.2500   436.7430     0.0920  -999.2500   -93.5320     3.9470     4.3480     3.9840   417.8930  -999.2500  -999.2500
