~VERSION INFORMATION
 VERS.                2.0:   CWLS LOG ASCII STANDARD - VERSION 2.0
 WRAP.                 NO:   ONE LINE PER DEPTH STEP
~WELL INFORMATION
#MNEM.UNIT      DATA TYPE    INFORMATION
#----------   ------------   ------------------------------
 STRT.F           61.5000:   START DEPTH
 STOP.F         4220.0000:   STOP DEPTH
 STEP.F            0.5000:   STEP LENGTH
 NULL.          -999.2500:   NO VALUE
 COMP.   LAWRENCE ALLISON:   COMPANY
 WELL. ALLISON NPR 3 "LX" #28-34:   WELL
 FLD .                NPR:   FIELD
 LOC .      S34 T39N R78W:   LOCATION
 CNTY.            NATRONA:   COUNTY
 STAT.            WYOMING:   STATE
 CTRY. UNITED STATES OF AMERICA:   COUNTRY
 SRVC.       DRESER ATLAS:   SERVICE COMPANY
 DATE.        23-MAR-1983:   LOGDATE
 API .     49025109190000:   API NUMBER
~CURVE INFORMATION
#MNEM.UNIT       API CODE    CURVE DESCRIPTION
#----------   ------------   ------------------------------
 DEPT.F                  :   
 TEND.LBS    45 635 01 00:   TENSION FROM DENSITY LOG
 CORR.G/C3   45 356 01 00:   DENSITY CORRECTION
 RHOB.G/C3   45 350 01 00:   BULK DENSITY
 CN  .DEC    42 890 00 00:   Neutron Porosity
 SPR .MV     07 010 01 00:   SPONTANEOUS POTENTIAL
 GRR .GAPI   07 310 01 00:   GAMMA RAY FROM RESISTIVITY
 TENR.LBS    07 635 01 00:   TENSION FROM RESISTIVITY
 RILD.OHMM   07 120 46 00:   DEEP INDUCTION RESISTIVITY
 RILM.OHMM   07 120 44 00:   INDUCTION LOG MEDIUM RESISTIVITY
 RFOC.OHMM   07 220 01 00:   RESISTIVITY FOCUSED LOG RES.
 TENS.LBS    60 635 01 00:   TENSION FROM SONIC LOG
 DT  .US/F   60 520 00 00:   DELTA TIME
 CALS.IN     60 280 50 00:   CALIPER FROM SONIC LOG
~PARAMETER INFORMATION
#MNEM.UNIT          VALUE    DESCRIPTION
#----------   ------------   ------------------------------
 EKB .F         5184.0000:   Kelly bushing
 EGL .F         5174.0000:   Ground level
 EDF .F            0.0000:   Drilling floor
 TD  .F         4397.0000:   Total depth
 DATE.        23-MAR-1983:   Date logged
 CLNT.            A2DTECH:   Client Code
 SL  . 942' FWL & 645' FSL:   Surface Location
 PD  .                 GL:   Permanent Datum
 EPD .F              5174:   Elevation Permanent Datum
 LMF .                 KB:   Log Measured From
 DMF .                 KB:   Drilling Measured From
 DAPD.F                10:   Feet Above Permanent Datum
 DD  .F              4397:   Depth driller
 DL  .F              4203:   Depth logger
 BLI .F              4201:   Bottom log interval
 CS1 .IN            9.625:   Casing size
 CBD1.      9.625" @ 659':   Casing driller 1
 CBL1.F               658:   Casing logger 1
 BS1 .IN             8.75:   Bit size
 BSD1.F              4397:   Depth drilled with bit1
 DFT .   GEL/DRISPACK/KCL:   Type fluid in hole
 DFD .                8.6:   Density
 DFV .                 36:   Viscosity
 DFPH.                8.5:   pH
 DFL .                 18:   Fluid loss
 MSS .               TANK:   Source of sample
 RMS .OHMM           0.55:   Rm
 MST .F                74:   Rm Meas. temp.
 RMF .OHMM           0.43:   Rmf
 MFST.F                66:   Rmf Meas. temp.
 RMC .OHMM           0.69:   Rmc
 MCST.F                74:   Rmc Meas. temp.
 MFSS.               MEAS:   Source Rmf.
 MCSS.               CALC:   Source Rmc.
 RMB .OHMM           0.33:   Rm. at BHT
 BHT .F               122:   BHT.
 TCS .HRS             5.5:   Time Circ. stopped
 MRT .F               122:   Maximum recorded temp.
 LUN .               6270:   Logging unit number
 LUL .              WLSTN:   Logging unit location
 ENGI.             REEVES:   Recorded By
 WITN.             STRONG:   Witnessed by
 ORIG.           5" PRINT:   Origin of data
 UWI .     49025109190000:   Unique Well ID
 DICO. A2D TECHNOLOGIES, INC.:   Digitizing Company
~OTHER INFORMATION
~A   DEPT     TEND       CORR       RHOB         CN        SPR         GRR      TENR       RILD       RILM       RFOC       TENS         DT       CALS   
# ...
 4169.5000   228.3570     0.0310     2.5060     0.2090   -42.7730  -999.2500   340.0330     2.4380     2.6050     2.8020   324.5230    93.6590    15.5000
 4170.0000   231.0150     0.0300     2.5200     0.2120   -43.0320  -999.2500   343.3870     2.4830     2.6880     3.0610   327.6860    88.9360    15.5000
 4170.5000   233.6730     0.0260     2.5310     0.2150   -43.2860  -999.2500   346.1920     2.5290     2.7250     3.2770   330.8480    83.8760    15.5000
 4171.0000   235.9720     0.0220     2.5210     0.2210   -43.4890  -999.2500   351.4690     2.5740     2.6390     3.3070   334.0110  -999.2500    15.5000
 4171.5000   240.4970     0.0240     2.5050     0.2260   -43.7560  -999.2500   356.0040     2.6200     2.5780     3.3320   337.1740  -999.2500    15.5000
 4172.0000   244.4840     0.0290     2.5040     0.2310   -43.4780  -999.2500   360.5390     2.6650     2.6070     3.2140   340.3360  -999.2500    15.5000
 4172.5000   248.4710     0.0330     2.5030     0.2350   -43.3150  -999.2500   365.0740     2.7110     2.6850     3.0540   343.4990  -999.2500    15.5000
 4173.0000   252.4580     0.0370     2.5090     0.2390   -43.2370  -999.2500   369.6100     2.7560     2.7630     2.8930   346.6620  -999.2500    15.5000
 4173.5000   256.4440     0.0310     2.5190     0.2210   -43.1810  -999.2500   374.1450     2.7750     2.8270     2.8270   351.3570  -999.2500    15.5000
 4174.0000   260.4310     0.0260     2.5280     0.2010   -43.0970  -999.2500   378.6800     3.0060     3.2070     2.8800   356.5110  -999.2500    15.5000
 4174.5000   264.4180     0.0220     2.5370     0.1770   -43.0340  -999.2500   383.2160     3.2010     3.5270     3.1490   361.6650  -999.2500    15.5000
 4175.0000   268.4050     0.0380     2.5470     0.1630   -42.9350  -999.2500   387.7510     3.3950     3.8470     3.4200   366.8190  -999.2500    15.5000
 4175.5000   272.3920     0.0520     2.5530     0.1670   -42.8090  -999.2500   392.2860     3.5890     4.1670     3.8990   371.9730  -999.2500    15.5000
 4176.0000   276.3790     0.0560     2.5500     0.1720   -42.6920  -999.2500   396.8220     3.7840     4.4850     4.5160   377.1270  -999.2500    15.5000
 4176.5000   280.3660     0.0340     2.5420     0.1880   -42.5750  -999.2500   401.3570     4.0150     4.2830     5.1330   382.2810  -999.2500    15.5000
 4177.0000   284.3530     0.0080     2.5310     0.1960   -42.4530  -999.2500   405.8920     3.8720     4.0150     5.7010   387.4350  -999.2500    15.5000
 4177.5000   288.3400    -0.0010     2.5180     0.2040   -42.3390  -999.2500   410.4270     3.6970     3.6530     5.3920   392.5890  -999.2500    15.5000
 4178.0000   292.3270     0.0100     2.5000     0.2200   -42.2080  -999.2500   414.9630     3.5210     3.2910     4.8160   397.7430  -999.2500    15.5000
 4178.5000   296.3140     0.0360     2.4670     0.2520   -42.1440  -999.2500   419.4980     3.3460     2.9290     4.1360   402.8970  -999.2500    15.5000
 4179.0000   300.3010     0.0650     2.4440     0.2490   -42.0740  -999.2500   424.0330     3.1710     2.5780     3.4560   408.0510  -999.2500    15.5000
 4179.5000   304.2880     0.0750     2.4460     0.2410   -42.0100  -999.2500   428.5690     2.9950     2.8340     2.7760   413.2050  -999.2500    15.5000
 4180.0000   308.2740     0.0660     2.4780     0.2190   -41.9390  -999.2500   433.1040     2.8270     3.0820     2.3510   418.3590  -999.2500    15.5000
 4180.5000   312.2610     0.0590     2.5260     0.1930   -41.8760  -999.2500   437.6390     3.0820     3.3300     3.1940   423.5130  -999.2500    15.5000
 4181.0000   316.2480     0.0520     2.5630     0.1680   -41.8070  -999.2500   442.1750     3.3260     3.5780     4.0050   428.6670  -999.2500    15.5000
 4181.5000   320.2350     0.0450     2.5730     0.1580   -41.8570  -999.2500   446.7100     3.5710     3.8260     4.8150   433.8200  -999.2500    15.5000
 4182.0000   324.2220     0.0450     2.5740     0.1490   -41.9180  -999.2500   451.2450     3.8160     4.0740     5.6260   438.9740  -999.2500    15.5000
 4182.5000   328.2090     0.0450     2.5720     0.1460   -41.9830  -999.2500   456.4130     4.0610     4.3220     6.4370   444.1280  -999.2500    15.5000
 4183.0000   332.1960     0.0450     2.5650     0.1520   -42.0450  -999.2500   460.9510     4.3050     4.5700     7.5190   449.2820  -999.2500    15.5000
 4183.5000   336.1830     0.0440     2.5540     0.1630   -42.1080  -999.2500   466.2240     4.4850     4.7400     7.2210   454.4360  -999.2500    15.5000
 4184.0000   340.1700     0.0410     2.5470     0.1980   -42.1740  -999.2500   471.4980     4.3550     4.8280     6.3860   459.9900  -999.2500    15.5000
 4184.5000   344.1570     0.0380     2.5480     0.2290   -42.2020  -999.2500   476.7710     4.0800     4.4060     5.1130   466.3150  -999.2500    15.5000
 4185.0000   348.1440     0.0350     2.5460     0.2290   -42.2000  -999.2500   482.0450     3.8040     4.0110     3.9410   472.6410  -999.2500    15.5000
 4185.5000   352.1310     0.0320     2.5430     0.2220   -42.2000  -999.2500   487.3180     3.5280     3.6170     3.3380   478.9660  -999.2500    15.5000
 4186.0000   356.1170     0.0080     2.5360     0.2150   -42.2000  -999.2500   492.5920     3.2770     3.2230     3.4910   485.2910  -999.2500    15.5000
 4186.5000   360.1040     0.0010     2.5280     0.2090   -42.2000  -999.2500   497.8650     3.0770     3.0740     3.8050   491.6160  -999.2500    15.5000
 4187.0000   364.0910     0.0010     2.5230     0.2050   -42.2000  -999.2500   503.1390     2.9990     3.0360     4.0890   497.9420  -999.2500    15.5000
 4187.5000   368.0780     0.0010     2.5230     0.2040   -42.1990  -999.2500   508.4120     2.9200     2.9980     3.9200   504.2670  -999.2500    15.5000
 4188.0000   372.0650     0.0000     2.5220  -999.2500   -42.2010  -999.2500   513.6850     2.8420     2.9330     3.6760   510.4700  -999.2500    15.5000
 4188.5000   376.0520    -0.0010     2.5200  -999.2500   -42.1990  -999.2500   518.9590     2.7630     2.9590     3.4330   516.4950  -999.2500    15.5000
 4189.0000   380.0390    -0.0020     2.5190  -999.2500   -42.2000  -999.2500   524.2320     2.7250     3.0430     3.2170   522.5190  -999.2500    15.5000
 4189.5000   384.0260    -0.0030     2.5240  -999.2500   -42.2030  -999.2500   529.5060     2.6750     3.1000     3.1580   528.5430  -999.2500    15.5000
 4190.0000   388.0130     0.0060     2.5380  -999.2500   -42.1870  -999.2500   534.7790     2.6820     3.1000     3.2920   534.5670  -999.2500    15.5000
 4190.5000   392.0000     0.0180     2.5560  -999.2500   -42.3440  -999.2500   540.0530     2.6910     2.9760     3.4380   540.5910  -999.2500    15.5000
 4191.0000   395.9870     0.0290     2.5670  -999.2500   -42.6140  -999.2500   545.3260     2.6990     2.8800     3.5840   546.6150  -999.2500    15.5000
 4191.5000   399.9740     0.0380     2.5710  -999.2500   -42.8790  -999.2500   550.6000     2.7070     2.8580     3.7980   552.6390  -999.2500    15.5000
 4192.0000   403.9610     0.0420     2.5700  -999.2500  -999.2500  -999.2500   555.8730     2.7160     2.8380     3.7100   558.6630  -999.2500    15.5000
 4192.5000   407.9470     0.0470     2.5670  -999.2500  -999.2500  -999.2500   561.1460     2.7250     2.8190     3.5450   564.6870  -999.2500    15.4970
 4193.0000   411.9340     0.0510     2.5630  -999.2500  -999.2500  -999.2500   566.4200     2.6690     2.7990     3.3800   570.7110  -999.2500    15.4910
 4193.5000   416.3330     0.0560     2.5560  -999.2500  -999.2500  -999.2500   571.6930     2.6100     2.7800     3.3380   576.7360  -999.2500    15.4850
 4194.0000   425.3910     0.0600     2.5470  -999.2500  -999.2500  -999.2500   576.9670     2.5500     2.7600     3.3380   582.7600  -999.2500    15.4800
 4194.5000   435.4910     0.0610     2.5260  -999.2500  -999.2500  -999.2500   582.2400     2.4910     2.7410     3.2770   588.7840  -999.2500    15.4750
 4195.0000   445.5910     0.0610     2.5290  -999.2500  -999.2500  -999.2500   586.6730     2.4320     2.7250     3.1410   594.8080  -999.2500    15.4690
