~VERSION INFORMATION
 VERS.                2.0:   CWLS LOG ASCII STANDARD - VERSION 2.0
 WRAP.                 NO:   ONE LINE PER DEPTH STEP
~WELL INFORMATION
#MNEM.UNIT      DATA TYPE    INFORMATION
#----------   ------------   ------------------------------
 STRT.F          220.0000:   START DEPTH
 STOP.F         3284.5000:   STOP DEPTH
 STEP.F            0.5000:   STEP LENGTH
 NULL.          -999.2500:   NO VALUE
 COMP.    FENIX & SCISSON:   COMPANY
 WELL. FENIX HARPEL "A" #85-28:   WELL
 FLD .              NPR-3:   FIELD
 LOC .      S28 T39N R78W:   LOCATION
 CNTY.            NATRONA:   COUNTY
 STAT.            WYOMING:   STATE
 CTRY. UNITED STATES OF AMERICA:   COUNTRY
 SRVC.      DRESSER ATLAS:   SERVICE COMPANY
 DATE.        07-AUG-1977:   LOGDATE
 API .     49025104040000:   API NUMBER
~CURVE INFORMATION
#MNEM.UNIT       API CODE    CURVE DESCRIPTION
#----------   ------------   ------------------------------
 DEPT.F                  :   
 GRD .GAPI   45 310 01 00:   GAMMA RAY FROM DENSITY LOG
 CALD.IN     45 280 60 00:   CALIPER FROM DENSITY LOG
 CORR.G/C3   45 356 01 00:   DENSITY CORRECTION
 RHOB.G/C3   45 350 01 00:   BULK DENSITY
 TEND.LBS    45 635 01 00:   TENSION FORM DENSITY LOG
 NPHI.DEC    42 890 03 00:   NEUTRON POROSITY SANDSTONE
 SPR .MV     11 010 01 00:   SPONTANEOUS POTENTIAL FROM RES.
 TENR.LBS    11 635 01 00:   TENSION FROM RES.
 LLD .OHMM   11 220 10 00:   LATEROLOG LOG DEEP
 LLS .OHMM   11 220 09 00:   LATEROLOG SHALLOW
 RXO .OHMM   11 270 04 00:   FLUSHED ZONE RESISTIVITY
~PARAMETER INFORMATION
#MNEM.UNIT          VALUE    DESCRIPTION
#----------   ------------   ------------------------------
 EKB .F         5059.0000:   Kelly bushing
 EGL .F         5049.0000:   Ground level
 EDF .F            0.0000:   Drilling floor
 EPD .F            0.0000:   Permanent datum
 TD  .F         3240.0000:   Total depth
 CLNT.            A2DTECH:   Client Code
 SL  . 2310' FSL & 330' FEL:   Surface Location
 PD  .                 GL:   Permanent Datum
 DAPD.F                10:   Feet Above Permanent Datum
 DATE.        07-AUG-1977:   Date Logged [DD-MMM-YYYY]
 DD  .F              3240:   Depth driller
 DL  .F              3267:   Depth logger
 BLI .F              3265:   Bottom log interval
 TLI .F               224:   Top log interval
 CS1 .IN            8.625:   Casing size
 CBD1.      8.625" @ 254':   Casing driller 1
 CBL1.F               224:   Casing logger 1
 BS1 .IN            7.875:   Bit size
 BSD1.F              3240:   Depth drilled with bit1
 DFT .                KCL:   Type fluid in hole
 DFD .                8.8:   Density
 DFV .                 36:   Viscosity
 DFPH.               10.5:   pH
 DFL .                9.6:   Fluid loss
 MSS .         CIRCULATED:   Source of sample
 RMS .OHMM           0.22:   Rm
 MST .F                78:   Rm Meas. temp.
 RMF .OHMM           0.16:   Rmf
 MFST.F                78:   Rmf Meas. temp.
 MFSS.               MEAS:   Source Rmf.
 RMC .OHMM           0.28:   Rmc
 MCST.F                78:   Rmc Meas. temp.
 MCSS.               MEAS:   Source Rmc.
 RMB .OHMM           0.14:   Rm. at BHT
 BHT .F               125:   BHT.
 TCS .HRS               7:   Time Circ. stopped
 MRT .F               125:   Maximum recorded temp.
 LUN .               6134:   Logging unit number
 LUL .              GLTTE:   Logging unit location
 ENGI.              GOULD:   Recorded By
 WITN.         HARRINGTON:   Witnessed by
 ORIG.      2.5" 5" PRINT:   Origin of data
 UWI .     49025104040000:   Unique Well ID
 DICO. A2D TECHNOLOGIES, INC.:   Digitizing Company
~OTHER INFORMATION
~A   DEPT      GRD       CALD       CORR       RHOB       TEND         NPHI      SPR       TENR        LLD        LLS        RXO   
# ...
 1226.5000    48.3404     8.6928     0.0215     2.5032  1058.0045     0.2988   -76.3663   706.2874    11.4795     9.8681     7.8249
 1227.0000    47.9111     8.7247     0.0307     2.5010  1055.9631     0.3034   -76.3019   707.3178    12.3401    10.0302     7.8229
 1227.5000    46.8858     8.7567     0.0368     2.5063  1068.9657     0.3074   -75.9980   708.1611    12.1800     9.7102     7.7022
 1228.0000    45.7114     8.7748     0.0460     2.5072  1066.8665     0.3062   -75.8683   709.0045    11.7980     9.5751     7.6059
 1228.5000    45.7292     8.7909     0.0552     2.4804  1064.7678     0.3007   -75.2777   709.8802    11.8167     9.5732     7.7434
 1229.0000    46.1941     8.8234     0.0763     2.4058  1062.2810     0.3001   -74.6859   740.7186    12.2415     9.7044     7.8602
 1229.5000    46.3610     8.8553     0.0795     2.3432  1060.2397     0.3108   -73.7823   741.6167    11.4746     9.7024     7.8632
 1230.0000    46.3788     8.8873     0.0978     2.2708  1073.1909     0.3288   -73.2030   742.5150    11.3168     9.8355     7.4931
 1230.5000    47.5889     8.8895     0.1217     2.1605  1056.1577     0.3516   -73.2111   743.5832    11.1611     9.5122     7.2874
 1231.0000    48.7990     8.8619     0.1055     2.3993  1039.1239     0.3563   -73.3433   714.4865     9.7739     8.9862     7.1857
 1231.5000    49.4130     8.8338     0.0592     2.4881  1022.0900     0.3524   -73.8499   715.3300     9.2476     8.2137     7.2836
 1232.0000    49.2817     8.8062     0.0534     2.5142  1050.0343     0.3607   -74.4323   716.1732     9.5326     7.7708     7.3828
 1232.5000    49.0016     8.8088     0.0611     2.5250  1062.9855     0.3544   -74.4394   717.0658     9.7682     7.9868     7.2638
 1233.0000    48.8703     8.7951     0.0598     2.5078  1058.6718     0.3393   -74.7458   717.9641     9.8147     8.3230     7.0542
 1233.5000    48.7392     8.7666     0.0705     2.5047  1043.9110     0.3174   -74.7656   718.8624     9.9663     8.0907     6.9456
 1234.0000    49.2062     8.7266     0.0826     2.4923  1056.8622     0.3158   -75.0599   719.7604    10.3150     8.0931     6.8833
 1234.5000    49.5201     8.7288     0.0933     2.4555  1084.2958     0.3197   -75.0674   720.8120    10.3130     8.2040     7.0330
 1235.0000    49.8410     8.7459     0.1069     2.4530  1082.2545     0.3327   -75.0748   721.6552     9.8932     7.9404     7.1992
 1235.5000    50.3076     8.7630     0.1026     2.4628  1095.7164     0.3439   -75.0823   722.4987    10.0286     7.7597     7.6045
 1236.0000    51.0801     8.7949     0.0833     2.4492  1108.2457     0.3481   -75.9439   693.4020    10.1658     7.8797     7.7201
 1236.5000    51.8268     8.8269     0.0640     2.4465  1091.1237     0.3450   -75.5135   694.3114     9.6864     8.5434     7.3916
 1237.0000    49.8748     8.8440     0.0582     2.4769  1074.0627     0.3438   -74.9195   695.2095     9.3547     7.9719     7.1878
 1237.5000    48.8572     8.8610     0.0419     2.4735  1071.9640     0.3485   -74.3246   696.1078     9.6152     7.6469     7.3355
 1238.0000    48.1273     8.8632     0.0167     2.4691  1085.0004     0.3200   -74.0180   697.0059    10.4409     7.9687     7.7344
 1238.5000    46.6672     8.8357     0.0303     2.4789  1097.9517     0.3088   -73.7353   698.0405    10.5841     8.3139     8.0161
 1239.0000    48.0102     8.8230     0.0530     2.4730  1095.4008     0.3226   -73.7417   698.8840    10.5995     8.5350     8.0122
 1239.5000    50.9280     8.8103     0.0711     2.4754  1078.3669     0.3238   -74.1712   699.7272    10.4339     8.5331     7.8994
 1240.0000    51.5046     8.8125     0.0892     2.4814  1076.3257     0.3207   -74.9550   700.5988    10.1304     8.4845     7.7882
 1240.5000    49.7985     8.7989     0.1089     2.4852  1074.2843     0.3132   -75.5625   701.4970    10.0079     7.8879     7.7852
 1241.0000    48.7087     8.7871     0.1195     2.4815  1087.2567     0.3032   -74.9676   712.1833    10.2543     7.8054     7.9025
 1241.5000    48.6785     8.8048     0.1257     2.4808  1070.1649     0.3005   -74.3726   733.2335    10.5709     8.0254     8.0225
 1242.0000    47.0541     8.8218     0.1229     2.4824  1067.6509     0.2992   -73.7777   734.3061    10.4237     8.4745     8.2170
 1242.5000    46.2022     8.8240     0.1156     2.4735  1081.1128     0.2983   -73.7388   735.1494    10.4216     8.5904     8.1587
 1243.0000    45.7994     8.8262     0.0978     2.4795  1078.5614     0.2907   -73.7898   735.9928    10.4196     8.3540     8.0966
 1243.5000    46.2688     8.8284     0.0752     2.4476  1076.5201     0.2956   -74.3964   736.8362    10.2749     8.3518     8.0934
 1244.0000    47.6280     8.8306     0.0622     2.4290  1074.4789     0.2987   -74.7147   707.7394    10.2937     8.3495     8.0903
 1244.5000    44.9632     8.8328     0.0774     2.4358  1072.4381     0.2990   -75.3103   708.6826    10.4527     8.4954     8.1994
 1245.0000    47.0675     8.8499     0.0851     2.4381  1070.3969     0.2996   -75.6163   709.5809    10.8219     8.8678     8.3213
 1245.5000    47.9751     8.8670     0.1002     2.4322  1068.3556     0.2998   -75.6219   710.4789    11.2335     9.2565     8.4478
 1246.0000    47.1032     8.8692     0.0674     2.4114  1051.2745     0.3004   -75.6276   711.5347    11.3588     9.3144     8.6542
 1246.5000    46.0778     8.8416     0.0796     2.4181  1033.7782     0.3000   -75.6336   712.3781    10.9944     9.3116     8.3072
 1247.0000    44.8989     8.8438     0.1007     2.4317  1031.7369     0.3000   -75.6396   743.1615    10.9922     9.3092     8.1819
 1247.5000    45.8154     8.8460     0.1488     2.4414  1029.6957     0.3084   -75.6456   744.0049    11.3078     9.4449     8.2922
 1248.0000    46.2759     8.8631     0.1340     2.5311  1043.1576     0.3053   -75.3513   714.9083    11.7722     9.8327     8.5207
 1248.5000    43.6156     8.8653     0.0968     2.5252  1056.1089     0.2989   -75.3584   715.8682    11.6084     9.6569     8.5174
 1249.0000    44.0806     8.8829     0.0775     2.5148  1053.5575     0.2980   -75.1372   716.7665    11.5403     9.3748     8.3776
 1249.5000    45.7377     8.9148     0.0762     2.4992  1051.5162     0.3006   -74.4688   717.6647    12.0330     9.3662     8.1421
 1250.0000    47.6930     8.9165     0.0719     2.4948  1034.4829     0.3066   -74.4745   718.7034    13.6882     9.8212     8.0505
 1250.5000    48.1579     8.8976     0.0600     2.5044  1016.9349     0.3045   -74.8178   719.5468    13.4981    10.0936     7.9968
 1251.0000    48.1758     8.8759     0.0646     2.5133  1000.2994     0.3014   -75.0871   720.3903    12.7713    10.2314     7.6116
 1251.5000    47.8911     8.8624     0.0603     2.5223  1072.5238     0.3065   -75.0931   721.2574    12.0684     9.9436     7.4016
 1252.0000    47.3172     8.8646     0.0424     2.5376  1100.3181     0.3115   -75.0991   722.1557    11.5916     9.6306     7.2974
 1252.5000    46.5899     8.8663     0.0365     2.5407  1068.1431     0.3052   -75.1062   723.0539    11.3372     9.2428     7.1947
 1253.0000    46.7568     8.8680     0.0277     2.5221  1050.9600     0.3060   -75.1118   753.8922    11.0524     8.8499     7.1918
 1253.5000    47.2217     8.8698     0.0173     2.5050  1048.7260     0.3135   -75.1175   725.0288    10.8127     8.8450     7.1888
 1254.0000    48.2828     8.8418     0.0175     2.4983  1031.0386     0.3116   -75.1232   725.8723    11.1124     9.2730     7.1859
 1254.5000    49.1948     8.8435     0.0220     2.4999   998.8635     0.3029   -75.1291   726.7155    11.7402     9.6627     7.1829
 1255.0000    49.9578     8.8601     0.0192     2.5052   996.6729     0.3007   -75.1351   727.5590    11.9009     9.6602     7.2364
 1255.5000    49.2305     8.8619     0.0208     2.5077  1024.4673     0.3010   -75.1411   728.4432    11.5748     9.5251     7.2766
 1256.0000    47.1619     8.8488     0.0194     2.5009  1037.8173     0.3026   -75.1471   729.3412    11.7944     9.6551     7.3743
 1256.5000    45.0933     8.8509     0.0180     2.4957  1050.6191     0.3135   -74.8529   730.2396    12.2793     9.7868     7.3714
