~VERSION INFORMATION
 VERS.                2.0:   CWLS LOG ASCII STANDARD - VERSION 2.0
 WRAP.                 NO:   ONE LINE PER DEPTH STEP
~WELL INFORMATION
#MNEM.UNIT      DATA TYPE    INFORMATION
#----------   ------------   ------------------------------
 STRT.F          200.0000:   START DEPTH
 STOP.F         3080.0000:   STOP DEPTH
 STEP.F            0.5000:   STEP LENGTH
 NULL.          -999.2500:   NO VALUE
 COMP.    FENIX & SCISSON:   COMPANY
 WELL. FENIX NPR 3 "AX" #55-33:   WELL
 FLD .        TEAPOT DOME:   FIELD
 LOC .      S33 T38N R78W:   LOCATION
 CNTY.            NATRONA:   COUNTY
 STAT.            WYOMING:   STATE
 CTRY. UNITED STATES OF AMERICA:   COUNTRY
 SRVC.           BIRDWELL:   SERVICE COMPANY
 DATE.        08-FEB-1978:   LOGDATE
 API .     49025105740000:   API NUMBER
~CURVE INFORMATION
#MNEM.UNIT       API CODE    CURVE DESCRIPTION
#----------   ------------   ------------------------------
 DEPT.F                  :   
 CALD.IN     45 280 60 00:   CALIPER FROM DENSITY LOG
 GRD .GAPI   45 310 01 00:   GAMMA RAY FROM DENSITY LOG
 RHOB.G/C3   45 350 01 00:   BULK DENSITY
 CORR.G/C3   45 356 01 00:   DENSITY CORRECTION
 NPOR.DEC    42 890 03 00:   ALPHA PROCESSED NEUTRON POROSITY
 SPR .MV     05 010 01 00:   SPONTANEOUS POTENTIAL
 SN  .OHMM   05 040 16 00:   SHORT NORMAL 16"
 ILD .OHMM   05 120 46 00:   DEEP INDUCTION RESISTIVITY
~PARAMETER INFORMATION
#MNEM.UNIT          VALUE    DESCRIPTION
#----------   ------------   ------------------------------
 EKB .F         5197.0000:   Kelly bushing
 EGL .F         5187.0000:   Ground level
 EDF .F            0.0000:   Drilling floor
 TD  .F         3084.0000:   Total depth
 DATE.        08-FEB-1978:   Date logged
 CLNT.            A2DTECH:   Client Code
 SL  . 2000' FSL & 2310' FEL:   Surface Location
 PD  .                 GL:   Permanent Datum
 EPD .F              5187:   Elevation Permanent Datum
 LMF .                 KB:   Log Measured From
 DMF .                 KB:   Drilling Measured From
 DAPD.F                10:   Feet Above Permanent Datum
 DD  .F              3084:   Depth driller
 DL  .F              3080:   Depth logger
 BLI .F              3074:   Bottom log interval
 TLI .F               200:   Top log interval
 CS1 .IN            8.625:   Casing size
 CBD1.      8.625" @ 229':   Casing driller 1
 CBL1.F               230:   Casing logger 1
 BS1 .IN            7.875:   Bit size
 BSD1.F              3084:   Depth drilled with bit1
 DFT .     LIGNOSULFONATE:   Type fluid in hole
 DFD .                9.2:   Density
 DFV .                 30:   Viscosity
 DFPH.                  9:   pH
 DFL .                  5:   Fluid loss
 MSS .           FLOWLINE:   Source of sample
 RMS .OHMM            1.5:   Rm
 MST .F                62:   Rm Meas. temp.
 RMF .OHMM            1.2:   Rmf
 MFST.F                66:   Rmf Meas. temp.
 RMC .OHMM            2.8:   Rmc
 MCST.F                65:   Rmc Meas. temp.
 MFSS.               MEAS:   Source Rmf.
 RMB .OHMM            .82:   Rm. at BHT
 BHT .F               114:   BHT.
 TCS .HRS               3:   Time Circ. stopped
 MRT .F               114:   Maximum recorded temp.
 LUN .               2958:   Logging unit number
 LUL .               CASP:   Logging unit location
 ENGI.            POINTER:   Recorded By
 WITN.         HARRINGTON:   Witnessed by
 ORIG.           5" PRINT:   Origin of data
 UWI .     49025105740000:   Unique Well ID
 DICO. A2D TECHNOLOGIES, INC.:   Digitizing Company
~OTHER INFORMATION
~A   DEPT       CALD      GRD       RHOB        CORR      NPOR        SPR         SN        ILD   
# ...
 1901.0000     9.4957   100.8476     2.5575     0.1211  -999.2500   -50.1881    10.2602     8.1720
 1901.5000     9.4761   101.2462     2.5635     0.1211  -999.2500   -50.1839    10.2615     8.1731
 1902.0000     9.4962   102.4369     2.5756     0.1271  -999.2500   -49.9806    10.2628     8.1741
 1902.5000     9.4964   102.0434     2.5856     0.1291  -999.2500   -49.7782    10.2640     8.1749
 1903.0000     9.4967   101.6498     2.5726     0.1312  -999.2500   -49.5749    10.1713     8.1759
 1903.5000     9.5365   101.0582     2.5656     0.1332  -999.2500   -49.5708    10.0795     8.1770
 1904.0000     9.5763   104.2294     2.5676     0.1352  -999.2500   -49.5666     9.8970     8.1780
 1904.5000     9.5964   106.6080     2.5746     0.1393  -999.2500   -49.3634     9.8983     8.1790
 1905.0000     9.6165   110.9691     2.5946     0.1533  -999.2500   -48.9610     9.8995     8.1051
 1905.5000     9.7751   110.9702     2.6027     0.1553  -999.2500   -48.7578     9.8101     8.1063
 1906.0000     9.8348   108.1996     2.5837     0.1454  -999.2500   -48.3555     9.7215     7.9592
 1906.5000     9.9341    96.9143     2.5667     0.1434  -999.2500   -48.5505     9.4582     7.8149
 1907.0000     9.9343    94.5396     2.5427     0.1354  -999.2500   -48.7454     9.2020     7.1286
 1907.5000     9.9346    90.7795     2.5237     0.1334  -999.2500   -48.7413     8.8707     6.9991
 1908.0000     9.9348    87.6131     2.5207     0.1455  -999.2500   -49.1344     8.2426     6.9358
 1908.5000     9.9549    87.2193     2.4758     0.1475  -999.2500   -49.1319     8.5525     6.9367
 1909.0000     9.9355    87.4198     2.4238     0.1475  -999.2500   -49.1278     8.8739     6.9376
 1909.5000    10.0545    88.0163     2.3818     0.1516  -999.2500   -49.1237     8.8750     6.9385
 1910.0000    10.1735    85.4439     2.3318     0.1656  -999.2500   -48.7214     8.7948     6.9393
 1910.5000    11.5404    84.6540     2.3318     0.2236  -999.2500   -48.7173     9.0420     6.9400
 1911.0000    11.1445    85.6467     2.5108     0.2797  -999.2500   -49.1112     9.5560     7.1355
 1911.5000     9.6196    89.8085     2.5698     0.2797  -999.2500   -48.7090    10.0993     7.6818
 1912.0000     9.6199    95.5546     2.5629     0.1437  -999.2500   -49.3019    10.2881     7.9710
 1912.5000     9.5805    98.1320     2.5669     0.1397  -999.2500   -49.2978    10.2893     8.1202
 1913.0000     9.5807    99.5210     2.5849     0.1438  -999.2500   -49.2937    10.3857     8.1964
 1913.5000     9.5810    97.5427     2.5879     0.1478  -999.2500   -49.2895    10.6772     8.2732
 1914.0000     9.5020    97.1491     2.6009     0.1558  -999.2500   -49.4852    10.8767     8.4281
 1914.5000     9.5023    95.7650     2.6319     0.1619  -999.2500   -49.4810    10.9786     8.5071
 1915.0000     9.5025    94.3808     2.6149     0.1119  -999.2500   -49.4769    10.9799     8.5082
 1915.5000     9.5027    94.3833     2.6170     0.0999  -999.2500   -49.4727    10.9813     8.5092
 1916.0000     9.5030    94.5838     2.6020     0.0900  -999.2500   -49.4686    10.9824     8.5101
 1916.5000     9.4835    95.7743     2.5720     0.0740  -999.2500   -49.4669    10.9840     8.5112
 1917.0000     9.4440   100.1348     2.5620     0.0780  -999.2500   -48.4654    10.9854     8.5122
 1917.5000     9.4443   100.1373     2.5820     0.0900  -999.2500   -48.2623    10.9859     8.5133
 1918.0000     9.4247   100.3380     2.5900     0.0961  -999.2500   -47.8602    10.9881     8.5144
 1918.5000     9.4051   100.9348     2.5751     0.0941  -999.2500   -48.0551    10.9894     8.5154
 1919.0000     9.3856   102.9183     2.5621     0.0881  -999.2500   -48.0510    10.9908     8.5165
 1919.5000     9.4056   103.7132     2.5611     0.0942  -999.2500   -48.2458    10.8916     8.5176
 1920.0000     9.4059   103.5172     2.5661     0.1002  -999.2500   -48.0436    10.9933     8.5187
 1920.5000     9.3863   103.7178     2.5711     0.1062  -999.2500   -48.2384    10.9946     8.5197
 1921.0000     9.4063   103.9185     2.5761     0.1183  -999.2500   -49.2290    10.9960     8.5208
 1921.5000     9.4066   104.9121     2.5711     0.1203  -999.2500   -49.6227    10.8967     8.5219
 1922.0000     9.4069   103.3292     2.5662     0.1223  -999.2500   -49.6185    10.8980     8.5229
 1922.5000     9.4071    96.2002     2.5802     0.1283  -999.2500   -50.2112    10.7008     8.5238
 1923.0000     9.4073    95.8064     2.5902     0.1424  -999.2500   -50.4059    10.3157     8.5249
 1923.5000     9.4075    95.4122     2.5752     0.1424  -999.2500   -50.4018    10.2226     8.1423
 1924.0000     9.4077    95.4141     2.5922     0.1484  -999.2500   -49.8008    10.0376     7.9948
 1924.5000     9.4279    94.2284     2.6082     0.1545  -999.2500   -49.5978     9.9470     7.8499
 1925.0000     9.4082    97.4008     2.6082     0.1525  -999.2500   -48.7980     9.9482     7.9235
 1925.5000     9.4085    98.3939     2.5973     0.1425  -999.2500   -48.1972     9.9494     7.8519
 1926.0000     9.3889    99.1884     2.5973     0.1306  -999.2500   -48.1939     9.9507     7.8529
 1926.5000     9.4090    97.6064     2.5933     0.1286  -999.2500   -48.1898     9.9519     7.9265
 1927.0000     9.4093    97.0145     2.5913     0.1246  -999.2500   -47.7879     9.9532     7.8549
 1927.5000     9.4095    97.4132     2.5903     0.1186  -999.2500   -47.5849     9.9541     7.6586
 1928.0000     9.4097    99.0008     2.5903     0.1087  -999.2500   -47.7796     9.8643     7.6590
 1928.5000     9.3902    99.3995     2.5884     0.1067  -999.2500   -47.9744     9.8655     7.6606
 1929.0000     9.4102   100.1941     2.5844     0.1047  -999.2500   -48.1692     9.6870     7.6615
 1929.5000     9.4105   103.5650     2.5844     0.1048  -999.2500   -48.7616     9.3384     7.5922
 1930.0000     9.4107   105.7471     2.5924     0.1088  -999.2500   -48.9564     9.0855     7.4544
 1930.5000     9.4109   107.1378     2.6074     0.1068  -999.2500   -48.1568     9.0035     7.3191
 1931.0000     9.3914   107.5351     2.5934     0.1069  -999.2500   -48.3515     8.8406     7.1863
 1931.5000     9.4114   107.3400     2.5814     0.1009  -999.2500   -48.3474     8.6806     7.0558
 1932.0000     9.4315   102.3888     2.5785     0.0949  -999.2500   -48.5429     8.6023     6.9277
 1932.5000     9.4317    97.4376     2.5765     0.0949  -999.2500   -48.7377     8.4466     6.9286
 1933.0000     9.4518    97.0437     2.5695     0.0950  -999.2500   -48.7335     8.2938     6.8659
 1933.5000     9.4520    98.8296     2.5555     0.0950  -999.2500   -48.7294     8.4488     6.8038
 1934.0000     9.5117   100.4174     2.5505     0.0970  -999.2500   -48.7253     8.4498     6.8046
 1934.5000     9.6111   100.2217     2.5655     0.1011  -999.2500   -48.9200     8.4509     6.8055
 1935.0000     9.8093    99.8279     2.5866     0.1051  -999.2500   -49.5123     8.3746     6.8064
 1935.5000     9.4133    97.2543     2.5386     0.1311  -999.2500   -49.5081     8.4530     6.8072
 1936.0000     9.4334   102.8050     2.5516     0.0932  -999.2500   -49.3052     8.6107     6.8081
 1936.5000     9.4733   111.1306     2.5076     0.0692  -999.2500   -48.6858     8.6118     7.0293
 1937.0000     9.5925   113.3126     2.5086     0.0832  -999.2500   -49.2781     8.7727     7.1824
 1937.5000     9.9297   109.1541     2.5346     0.0992  -999.2500   -49.2740     8.9366     7.1829
 1938.0000     9.2759   105.1932     2.5346     0.1113  -999.2500   -49.0718     9.1035     7.1837
 1938.5000     9.2761   102.2231     2.5727     0.0713  -999.2500   -48.6701     9.1046     7.1846
 1939.0000     9.2763   102.0275     2.5697     0.0713  -999.2500   -48.2684     9.1058     7.1197
 1939.5000     9.2765   102.0300     2.5647     0.0694  -999.2500   -48.2643     9.1069     7.1206
 1940.0000     9.2966   102.0325     2.5567     0.0714  -999.2500   -48.2790     9.1081     7.1215
 1940.5000     9.2969   102.0351     2.5597     0.0754  -999.2500   -48.0761     9.1092     7.1224
 1941.0000     9.2971   101.0467     2.5637     0.0775  -999.2500   -48.2707     9.1103     7.0580
