~VERSION INFORMATION
 VERS.                2.0:   CWLS LOG ASCII STANDARD - VERSION 2.0
 WRAP.                 NO:   ONE LINE PER DEPTH STEP
~WELL INFORMATION
#MNEM.UNIT      DATA TYPE    INFORMATION
#----------   ------------   ------------------------------
 STRT.F          502.0000:   START DEPTH
 STOP.F         3068.0000:   STOP DEPTH
 STEP.F            0.5000:   STEP LENGTH
 NULL.          -999.2500:   NO VALUE
 COMP. LAWRENCE ALLISON AND ASSOCIATES:   COMPANY
 WELL. LAWRENCE NPR TX #85-33:   WELL
 FLD .              N P R:   FIELD
 LOC .      S33 T39N R78W:   LOCATION
 CNTY.            NATRONA:   COUNTY
 STAT.            WYOMING:   STATE
 CTRY. UNITED STATES OF AMERICA:   COUNTRY
 SRVC.       SCHLUMBERGER:   SERVICE COMPANY
 DATE.        20-JUN-1982:   LOGDATE
 API .     49025107990001:   API NUMBER
~CURVE INFORMATION
#MNEM.UNIT       API CODE    CURVE DESCRIPTION
#----------   ------------   ------------------------------
 DEPT.F                  :   
 RHOB.G/C3   45 350 01 00:   BULK DENSITY
 GRD .GAPI   45 310 01 00:   GAMMA RAY FROM DENSITY LOG
 CALD.IN     45 280 60 00:   CALIPER FROM DENSITY LOG
 CORR.G/C3   45 356 01 00:   DENSITY CORRECTION
 TEND.LBS    45 635 01 00:   TENSION FROM DENSITY LOG
 NPHI.DEC    42 890 03 00:   NEUTRON POROSITY SANDSTONE
 TENR.LBS    07 635 01 00:   TENSION FROM RESISTIVITY
 SPR .MV     07 010 01 00:   SPONTANEOUS POTENTIAL
 ILD .OHMM   07 120 46 00:   DEEP INDUCTION RESISTIVITY
 ILM .OHMM   07 120 44 00:   INDUCTION LOG MEDIUM RESISTIVITY
 SFL .OHMM   07 220 01 00:   SHALLOW FOCUSED LOG RESISTIVITY
~PARAMETER INFORMATION
#MNEM.UNIT          VALUE    DESCRIPTION
#----------   ------------   ------------------------------
 EKB .F         5123.0000:   Kelly bushing
 EGL .F         5113.0000:   Ground level
 EDF .F         5122.0000:   Drilling floor
 EPD .F         5113.0000:   Permanent datum
 TD  .F         3100.0000:   Total depth
 DATE.        20-JUN-1982:   Date logged
 CLNT.            A2DTECH:   Client Code
 SL  . 2263' FSL & 293' FEL:   Surface Location
 PD  .                 GL:   Permanent Datum
 DD  .F              3100:   Depth driller
 DL  .F              3056:   Depth logger
 BLI .F              3050:   Bottom log interval
 CS1 .IN            9.625:   Casing size
 CBD1.      9.625" @ 524':   Casing driller 1
 CBL1.F               520:   Casing logger 1
 BS1 .IN            7.875:   Bit size
 DFT .           POLY/KCL:   Type fluid in hole
 DFD .                8.4:   Density
 DFV .                 40:   Viscosity
 DFPH.                7.6:   pH
 DFL .                 10:   Fluid loss
 MSS .               TANK:   Source of sample
 RMS .OHMM            .92:   Rm
 MST .F                66:   Rm Meas. temp.
 RMF .OHMM           .603:   Rmf
 MFST.F                68:   Rmf Meas. temp.
 MFSS.               MEAS:   Source Rmf.
 RMB .OHMM           .515:   Rm. at BHT
 BHT .F               118:   BHT.
 TCS .HRS             815:   Time Circ. stopped
 MRT .F               118:   Maximum recorded temp.
 LUN .               8035:   Logging unit number
 LUL .               CSPR:   Logging unit location
 ENGI.              PENNY:   Recorded By
 WITN.           JENNINGS:   Witnessed by
 ORIG.           5" PRINT:   Origin of data
 UWI .     49025107990001:   Unique Well ID
 DICO. A2D TECHNOLOGIES, INC.:   Digitizing Company
 DAPD.                 10:   Feet Above Permanent Datum
 BSD1.               3100:   Depth drilled with bit1
 TLI .                520:   Top log interval
 TLAB.               1100:   Time logger at bottom
~OTHER INFORMATION
~A   DEPT     RHOB         GRD      CALD       CORR       TEND       NPHI       TENR        SPR        ILD        ILM        SFL   
# ...
 1691.5000     2.5100   107.3030     8.9720    -0.0020  1201.4380     0.4160  1465.6030   -38.7900     6.5180     6.3670     7.4570
 1692.0000     2.5180   106.6700     8.9760     0.0000  1198.8300     0.4070  1465.6030   -38.8440     6.5270     6.3930     7.5440
 1692.5000     2.5270   104.9590     8.9790     0.0110  1196.2220     0.3870  1465.6030   -38.7270     6.5350     6.4190     7.6320
 1693.0000     2.5360   104.3950     8.9820     0.0220  1193.6150     0.3780  1465.6030   -38.4650     6.5440     6.4450     7.7190
 1693.5000     2.5450   105.2910     8.9860     0.0290  1191.0070     0.3780  1465.6030   -38.2040     6.5530     6.4700     7.8070
 1694.0000     2.5540   105.4230     8.9890     0.0300  1188.3990     0.4170  1465.6030   -37.9340     6.5610     6.4960     7.8950
 1694.5000     2.5590   102.9900     8.9930     0.0300  1185.7920     0.4370  1465.6030   -37.8670     6.5700     6.5240     7.9820
 1695.0000     2.5530   100.5410     8.9960     0.0310  1183.1840     0.4440  1465.6030   -37.8690     6.5830     6.5240     8.0580
 1695.5000     2.5450   100.3370     9.0000     0.0340  1180.5560     0.4430  1465.6030   -37.9690     6.5650     6.4650     8.0580
 1696.0000     2.5500   103.1290     9.0030     0.0470  1180.7939     0.4300  1465.6030   -38.3150     6.5080     6.4210     7.8070
 1696.5000     2.5530   104.3510     9.0120     0.0600  1181.9780     0.4150  1465.6030   -38.6460     6.4520     6.3770     7.6210
 1697.0000     2.5430   102.1210     9.0270     0.0570  1183.1610     0.4040  1465.6030   -38.9780     6.3950     6.3330     7.4360
 1697.5000     2.5310   100.5140     9.0410     0.0520  1184.3450     0.3970  1465.6030   -39.3110     6.3390     6.2890     7.2500
 1698.0000     2.5360   102.0150     9.0560     0.0570  1185.5280     0.4060  1465.6030   -39.6230     6.2830     6.2460     7.2170
 1698.5000     2.5420   105.1170     9.0700     0.0640  1186.7120     0.4260  1465.6030   -39.6290     6.2260     6.2020     7.3510
 1699.0000     2.5360   106.7510     9.0850     0.0660  1187.8950     0.4460  1465.6030   -39.5460     6.1740     6.1580     7.3460
 1699.5000     2.5320   106.3210     9.0990     0.0640  1189.0790     0.4480  1465.6030   -39.1940     6.1830     6.1170     7.3390
 1700.0000     2.5380   103.5780     9.1140     0.0630  1190.2620     0.4370  1465.6030   -38.8510     6.1930     6.1740     7.3320
 1700.5000     2.5500   101.6360     9.1280     0.0540  1191.4460     0.4370  1465.6030   -38.5070     6.2020     6.1570     7.3250
 1701.0000     2.5430   102.8860     9.1430     0.0430  1192.6290     0.4370  1465.6030   -38.1640     6.2120     6.1440     7.3180
 1701.5000     2.5300   102.2750     9.1570     0.0320  1193.8130     0.4260  1465.6030   -37.8310     6.2220     6.1310     7.3110
 1702.0000     2.5170   100.4600     9.1770     0.0200  1194.9960     0.4090  1465.6030   -37.5600     6.2440     6.1170     7.3050
 1702.5000     2.5120    99.2990     9.1980     0.0180  1196.1801     0.4140  1465.6030   -37.2910     6.3360     6.2070     7.2980
 1703.0000     2.5180   101.7620     9.2190     0.0220  1197.3630     0.4230  1465.6030   -37.0190     6.4280     6.3010     7.2900
 1703.5000     2.5280   105.1780     9.2400     0.0280  1198.5470     0.4290  1465.6030   -36.7450     6.5200     6.3960     7.2840
 1704.0000     2.5340   107.8690     9.2610     0.0320  1199.7310     0.4320  1465.6030   -36.4710     6.6120     6.4900     7.4100
 1704.5000     2.5290   109.3790     9.2820     0.0300  1200.1470     0.4360  1465.6030   -36.1060     6.7040     6.5840     7.5710
 1705.0000     2.5220   109.3950     9.2980     0.0240  1199.1080     0.4390  1465.6030   -35.7390     6.7970     6.6790     7.7330
 1705.5000     2.5230   107.3760     9.3110     0.0180  1198.0690     0.4240  1465.9520   -35.3710     6.8890     6.7730     7.8940
 1706.0000     2.5280   104.6290     9.3240     0.0230  1197.0300     0.4090  1466.3760   -35.0020     6.9810     6.8680     8.0550
 1706.5000     2.5330   101.7130     9.3370     0.0330  1195.9910     0.3890  1466.8000   -34.6330     7.0730     6.9570     8.2070
 1707.0000     2.5440   100.3520     9.3500     0.0450  1194.9520     0.3990  1467.2240   -34.2640     7.0860     6.9570     8.2070
 1707.5000     2.5590    98.9540     9.3630     0.0940  1193.9130     0.4110  1467.6470   -33.8950     7.0460     6.9130     8.2070
 1708.0000     2.5650    97.5280     9.3750     0.1580  1192.8740     0.4140  1468.0710   -33.5640     7.0140     6.8300     8.2070
 1708.5000     2.5460    97.3700     9.3890     0.1480  1191.8340     0.4050  1468.4950   -33.5600     6.9830     6.6520     8.0180
 1709.0000     2.5100    99.8960     9.3950     0.1270  1190.7950     0.3990  1468.9189   -33.5880     6.9510     6.4890     7.8450
 1709.5000     2.4740   103.1100     9.4170     0.0790  1189.7560     0.3990  1469.3430   -33.8100     6.9200     6.3460     7.6720
 1710.0000     2.4530   105.4930     9.4100     0.0300  1188.7170     0.3990  1469.7670   -34.0340     6.8880     6.3460     7.6260
 1710.5000     2.4530   104.7800     9.3980     0.0080  1187.6780     0.4190  1470.1910   -34.2580     6.8570     6.3530     7.7630
 1711.0000     2.4710   102.0250     9.3870     0.0000  1186.6390     0.4210  1470.6150   -34.4820     6.8300     6.3660     7.9090
 1711.5000     2.4890    99.5120     9.3760     0.0000  1185.6000     0.4170  1471.0389   -34.7030     6.8490     6.3790     8.0580
 1712.0000     2.5070   100.8230     9.3640     0.0150  1184.5610     0.4100  1471.4630   -34.9240     6.9560     6.3920     8.0970
 1712.5000     2.5200   101.0090     9.3400     0.0310  1183.5220     0.4040  1471.8870   -34.6640     7.1090     6.4050     8.1360
 1713.0000     2.5260    99.9260     9.3340     0.0350  1182.4821     0.4010  1472.3110   -34.5440     7.3330     6.5700     8.1760
 1713.5000     2.5210    98.5510     9.3660     0.0300  1181.4430     0.3980  1472.7350   -34.4100     7.6530     6.7360     8.2430
 1714.0000     2.5100    96.2250     9.3880     0.0220  1180.7120     0.4090  1473.1591   -34.2720     8.0320     7.0570     8.4060
 1714.5000     2.4980    93.8400     9.4110     0.0150  1181.7841     0.4230  1473.5830   -34.1360     8.4120     7.5850     8.5680
 1715.0000     2.4930    93.2760     9.4330     0.0090  1182.8560     0.4330  1474.0070   -33.9970     8.7910     8.1120     8.5930
 1715.5000     2.4970    94.6290     9.4550     0.0110  1183.9290     0.4210  1474.4301   -33.7990     9.1710     8.6390     7.9380
 1716.0000     2.5020    97.4290     9.5480     0.0190  1185.0010     0.4020  1474.8540   -33.5670     9.5940     8.9960     7.4170
 1716.5000     2.5070   100.5200     9.5970     0.0270  1186.0730     0.3900  1475.2780   -33.3300     9.5060     9.0790     7.1510
 1717.0000     2.5160   105.1390     9.6260     0.0300  1187.1450     0.3870  1475.7020   -33.0020     9.3410     8.9290     7.3960
 1717.5000     2.5220   110.1130     9.6570     0.0320  1188.2180     0.3860  1476.1260   -32.3810     8.9790     8.6290     7.8210
 1718.0000     2.5280   111.2600     9.6920     0.0350  1189.2900     0.3980  1476.5500   -31.7750     8.5930     8.3300     8.2470
 1718.5000     2.5330   107.5510     9.7270     0.0440  1190.3621     0.4150  1476.9740   -31.1640     8.1280     8.0430     8.3590
 1719.0000     2.5360   103.7110     9.7630     0.0540  1191.4340     0.4320  1477.3979   -30.7940     7.6300     7.4170     8.0690
 1719.5000     2.5360   102.0360     9.7960     0.0690  1192.5070     0.4490  1477.8220   -30.4900     7.1320     6.7910     7.8820
 1720.0000     2.5250   100.7160     9.8560     0.0880  1193.5790     0.4710  1478.2460   -30.1870     6.6340     6.1080     7.4580
 1720.5000     2.5040    99.3980     9.9170     0.0990  1194.6510     0.4890  1478.6700   -29.8920     6.1670     5.3830     6.8210
 1721.0000     2.4820    98.7810     9.9780     0.0880  1195.7240     0.4850  1479.0940   -29.6600     5.8300     5.0910     6.1450
 1721.5000     2.4680    98.7730    10.0390     0.0690  1196.7960     0.4650  1479.5179   -29.4440     5.5810     5.2060     5.4790
