~VERSION INFORMATION
 VERS.                2.0:   CWLS LOG ASCII STANDARD - VERSION 2.0
 WRAP.                 NO:   ONE LINE PER DEPTH STEP
~WELL INFORMATION
#MNEM.UNIT      DATA TYPE    INFORMATION
#----------   ------------   ------------------------------
 STRT.F          204.0000:   START DEPTH
 STOP.F         3040.0000:   STOP DEPTH
 STEP.F            0.5000:   STEP LENGTH
 NULL.          -999.2500:   NO VALUE
 COMP.    FENIX & SCISSON:   COMPANY
 WELL.   FENIX "A" #47-21:   WELL
 FLD .            N P R 3:   FIELD
 LOC .      S21 T39N R78W:   LOCATION
 CNTY.            NATRONA:   COUNTY
 STAT.            WYOMING:   STATE
 CTRY. UNITED STATES OF AMERICA:   COUNTRY
 SRVC.              WELEX:   SERVICE COMPANY
 DATE.        20-JUN-1977:   LOGDATE
 API .     49025103820000:   API NUMBER
~CURVE INFORMATION
#MNEM.UNIT       API CODE    CURVE DESCRIPTION
#----------   ------------   ------------------------------
 DEPT.F                  :   
 SPR .MV     07 010 01 00:   SPONTANEOUS POTENTIAL
 ILM .OHMM   07 120 44 00:   INDUCTION LOG MEDIUM RESISTIVITY
 ILD .OHMM   07 120 46 00:   DEEP INDUCTION RESISTIVITY
 SGRD.OHMM   07 220 05 00:   SHALLOW GUARD LOG RESISTIVITY
 GRD .GAPI   45 310 01 00:   GAMMA RAY FROM DENSITY LOG
 CALD.IN     45 280 60 00:   CALIPER FROM DENSITY LOG
 RHOB.G/C3   45 350 01 00:   BULK DENSITY
 CORR.G/C3   45 356 01 00:   DENSITY CORRECTION
~PARAMETER INFORMATION
#MNEM.UNIT          VALUE    DESCRIPTION
#----------   ------------   ------------------------------
 EKB .F         5010.0000:   Kelly bushing
 EGL .F         5000.0000:   Ground level
 EDF .F            0.0000:   Drilling floor
 TD  .F         3050.0000:   Total depth
 DATE.        20-JUN-1977:   Date logged
 CLNT.            A2DTECH:   Client Code
 SL  . 990' FSL & 2310' FWL:   Surface Location
 PD  .                 GL:   Permanent Datum
 DD  .F              3050:   Depth driller
 DL  .F              3039:   Depth logger
 BLI .F              3037:   Bottom log interval
 CS1 .IN            8.625:   Casing size
 CBD1.      8.625" @ 210':   Casing driller 1
 CBL1.F               215:   Casing logger 1
 BS1 .IN            7.875:   Bit size
 DFT .                KCL:   Type fluid in hole
 DFD .                9.3:   Density
 DFV .                 35:   Viscosity
 DFPH.                7.5:   pH
 DFL .                7.2:   Fluid loss
 MSS .             MUDPIT:   Source of sample
 RMS .OHMM            .22:   Rm
 MST .F                80:   Rm Meas. temp.
 RMF .OHMM            .19:   Rmf
 MFST.F                80:   Rmf Meas. temp.
 RMC .OHMM            .35:   Rmc
 MCST.F                80:   Rmc Meas. temp.
 MFSS.               MEAS:   Source Rmf.
 RMB .OHMM            .15:   Rm. at BHT
 BHT .F               111:   BHT.
 TCS .HRS               4:   Time Circ. stopped
 MRT .F               111:   Maximum recorded temp.
 LUN .               8766:   Logging unit number
 LUL .             CAPSER:   Logging unit location
 ENGI.          T. JOYNER:   Recorded By
 WITN.         PETTINGILL:   Witnessed by
 ORIG.           5" PRINT:   Origin of data
 UWI .     49025103820000:   Unique Well ID
 DICO. A2D TECHNOLOGIES, INC.:   Digitizing Company
 DAPD.                 10:   Feet Above Permanent Datum
 BSD1.               3050:   Depth drilled with bit1
 MCSS.               MEAS:   Source Rmc.
 EPD .               5000:   Elevation Permanent Datum
 LMF .                 KB:   Log Measured From
 DMF .                 KB:   Drilling Measured From
 TLI .                215:   Top log interval
~OTHER INFORMATION
~A   DEPT      SPR        ILM        ILD       SGRD         GRD        CALD       RHOB      CORR  
# ...
 1864.5000   -12.4640     8.4310     7.5630    10.8670   115.1970    10.1370     2.4320     0.0080
 1865.0000   -11.5640     8.5280     7.6660    10.8670   116.5870    10.1390     2.4310     0.0070
 1865.5000    -9.7290     8.6250     8.0280    11.0060   116.4430    10.1400     2.4300     0.0070
 1866.0000    -8.2550     8.7190     7.9640    11.1760   115.4270    10.1420     2.4290     0.0070
 1866.5000    -6.1410     8.6140     7.8870    11.2790   114.5470    10.1440     2.4280     0.0060
 1867.0000    -4.2510     8.5120     7.8100    11.3080   113.6270    10.1460     2.4270     0.0060
 1867.5000    -2.8740     8.4100     7.7320    11.3370   113.0940    10.1480     2.4260     0.0050
 1868.0000    -1.6450     8.3080     7.6550    11.3740   113.4910    10.1490     2.4240     0.0050
 1868.5000    -0.2550     8.2060     7.5780    11.2490   113.8460    10.1510     2.4210     0.0050
 1869.0000  -999.2500     8.1040     7.5000    11.0520   114.2320    10.1530     2.4180     0.0040
 1869.5000  -999.2500     8.0280     7.4230    10.8540   114.6100    10.1790     2.4150     0.0040
 1870.0000  -999.2500     8.0640     7.3450    10.6690   114.9830    10.2170     2.4140     0.0040
 1870.5000  -999.2500     8.0920     7.2680    10.4130   115.3720    10.2560     2.4140     0.0040
 1871.0000  -999.2500     8.1210     7.1740     9.0450   115.7340    10.2730     2.4140     0.0040
 1871.5000  -999.2500     8.1490     7.0780     9.5270   116.0970    10.2700     2.4140     0.0040
 1872.0000  -999.2500     8.1780     6.9320    10.4750   115.6360    10.2430     2.4140     0.0040
 1872.5000  -999.2500     8.2060     6.9660    10.8670   115.4810    10.2130     2.4140     0.0040
 1873.0000  -999.2500     8.2340     7.0370    10.4480   116.0250    10.1810     2.4140     0.0040
 1873.5000  -999.2500     8.2630     7.1080    10.1210   115.4170    10.1520     2.4140     0.0040
 1874.0000  -999.2500     8.2910     7.1790     9.8230   114.2780    10.1210     2.4140     0.0040
 1874.5000  -999.2500     8.3200     7.2500    10.4030   114.2280    10.1120     2.4150     0.0040
 1875.0000  -999.2500     8.3980     7.3210    10.6690   115.6270    10.1070     2.4160     0.0040
 1875.5000  -999.2500     8.4980     7.3930    10.0620   116.8920    10.1020     2.4160     0.0040
 1876.0000  -999.2500     8.5980     7.4640     9.7110   116.3820    10.0960     2.4170     0.0040
 1876.5000  -999.2500     8.6980     7.5350    11.4810   115.3910    10.0910     2.4180     0.0040
 1877.0000  -999.2500     8.7980     7.6060    11.4490   115.5730    10.0860     2.4190     0.0040
 1877.5000  -999.2500     8.8980     7.6710    11.4140   116.0060    10.0810     2.4200     0.0040
 1878.0000  -999.2500     8.9980     7.6980    11.3770   116.1380    10.0750     2.4210     0.0040
 1878.5000    -1.0680     9.0450     7.7250    11.3520   115.8150    10.0750     2.4220     0.0040
 1879.0000    -2.1900     9.0450     7.7510    11.3260   115.3800    10.0760     2.4230     0.0040
 1879.5000    -3.3790     9.0450     7.7780    11.3000   115.4540    10.0780     2.4230     0.0040
 1880.0000    -4.5850     9.0450     7.8050    11.2730   115.6780    10.0790     2.4240     0.0040
 1880.5000    -6.9950     9.0450     7.8310    11.3770   115.8890    10.0810     2.4250     0.0040
 1881.0000    -9.2890     9.0450     7.8580    11.4890   116.1540    10.0820     2.4260     0.0040
 1881.5000   -11.9720     9.0450     7.8850    11.6000   115.7930    10.0840     2.4270     0.0040
 1882.0000   -15.3450     9.0450     7.9110    11.6940   114.9860    10.0850     2.4280     0.0050
 1882.5000   -18.7150     9.0450     7.9380    11.4400   114.2370    10.0860     2.4290     0.0070
 1883.0000   -21.6520     9.0520     7.9540    10.8690   113.4790    10.0880     2.4300     0.0070
 1883.5000   -23.1600     9.0720     7.9400    10.2010   112.6530    10.0890     2.4300     0.0070
 1884.0000   -25.1530     9.0910     7.9280     9.8230   112.1840    10.0910     2.4310     0.0070
 1884.5000   -27.3020     9.1110     7.9170    11.1750   112.6360    10.0920     2.4300     0.0070
 1885.0000   -28.8770     9.1300     7.9060    11.8020   113.0510    10.0940     2.4290     0.0080
 1885.5000   -30.6290     9.1500     7.8950    11.9110   113.5360    10.0950     2.4280     0.0080
 1886.0000   -32.6960     9.1690     7.8840    11.8040   113.7540    10.0960     2.4260     0.0080
 1886.5000   -34.7610     9.1890     7.8730    11.5560   113.5740    10.0980     2.4250     0.0080
 1887.0000   -36.8250     9.2080     7.8610    11.0670   113.4460    10.0990     2.4230     0.0080
 1887.5000   -38.8940     9.2280     7.8500     9.3830   113.3000    10.1010     2.4220     0.0090
 1888.0000   -40.7980     9.2470     7.8390    10.6040   113.1600    10.1020     2.4200     0.0090
 1888.5000   -42.0910     9.2670     7.8280    11.9010   113.0130    10.1040     2.4200     0.0090
 1889.0000   -42.9530     9.2860     7.8170    12.0640   112.9080    10.1050     2.4220     0.0090
 1889.5000   -43.7460     9.3060     7.7980    12.2280   112.6710    10.1070     2.4230     0.0100
 1890.0000   -44.1670     9.3250     7.7700    12.3560   112.4650    10.1080     2.4240     0.0100
 1890.5000   -44.2680     9.3450     7.7410    12.0790   112.2230    10.1090     2.4260     0.0100
 1891.0000   -44.1390     9.3640     7.7120    11.8520   112.2140    10.1110     2.4270     0.0100
 1891.5000   -43.7750     9.3820     7.6830    11.6250   112.0950    10.1120     2.4280     0.0110
 1892.0000   -43.3800     9.3500     7.6540    11.4110   111.7020    10.1140     2.4300     0.0110
 1892.5000   -42.8520     9.3190     7.6260    10.7800   111.3090    10.1130     2.4310     0.0110
 1893.0000   -42.3340     9.2870     7.5980    10.0980   110.9050    10.1100     2.4310     0.0110
 1893.5000   -41.8180     9.2550     7.6320    10.7820   110.6240    10.1080     2.4320     0.0120
 1894.0000   -41.2970     9.2120     7.6640    11.2730   110.6350    10.1050     2.4330     0.0120
 1894.5000   -40.7690     9.2420     7.6970    11.3230   110.4070    10.1030     2.4340     0.0120
 1895.0000   -40.1710     9.3080     7.7290    11.3710   110.0380    10.1000     2.4340     0.0120
 1895.5000   -40.4050     9.3740     7.7620    11.4190   109.8220    10.0980     2.4350     0.0120
 1896.0000   -40.7290     9.4400     7.7940    11.4670   109.8590    10.0960     2.4340     0.0110
 1896.5000   -41.4870     9.5050     7.8260    11.5140   109.8070    10.0930     2.4330     0.0100
 1897.0000   -42.3150     9.5710     7.8590    11.5870   110.2120    10.0910     2.4320     0.0090
 1897.5000   -43.2620     9.6370     7.8820    11.5510   111.0050    10.0880     2.4320     0.0080
 1898.0000   -44.3260     9.5780     7.8520    11.4760   111.7400    10.0860     2.4310     0.0070
 1898.5000   -45.3860     9.5020     7.8280    11.4000   112.4820    10.0840     2.4310     0.0060
 1899.0000   -46.5860     9.4260     7.8040    11.2840   113.2320    10.0810     2.4300     0.0050
 1899.5000   -47.4780     9.3500     7.7800    11.1490   113.9740    10.0790     2.4300     0.0040
 1900.0000   -48.1790     9.2740     7.7560    11.0150   114.7200    10.0760     2.4280     0.0030
 1900.5000   -48.5970     9.1980     7.7110    10.8670   115.4650    10.0750     2.4260     0.0020
 1901.0000   -48.1160     9.1220     7.6190    10.9040   116.2090    10.0750     2.4240     0.0010
 1901.5000   -47.3530     9.0470     7.5270    10.9670   116.9540    10.0750     2.4220     0.0000
 1902.0000   -45.7930     8.9660     7.4340    10.8950   117.6990    10.0750     2.4200    -0.0010
 1902.5000   -43.9540     8.9830     7.3420    10.7510   118.4450    10.0750     2.4210    -0.0010
 1903.0000   -42.1030     9.0070     7.2580    10.6070   119.1880    10.0750     2.4230     0.0000
 1903.5000   -40.2080     9.0300     7.3240    10.4750   119.9340    10.0750     2.4260     0.0010
 1904.0000   -39.0660     9.0540     7.3850    10.6910   120.6810    10.0750     2.4290     0.0020
 1904.5000   -39.1960     9.0780     7.4460    10.8900   121.4160    10.0750     2.4320     0.0030
