~VERSION INFORMATION
 VERS.                2.0:   CWLS LOG ASCII STANDARD - VERSION 2.0
 WRAP.                 NO:   ONE LINE PER DEPTH STEP
~WELL INFORMATION
#MNEM.UNIT      DATA TYPE    INFORMATION
#----------   ------------   ------------------------------
 STRT.F           20.0000:   START DEPTH
 STOP.F         4128.0000:   STOP DEPTH
 STEP.F            0.5000:   STEP LENGTH
 NULL.          -999.2500:   NO VALUE
 COMP. LAWRENCE-ALLISON & ASSOCIATES:   COMPANY
 WELL. LAWRENCE "X" #53-3:   WELL
 FLD .             NPR #3:   FIELD
 LOC .       S3 T38N R78W:   LOCATION
 CNTY.            NATRONA:   COUNTY
 STAT.            WYOMING:   STATE
 CTRY. UNITED STATES OF AMERICA:   COUNTRY
 SRVC.      DRESSER ATLAS:   SERVICE COMPANY
 DATE.        18-SEP-1983:   LOGDATE
 API .     49025109370000:   API NUMBER
~CURVE INFORMATION
#MNEM.UNIT       API CODE    CURVE DESCRIPTION
#----------   ------------   ------------------------------
 DEPT.F                  :   
 NPHI.DEC    42 890 03 00:   NEUTRON POROSITY SANDSTONE
 TEND.LBS    45 635 01 00:   TENSION FORM DENSITY LOG
 CORR.G/C3   45 356 01 00:   DENSITY CORRECTION
 RHOB.G/C3   45 350 01 00:   BULK DENSITY
 CALD.IN     45 280 60 00:   CALIPER FROM DENSITY LOG
 GRR .GAPI   07 310 01 00:   GAMMA RAY FROM RESISTIVITY
 TENR.LBS    06 635 01 00:   TENSION FROM RESISTIVITY
 SPR .MV     07 010 01 00:   SPONTANEOUS POTENTIAL
 RILD.OHMM   07 120 46 00:   DEEP INDUCTION RESISTIVITY
 RILM.OHMM   07 120 44 00:   INDUCTION LOG MEDIUM RESISTIVITY
 RSFL.OHMM   07 220 01 00:   SPHERICALLY FOCUSED RESISTIVITY
 TENS.LBS    60 635 01 00:   TENSION FROM SONIC
 DT  .US/F   60 520 00 00:   DELTA TIME
~PARAMETER INFORMATION
#MNEM.UNIT          VALUE    DESCRIPTION
#----------   ------------   ------------------------------
 EKB .F         5214.0000:   Kelly bushing
 EGL .F         5204.0000:   Ground level
 EDF .F            0.0000:   Drilling floor
 TD  .F         4117.0000:   Total depth
 CLNT.            A2DTECH:   Client Code
 PD  .                 GL:   Permanent Datum
 EPD .F              5204:   Elevation Permanent Datum
 LMF .                 KB:   Log Measured From
 DMF .                 KB:   Drilling Measured From
 DAPD.F                10:   Feet Above Permanent Datum
 DATE.        18-SEP-1983:   Date Logged [DD-MMM-YYYY]
 DD  .F              4117:   Depth driller
 DL  .F              4113:   Depth logger
 BLI .F              4110:   Bottom log interval
 TLI .F                 0:   Top log interval
 CS1 .IN            9.625:   Casing size
 CBD1.      9.625" @ 523':   Casing driller 1
 CBL1.F               523:   Casing logger 1
 BS1 .IN            7.875:   Bit size
 BSD1.F              4117:   Depth drilled with bit1
 DFT .            GEL KCL:   Type fluid in hole
 DFD .                9.0:   Density
 DFV .                 42:   Viscosity
 DFPH.                8.5:   pH
 DFL .                 10:   Fluid loss
 MSS .               TANK:   Source of sample
 RMS .OHMM           0.35:   Rm
 MST .F                68:   Rm Meas. temp.
 RMF .OHMM          0.266:   Rmf
 MFST.F                68:   Rmf Meas. temp.
 MFSS.               MEAS:   Source Rmf.
 RMC .OHMM          0.443:   Rmc
 MCST.F                68:   Rmc Meas. temp.
 MCSS.               CALC:   Source Rmc.
 RMB .OHMM          0.185:   Rm. at BHT
 BHT .F               130:   BHT.
 TCS .HRS               4:   Time Circ. stopped
 MRT .F               130:   Maximum recorded temp.
 LUN .               6270:   Logging unit number
 LUL .              WLSTN:   Logging unit location
 ENGI.             REEVES:   Recorded By
 WITN.             STRONG:   Witnessed by
 ORIG.           5" PRINT:   Origin of data
 UWI .     49025109370000:   Unique Well ID
 DICO. A2D TECHNOLOGIES, INC.:   Digitizing Company
~OTHER INFORMATION
~A   DEPT     NPHI       TEND       CORR       RHOB       CALD         GRR      TENR        SPR       RILD       RILM       RSFL       TENS         DT   
# ...
 1476.0000     0.2623   -76.8496     0.0347     2.5522    10.6933   104.5085   -81.5430   -77.4068     6.5117     6.5436     7.0368  -999.2500  -999.2500
 1476.5000     0.2620   -77.0282     0.0317     2.5537    10.7050   106.6132   -81.5430   -77.5628     6.5077     6.4922     6.9333  -999.2500  -999.2500
 1477.0000     0.2644   -77.1710     0.0332     2.5560    10.7128   107.5020   -81.5430   -77.5533     6.4111     6.4847     6.9298  -999.2500  -999.2500
 1477.5000     0.2693   -77.3139     0.0394     2.5597    10.7097   107.1693   -81.5430   -77.2822     6.3613     6.4359     7.0282  -999.2500  -999.2500
 1478.0000     0.2755   -77.4567     0.0484     2.5642    10.7070   106.8424   -81.5430   -76.8490     6.3467     6.3395     7.0761  -999.2500  -999.2500
 1478.5000     0.2743   -77.6018     0.0604     2.5725    10.7042   106.8194   -81.5430   -76.4142     6.3395     6.3352     7.0725  -999.2500  -999.2500
 1479.0000     0.2638   -77.7781     0.0755     2.5785    10.7014   107.4043   -81.5430   -76.1178     6.3503     6.2854     7.0182  -999.2500  -999.2500
 1479.5000     0.2481   -77.9210     0.0937     2.5823    10.6986   106.7676   -81.5422   -75.8401     6.3460     6.2351     6.8161  -999.2500  -999.2500
 1480.0000     0.2448   -78.0638     0.1163     2.5838    10.6958   105.2249   -81.5266   -75.9943     6.3537     6.2309     6.7644  -999.2500  -999.2500
 1480.5000     0.2484   -74.4344     0.1193     2.5789    10.6930   104.8980   -81.7197   -76.1488     6.4312     6.2267     6.7131  -999.2500  -999.2500
 1481.0000     0.2589   -63.3023     0.1088     2.5612    10.6902   107.3066   -76.6602   -76.3045     6.5211     6.4033     6.8562  -999.2500  -999.2500
 1481.5000     0.2719   -59.6387     0.0997     2.5477    10.6875   108.7976   -76.6602   -76.3115     6.7559     6.6816     7.1048  -999.2500  -999.2500
 1482.0000     0.2836   -56.0108     0.0890     2.5349    10.6847   108.4706   -76.2231   -76.4657     6.9498     6.9720     7.3095  -999.2500  -999.2500
 1482.5000     0.2779   -52.4186     0.0726     2.5236    10.6819   107.2318   -75.8117   -76.7746     7.0479     7.0684     7.4662  -999.2500  -999.2500
 1483.0000     0.2571   -52.5641     0.0545     2.5222    10.6791   105.6891   -75.4002   -77.2177     7.0431     7.1661     7.6261  -999.2500  -999.2500
 1483.5000     0.2355   -52.7400     0.0395     2.5244    10.6763   104.4266   -74.9888   -77.6665     7.0383     7.0577     7.7328  -999.2500  -999.2500
 1484.0000     0.2256   -52.8829     0.0274     2.5267    10.6735   103.5097   -74.5774   -77.9680     6.9839     6.9520     7.7297  -999.2500  -999.2500
 1484.5000     0.2220   -53.0166     0.0229     2.5274    10.6708   102.8788   -74.1659   -78.4168     6.9189     6.9473     7.7265  -999.2500  -999.2500
 1485.0000     0.2268   -56.9393     0.0229     2.5237    10.6680   104.3756   -73.7545   -78.7200     6.8765     6.8917     7.6128  -999.2500  -999.2500
 1485.5000     0.2334   -60.8887     0.0229     2.5184    10.6652   103.4407   -73.3430   -78.8743     6.8224     6.8870     7.4463  -999.2500  -999.2500
 1486.0000     0.2418   -64.8023     0.0169     2.5207    10.6624   100.9804   -72.9316   -79.0285     6.8187     6.9323     7.2319  -999.2500  -999.2500
 1486.5000     0.2550   -68.7159     0.0153     2.5364    10.6596   100.9574   -72.5202   -79.0354     6.8319     6.9273     7.0744  -999.2500  -999.2500
 1487.0000     0.2577   -80.1709     0.0170     2.5530    10.6568   102.1502   -72.1087   -78.8951     6.8612     6.9216     6.9703  -999.2500  -999.2500
 1487.5000     0.2505   -87.8582     0.0260     2.5590    10.6537   103.9509   -71.7773   -78.6075     6.8560     6.9169     7.0687  -999.2500  -999.2500
 1488.0000     0.2455   -91.8045     0.0592     2.5582    10.6488   105.1437   -71.7773   -78.1744     6.8522     6.9622     7.1683  -999.2500  -999.2500
 1488.5000     0.2415   -84.4059     0.0954     2.5485    10.6440   105.1150   -71.7773   -78.1813     6.8570     6.9563     7.3212  -999.2500  -999.2500
 1489.0000     0.2424   -69.4658     0.1120     2.5385    10.6392   104.7880   -71.7773   -78.1885     6.8944     6.9523     7.4780  -999.2500  -999.2500
 1489.5000     0.2457   -62.0664     0.0894     2.5297    10.6345   105.0690   -71.7773   -78.0480     6.9441     6.9470     7.5835  -999.2500  -999.2500
 1490.0000     0.2514   -58.4393     0.0548     2.5267    10.6297   106.3016   -71.7773   -77.7604     6.9869     6.9423     7.6904  -999.2500  -999.2500
 1490.5000     0.2511   -54.8352     0.0319     2.5282    10.6249   107.7585   -71.7773   -77.4728     6.9818     6.8866     7.7988  -999.2500  -999.2500
 1491.0000     0.2526   -51.2066     0.0291     2.5320    10.6201   104.6903   -71.7773   -77.0289     7.0289     6.8825     7.9079  -999.2500  -999.2500
 1491.5000     0.2569   -51.3859     0.0352     2.5372    10.6154   100.7159   -71.7773   -76.6065     7.0249     6.8773     7.7349  -999.2500  -999.2500
 1492.0000     0.2577   -51.5288     0.0397     2.5432    10.6106   104.3404   -71.7773   -76.3172     7.0212     6.8727     7.3516  -999.2500  -999.2500
 1492.5000     0.2472   -55.4424     0.0458     2.5492    10.6058   107.6551   -71.7773   -76.1768     7.0676     6.9173     7.1399  -999.2500  -999.2500
 1493.0000     0.2417   -59.3560     0.0503     2.5522    10.6010   108.5439   -71.7773   -75.8910     7.0635     6.9618     7.1370  -999.2500  -999.2500
 1493.5000     0.2538   -63.2730     0.0518     2.5545    10.5963   109.1346   -71.7773   -75.7507     7.0594     6.9571     7.2376  -999.2500  -999.2500
 1494.0000     0.2607   -67.2188     0.0519     2.5560    10.5915   109.1059   -71.7773   -75.7594     7.0553     6.9523     7.3919  -999.2500  -999.2500
 1494.5000     0.2553   -71.1324     0.0534     2.5567    10.5867   106.6090   -71.7773   -75.9136     7.0618     7.0474     7.6598  -999.2500  -999.2500
 1495.0000     0.2540   -75.0460     0.0581     2.5552    10.5819   104.1909   -71.7773   -76.2151     7.0982     7.0426     7.7020  -999.2500  -999.2500
 1495.5000     0.2522   -75.1889     0.0700     2.5500    10.5767   103.5600   -71.7773   -76.6656     7.1454     7.1401     7.7473  -999.2500  -999.2500
 1496.0000     0.2477   -67.8260     0.0776     2.5447    10.5930   105.9686   -71.7773   -76.9671     7.1407     7.1340     7.7053  -999.2500  -999.2500
 1496.5000     0.2438   -60.4274     0.0896     2.5409    10.6122   106.5535   -71.7773   -77.4159     7.1894     7.1819     7.5375  -999.2500  -999.2500
 1497.0000     0.2402   -53.0287     0.0851     2.5432    10.6314   105.3090   -71.7773   -77.7174     7.2367     7.1243     7.4266  -999.2500  -999.2500
 1497.5000     0.2390   -49.3967     0.0701     2.5422    10.6508   104.6838   -72.2574   -78.0412     7.2040     7.1195     8.0349  -999.2500  -999.2500
 1498.0000     0.2414   -42.0022     0.0444     2.5372    10.6619   106.4845   -72.7714   -78.3221     7.1242     7.0118     8.4470  -999.2500  -999.2500
 1498.5000     0.2470   -34.6393     0.0279     2.5349    10.6710   106.4558   -73.2854   -78.3291     7.1204     6.9068     8.3228  -999.2500  -999.2500
 1499.0000     0.2534   -30.9757     0.0354     2.5372    10.6802   105.8191   -73.7994   -78.3360     7.0146     6.8526     7.9667  -999.2500  -999.2500
 1499.5000     0.2591   -27.3478     0.0400     2.5411    10.6893   106.4041   -74.3134   -78.1957     6.9103     6.7467     7.7373  -999.2500  -999.2500
 1500.0000     0.2645   -19.9849     0.0460     2.5485    10.7077   107.2987   -74.8274   -77.9081     6.7527     6.6862     7.3050  -999.2500  -999.2500
 1500.5000     0.2642   -16.1701     0.0520     2.5477    10.7213   105.1333   -75.3415   -77.9175     6.6583     6.5466     6.8895  -999.2500  -999.2500
 1501.0000     0.2619   -16.1348     0.0535     2.5418    10.7348   104.4963   -75.8555   -77.7773     6.6078     6.4070     6.9369  -999.2500  -999.2500
 1501.5000     0.2597   -19.8791     0.0474     2.5358    10.7484   104.4672   -76.3695   -77.4898     6.4172     6.3162     7.1372  -999.2500  -999.2500
