~VERSION INFORMATION
 VERS.                2.0:   CWLS LOG ASCII STANDARD - VERSION 2.0
 WRAP.                 NO:   ONE LINE PER DEPTH STEP
~WELL INFORMATION
#MNEM.UNIT      DATA TYPE    INFORMATION
#----------   ------------   ------------------------------
 STRT.F          205.0000:   START DEPTH
 STOP.F         3171.5000:   STOP DEPTH
 STEP.F            0.5000:   STEP LENGTH
 NULL.          -999.2500:   NO VALUE
 COMP.    FENIX & SCISSON:   COMPANY
 WELL. FENIX & SCISSON  "AX" #27-28:   WELL
 FLD .              NPR 3:   FIELD
 LOC .      S28 T39N R78W:   LOCATION
 CNTY.            NATRONA:   COUNTY
 STAT.            WYOMING:   STATE
 CTRY. UNITED STATES OF AMERICA:   COUNTRY
 SRVC.       SCHLUMBERGER:   SERVICE COMPANY
 DATE.        30-MAY-1977:   LOGDATE
 API .     49025103870000:   API NUMBER
~CURVE INFORMATION
#MNEM.UNIT       API CODE    CURVE DESCRIPTION
#----------   ------------   ------------------------------
 DEPT.F                  :   
 NPHI.DEC    42 890 03 00:   NEUTRON POROSITY SANDSTONE
 CALD.IN     45 280 60 00:   CALIPER FROM DENSITY LOG
 GRD .GAPI   45 310 01 00:   GAMMA RAY FROM DENSITY LOG
 RHOB.G/C3   45 350 01 00:   BULK DENSITY
 CORR.G/C3   45 356 01 00:   DENSITY CORRECTION
 SPR .MV     11 010 01 00:   SPONTANEOUS POTENTIAL
 MSFL.OHMM   11 270 04 00:   MICRO SPHERICALLY FOCUSED RES.
 LLD .OHMM   11 220 10 00:   LATEROLOG LOG DEEP
 LLS .OHMM   11 220 09 00:   LATEROLOG LOG SHALLOW
~PARAMETER INFORMATION
#MNEM.UNIT          VALUE    DESCRIPTION
#----------   ------------   ------------------------------
 EKB .F         5094.0000:   Kelly bushing
 EGL .F         5084.0000:   Ground level
 EDF .F            0.0000:   Drilling floor
 EPD .F            0.0000:   Permanent datum
 TD  .F         3169.0000:   Total depth
 DATE.        30-MAY-1977:   Date logged
 CLNT.            A2DTECH:   Client Code
 SL  . 1266' FSL & 871' FWL:   Surface Location
 PD  .                 GL:   Permanent Datum
 DD  .F              3163:   Depth driller
 DL  .F              3169:   Depth logger
 BLI .F              3168:   Bottom log interval
 CS1 .IN            8.625:   Casing size
 CBD1.      8.625" @ 210':   Casing driller 1
 CBL1.F               219:   Casing logger 1
 BS1 .IN            7.875:   Bit size
 DFT .           SALT/MUD:   Type fluid in hole
 DFD .                8.9:   Density
 DFV .                 32:   Viscosity
 DFPH.                8.5:   pH
 DFL .                5.8:   Fluid loss
 MSS .                PIT:   Source of sample
 RMS .OHMM           .194:   Rm
 MST .F                65:   Rm Meas. temp.
 RMF .OHMM           .165:   Rmf
 MFST.F                65:   Rmf Meas. temp.
 MFSS.               MEAS:   Source Rmf.
 RMB .OHMM           .107:   Rm. at BHT
 BHT .F               118:   BHT.
 MRT .F               118:   Maximum recorded temp.
 LUN .               5642:   Logging unit number
 LUL .               CSPR:   Logging unit location
 ENGI.             MARTIN:   Recorded By
 WITN.         PETTINGILL:   Witnessed by
 ORIG.           5" PRINT:   Origin of data
 UWI .     49025103870000:   Unique Well ID
 DICO. A2D TECHNOLOGIES, INC.:   Digitizing Company
 DAPD.F                10:   Feet Above Permanent Datum
 BSD1.F              3163:   Depth drilled with bit1
 TLI .F               219:   Top log interval
 TLAB.HRS            0930:   Time logger at bottom
~OTHER INFORMATION
~A   DEPT     NPHI         CALD      GRD         RHOB      CORR       SPR       MSFL        LLD        LLS   
# ...
 1774.5000     0.3298     8.3477   186.7812     2.5378     0.0442   -83.8698     9.2875     8.7100     9.0352
 1775.0000     0.3259     8.3486   187.1886     2.5428     0.0612   -84.2635     9.2035     8.3971     9.1193
 1775.5000     0.3223     8.3491   191.5710     2.5129     0.0432   -84.4592     9.7253     8.3207     8.0218
 1776.0000     0.3211     8.3499   195.5533     2.4979     0.0353   -84.4571     9.8160     7.1863     7.8048
 1776.5000     0.3355     8.3307   200.7271     2.5109     0.0503   -84.4549    10.7601     7.1872     7.5245
 1777.0000     0.3546     8.3313   203.1194     2.5419     0.0792   -84.4528    12.0133     7.3885     7.6646
 1777.5000     0.3742     8.3121   203.1273     2.5140     0.0513   -84.8465    12.0147     7.7361     8.3249
 1778.0000     0.3718     8.3128   194.4018     2.5120     0.0404   -84.8444    11.7976     7.9526     8.6375
 1778.5000     0.3686     8.3333   189.6448     2.5230     0.0364   -84.8422    11.2701     8.1008     8.5591
 1779.0000     0.3583     8.3141   190.0500     2.5290     0.0554   -84.8401    10.6678     8.1017     8.5598
 1779.5000     0.3547     8.3147   192.0460     2.5111     0.0434   -84.4420     9.7340     8.0286     8.4054
 1780.0000     0.3407     8.3154   194.0418     2.5221     0.0345   -83.6481     8.8008     7.7402     8.1781
 1780.5000     0.3443     8.3160   195.2433     2.5161     0.0555   -83.8439     7.8844     7.3484     7.7411
 1781.0000     0.3451     8.3167   196.0476     2.5141     0.0662   -83.6437     5.8639     6.8910     7.3274
 1781.5000     0.3475     8.3173   196.4547     2.5062     0.0815   -83.2461     4.2191     6.2289     6.8725
 1782.0000     0.3595     8.3180   198.0532     2.4363     0.0416   -82.6501     4.3767     5.6172     6.0032
 1782.5000     0.3895     8.3186   200.8429     2.4294     0.0376   -82.6479     5.5524     4.9867     5.1932
 1783.0000     0.4242     8.3032   203.4963     2.3955     0.0905   -82.6457     8.6146     5.0330     5.3852
 1783.5000     0.4378     8.2804   207.0841     2.3446    -0.0003   -82.8415    15.1913     5.4667     6.0055
 1784.0000     0.4402     8.2608   211.0689     2.3306    -0.0073   -83.2353    15.1930     6.5079     9.1456
 1784.5000     0.3556     8.2416   217.4333     2.4923     0.0209   -83.6290    14.9193    12.1443    12.4834
 1785.0000     0.3480     8.2420   218.2438     2.5003     0.0347   -84.0228    14.7258    11.3904    12.0348
 1785.5000     0.3506     8.2424   223.8163     2.5013     0.0427   -84.2186    14.0673    10.7816    11.1551
 1786.0000     0.3554     8.2402   231.3741     2.5163     0.0398   -84.2165    12.6025     9.6951    10.3398
 1786.5000     0.3580     8.2381   237.7403     2.5223     0.0727   -84.6103    10.4913     9.0916     9.5720
 1787.0000     0.3616     8.2359   244.1037     2.5114     0.0568   -84.6081     5.0262     8.4970     8.8145
 1787.5000     0.3668     8.2337   252.8542     2.5014     0.0668   -84.4084     4.9808     7.7531     7.6122
 1788.0000     0.4008     8.2315   255.2467     2.4855     0.1037   -84.6038     4.9357     5.5345     5.9158
 1788.5000     0.4347     8.2293   257.6417     2.4715     0.1047   -84.6021     9.1958     5.2379     5.6022
 1789.0000     0.4447     8.2271   263.6097     2.4606     0.0948   -84.6000    11.7731     5.2385     5.6028
 1789.5000     0.4247     8.2250   273.5501     2.4556     0.0409   -84.5974    15.2117     6.5936     7.0339
 1790.0000     0.4083     8.2228   278.7260     2.4516     0.0250   -84.3992    15.9255     9.1740     9.7501
 1790.5000     0.3892     8.2206   277.9394     2.4966     0.0470   -84.3971    18.7785    10.5980    11.4963
 1791.0000     0.3861     8.2184   279.9367     2.4936     0.0490   -84.7889    18.7806    11.1984    12.9688
 1791.5000     0.3653     8.2162   286.3007     2.4906     0.0530   -84.5888    19.0661    11.9425    13.8301
 1792.0000     0.3653     8.2140   292.2674     2.4976     0.0640   -84.3886    20.5203    12.5041    14.6143
 1792.5000     0.3781     8.2119   299.0254     2.4857     0.0700   -84.1889    19.4236    13.2131    15.3020
 1793.0000     0.3809     8.2097   303.8008     2.4707     0.0441   -83.7907    18.8986    14.0910    15.8757
 1793.5000     0.3757     8.2075   306.4128     2.4538     0.0511   -83.7886    19.6072    14.0926    15.8775
 1794.0000     0.3574     8.2053   313.7479     2.4329     0.0182   -83.1924    18.9029    13.5864    15.8794
 1794.5000     0.3590     8.2031   335.9877     2.4409     0.0322   -83.3882    19.4321    13.7135    15.8812
 1795.0000     0.3654     8.2009   338.7773     2.4678     0.0352   -83.1881    22.3663    14.0968    16.0294
 1795.5000     0.3806     8.1988   332.0409     2.4439     0.0302   -83.1859    23.6311    14.7051    16.4785
 1796.0000     0.4013     8.1970   319.3511     2.4290     0.0193   -82.9862    24.5148    15.3396    17.4130
 1796.5000     0.4033     8.2177   285.6284     2.4200     0.0233   -83.1824    25.1999    16.0015    18.2319
 1797.0000     0.3913     8.2182   266.5922     2.4350     0.0463   -83.5759    25.2028    16.6919    19.2658
 1797.5000     0.3794     8.2187   257.0770     2.4230     0.0353   -83.1772    24.0787    17.4190    19.9896
 1798.0000     0.3542     8.2194   238.4417     2.4181     0.0054   -82.5810    23.4295    17.1038    19.8075
 1798.5000     0.3331     8.2201   238.4522     2.4271     0.0284   -82.9749    23.0073    16.1901    19.0309
 1799.0000     0.3347     8.2207   241.2433     2.4331     0.0234   -82.9727    22.5927    15.8975    18.2847
 1799.5000     0.3383     8.2214   241.6532     2.4431     0.0154   -83.1677    21.7834    15.4677    17.5678
 1800.0000     0.3427     8.2221   241.6663     2.4700     0.0554   -83.1667    20.8117    14.9121    16.8790
 1800.5000     0.3443     8.2228   237.8764     2.4805     0.0504   -83.1657    18.7582    14.5732    16.2172
 1801.0000     0.3363     8.2229   228.5796     2.4691     0.0454   -83.1631    17.7545    14.2460    15.6145
 1801.5000     0.3296     8.2231   218.6627     2.4661     0.0235   -83.1618    16.4996    13.7986    14.9160
 1802.0000     0.3284     8.2232   207.9520     2.4821     0.0455   -82.7638    13.9196    13.5480    14.5123
 1802.5000     0.3336     8.2234   190.9052     2.5081     0.0455   -83.1581    11.5927    13.1803    14.1195
 1803.0000     0.3320     8.2235   181.3865     2.5151     0.0355   -82.9585    11.5937    12.9413    13.9917
 1803.5000     0.3288     8.2041   173.4584     2.4952     0.0565   -82.9568    16.1181    13.0026    14.6498
 1804.0000     0.3264     8.2043   162.3453     2.4882     0.0266   -82.7572    32.5500    13.9941    15.9120
 1804.5000     0.3224     8.2045   145.6866     2.5022     0.0625   -82.7565    36.3409    16.0601    20.0164
 1805.0000     0.2986     8.2047   139.7368     2.5182     0.0715   -82.7549    37.3591    23.3975    24.2722
 1805.5000     0.2805     8.2050   141.3286     2.5441     0.0406   -83.1482    32.6201    23.1842    23.1847
 1806.0000     0.2558     8.2052   150.0685     2.5701     0.0646   -82.9493    21.6116    18.8981    19.3670
 1806.5000     0.2422     8.2054   172.6933     2.5911     0.0526   -83.3429    17.0371    15.4043    16.1780
 1807.0000     0.2434     8.2255   181.0325     2.5564     0.0357   -83.3413    16.4259    11.7614    13.1303
 1807.5000     0.3177     8.2257   179.4507     2.5093     0.0487   -84.3295    16.2777    11.5481    13.0113
 1808.0000     0.3416     8.2259   177.0750     2.5023     0.0347   -84.3278    15.9838    11.6555    13.1323
 1808.5000     0.3408     8.2261   179.8590     2.5123     0.0587   -84.3261    15.8396    11.7639    13.0134
 1809.0000     0.3393     8.2263   187.0091     2.5034     0.0487   -84.3244    15.8409    11.5509    12.8956
 1809.5000     0.3361     8.2662   194.1604     2.4984     0.0278   -84.3228    16.1350    11.0337    12.6621
 1810.0000     0.3457     8.2665   191.7837     2.4974     0.0537   -84.5190    16.1364    10.6370    12.5475
 1810.5000     0.3553     8.2468   187.4258     2.5134     0.0308   -84.5174    16.5871    10.7358    12.5485
