~VERSION INFORMATION
 VERS.                2.0:   CWLS LOG ASCII STANDARD - VERSION 2.0
 WRAP.                 NO:   ONE LINE PER DEPTH STEP
~WELL INFORMATION
#MNEM.UNIT      DATA TYPE    INFORMATION
#----------   ------------   ------------------------------
 STRT.F          629.0000:   START DEPTH
 STOP.F         4090.0000:   STOP DEPTH
 STEP.F            0.5000:   STEP LENGTH
 NULL.          -999.2500:   NO VALUE
 COMP. LAWRENCE ALLISON & ASSOCIATES:   COMPANY
 WELL. LAWRENCE NPR 3 "SHX" #36-10:   WELL
 FLD .      NPR - WILDCAT:   FIELD
 LOC .      S10 T38N R78W:   LOCATION
 CNTY.            NATRONA:   COUNTY
 STAT.            WYOMING:   STATE
 CTRY. UNITED STATES OF AMERICA:   COUNTRY
 SRVC.      DRESSER ATLAS:   SERVICE COMPANY
 DATE.        24-DEC-1981:   LOGDATE
 API .     49025108310000:   API NUMBER
~CURVE INFORMATION
#MNEM.UNIT       API CODE    CURVE DESCRIPTION
#----------   ------------   ------------------------------
 DEPT.F                  :   
 DT  .US/F   60 520 00 00:   DELTA TIME
 TENS.LBS    60 635 01 00:   TENSION FROM SONIC
 GRR .GAPI   07 310 01 00:   GAMMA RAY FROM RESISTIVITY
 SPR .MV     07 010 01 00:   SPONTANEOUS POTENTIAL
 RFOC.OHMM   07 220 04 00:   RESISTIVITY FOCUSED LOG RES.
 RILM.OHMM   07 120 44 00:   INDUCTION LOG MEDIUM RESISTIVITY
 RILD.OHMM   07 120 46 00:   DEEP INDUCTION RESISTIVITY
 TENR.LBS    07 635 01 00:   TENSION FROM RESISTIVITY
 NPHI.DEC    42 890 03 00:   NEUTRON POROSITY SANDSTONE
 RHOB.G/C3   45 350 01 00:   BULK DENSITY
 CORR.G/C3   45 356 01 00:   DENSITY CORRECTION
 TEND.LBS    45 635 01 00:   TENSION FROM DENSITY LOG
 CALD.IN     45 280 60 00:   CALIPER FROM DENSITY LOG
~PARAMETER INFORMATION
#MNEM.UNIT          VALUE    DESCRIPTION
#----------   ------------   ------------------------------
 EKB .F         5234.0000:   Kelly bushing
 EGL .F         5224.0000:   Ground level
 EDF .F         5233.0000:   Drilling floor
 EPD .F            0.0000:   Permanent datum
 TD  .F         4100.0000:   Total depth
 DATE.        24-DEC-1981:   Date logged
 CLNT.            A2DTECH:   Client Code
 SL  . 1798' FSL & 1455' FWL:   Surface Location
 PD  .                 GL:   Permanent Datum
 DAPD.F                10:   Feet Above Permanent Datum
 DD  .F              4100:   Depth driller
 DL  .F              4082:   Depth logger
 BLI .F              4074:   Bottom log interval
 TLI .F              2300:   Top log interval
 CS1 .IN            9.625:   Casing size
 CBD1.      9.625" @ 650':   Casing driller 1
 BS1 .IN            7.875:   Bit size
 BSD1.F              4100:   Depth drilled with bit1
 DFT .            KCL/GEL:   Type fluid in hole
 DFD .                9.1:   Density
 DFV .                 60:   Viscosity
 DFPH.                  8:   pH
 DFL .                 12:   Fluid loss
 MSS .           FLOWLINE:   Source of sample
 RMS .OHMM           .536:   Rm
 RMF .OHMM           .402:   Rmf
 RMC .OHMM            067:   Rmc
 MFSS.               CALC:   Source Rmf.
 MCSS.               CALC:   Source Rmc.
 RMB .OHMM            .35:   Rm. at BHT
 BHT .F               135:   BHT.
 TCS .HRS               6:   Time Circ. stopped
 MRT .F               141:   Maximum recorded temp.
 LUL .               GLT1:   Logging unit location
 UWI .     49025108310000:   Unique Well ID
 DICO. A2D TECHNOLOGIES, INC.:   Digitizing Company
~OTHER INFORMATION
~A   DEPT       DT       TENS         GRR       SPR       RFOC       RILM       RILD       TENR       NPHI       RHOB       CORR       TEND       CALD   
# ...
 2995.0000    82.1080   -98.9060   116.0920   -33.0640     7.2120     6.6850     6.5160  -110.3310     0.2510     2.5060    -0.0100   -65.7760     8.1810
 2995.5000    82.2030   -99.3170   124.0640   -32.9830     7.1790     6.6260     6.4220  -110.2760     0.2510     2.5000     0.0030   -66.3390     8.1810
 2996.0000    82.2920   -99.7280   130.4680   -32.9030     7.1450     6.5680     6.3280  -110.2210     0.2500     2.4990     0.0220   -66.9030     8.1810
 2996.5000    82.5950  -100.1390   126.5860   -33.1970     7.1220     6.5100     6.2350  -110.1670     0.2490     2.5000     0.0320   -67.4660     8.1810
 2997.0000    82.8830  -100.5500   121.9680   -33.5360     7.4780     6.4520     6.1410  -110.1120     0.2490     2.5020     0.0130   -68.0300     8.1810
 2997.5000    83.0100  -100.9610   123.7120   -33.8980     7.7460     6.3930     6.0470  -110.0570     0.2530     2.5050    -0.0130   -68.5930     8.1810
 2998.0000    82.7000  -101.3720   126.8980   -34.1680     7.9550     6.3350     5.9530  -110.0030     0.2560     2.5100    -0.0180   -69.1570     8.1810
 2998.5000    82.3900  -101.7830   127.7270   -34.1860     7.6480     6.2890     5.8680  -109.9480     0.2600     2.5170     0.0320   -69.7200     8.1810
 2999.0000    82.4300  -102.1940   126.3550   -33.9430     7.2050     6.2480     5.8680  -109.8930     0.2630     2.5170     0.0680   -70.2840     8.1810
 2999.5000    83.2140  -102.6050   127.0960   -33.6980     6.7620     6.2070     5.6970  -109.8390     0.2670     2.5100     0.0680   -70.8470     8.1810
 3000.0000    84.6820  -103.0160   134.0710   -33.4550     6.3190     6.1650     5.5410  -109.7840     0.2690     2.5050     0.0490   -71.4110     8.1800
 3000.5000    86.0450  -103.4270   140.3290   -33.2110     5.9390     6.1450     5.4010  -109.7290     0.2660     2.5040     0.0340   -71.9740     8.1650
 3001.0000    86.5060  -103.8380   140.5400   -32.9610     6.0940     6.1450     5.4010  -109.6750     0.2660     2.5020     0.0180   -72.5380     8.1610
 3001.5000    86.9680  -104.2490   135.4800   -32.8990     6.2020     6.2450     5.4650  -109.6200     0.2660     2.5010     0.0160   -73.1010     8.1610
 3002.0000    86.9020  -104.6600   129.9570   -32.8970     6.2020     6.4410     5.6720  -109.5650     0.2660     2.5070     0.0360   -73.6650     8.1610
 3002.5000    86.6310  -105.0710   124.3300   -32.8970     6.4610     6.6370     5.8780  -109.5110     0.2660     2.5140     0.0610   -74.2280     8.1600
 3003.0000    86.2690  -105.4820   123.6800   -32.8970     6.9610     6.8330     6.0850  -109.4560     0.2620     2.5200     0.0630   -74.7920     8.1570
 3003.5000    85.3250  -105.8930   123.3000   -32.8970     7.4610     7.0290     6.2910  -109.4010     0.2570     2.5190     0.0490   -75.3550     8.1550
 3004.0000    84.3810  -106.3040   122.8960   -32.8970     7.7380     7.1560     6.4980  -109.3470     0.2570     2.5190     0.0390   -75.9190     8.1520
 3004.5000    83.4370  -106.7150   122.4800   -32.8970     7.7220     7.2200     6.6950  -109.2920     0.2640     2.5210     0.0450   -76.4820     8.1500
 3005.0000    82.4920  -107.1270   122.0670   -32.8970     7.6060     7.2840     6.8270  -109.2370     0.2690     2.5220     0.0610   -77.0460     8.1470
 3005.5000    82.0340  -107.5380   121.7920   -32.8970     7.4900     7.3490     6.9600  -109.1820     0.2710     2.5230     0.0610   -77.6090     8.1450
 3006.0000    82.4260  -107.9490   122.3450   -32.8970     7.3740     7.4130     7.0920  -109.1280     0.2610     2.5190     0.0470   -78.1730     8.1420
 3006.5000    82.8180  -108.3600   122.8680   -32.8970     7.3210     7.4770     7.2250  -109.0730     0.2530     2.5150     0.0330   -78.7360     8.1400
 3007.0000    83.2090  -108.7710   121.7050   -32.8970     7.5620     7.5420     7.3570  -109.0180     0.2540     2.5170     0.0310   -79.3000     8.1370
 3007.5000    83.9400  -109.1820   120.3850   -32.8970     7.7910     7.6060     7.3890  -108.9640     0.2530     2.5200     0.0410   -79.8630     8.1340
 3008.0000    84.7640  -109.5930   120.7630   -32.8970     8.0280     7.6710     7.3890  -108.9090     0.2500     2.5220     0.0480   -80.4270     8.1320
 3008.5000    84.9630  -110.0040   121.5700   -32.8990     8.1780     7.7350     7.3890  -108.8540     0.2470     2.5120     0.0470   -80.9900     8.1290
 3009.0000    84.7430  -110.4150   121.4740   -32.9000     8.1780     7.7990     7.3890  -108.8000     0.2450     2.5030     0.0470   -81.5540     8.1270
 3009.5000    84.5230  -110.8260   119.6790   -33.2220     8.1780     7.8640     7.3890  -108.7450     0.2450     2.5000     0.0460   -82.1170     8.1240
 3010.0000    84.1920  -111.2370   117.8910   -33.7740     8.1780     7.9280     7.3890  -108.6900     0.2520     2.5040     0.0390   -82.6810     8.1220
 3010.5000    83.7080  -111.6480   115.9790   -34.3330     8.2970     7.9550     7.3890  -108.6360     0.2550     2.5120     0.0130   -83.2440     8.1210
 3011.0000    83.2240  -112.0590   119.5200   -34.8850     8.5320     7.9550     7.3890  -108.5810     0.2550     2.5170     0.0160   -83.8080     8.1220
 3011.5000    82.7400  -112.4700   124.2140   -35.5520     8.7230     7.9000     7.3890  -108.5260     0.2550     2.5210     0.0540   -84.3710     8.1220
 3012.0000    82.2560  -112.8810   128.5330   -35.4900     8.3910     7.8080     7.3890  -108.4720     0.2580     2.5250     0.0700   -84.9350     8.1220
 3012.5000    82.0050  -113.2920   130.1860   -35.4410     8.1120     7.7150     7.3890  -108.4170     0.2620     2.5170     0.0630   -85.3290     8.1220
 3013.0000    82.4580  -113.7030   131.9490   -35.4000     7.6670     7.6230     7.3890  -108.3620     0.2640     2.5000     0.0510   -85.3290     8.1220
 3013.5000    83.1040  -114.1140   133.5560   -35.3580     7.7800     7.5300     7.3890  -108.3080     0.2580     2.4820     0.0370   -85.3290     8.1220
 3014.0000    84.3000  -114.5250   131.4600   -35.3000     8.0570     7.4370     7.1330  -108.2530     0.2510     2.4830     0.0360   -85.3290     8.1220
 3014.5000    84.5300  -114.9360   129.3460   -34.8650     8.3300     7.3450     6.8780  -108.1980     0.2440     2.4930     0.0450   -85.3290     8.1210
 3015.0000    84.1820  -115.3470   129.4210   -34.4180     7.9960     7.2540     6.6240  -108.1430     0.2460     2.5020     0.0510   -85.3290     8.1220
 3015.5000    83.8330  -115.7580   129.5550   -33.9730     7.5860     7.1880     6.3760  -108.0890     0.2490     2.5120     0.0540   -85.3290     8.1220
 3016.0000    84.6870  -116.1690   128.9430   -33.5270     7.1880     7.1220     6.3170  -108.0340     0.2480     2.5070     0.0510   -85.3290     8.1100
 3016.5000    85.6940  -116.5800   125.3410   -33.1080     7.1220     7.0560     6.3170  -107.9790     0.2430     2.5020     0.0380   -85.3290     8.0940
 3017.0000    86.7010  -116.9910   121.8220   -33.1160     7.2540     7.0560     6.9500  -107.9250     0.2410     2.4960     0.0240   -85.3290     8.0790
 3017.5000    87.6090  -117.4020   118.5650   -33.1370     7.7380     8.8600     7.5640  -107.8700     0.2540     2.4890     0.0200   -85.3290     8.0640
 3018.0000    87.6160  -117.8130   109.7680   -33.1560     9.1350    11.0170     8.8960  -107.8150     0.2590     2.4830     0.0270   -85.3290     8.0480
 3018.5000    86.6550  -118.2240   100.4210   -33.1750    14.7600    13.1730    12.4670  -107.7610     0.2310     2.4750     0.0560   -85.3290     8.0330
 3019.0000    84.1940  -118.6350    90.9770   -33.1940    20.1490    15.3290    16.0370  -107.7060     0.2060     2.4630     0.0860   -85.3290     8.0180
 3019.5000    81.1890  -119.0460    81.5510   -33.2140    25.5390    17.4860    19.6070  -107.6510     0.1790     2.4530     0.1000   -85.3290     8.0020
 3020.0000    77.9520  -119.4570    72.2060   -33.2330    33.8270    19.6420    23.1780  -107.5970     0.1720     2.4610     0.0960   -85.3290     8.0020
 3020.5000    74.7150  -119.8680    62.4540   -33.2520    31.2940    20.5610    28.6540  -107.5420     0.1720     2.5040     0.0810   -85.3290     8.0010
