~VERSION INFORMATION
 VERS.                2.0:   CWLS LOG ASCII STANDARD - VERSION 2.0
 WRAP.                 NO:   ONE LINE PER DEPTH STEP
~WELL INFORMATION
#MNEM.UNIT      DATA TYPE    INFORMATION
#----------   ------------   ------------------------------
 STRT.F           85.5000:   START DEPTH
 STOP.F         3267.0000:   STOP DEPTH
 STEP.F            0.5000:   STEP LENGTH
 NULL.          -999.2500:   NO VALUE
 COMP. LAWRENCE ALLISON & ASSOCIATES:   COMPANY
 WELL. LAWRENCE "X" #78-33:   WELL
 FLD .           N P R #3:   FIELD
 LOC .      S33 T39N R78W:   LOCATION
 CNTY.            NATRONA:   COUNTY
 STAT.            WYOMING:   STATE
 CTRY. UNITED STATES OF AMERICA:   COUNTRY
 SRVC.      DRESSER ATLAS:   SERVICE COMPANY
 DATE.        04-FEB-1986:   LOGDATE
 API .     49025110630000:   API NUMBER
~CURVE INFORMATION
#MNEM.UNIT       API CODE    CURVE DESCRIPTION
#----------   ------------   ------------------------------
 DEPT.F                  :   
 CNC .DEC    42 890 03 00:   NEUTRON PORISITY SANDSTONE
 DEN .G/C3   45 350 01 00:   BULK DENSITY
 DCOR.G/C3   45 356 01 00:   DENSITY CORRECTION
 TEND.LBS    45 635 01 00:   TENSION FROM DENSITY LOG
 GRR .GAPI   07 310 01 00:   GAMMA RAY FROM RESISTIVITY
 CALR.IN     07 280 01 00:   CALIPER FROM RESISTIVITY
 RILM.OHMM   07 120 44 00:   INDUCTION LOG MEDIUM RESISTIVITY
 RILD.OHMM   07 120 46 00:   DEEP INDUCTION RESISTIVITY
 RFOC.OHMM   07 220 04 00:   RESISTIVITY FOCUSED LOG RES.
 TENR.LBS    07 635 01 00:   TENSION FROM RESISTIVITY
 DT  .US/F   60 520 00 00:   DELTA TIME
 TENS.LBS    60 635 01 00:   TENSION FROM SONIC
 SPR .MV     07 010 01 00:   SPONTANEOUS POTENTIAL
~PARAMETER INFORMATION
#MNEM.UNIT          VALUE    DESCRIPTION
#----------   ------------   ------------------------------
 EKB .F            0.0000:   Kelly bushing
 EGL .F         5150.0000:   Ground level
 EDF .F         5161.0000:   Drilling floor
 TD  .F         3260.0000:   Total depth
 DATE.        04-FEB-1986:   Date logged
 CLNT.            A2DTECH:   Client Code
 SL  . 1200' FEL & 650' FEL:   Surface Location
 PD  .                 GL:   Permanent Datum
 DD  .F              3260:   Depth driller
 DL  .F              3260:   Depth logger
 BLI .F              3258:   Bottom log interval
 CS1 .IN            8.625:   Casing size
 CBD1.      8.625" @ 566':   Casing driller 1
 CBL1.F               566:   Casing logger 1
 BS1 .IN            7.875:   Bit size
 DFT .        POLYMER-KCL:   Type fluid in hole
 DFD .                9.0:   Density
 DFV .                 36:   Viscosity
 DFPH.                8.5:   pH
 DFL .                 14:   Fluid loss
 MSS .           FLOWLINE:   Source of sample
 RMS .OHMM          0.367:   Rm
 MST .F                65:   Rm Meas. temp.
 RMF .OHMM          0.275:   Rmf
 MFST.F                65:   Rmf Meas. temp.
 RMC .OHMM          0.459:   Rmc
 MCST.F                65:   Rmc Meas. temp.
 MFSS.               CALC:   Source Rmf.
 RMB .OHMM          0.227:   Rm. at BHT
 BHT .F               105:   BHT.
 TCS .HRS               6:   Time Circ. stopped
 MRT .F               105:   Maximum recorded temp.
 LUN .               6274:   Logging unit number
 LUL .           GILLETTE:   Logging unit location
 ENGI.             MILLER:   Recorded By
 WITN.             STRONG:   Witnessed by
 ORIG.           5" PRINT:   Origin of data
 UWI .     49025110630000:   Unique Well ID
 DICO. A2D TECHNOLOGIES, INC.:   Digitizing Company
 DAPD.                 11:   Feet Above Permanent Datum
 BSD1.               3260:   Depth drilled with bit1
 MCSS.               CALC:   Source Rmc.
 EPD .F              5150:   Elevation Permanent Datum
 LMF .                 KB:   Log Measured From
 DMF .                 KB:   Drilling Measured From
 TLI .                566:   Top log interval
~OTHER INFORMATION
~A   DEPT      CNC        DEN       DCOR       TEND         GRR      CALR       RILM       RILD       RFOC       TENR         DT       TENS        SPR   
# ...
 2529.5000     0.2430     2.5240     0.0070  -134.0730   104.5740     9.7720     6.1800     6.4830     7.0960   -49.9140    86.2720   -67.5250   -72.7170
 2530.0000     0.2540     2.5250     0.0190  -134.0730   104.9580     9.7750     6.1430     6.4770     7.2950   -52.7140    85.6610   -65.0000   -72.8100
 2530.5000     0.2600     2.5250     0.0020  -136.4630   106.4820     9.7770     6.1410     6.4720     8.1890   -55.5140    84.3500   -69.4000   -72.9030
 2531.0000     0.2570     2.5240    -0.0090  -141.2920   107.3700     9.7810     6.1810     6.3950     8.9340   -58.3140    84.2890   -73.8910   -72.9920
 2531.5000     0.2500     2.5180    -0.0220  -146.1210   107.6780     9.7820     6.1160     6.3230     8.5320   -61.1140    84.6530   -78.3820   -73.0610
 2532.0000     0.2430     2.5100    -0.0310  -150.9500   107.4580     9.7880     6.0410     6.2520     7.6970   -63.9140    85.2370   -82.8730   -73.0640
 2532.5000     0.2370     2.5030    -0.0200  -155.7780   106.5840     9.7930     6.0600     6.1810     6.9030   -61.6670    85.7200   -78.5000   -72.9620
 2533.0000     0.2340     2.5040    -0.0060  -160.6070   105.6070     9.8050     6.1240     6.0970     6.9670   -56.2220    85.2500   -66.1500   -72.8220
 2533.5000     0.2340     2.5090     0.0010  -163.0260   104.5380     9.8180     5.8840     6.0140     7.2150   -50.7780    84.4540   -55.0000   -72.6490
 2534.0000     0.2400     2.5270    -0.0010  -157.4820   103.6850     9.8210     5.6800     5.9300     7.6490   -45.0000    83.4660   -60.0810   -72.4780
 2534.5000     0.2520     2.5440     0.0200  -151.9380   103.8690     9.8460     5.6530     5.8470     8.0730   -47.7060    83.4500   -64.7120   -72.4520
 2535.0000     0.2490     2.5540     0.0340  -146.3930   104.5910     9.8370     5.6750     5.7640     7.9260   -50.5880    84.7100   -69.3440   -72.4780
 2535.5000     0.2480     2.5540     0.0400  -140.8490   104.6400     9.8710     5.4330     5.6800     7.3540   -53.4710    85.6980   -73.9750   -72.4530
 2536.0000     0.2530     2.5490     0.0450  -135.3050   103.1340     9.9930     5.4580     5.5850     6.7180   -50.8180    86.6500   -78.6060   -72.4750
 2536.5000     0.2640     2.5460     0.0750  -131.7900   101.4950    10.0170     5.4880     5.6090     6.2380   -41.9090    87.5500   -83.2380   -72.5920
 2537.0000     0.2710     2.5440     0.0880  -128.8540   100.3650     9.9970     5.5170     5.6380     6.2060   -35.0000    87.8390   -81.4670   -72.7320
 2537.5000     0.2640     2.5380     0.0720  -125.9190    98.7370    10.0120     5.5680     5.6660     6.1810   -45.5880    87.9350   -77.3080   -72.8520
 2538.0000     0.2600     2.5310     0.0500  -122.9840    98.7950    10.0020     5.6530     5.6890     6.2950   -54.2350    87.8970   -81.1080   -72.9810
 2538.5000     0.2520     2.5260     0.0390  -120.0490   100.2740     9.9980     5.7000     5.7640     6.5920   -65.0000    87.8590   -85.0000   -73.0640
 2539.0000     0.2510     2.5350     0.0330  -117.1130   100.0590     9.9800     5.7200     5.8270     7.2700   -60.3750    87.9750   -80.6180   -73.0570
 2539.5000     0.2510     2.5540     0.0400  -113.9110    99.6730     9.9670     5.7420     5.8910     7.8530   -54.2500    88.1950   -76.1270   -73.0680
 2540.0000     0.2520     2.5700     0.0350  -116.5800   100.4070     9.9850     5.7420     5.9540     8.3760   -48.1250    88.4140   -73.0530   -73.0540
 2540.5000     0.2670     2.5640     0.0300  -119.5150   100.7210     9.9910     5.7420     6.0120     7.7130   -44.2940    88.6500   -70.4530   -72.8950
 2541.0000     0.2820     2.5510     0.0280  -122.4500   100.5000     9.9920     5.7420     5.9620     7.1120   -42.8530    88.1500   -67.8530   -72.7210
 2541.5000     0.2870     2.5430     0.0410  -121.2050   100.0250     9.9980     5.7420     5.9150     6.9030   -41.4120    87.6330   -65.0000   -72.5790
 2542.0000     0.2720     2.5430     0.0560  -115.3340    99.8140    10.0010     5.7110     5.8690     7.0870   -39.9710    87.0690   -71.3710   -72.4060
 2542.5000     0.2500     2.5440     0.0670  -109.4640   101.4950    10.0050     5.6630     5.8220     7.2350   -38.5290    86.5500   -74.3140   -72.2630
 2543.0000     0.2480     2.5430     0.0630  -103.8310   104.8090    10.0090     5.6150     5.7760     7.2430   -37.0880    86.5510   -72.9030   -72.0930
 2543.5000     0.2480     2.5380     0.0520  -105.8270   105.7090    10.0130     5.6160     5.7290     7.1540   -35.6470    86.9250   -71.4910   -71.9430
 2544.0000     0.2530     2.5340     0.0420  -107.7470   103.0560    10.0170     5.6890     5.6830     7.0550   -34.2060    87.2990   -70.0800   -72.0110
 2544.5000     0.2560     2.5380     0.0390  -109.6660   101.4560    10.0210     5.4830     5.6360     6.9030   -32.7650    87.6730   -68.6690   -72.2520
 2545.0000     0.2550     2.5410     0.0370  -111.5850   102.1930    10.0240     5.4830     5.5850     6.9280   -31.3240    88.0470   -67.2570   -72.5280
 2545.5000     0.2480     2.5390     0.0350  -113.5040   102.8180    10.0310     5.4830     5.4820     6.9670   -29.8820    88.4210   -65.8460   -72.7470
 2546.0000     0.2440     2.5320     0.0360  -110.7240   102.2530    10.0370     5.2780     5.3670     7.0070   -28.4410    88.7940   -66.6970   -73.0380
 2546.5000     0.2470     2.5220     0.0220  -106.6780   101.9770    10.0460     5.0470     5.2530     7.0520   -27.0000    89.1680   -70.9310   -73.2420
 2547.0000     0.2570     2.5130     0.0070  -102.6320   103.2570    10.0740     5.0940     5.1380     7.0960   -25.5590    89.5220   -75.1660   -73.0300
 2547.5000     0.2600     2.5030     0.0030   -98.5860   103.0160    10.1090     4.9560     5.0470     6.9680   -27.7270    89.6500   -79.4000   -72.7840
 2548.0000     0.2580     2.4990     0.0200   -94.5400   102.5450    10.1440     4.7870     4.8870     6.8400   -34.4090    89.6500   -83.6340   -72.5510
 2548.5000     0.2570     2.4980     0.0580   -90.4940   105.8860    10.1640     4.6450     4.7760     6.8800   -41.0910    89.8840   -87.8690   -72.2780
 2549.0000     0.2580     2.4970     0.0620   -86.4480   110.8250    10.1430     4.6760     4.7420     6.7560   -47.7730    90.8350   -92.1030   -72.2990
 2549.5000     0.2600     2.4960     0.0480   -86.7910   114.5730    10.1020     4.6510     4.7140     6.4130   -55.0000    92.1500   -94.7500   -72.3870
 2550.0000     0.2630     2.4920     0.0340   -96.7590   114.9270    10.0660     4.6260     4.6880     5.8770   -54.1820    92.3660   -92.5470   -72.4230
 2550.5000     0.2650     2.4880     0.0280  -106.7280   111.5130    10.0460     4.7010     4.7840     5.1880   -53.2910    92.0460   -90.3440   -72.5010
 2551.0000     0.2690     2.4860     0.0260  -110.2020   108.2850    10.0480     4.7770     4.8700     5.5070   -52.4000    91.2050   -88.1400   -72.5510
 2551.5000     0.2740     2.4900     0.0270   -96.9220   108.0460    10.0500     4.8640     4.9560     6.0500   -51.5090    90.0010   -85.9370   -72.6160
 2552.0000     0.2710     2.4980     0.0290   -83.6420   107.4200    10.0510     4.8880     5.0430     6.4720   -50.6180    89.4160   -83.7330   -72.6630
 2552.5000     0.2410     2.5070     0.0350   -79.0870   103.2730    10.0540     4.9160     5.0840     6.6120   -49.7270    89.3800   -81.5300   -72.6640
 2553.0000     0.2410     2.5160     0.0450  -101.7230   100.2250    10.0550     4.9430     5.0620     6.5460   -48.8360    89.6800   -79.3270   -72.6630
 2553.5000     0.2530     2.5230     0.0550  -123.9920   100.3680    10.0570     4.9710     5.0390     6.4790   -47.9450    89.4040   -77.1230   -72.6650
 2554.0000     0.2630     2.5260     0.0500   -58.9290   100.0230    10.0590     5.0010     5.0160     6.4120   -47.0550    89.3370   -75.0000   -72.6640
 2554.5000     0.2700     2.5270     0.0350   -23.1850   100.0790    10.0610     4.9460     4.9880     6.3540   -46.1640    89.5770   -75.9700   -72.6620
 2555.0000     0.2690     2.5260     0.0270   -38.4500   102.8600    10.0620     4.8730     4.9470     6.4360   -45.2730    89.8710   -76.9060   -72.6690
