~VERSION INFORMATION
 VERS.                2.0:   CWLS LOG ASCII STANDARD - VERSION 2.0
 WRAP.                 NO:   ONE LINE PER DEPTH STEP
~WELL INFORMATION
#MNEM.UNIT      DATA TYPE    INFORMATION
#----------   ------------   ------------------------------
 STRT.F           36.0000:   START DEPTH
 STOP.F         3014.5000:   STOP DEPTH
 STEP.F            0.5000:   STEP LENGTH
 NULL.          -999.2500:   NO VALUE
 COMP.    TESRO PETROLEUM:   COMPANY
 WELL. TESORO N.P.R. "A" #6-21:   WELL
 FLD .             TEAPOT:   FIELD
 LOC .      S21 T39N R78W:   LOCATION
 CNTY.            NATRONA:   COUNTY
 STAT.            WYOMING:   STATE
 CTRY. UNITED STATES OF AMERICA:   COUNTRY
 SRVC.              WELEX:   SERVICE COMPANY
 DATE.        16-JUL-1968:   LOGDATE
 API .     49025100180000:   API NUMBER
~CURVE INFORMATION
#MNEM.UNIT       API CODE    CURVE DESCRIPTION
#----------   ------------   ------------------------------
 DEPT.F                  :   
 SPR .MV     05 010 01 00:   SPONTANEOUS POTENTIAL FROM RES.
 ASN .OHMM   05 041 18 00:   AMPLIFIED SHORT NORMAL 18"
 IL  .OHMM   05 120 00 00:   INDUCTION LOG
 GRD .GAPI   45 310 01 00:   GAMMA RAY FROM DENSITY LOG
 CALD.IN     45 280 60 00:   CALIPER FROM DENSITY LOG
 GDEN.CPS    45 350 30 00:   GAMMA DENS
~PARAMETER INFORMATION
#MNEM.UNIT          VALUE    DESCRIPTION
#----------   ------------   ------------------------------
 EKB .F         5002.0000:   Kelly bushing
 EGL .F         4991.0000:   Ground level
 EDF .F         5001.0000:   Drilling floor
 TD  .F         3025.0000:   Total depth
 DATE.        16-JUL-1968:   Date logged
 CLNT.            A2DTECH:   Client Code
 PD  .                 GL:   Permanent Datum
 EPD .F              4991:   Elevation Permanent Datum
 LMF .                 KB:   Log Measured From
 DMF .                 KB:   Drilling Measured From
 DD  .F              3025:   Depth driller
 DL  .F              3019:   Depth logger
 BLI .F              3014:   Bottom log interval
 TLI .F              2670:   Top log interval
 CS1 .IN            10.75:   Casing size
 CBD1.      10.75" @ 325':   Casing driller 1
 CBL1.F               325:   Casing logger 1
 BS1 .IN                9:   Bit size
 BSD1.F              3025:   Depth drilled with bit1
 DFT .     WATER BASE MUD:   Type fluid in hole
 DFD .                9.7:   Density
 DFV .                 60:   Viscosity
 DFL .                6.4:   Fluid loss
 MSS .              CIRC.:   Source of sample
 RMS .OHMM            2.2:   Rm
 MST .F                84:   Rm Meas. temp.
 RMF .OHMM            1.6:   Rmf
 MFST.F                70:   Rmf Meas. temp.
 RMC .OHMM            3.3:   Rmc
 MCST.F                68:   Rmc Meas. temp.
 MFSS.               MEAS:   Source Rmf.
 RMB .OHMM           1.55:   Rm. at BHT
 BHT .F               120:   BHT.
 MRT .F               120:   Maximum recorded temp.
 LUN .               6869:   Logging unit number
 LUL .                 NC:   Logging unit location
 ENGI.          H. STEITZ:   Recorded By
 WITN.                MAY:   Witnessed by
 ORIG.           5" PRINT:   Origin of data
 UWI .     49025100180000:   Unique Well ID
 DICO. A2D TECHNOLOGIES, INC.:   Digitizing Company
~OTHER INFORMATION
~A   DEPT      SPR        ASN           IL      GRD       CALD       GDEN   
# ...
 1440.0000   -31.4490     9.3230     7.8170  -999.2500  -999.2500  -999.2500
 1440.5000   -31.3800     9.1800     7.7000  -999.2500  -999.2500  -999.2500
 1441.0000   -31.1050     9.2100     7.5730  -999.2500  -999.2500  -999.2500
 1441.5000   -30.8380     9.2350     7.4460  -999.2500  -999.2500  -999.2500
 1442.0000   -30.5690     9.0210     7.3190  -999.2500  -999.2500  -999.2500
 1442.5000   -30.4700     8.8170     7.1920  -999.2500  -999.2500  -999.2500
 1443.0000   -30.5580     8.7090     7.0650  -999.2500  -999.2500  -999.2500
 1443.5000   -30.6570     8.6080     6.9390  -999.2500  -999.2500  -999.2500
 1444.0000   -30.7580     8.5810     6.9220  -999.2500  -999.2500  -999.2500
 1444.5000   -30.8590     8.5880     6.9610  -999.2500  -999.2500  -999.2500
 1445.0000   -30.9590     8.6350     7.0150  -999.2500  -999.2500  -999.2500
 1445.5000   -31.0590     8.6810     7.0710  -999.2500  -999.2500  -999.2500
 1446.0000   -30.9830     8.7270     7.1260  -999.2500  -999.2500  -999.2500
 1446.5000   -30.8960     8.7720     7.1810  -999.2500  -999.2500  -999.2500
 1447.0000   -30.8090     8.8180     7.2360  -999.2500  -999.2500  -999.2500
 1447.5000   -30.7210     8.8560     7.2910  -999.2500  -999.2500  -999.2500
 1448.0000   -30.7590     8.8580     7.3470  -999.2500  -999.2500  -999.2500
 1448.5000   -30.9780     8.8600     7.4040  -999.2500  -999.2500  -999.2500
 1449.0000   -31.2030     8.8630     7.4170  -999.2500  -999.2500  -999.2500
 1449.5000   -31.1660     8.8650     7.3630  -999.2500  -999.2500  -999.2500
 1450.0000   -31.0290     8.8680     7.3080  -999.2500  -999.2500  -999.2500
 1450.5000   -30.8900     8.8700     7.2540  -999.2500  -999.2500  -999.2500
 1451.0000   -30.7500     8.8730     7.1990  -999.2500  -999.2500  -999.2500
 1451.5000   -30.6100     8.8740     7.1440  -999.2500  -999.2500  -999.2500
 1452.0000   -30.4700     8.8380     7.1520  -999.2500  -999.2500  -999.2500
 1452.5000   -30.3270     8.7990     7.2050  -999.2500  -999.2500  -999.2500
 1453.0000   -30.3950     8.7610     7.2570  -999.2500  -999.2500  -999.2500
 1453.5000   -30.5880     8.7550     7.3100  -999.2500  -999.2500  -999.2500
 1454.0000   -30.7810     8.7590     7.3620  -999.2500  -999.2500  -999.2500
 1454.5000   -30.9750     8.8300     7.4150  -999.2500  -999.2500  -999.2500
 1455.0000   -31.1690     8.9000     7.4680  -999.2500  -999.2500  -999.2500
 1455.5000   -31.2530     8.9720     7.5200  -999.2500  -999.2500  -999.2500
 1456.0000   -31.0890     9.0380     7.5730  -999.2500  -999.2500  -999.2500
 1456.5000   -30.9230     9.1070     7.6260  -999.2500  -999.2500  -999.2500
 1457.0000   -31.0840     9.1290     7.6780  -999.2500  -999.2500  -999.2500
 1457.5000   -31.1600     9.1220     7.7220  -999.2500  -999.2500  -999.2500
 1458.0000   -31.2480     9.1150     7.6780  -999.2500  -999.2500  -999.2500
 1458.5000   -31.3400     9.1080     7.6130  -999.2500  -999.2500  -999.2500
 1459.0000   -31.4360     9.1010     7.5480  -999.2500  -999.2500  -999.2500
 1459.5000   -31.3400     9.0930     7.4830  -999.2500  -999.2500  -999.2500
 1460.0000   -31.1640     9.0320     7.4190  -999.2500  -999.2500  -999.2500
 1460.5000   -30.9850     8.9650     7.3540  -999.2500  -999.2500  -999.2500
 1461.0000   -30.7990     8.8980     7.2890  -999.2500  -999.2500  -999.2500
 1461.5000   -30.3470     8.8310     7.2240  -999.2500  -999.2500  -999.2500
 1462.0000   -29.9080     8.7650     7.1590  -999.2500  -999.2500  -999.2500
 1462.5000   -30.1540     8.6980     7.0950  -999.2500  -999.2500  -999.2500
 1463.0000   -30.4330     8.6360     7.0300  -999.2500  -999.2500  -999.2500
 1463.5000   -30.7140     8.6050     7.0220  -999.2500  -999.2500  -999.2500
 1464.0000   -30.8700     8.5720     7.0010  -999.2500  -999.2500  -999.2500
 1464.5000   -30.8680     8.5380     6.9780  -999.2500  -999.2500  -999.2500
 1465.0000   -30.8680     8.5040     6.9550  -999.2500  -999.2500  -999.2500
 1465.5000   -30.8680     8.4750     6.9320  -999.2500  -999.2500  -999.2500
 1466.0000   -30.8680     8.4480     6.9090  -999.2500  -999.2500  -999.2500
 1466.5000   -30.8680     8.4200     6.8850  -999.2500  -999.2500  -999.2500
 1467.0000   -30.8670     8.3930     6.8620  -999.2500  -999.2500  -999.2500
 1467.5000   -30.8990     8.3640     6.8390  -999.2500  -999.2500  -999.2500
 1468.0000   -30.9520     8.3560     6.8220  -999.2500  -999.2500  -999.2500
 1468.5000   -31.0050     8.3800     6.8500  -999.2500  -999.2500  -999.2500
 1469.0000   -31.0580     8.4130     6.9050  -999.2500  -999.2500  -999.2500
 1469.5000   -31.0660     8.4450     6.9600  -999.2500  -999.2500  -999.2500
 1470.0000   -30.8680     8.4780     7.0150  -999.2500  -999.2500  -999.2500
 1470.5000   -30.6180     8.5110     7.0700  -999.2500  -999.2500  -999.2500
 1471.0000   -30.5180     8.5440     7.1250  -999.2500  -999.2500  -999.2500
 1471.5000   -30.4800     8.5750     7.1800  -999.2500  -999.2500  -999.2500
 1472.0000   -30.5050     8.5760     7.2230  -999.2500  -999.2500  -999.2500
 1472.5000   -30.5280     8.5760     7.2210  -999.2500  -999.2500  -999.2500
 1473.0000   -30.5520     8.5760     7.1830  -999.2500  -999.2500  -999.2500
 1473.5000   -30.5750     8.5760     7.1400  -999.2500  -999.2500  -999.2500
 1474.0000   -30.5990     8.5760     7.0960  -999.2500  -999.2500  -999.2500
 1474.5000   -30.6220     8.5760     7.0530  -999.2500  -999.2500  -999.2500
 1475.0000   -30.6460     8.5600     7.0100  -999.2500  -999.2500  -999.2500
 1475.5000   -30.6680     8.5160     6.9670  -999.2500  -999.2500  -999.2500
 1476.0000   -30.6050     8.4740     6.9240  -999.2500  -999.2500  -999.2500
 1476.5000   -30.5350     8.4310     6.8810  -999.2500  -999.2500  -999.2500
 1477.0000   -30.5200     8.3880     6.8380  -999.2500  -999.2500  -999.2500
 1477.5000   -30.8090     8.3460     6.7950  -999.2500  -999.2500  -999.2500
 1478.0000   -31.0980     8.3160     6.7520  -999.2500  -999.2500  -999.2500
 1478.5000   -31.1740     8.3270     6.7390  -999.2500  -999.2500  -999.2500
 1479.0000   -30.9550     8.3940     6.7990  -999.2500  -999.2500  -999.2500
 1479.5000   -30.7380     8.4610     6.8560  -999.2500  -999.2500  -999.2500
 1480.0000   -30.5220     8.5280     6.9120  -999.2500  -999.2500  -999.2500
 1480.5000   -30.3050     8.5950     6.9690  -999.2500  -999.2500  -999.2500
 1481.0000   -30.0930     8.6630     7.0250  -999.2500  -999.2500  -999.2500
 1481.5000   -30.2870     8.7300     7.0820  -999.2500  -999.2500  -999.2500
 1482.0000   -30.4940     8.7970     7.1390  -999.2500  -999.2500  -999.2500
 1482.5000   -30.5730     8.8640     7.1950  -999.2500  -999.2500  -999.2500
 1483.0000   -30.6560     8.9320     7.2520  -999.2500  -999.2500  -999.2500
 1483.5000   -30.7400     8.9230     7.3080  -999.2500  -999.2500  -999.2500
 1484.0000   -30.8230     8.9350     7.3650  -999.2500  -999.2500  -999.2500
 1484.5000   -30.9070     9.0190     7.4170  -999.2500  -999.2500  -999.2500
 1485.0000   -30.9910     9.1080     7.3890  -999.2500  -999.2500  -999.2500
 1485.5000   -31.0750     9.1330     7.3580  -999.2500  -999.2500  -999.2500
 1486.0000   -31.1590     9.1130     7.3260  -999.2500  -999.2500  -999.2500
 1486.5000   -31.2430     9.0710     7.2950  -999.2500  -999.2500  -999.2500
 1487.0000   -31.3270     9.0290     7.2640  -999.2500  -999.2500  -999.2500
 1487.5000   -31.4110     8.9860     7.2330  -999.2500  -999.2500  -999.2500
 1488.0000   -31.5190     8.9430     7.2020  -999.2500  -999.2500  -999.2500
 1488.5000   -31.6420     8.8970     7.1700  -999.2500  -999.2500  -999.2500
 1489.0000   -31.3890     8.9150     7.1390  -999.2500  -999.2500  -999.2500
 1489.5000   -31.1290     8.9390     7.1200  -999.2500  -999.2500  -999.2500
 1490.0000   -30.8680     8.9680     7.1170    87.2500     9.6640  1026.9380
 1490.5000   -30.6060     8.9990     7.2300    87.8390     9.6500  1026.9380
 1491.0000   -30.3460     9.0590     7.3530    89.9610     9.6440  1027.9320
 1491.5000   -30.1010     9.1280     7.4770    91.7120     9.6480  1023.9040
