~VERSION INFORMATION
 VERS.                2.0:   CWLS LOG ASCII STANDARD - VERSION 2.0
 WRAP.                 NO:   ONE LINE PER DEPTH STEP
~WELL INFORMATION
#MNEM.UNIT      DATA TYPE    INFORMATION
#----------   ------------   ------------------------------
 STRT.F            0.0000:   START DEPTH
 STOP.F         3474.0000:   STOP DEPTH
 STEP.F            0.5000:   STEP LENGTH
 NULL.          -999.2500:   NO VALUE
 COMP. LAWRENCE ALLISON & ASSOCIATES:   COMPANY
 WELL. LAWRENCE ALLISON #13-AX-14:   WELL
 FLD .            WILDCAT:   FIELD
 LOC .      S14 T38N R78W:   LOCATION
 CNTY.            NATRONA:   COUNTY
 STAT.            WYOMING:   STATE
 CTRY. UNITED STATES OF AMERICA:   COUNTRY
 SRVC.      DRESSER ATLAS:   SERVICE COMPANY
 DATE.        31-MAR-1986:   LOGDATE
 API .     49025110640000:   API NUMBER
~CURVE INFORMATION
#MNEM.UNIT       API CODE    CURVE DESCRIPTION
#----------   ------------   ------------------------------
 DEPT.F                  :   
 TEND.LBS    45 635 01 00:   TENSION FROM DENSITY LOG
 RHOB.G/C3   45 350 01 00:   BULK DENSITY
 CORR.G/C3   45 356 01 00:   DENSITY CORRECTION
 CALD.IN     45 280 60 00:   CALIPER FROM DENSITY LOG
 NPHI.DEC    42 890 00 00:   NEUTRON POROSITY
 TENR.LBS    07 635 01 00:   TENSION FROM RESISTIVITY
 RFOC.OHMM   07 220 01 00:   RESISTIVITY FOCUSED LOG RES.
 RILD.OHMM   07 120 46 00:   DEEP INDUCTION RESISTIVITY
 RILM.OHMM   07 120 44 00:   INDUCTION LOG MEDIUM RESISTIVITY
 GRR .GAPI   07 310 01 00:   GAMMA RAY FROM RESISTIVITY
 SPR .MV     07 010 01 00:   SPONTANEOUS POTENTIAL
 TENS.LBS    60 635 01 00:   TENSION FROM SONIC LOG
 DT  .US/F   60 520 00 00:   DELTA TIME
~PARAMETER INFORMATION
#MNEM.UNIT          VALUE    DESCRIPTION
#----------   ------------   ------------------------------
 EKB .F         5251.0000:   Kelly bushing
 EGL .F         5239.2000:   Ground level
 EDF .F         5248.1000:   Drilling floor
 TD  .F         3456.0000:   Total depth
 DATE.        31-MAR-1986:   Date logged
 CLNT.            A2DTECH:   Client Code
 SL  . 238' FWL & 1739' FNL:   Surface Location
 PD  .                 GL:   Permanent Datum
 EPD .F            5239.2:   Elevation Permanent Datum
 LMF .                 KB:   Log Measured From
 DMF .                 KB:   Drilling Measured From
 DAPD.F              11.8:   Feet Above Permanent Datum
 DD  .F              3450:   Depth driller
 DL  .F              3456:   Depth logger
 BLI .F              3450:   Bottom log interval
 CS1 .IN            8.625:   Casing size
 CBD1.      8.625" @ 689':   Casing driller 1
 CBL1.F               692:   Casing logger 1
 BS1 .IN            7.875:   Bit size
 BSD1.F              3450:   Depth drilled with bit1
 DFT .        POLYMER/KCL:   Type fluid in hole
 DFD .                9.1:   Density
 DFV .                 38:   Viscosity
 DFPH.                8.5:   pH
 DFL .               11.2:   Fluid loss
 MSS .           FLOWLINE:   Source of sample
 RMS .OHMM            .29:   Rm
 MST .F                65:   Rm Meas. temp.
 RMF .OHMM           .235:   Rmf
 MFST.F                65:   Rmf Meas. temp.
 RMC .OHMM           .378:   Rmc
 MCST.F                65:   Rmc Meas. temp.
 MFSS.               MEAS:   Source Rmf.
 MCSS.               MEAS:   Source Rmc.
 RMB .OHMM           .163:   Rm. at BHT
 BHT .F               115:   BHT.
 TCS .HRS               3:   Time Circ. stopped
 MRT .F               115:   Maximum recorded temp.
 LUN .            HL-6274:   Logging unit number
 LUL .           GILLETTE:   Logging unit location
 ENGI.             RAUTIO:   Recorded By
 WITN.             STRONG:   Witnessed by
 ORIG.           5" PRINT:   Origin of data
 UWI .     49025110640000:   Unique Well ID
 DICO. A2D TECHNOLOGIES, INC.:   Digitizing Company
~OTHER INFORMATION
~A    DEPT    TEND       RHOB       CORR       CALD       NPHI       TENR       RFOC       RILD       RILM          GRR      SPR       TENS         DT   
# ...
 2470.0000    -8.6820     2.5220     0.0080     9.6940     0.2690   -44.8850     5.2390     3.4570     3.5870   129.9310   -14.7290   -64.8150    91.8020
 2470.5000    -4.7550     2.5300     0.0030     9.7060     0.2700   -45.3500     5.1290     3.4570     3.5870   125.8730   -15.2090   -64.8150    91.8020
 2471.0000   -23.6740     2.5390     0.0010     9.7220     0.2770   -45.8160     5.0490     3.5710     3.7420   122.3230   -15.6710   -64.5820    91.8020
 2471.5000   -34.7850     2.5420     0.0050     9.7380     0.2860   -46.2810     5.1410     3.7070     3.8900   120.0090   -15.7660   -64.1880    91.8020
 2472.0000   -34.7850     2.5410     0.0170     9.7540     0.2880   -46.7470     5.3590     3.8420     4.0380   117.7320   -15.6640   -63.7930    91.3020
 2472.5000   -34.7850     2.5340     0.0290     9.7700     0.2810   -47.2120     5.5890     3.9780     4.1590   115.9660   -15.3990   -63.3980    90.6350
 2473.0000   -34.7850     2.5270     0.0340     9.8050     0.2760   -47.6780     5.5650     4.0470     4.1590   114.1540   -15.1210   -63.0030    90.1560
 2473.5000   -34.7850     2.5220     0.0310     9.8480     0.2860   -48.1430     5.5230     4.0590     4.1640   113.6540   -15.1800   -62.6090    89.8000
 2474.0000   -34.7850     2.5180     0.0160     9.8720     0.2890   -48.6090     5.4870     4.0710     4.1710   114.1610   -15.9170   -62.2140    89.8000
 2474.5000   -34.7850     2.5140     0.0020     9.8720     0.2820   -49.0750     5.4610     4.0830     4.1780   114.6720   -15.4430   -61.8190    89.9120
 2475.0000   -34.7850     2.5100    -0.0030     9.8720     0.2720   -49.5400     5.4370     4.0950     4.1840   114.3350   -15.8870   -61.4240    90.1710
 2475.5000   -34.7850     2.5070    -0.0050     9.8730     0.2800   -50.0060     5.1440     4.1070     4.1910   112.9420   -16.3740   -61.0300    90.4300
 2476.0000   -44.7950     2.5090    -0.0070     9.9040     0.2940   -50.4710     5.0960     4.1190     4.1980   111.2380   -16.8660   -60.6350    90.7010
 2476.5000   -44.7950     2.5100    -0.0060     9.9360     0.2960   -50.9370     5.3860     4.0740     4.1590   108.1260   -17.3550   -60.2400    90.5570
 2477.0000   -44.7950     2.5140    -0.0050     9.9680     0.2980   -51.4020     5.4970     4.0410     4.1390   106.4810   -17.8490   -59.8450    90.2930
 2477.5000   -44.7950     2.5180     0.0000    10.0000     0.2870   -51.8680     5.5380     4.0080     4.1160   108.4380   -17.9370   -59.4510    90.0300
 2478.0000   -45.8640     2.5230     0.0070    10.0320     0.2910   -52.3330     5.3420     3.9750     4.0920   113.0930   -17.7320   -59.0560    89.9030
 2478.5000   -47.0980     2.5270     0.0130    10.0630     0.3010   -52.7990     5.1010     3.9420     4.0450   117.9430   -17.5290   -58.6610    89.7950
 2479.0000   -48.3330     2.5310     0.0160    10.0740     0.3100   -53.2650     5.0100     3.8990     3.9570   116.7380   -17.3210   -58.2660    89.6860
 2479.5000   -49.5670     2.5330     0.0060    10.0820     0.3200   -53.7300     4.9420     3.8290     3.8920   113.1070   -17.2210   -57.8720    89.5770
 2480.0000   -50.8010     2.5350    -0.0010    10.0910     0.3240   -54.1960     4.8530     3.7580     3.8270   109.1630   -17.6770   -57.4770    89.4680
 2480.5000   -52.0350     2.5370    -0.0070    10.0990     0.3260   -54.6610     4.7630     3.6870     3.7620   107.6570   -18.2580   -57.0820    89.5500
 2481.0000   -53.2690     2.5390     0.0000    10.1070     0.3280   -55.1270     4.6730     3.6150     3.6960   110.6220   -18.8610   -56.6870    89.9610
 2481.5000   -54.5030     2.5360     0.0100    10.1050     0.3260   -55.5920     4.5810     3.5440     3.6310   114.5070   -19.4350   -56.2930    90.3720
 2482.0000   -55.7370     2.5290     0.0150    10.1010     0.3120   -56.0580     4.4510     3.4570     3.5660   117.7060   -19.2370   -55.8980    90.7830
 2482.5000   -56.9720     2.5180     0.0050    10.0960     0.3030   -56.5230     4.2760     3.3910     3.5010   116.4850   -18.7020   -55.5030    91.1950
 2483.0000   -58.2060     2.5150     0.0040    10.0910     0.3050   -56.9890     4.2890     3.3300     3.4360   115.0500   -18.8250   -55.1080    91.5310
 2483.5000   -59.4400     2.5050     0.0050    10.0950     0.3060   -57.4540     4.3100     3.2710     3.3460   114.1030   -19.1190   -64.8150    91.6460
 2484.0000   -60.6740     2.4920     0.0050    10.1110     0.2990   -57.9200     4.3310     3.0990     3.2280   113.3950   -19.4160   -64.8150    91.7610
 2484.5000   -61.9080     2.4790     0.0040    10.1260     0.2910   -58.3860     4.3510     2.9320     3.0290   112.6480   -19.7170   -64.8150    91.8760
 2485.0000   -63.1420     2.4660     0.0030    10.1410     0.2890   -58.8510     4.3560     2.7870     2.8290   113.4590   -20.0520   -64.8150    92.3020
 2485.5000   -64.3760     2.4560    -0.0010    10.1570     0.2860   -59.3170     3.9050     2.7430     2.7440   118.6140   -20.5650   -64.8150    93.2880
 2486.0000   -54.3380     2.4510    -0.0070    10.1720     0.2780   -59.7820     3.4860     2.6980     2.7630   123.0620   -21.1760   -64.8150    94.4040
 2486.5000   -44.7950     2.4540    -0.0130    10.1870     0.2710   -60.2480     3.0380     2.6540     2.7820   125.4880   -21.7850   -64.8150    95.7060
 2487.0000   -34.7850     2.4630    -0.0090    10.2040     0.2730   -60.7130     3.1460     2.6090     2.8010   123.3280   -21.6930   -64.8150    95.2330
 2487.5000   -44.7950     2.4740    -0.0050    10.2210     0.2740   -61.1790     3.5820     2.5960     2.8210   120.2170   -20.7250   -64.6250    94.7050
 2488.0000   -54.8050     2.4770    -0.0150    10.2370     0.2730   -61.6440     4.0190     2.5960     2.9010   118.2790   -20.0220   -64.4480    93.3160
 2488.5000   -64.8150     2.4740    -0.0200    10.2530     0.2720   -62.1100     4.2370     2.6880     2.9300   115.0720   -20.4310   -64.2700    92.0020
 2489.0000   -64.8150     2.4730    -0.0180    10.2700     0.2780   -62.5750     4.0310     2.7920     2.9640   114.3420   -20.8150   -64.0930    92.1070
 2489.5000   -64.8150     2.4790    -0.0090    10.2860     0.2820   -63.0410     3.8380     2.8950     2.9980   113.5720   -21.1930   -63.9160    92.6670
 2490.0000   -64.8150     2.4840    -0.0010    10.3020     0.2760   -63.5070     3.6880     2.9550     3.0380   112.9130   -21.4910   -63.7390    92.8030
 2490.5000   -64.8150     2.4910     0.0020    10.3190     0.2730   -63.9720     3.8780     3.0100     3.0380   114.9340   -21.6750   -63.5620    92.8030
 2491.0000   -64.8150     2.4980     0.0030    10.3140     0.2810   -64.4430     3.9660     2.9990     3.0710   119.3260   -21.8590   -63.3850    92.5850
 2491.5000   -64.8150     2.4990     0.0040    10.3050     0.2890   -64.3190     3.9210     2.9870     3.0780   121.9650   -22.0250   -63.2080    92.3020
 2492.0000   -64.8150     2.4920     0.0010    10.3240     0.2900   -64.1600     3.8990     2.9820     3.0850   120.1050   -22.0700   -63.0310    92.3780
 2492.5000   -64.8150     2.4860    -0.0030    10.3430     0.2820   -64.0010     3.9350     2.9820     3.0930   114.7070   -22.1180   -62.8540    92.7490
 2493.0000   -54.8050     2.4800    -0.0080    10.3430     0.2720   -63.8420     4.0080     2.9910     3.0950   114.1980   -22.1670   -62.6770    92.9450
 2493.5000   -54.8050     2.4830    -0.0120    10.3450     0.2660   -63.6830     3.9530     3.0090     3.1230   115.4970   -22.2120   -62.4990    93.1400
 2494.0000   -64.8150     2.4900    -0.0100    10.3500     0.2670   -63.5240     3.8930     3.0260     3.1520   116.3810   -22.3290   -62.3220    93.3360
 2494.5000   -64.8150     2.4950    -0.0040    10.3550     0.2740   -63.3650     3.8630     3.0570     3.1170   115.6870   -22.4600   -62.1450    93.4800
 2495.0000   -64.8150     2.4850     0.0000    10.3600     0.2840   -63.2060     3.8820     3.0660     3.0900   115.0460   -22.5940   -61.9680    93.3170
 2495.5000   -64.8150     2.4740    -0.0050    10.3630     0.2950   -63.0470     3.9120     3.0250     3.0630   114.6840   -22.4150   -61.7910    93.1530
