~VERSION INFORMATION
 VERS.                2.0:   CWLS LOG ASCII STANDARD - VERSION 2.0
 WRAP.                 NO:   ONE LINE PER DEPTH STEP
~WELL INFORMATION
#MNEM.UNIT      DATA TYPE    INFORMATION
#----------   ------------   ------------------------------
 STRT.F          196.0000:   START DEPTH
 STOP.F         3430.0000:   STOP DEPTH
 STEP.F            0.5000:   STEP LENGTH
 NULL.          -999.2500:   NO VALUE
 COMP.    FENIX $ SCISSON:   COMPANY
 WELL.   FENIX "A" #23-10:   WELL
 FLD .              N P R:   FIELD
 LOC .      S10 T38N R78W:   LOCATION
 CNTY.            NATRONA:   COUNTY
 STAT.            WYOMING:   STATE
 CTRY. UNITED STATES OF AMERICA:   COUNTRY
 SRVC.              WELEX:   SERVICE COMPANY
 DATE.        23-JUL-1977:   LOGDATE
 API .     49025103990000:   API NUMBER
~CURVE INFORMATION
#MNEM.UNIT       API CODE    CURVE DESCRIPTION
#----------   ------------   ------------------------------
 DEPT.F                  :   
 SPR .MV     07 010 01 00:   SPONTANEOUS POTENTIAL
 GURD.OHMM   07 220 05 00:   GUARD LOG RESISTIVITY
 FORX.OHMM   07 220 00 00:   FORMATION FACTOR
 NPHI.DEC    42 890 03 00:   NEUTRON POROSITY SANDSTONE
 CALD.IN     45 280 60 00:   CALIPER FROM DENSITY LOG
 CORR.G/C3   45 356 01 00:   DENSITY CORRECTION
 GRD .GAPI   45 310 01 00:   GAMMA RAY FROM DENSITY LOG
 RHOB.G/C3   45 350 01 00:   BULK DENSITY
~PARAMETER INFORMATION
#MNEM.UNIT          VALUE    DESCRIPTION
#----------   ------------   ------------------------------
 EKB .F         5251.0000:   Kelly bushing
 EGL .F         5241.0000:   Ground level
 EDF .F            0.0000:   Drilling floor
 EPD .F         5241.0000:   Permanent datum
 TD  .F         3430.0000:   Total depth
 DATE.        23-JUL-1977:   Date logged
 CLNT.            A2DTECH:   Client Code
 SL  . 1650' FNL & 990' FWL:   Surface Location
 PD  .                 GL:   Permanent Datum
 DD  .F              3430:   Depth driller
 DL  .F              3430:   Depth logger
 BLI .F              3428:   Bottom log interval
 CS1 .IN            8.625:   Casing size
 CBD1.      8.625" @ 220':   Casing driller 1
 BS1 .IN            7.875:   Bit size
 DFT .            KCL MUD:   Type fluid in hole
 DFD .                8.9:   Density
 DFV .                 33:   Viscosity
 DFPH.                  8:   pH
 DFL .                  8:   Fluid loss
 MSS .           FLOWLINE:   Source of sample
 RMS .OHMM            .49:   Rm
 MST .F                94:   Rm Meas. temp.
 RMF .OHMM            .46:   Rmf
 MFST.F                90:   Rmf Meas. temp.
 RMC .OHMM            .40:   Rmc
 MCST.F                90:   Rmc Meas. temp.
 MFSS.               FANN:   Source Rmf.
 RMB .OHMM            .15:   Rm. at BHT
 BHT .F               122:   BHT.
 TCS .HRS               6:   Time Circ. stopped
 MRT .F               122:   Maximum recorded temp.
 LUN .               8611:   Logging unit number
 LUL .             CASPER:   Logging unit location
 ENGI.            C. DOAK:   Recorded By
 WITN.      B. HARRINGTON:   Witnessed by
 ORIG.           5" PRINT:   Origin of data
 UWI .     49025103990000:   Unique Well ID
 DICO. A2D TECHNOLOGIES, INC.:   Digitizing Company
 DAPD.                 10:   Feet Above Permanent Datum
 BSD1.               3430:   Depth drilled with bit1
 MCSS.                KIT:   Source Rmc.
 TLI .                200:   Top log interval
~OTHER INFORMATION
~A   DEPT      SPR         GURD     FORX       NPHI       CALD       CORR        GRD       RHOB   
  196.0000  -999.2500     2.5870  -999.2500  -999.2500  -999.2500  -999.2500  -999.2500  -999.2500
  196.5000  -999.2500     2.5870  -999.2500  -999.2500  -999.2500  -999.2500  -999.2500  -999.2500
  197.0000  -999.2500     2.5870  -999.2500  -999.2500  -999.2500  -999.2500  -999.2500  -999.2500
  197.5000  -999.2500     2.5940  -999.2500  -999.2500  -999.2500  -999.2500  -999.2500  -999.2500
  198.0000  -999.2500     2.5870  -999.2500     0.3130  -999.2500  -999.2500  -999.2500  -999.2500
  198.5000  -999.2500     2.5850  -999.2500     0.3130  -999.2500  -999.2500  -999.2500  -999.2500
  199.0000  -999.2500     2.6020  -999.2500     0.3130  -999.2500  -999.2500  -999.2500  -999.2500
  199.5000  -999.2500     2.5630  -999.2500     0.3130  -999.2500  -999.2500  -999.2500  -999.2500
  200.0000  -999.2500     1.6490  -999.2500     0.3070  -999.2500    -0.4500    75.3980  -999.2500
  200.5000  -999.2500     2.3770  -999.2500     0.3090  -999.2500    -0.4500    75.5980  -999.2500
  201.0000  -999.2500     1.6490  -999.2500     0.3130  -999.2500    -0.4500    75.7970     1.8430
  201.5000  -999.2500     1.8130  -999.2500     0.3140  -999.2500    -0.4500    75.8040     1.8450
  202.0000  -999.2500     2.1130  -999.2500     0.3130  -999.2500    -0.4500    74.9590     1.8500
  202.5000  -999.2500     1.8580  -999.2500     0.3110  -999.2500    -0.4500    73.8190     1.8540
  203.0000  -999.2500     2.3790  -999.2500     0.3100  -999.2500    -0.4500    73.2150     1.8520
  203.5000  -999.2500     2.7430  -999.2500     0.3100  -999.2500    -0.4500    74.8200     1.8480
  204.0000  -999.2500     2.0560  -999.2500     0.3110  -999.2500    -0.4500    76.3200     1.8440
  204.5000  -999.2500     1.8240  -999.2500     0.3130  -999.2500    -0.4500    77.8070     1.8510
  205.0000  -999.2500     2.2130  -999.2500     0.3120  -999.2500    -0.4500    79.0610     1.8590
  205.5000  -999.2500     1.2170  -999.2500     0.3120  -999.2500    -0.4480    80.0610     1.8660
  206.0000  -999.2500     1.0410  -999.2500     0.3130  -999.2500    -0.4450    80.9610     1.8730
  206.5000  -999.2500     2.2540  -999.2500     0.3130  -999.2500    -0.4430    80.2630     1.8860
  207.0000  -999.2500     1.2300  -999.2500     0.3130  -999.2500    -0.4400    79.4400     1.8950
  207.5000  -999.2500     1.4030  -999.2500     0.3130  -999.2500    -0.4430    78.6180     1.8780
  208.0000  -999.2500     3.1520  -999.2500     0.3140  -999.2500    -0.4460    77.7980     1.8650
  208.5000  -999.2500     4.2110  -999.2500     0.3150  -999.2500    -0.4480    76.9780     1.8530
  209.0000  -999.2500     6.3100  -999.2500     0.3170  -999.2500    -0.4470    76.1580     1.8570
  209.5000  -999.2500     5.5480  -999.2500     0.3170  -999.2500    -0.4460    75.3360     1.8630
  210.0000  -999.2500     5.1640  -999.2500     0.3170  -999.2500    -0.4450    74.5180     1.8620
  210.5000  -999.2500     4.8930  -999.2500     0.3180  -999.2500    -0.4440    74.1800     1.8670
  211.0000  -999.2500     3.8470  -999.2500     0.3190  -999.2500    -0.4430    73.9180     1.8690
  211.5000  -999.2500     1.8810  -999.2500     0.3210  -999.2500    -0.4410    73.6570     1.8650
  212.0000  -999.2500     0.8050  -999.2500     0.3220  -999.2500    -0.4420    73.4110     1.8610
  212.5000  -999.2500     1.8930  -999.2500     0.3220  -999.2500    -0.4530    73.5870     1.8540
  213.0000  -999.2500     1.2020  -999.2500     0.3190  -999.2500    -0.4650    75.3020     1.8380
  213.5000  -999.2500     0.5890  -999.2500     0.3150  -999.2500    -0.4770    76.9690     1.8190
  214.0000  -999.2500     2.2750  -999.2500     0.3100  -999.2500    -0.4890    78.6280     1.8000
  214.5000  -999.2500     1.8750  -999.2500     0.3060  -999.2500    -0.4990    79.4030     1.7910
  215.0000  -999.2500     3.4090  -999.2500     0.3010  -999.2500    -0.5010    77.7280     1.8080
  215.5000  -999.2500     2.5350  -999.2500     0.2990  -999.2500    -0.5030    79.6730     1.8170
  216.0000  -999.2500     0.2140  -999.2500     0.2990  -999.2500    -0.5050    80.5580     1.8240
  216.5000  -999.2500     0.5390  -999.2500     0.2970  -999.2500    -0.5050    79.6460     1.8330
  217.0000  -999.2500     1.2850  -999.2500     0.2970  -999.2500    -0.5030    78.7430     1.8460
  217.5000  -999.2500     1.8780  -999.2500     0.2990  -999.2500    -0.5010    78.7210     1.8590
  218.0000  -999.2500     2.9970  -999.2500     0.3040  -999.2500    -0.4940    76.8880     1.8720
  218.5000  -999.2500     4.2110  -999.2500     0.3050  -999.2500    -0.4780    75.0340     1.8870
  219.0000  -999.2500     3.1490  -999.2500     0.3040  -999.2500    -0.4500    73.6300     1.9140
  219.5000  -999.2500     2.7160  -999.2500     0.3040     8.3700    -0.4220    75.7860     1.9410
  220.0000  -999.2500     1.5600  -999.2500     0.3040     8.4340    -0.3940    77.9490     1.9730
  220.5000  -999.2500     1.2400  -999.2500     0.3060     8.4980    -0.3680    80.0880     1.9640
  221.0000  -999.2500     1.6640  -999.2500     0.3090     8.5550    -0.3580    82.2090     1.9580
  221.5000  -999.2500     1.5180  -999.2500     0.3110     8.5800    -0.3400    84.0950     1.9640
  222.0000  -999.2500     2.3340  -999.2500     0.3120     8.5720    -0.3080    86.0040     1.9730
  222.5000  -999.2500     1.9230  -999.2500     0.3100     8.5640    -0.2770    87.0140     1.9860
  223.0000  -999.2500     0.9410  -999.2500     0.3090     8.5550    -0.2440    88.0870     2.0000
  223.5000  -999.2500     2.9970  -999.2500     0.3080     8.5470    -0.2170    89.0550     2.0100
  224.0000  -999.2500     4.9750  -999.2500     0.3140     8.5380    -0.1810    91.0190     2.0400
  224.5000  -999.2500     6.9400  -999.2500     0.3130     8.5300    -0.1250    93.3000     2.0730
  225.0000  -999.2500     7.9440  -999.2500     0.3090     8.5240    -0.0700    95.6090     2.1020
  225.5000  -999.2500     8.2380  -999.2500     0.3030     8.5450    -0.0050    97.9420     2.1540
  226.0000  -999.2500     6.4220  -999.2500     0.2940     8.5960     0.0710   100.2730     2.2110
  226.5000  -999.2500     5.2500  -999.2500     0.2840     8.7670     0.1070   103.3520     2.1680
  227.0000  -999.2500     2.9150  -999.2500     0.2770     8.9370     0.0560   107.7060     2.2020
  227.5000  -999.2500     0.6770  -999.2500     0.2700     9.1170     0.0380   110.3250     2.2880
  228.0000  -999.2500     0.2020     0.5300     0.2650     9.3140     0.0570   111.5280     2.3870
  228.5000  -999.2500     0.2020     0.9630     0.2610     9.4760     0.0540   111.8290     2.3790
  229.0000   -17.9460     0.2020     5.2300     0.2600     9.4390     0.0520   110.7180     2.3700
  229.5000   -23.2520     0.2010     8.8660     0.2600     9.5090     0.0490   109.6260     2.3590
  230.0000   -28.5580     0.2010     8.8660     0.2610     9.6010     0.0470   108.5610     2.3700
  230.5000   -32.5430     0.2000     8.8660     0.2620     9.6940     0.0440   107.8260     2.3880
  231.0000   -37.8760     0.2000    10.1770     0.2630     9.7600     0.0430   108.5680     2.4050
  231.5000   -42.1600     0.2000     9.6310     0.2640     9.7810     0.0420   109.3860     2.4070
  232.0000   -45.7010     0.2000    11.0550     0.2640     9.7070     0.0410   110.1970     2.4030
  232.5000   -49.2460     1.0000    10.6610     0.2640     9.6350     0.0410   111.0140     2.4090
  233.0000   -52.7970     1.8230     8.3900     0.2620     9.6710     0.0400   111.8490     2.4150
  233.5000   -55.8390     2.6470     8.5760     0.2590     9.7210     0.0390   111.5690     2.4210
  234.0000   -58.7180     3.4710     9.0310     0.2560     9.7700     0.0380   110.9240     2.4260
  234.5000   -61.6250     4.2940     8.7740     0.2560     9.8200     0.0380   110.2650     2.4250
  235.0000   -64.5320     5.5370     8.3900     0.2580     9.8690     0.0370   109.6040     2.4190
  235.5000   -65.8430     6.9100     8.6910     0.2620     9.9190     0.0360   108.9420     2.4130
  236.0000   -67.1030     7.6070     8.9480     0.2650     9.9680     0.0350   108.2360     2.4060
