~VERSION INFORMATION
 VERS.                2.0:   CWLS LOG ASCII STANDARD - VERSION 2.0
 WRAP.                 NO:   ONE LINE PER DEPTH STEP
~WELL INFORMATION
#MNEM.UNIT      DATA TYPE    INFORMATION
#----------   ------------   ------------------------------
 STRT.F           44.0000:   START DEPTH
 STOP.F         6166.0000:   STOP DEPTH
 STEP.F            0.5000:   STEP LENGTH
 NULL.          -999.2500:   NO VALUE
 COMP.   TESORO PETROLEUM:   COMPANY
 WELL. TESORO 11X NPR #3-23:   WELL
 FLD .             TEAPOT:   FIELD
 LOC .      S23 T38N R78W:   LOCATION
 CNTY.            NATRONA:   COUNTY
 STAT.            WYOMING:   STATE
 CTRY. UNITED STATES OF AMERICA:   COUNTRY
 SRVC.       SCHLUMBERGER:   SERVICE COMPANY
 DATE.        29-OCT-1968:   LOGDATE
 API .     49025100170000:   API NUMBER
~CURVE INFORMATION
#MNEM.UNIT       API CODE    CURVE DESCRIPTION
#----------   ------------   ------------------------------
 DEPT.F                  :   
 SN  .OHMM   05 040 18 00:   SHORT NORMAL 18"
 RES .OHMM   05 000 00 00:   RESISTIVITY
 ILD .OHMM   05 120 46 00:   INDUCTION LOG DEEP RESISTIVITY
 SPR .MV     05 010 01 00:   SPONTANEOUS POTENTIAL FROM RES.
~PARAMETER INFORMATION
#MNEM.UNIT          VALUE    DESCRIPTION
#----------   ------------   ------------------------------
 EKB .F         5283.0000:   Kelly bushing
 EGL .F         5272.0000:   Ground level
 EDF .F            0.0000:   Drilling floor
 TD  .F         6171.0000:   Total depth
 CLNT.            A2DTECH:   Client Code
 SL  . 380' FNL & 380' FWL:   Surface Location
 PD  .                 GL:   Permanent Datum
 EPD .F              5272:   Elevation Permanent Datum
 LMF .                 KB:   Log Measured From
 DMF .                 KB:   Drilling Measured From
 DAPD.F                11:   Feet Above Permanent Datum
 DATE.        29-OCT-1968:   Date Logged [DD-MMM-YYYY]
 DD  .F              6171:   Depth driller
 DL  .F              6167:   Depth logger
 BLI .F              6166:   Bottom log interval
 TLI .F               975:   Top log interval
 CS1 .IN            10.75:   Casing size
 CBD1.      10.75" @ 975':   Casing driller 1
 CBL1.F               975:   Casing logger 1
 BS1 .IN            9.125:   Bit size
 BSD1.F              6171:   Depth drilled with bit1
 DFT .           GEL-CHEM:   Type fluid in hole
 DFD .                9.6:   Density
 DFV .                 61:   Viscosity
 DFPH.                 10:   pH
 DFL .                6.8:   Fluid loss
 MSS .           FLOWLINE:   Source of sample
 RMS .OHMM           0.89:   Rm
 MST .F                80:   Rm Meas. temp.
 RMF .OHMM           0.60:   Rmf
 MFST.F                80:   Rmf Meas. temp.
 MFSS.               MEAS:   Source Rmf.
 RMB .OHMM           0.45:   Rm. at BHT
 BHT .F               160:   BHT.
 TCS .HRS               4:   Time Circ. stopped
 MRT .F               160:   Maximum recorded temp.
 LUN .               7041:   Logging unit number
 LUL .               CSPR:   Logging unit location
 ENGI.            MANGOLD:   Recorded By
 WITN.                MAY:   Witnessed by
 ORIG.         2.5" PRINT:   Origin of data
 UWI .     49025100170000:   Unique Well ID
 DICO. A2D TECHNIOLOGIES,INC.:   Digitizing Company
~OTHER INFORMATION
~A  DEPTH       SN        RES        ILD        SPR
   44.0000     1.5859     2.1914     1.4347  -999.2500
   44.5000     1.8683     1.8331     1.2834   -99.5282
   45.0000     2.1507     1.8236     1.0638   -75.1818
   45.5000     2.4330     1.8935     1.0638   -74.0283
   46.0000     2.5333     1.7891     1.0638   -73.4970
   46.5000     2.9677     1.6201     1.2158   -73.9364
   47.0000     3.1354     1.5710     1.2158   -74.5717
   47.5000     3.5068     1.5657     1.2158   -75.6134
   48.0000     3.8056     1.5613     1.5198   -76.5210
   48.5000     4.2559     1.5570     2.1337   -77.7317
   49.0000     4.5547     1.5525     3.3982   -79.2454
   49.5000     4.8534     1.5322     3.9858   -81.0818
   50.0000     4.8485     1.3896     4.1540   -81.3638
   50.5000     4.9152     1.5028     4.2553   -81.3621
   51.0000     4.9909     1.3338     4.4073   -81.2485
   51.5000     5.1373     1.2207     4.5593   -80.6101
   52.0000     5.4361     1.2160     4.7112   -79.3212
   52.5000     5.4319     1.2114     4.8632   -77.1134
   53.0000     5.7535     1.2068     5.0152   -76.5059
   53.5000     6.0294     1.2022     5.1793   -76.5045
   54.0000     6.2404     1.1975     5.4995   -76.4970
   54.5000     6.5596     1.4249     5.8197   -76.5263
   55.0000     6.6212     1.1875     6.1398   -76.8586
   55.5000     6.9193     1.3197     6.6120   -77.4939
   56.0000     7.2181     1.4874     6.9909   -77.8263
   56.5000     7.3818     2.1093     7.1429   -78.7646
   57.0000     7.7010     2.9146     7.4468   -80.4330
   57.5000     7.8687     3.5892     7.4468   -81.6437
   58.0000     8.1091     4.3745     7.1368   -82.0081
   58.5000     7.9523     5.0273     6.7943   -80.4287
   59.0000     7.6450     5.7840     6.3445   -80.1242
   59.5000     7.1862     6.7654     5.8723   -80.4854
   60.0000     7.0202     7.6029     5.5522   -81.7576
   60.5000     6.8742     8.4198     5.2320   -82.8182
   61.0000     6.7182     9.6775     5.0152   -84.3020
   61.5000     6.7136    11.1520     5.0152   -85.5742
   62.0000     6.5568    11.3930     5.1672   -86.4785
   62.5000     6.5525     8.3710     5.1672   -86.4771
   63.0000     6.5482     7.7494     5.1672   -85.2635
   63.5000     6.5439     7.5907     5.1672   -83.7469
   64.0000     6.5394     7.4320     5.1672   -82.2182
   64.5000     6.5348     7.2731     5.1672   -80.6439
   65.0000     6.5303     7.2685     5.0861   -79.8030
   65.5000     6.5258     7.2359     5.0152   -79.8015
   66.0000     6.5206     7.0669     5.0152   -79.6727
   66.5000     6.5163     6.8979     4.8632   -78.8763
   67.0000     6.5121     6.7289     4.7112   -78.5846
   67.5000     6.5076     6.6281     4.7112   -78.5831
   68.0000     6.5030     6.5453     4.5593   -78.5817
   68.5000     6.4985     6.4645     4.5593   -78.2772
   69.0000     6.4939     6.4599     4.7112   -77.6606
   69.5000     6.3372     6.5635     4.7112   -76.9823
   70.0000     6.3329     6.6049     4.8632   -76.0101
   70.5000     6.1771     6.5996     5.0152   -74.7349
   71.0000     6.1727     6.4409     5.0152   -73.6303
   71.5000     6.1682     6.4366     5.1672   -72.1843
   72.0000     6.0121     6.2778     5.1672   -71.2967
   72.5000     5.8561     6.2590     5.1469   -70.6892
   73.0000     5.8507     6.0900     4.9787   -71.2938
   73.5000     5.6949     5.9552     4.6586   -71.8984
   74.0000     5.5392     5.9506     4.3384   -72.5031
   74.5000     5.2318     5.8917     4.0182   -72.8046
   75.0000     5.2273     5.7870     3.7994   -73.1062
   75.5000     5.2227     5.7824     3.4954   -73.4078
   76.0000     5.2182     5.7778     3.3435   -72.5253
   76.5000     5.2136     5.7731     3.3435   -71.5530
   77.0000     5.2085     5.7685     3.6616   -70.0695
   77.5000     5.2042     5.7639     3.9818   -69.1589
   78.0000     5.2000     5.9127     4.3019   -67.9454
   78.5000     5.1955     5.9084     4.5593   -66.4288
   79.0000     5.1909     5.9040     4.5593   -65.2151
   79.5000     5.1864     6.0540     4.4073   -65.2136
   80.0000     5.1818     6.0597     4.2553   -65.2121
   80.5000     5.1766     6.2194     4.1033   -65.2106
   81.0000     5.1723     6.3791     3.9514   -65.2091
   81.5000     5.1681     6.4985     3.7913   -64.9045
   82.0000     5.1636     6.5946     3.6474   -64.2967
   82.5000     5.1591     6.7978     3.7994   -63.6892
   83.0000     5.1813     6.7932     3.8561   -62.1726
   83.5000     5.2273     6.7886     3.9514   -59.7470
   84.0000     5.1447     6.6934     4.1033   -52.9576
   84.5000     5.1404     6.6250     4.1033   -50.9561
   85.0000     5.1362     6.5098     4.1033   -51.3838
   85.5000     5.1318     6.4614     4.1033   -58.0425
   86.0000     5.1273     6.4561     4.1033   -77.4322
   86.5000     5.1227     6.2975     4.1033  -999.2500
   87.0000     5.1182     6.2931     4.2898  -999.2500
   87.5000     5.2643     6.2886     4.4580  -999.2500
   88.0000     5.2600     6.2840     4.7112  -999.2500
   88.5000     5.4073     6.3058     4.8632  -999.2500
   89.0000     5.4030     6.4290     5.0152  -999.2500
   89.5000     5.3985     6.4244     4.8632  -999.2500
   90.0000     5.3939     6.4763     4.8632  -999.2500
   90.5000     5.3894     6.5694     4.8632  -999.2500
   91.0000     5.5364     6.6415     4.8632  -999.2500
   91.5000     5.5311     6.7145     4.8349  -999.2500
   92.0000     5.5269     6.7099     4.3181  -999.2500
   92.5000     5.3711     6.7052     3.8906  -999.2500
   93.0000     5.3535     6.5838     3.4184  -999.2500
   93.5000     5.1768     6.3866     3.1915  -999.2500
   94.0000     5.0545     6.3822     3.0395  -999.2500
   94.5000     5.0500     6.3779     2.8875  -999.2500
   95.0000     5.0447     6.3735     3.3435  -999.2500
   95.5000     4.8889     6.3688     3.6535  -999.2500
   96.0000     4.8847     6.3642     3.9737  -999.2500
   96.5000     4.8803     6.3596     4.2938  -999.2500
   97.0000     4.8758     6.3976     4.4620  -999.2500
   97.5000     4.9192     6.5574     4.6302  -999.2500
   98.0000     5.0182     6.6543     4.7984  -999.2500
   98.5000     5.0128     6.6497     5.0152  -999.2500
   99.0000     5.0085     6.7279     5.0152  -999.2500
   99.5000     5.0043     6.8876     5.1672  -999.2500
  100.0000     5.3030     6.6358     5.1672  -999.2500
  100.5000     5.2985     6.6343     5.1672  -999.2500
  101.0000     5.3354     6.7292     5.1672  -999.2500
  101.5000     5.5030     6.8916     5.1672  -999.2500
  102.0000     5.5879     6.9383     5.1672   -89.4242
  102.5000     5.5827     7.0908     5.1672   -82.3914
  103.0000     5.5784     7.0893     5.1672   -75.4452
  103.5000     5.7258     7.0879     5.1672   -69.6862
  104.0000     5.8729     6.9321     5.0152   -63.0180
  104.5000     5.8682     6.7666     4.8632   -60.2893
  105.0000     5.7121     6.6011     4.5593   -59.0758
  105.5000     5.5561     6.4645     4.3809   -59.0742
  106.0000     5.5507     6.4630     4.1033   -59.0727
  106.5000     5.5465     6.4614     3.9514   -59.3745
  107.0000     5.5422     6.4020     3.8764   -59.3727
  107.5000     5.3864     6.2365     3.7994   -59.3712
  108.0000     5.3818     6.0710     3.7994   -59.0664
  108.5000     5.3773     5.9923     3.6474   -58.4589
  109.0000     5.3727     5.9907     3.7994   -58.1544
  109.5000     5.5188     6.0953     4.1033   -57.5469
  110.0000     5.5146     6.2577     4.4276   -57.2424
  110.5000     5.5103     6.4488     4.7112   -56.9379
  111.0000     5.5061     6.6017     4.9159   -56.9364
  111.5000     5.5015     6.6002     5.0841   -57.0374
  112.0000     5.4970     6.5988     5.1672   -57.2364
  112.5000     5.6448     6.5876     5.3191   -57.3990
  113.0000     5.6394     6.4414     5.3191   -57.5364
  113.5000     5.7864     6.4398     5.3191   -57.8379
  114.0000     5.7814     6.4383     5.3191   -57.8363
  114.5000     5.7772     6.4850     5.3191   -57.8348
  115.0000     5.7727     6.5895     5.3191   -57.5303
  115.5000     5.7682     6.5880     5.2725   -57.5747
  116.0000     5.7636     6.5093     5.1672   -57.8305
  116.5000     5.7591     6.3437     5.3191   -57.8288
