~VERSION INFORMATION
 VERS.                2.0:   CWLS LOG ASCII STANDARD - VERSION 2.0
 WRAP.                 NO:   ONE LINE PER DEPTH STEP
~WELL INFORMATION
#MNEM.UNIT      DATA TYPE    INFORMATION
#----------   ------------   ------------------------------
 STRT.F          206.0000:   START DEPTH
 STOP.F         2974.0000:   STOP DEPTH
 STEP.F            0.5000:   STEP LENGTH
 NULL.          -999.2500:   NO VALUE
 COMP.    FENIX & SCISSON:   COMPANY
 WELL.    FENIX AX #32-21:   WELL
 FLD .                NPR:   FIELD
 LOC .      S21 T39N R78W:   LOCATION
 CNTY.            NATRONA:   COUNTY
 STAT.            WYOMING:   STATE
 CTRY. UNITED STATES OF AMERICA:   COUNTRY
 SRVC.              WELEX:   SERVICE COMPANY
 DATE.        29-JUL-1977:   LOGDATE
 API .     49025104050000:   API NUMBER
~CURVE INFORMATION
#MNEM.UNIT       API CODE    CURVE DESCRIPTION
#----------   ------------   ------------------------------
 DEPT.F                  :   
 SPR .MV     07 010 01 00:   SPONTANEOUS POTENTIAL
 RILM.OHMM   07 120 44 00:   INDUCTION LOG MEDIUM RESISTIVITY
 RILD.OHMM   07 120 46 00:   INDUCTION LOG DEEP RESISTIVITY
 SGRD.OHMM   07 220 05 00:   SHALLOW GUARD LOG RESISTIVITY
 CALD.IN     45 280 60 00:   CALIPER FROM DENSITY LOG
 RHOB.G/C3   45 350 01 00:   BULK DENSITY
 DCOR.G/C3   45 356 01 00:   DENSITY CORRECTION
 GRD .GAPI   45 310 01 00:   GAMMA RAY FROM DENSITY LOG
~PARAMETER INFORMATION
#MNEM.UNIT          VALUE    DESCRIPTION
#----------   ------------   ------------------------------
 EKB .F         4995.0000:   Kelly bushing
 EGL .F         4985.0000:   Ground level
 EDF .F            0.0000:   Drilling floor
 EPD .F         4985.0000:   Permanent datum
 TD  .F         2978.0000:   Total depth
 DATE.        29-JUL-1977:   Date logged
 CLNT.            A2DTECH:   Client Code
 SL  . 1040' FNL & 1500' FWL:   Surface Location
 PD  .                 GL:   Permanent Datum
 LMF .                 KB:   Log Measured From
 DMF .                 KB:   Drilling Measured From
 DAPD.F                10:   Feet Above Permanent Datum
 DD  .F              2972:   Depth driller
 DL  .F              2978:   Depth logger
 BLI .F              2976:   Bottom log interval
 TLI .F               120:   Top log interval
 CS1 .IN            8.625:   Casing size
 CBD1.      8.625" @ 205':   Casing driller 1
 CBL1.F               220:   Casing logger 1
 BS1 .IN            7.875:   Bit size
 BSD1.F              2972:   Depth drilled with bit1
 DFT .                KCL:   Type fluid in hole
 DFD .                9.2:   Density
 DFV .                 43:   Viscosity
 DFPH.                 10:   pH
 DFL .                  8:   Fluid loss
 MSS .            MUD PIT:   Source of sample
 RMS .OHMM            .21:   Rm
 MST .F                91:   Rm Meas. temp.
 RMF .OHMM            .18:   Rmf
 MFST.F                91:   Rmf Meas. temp.
 RMC .OHMM            .23:   Rmc
 MCST.F                91:   Rmc Meas. temp.
 MFSS.               MEAS:   Source Rmf.
 MCSS.               MEAS:   Source Rmc.
 RMB .OHMM            .17:   Rm. at BHT
 BHT .F               110:   BHT.
 TCS .HRS               3:   Time Circ. stopped
 MRT .F               110:   Maximum recorded temp.
 LUN .               9685:   Logging unit number
 LUL .             CASPER:   Logging unit location
 ENGI.   T JOYNER/ E HOCH:   Recorded By
 WITN.         PETTINGILL:   Witnessed by
 ORIG.     2.5", 5" PRINT:   Origin of data
 UWI .     49025104050000:   Unique Well ID
 DICO. A2D TECHNOLOGIES, INC.:   Digitizing Company
~OTHER INFORMATION
~A   DEPT      SPR       RILM       RILD       SGRD       CALD       RHOB       DCOR         GRD  
  206.0000  -999.2500  -999.2500  -999.2500  -999.2500  -999.2500  -999.2500  -999.2500    63.8000
  206.5000  -999.2500  -999.2500  -999.2500  -999.2500  -999.2500  -999.2500  -999.2500    63.8000
  207.0000  -999.2500  -999.2500  -999.2500  -999.2500  -999.2500  -999.2500  -999.2500    62.6380
  207.5000  -999.2500  -999.2500  -999.2500  -999.2500  -999.2500  -999.2500  -999.2500    62.7630
  208.0000  -999.2500  -999.2500  -999.2500  -999.2500  -999.2500  -999.2500  -999.2500    62.8880
  208.5000  -999.2500  -999.2500  -999.2500  -999.2500  -999.2500  -999.2500  -999.2500    63.0000
  209.0000  -999.2500  -999.2500  -999.2500  -999.2500  -999.2500  -999.2500  -999.2500    64.0270
  209.5000  -999.2500  -999.2500  -999.2500  -999.2500  -999.2500  -999.2500  -999.2500    64.5580
  210.0000    -0.5980  -999.2500  -999.2500     0.2060  -999.2500  -999.2500  -999.2500    65.4270
  210.5000    -0.5980  -999.2500  -999.2500     0.2060  -999.2500  -999.2500  -999.2500    66.3560
  211.0000    -0.5980  -999.2500  -999.2500     0.2060  -999.2500  -999.2500  -999.2500    67.3060
  211.5000    -0.5980  -999.2500  -999.2500     0.2060  -999.2500  -999.2500  -999.2500    68.1840
  212.0000    -4.5130  -999.2500  -999.2500     0.2060  -999.2500  -999.2500  -999.2500    69.2800
  212.5000   -10.1060  -999.2500  -999.2500     0.2060  -999.2500  -999.2500  -999.2500    70.5390
  213.0000   -15.6990  -999.2500  -999.2500     0.2060  -999.2500  -999.2500  -999.2500    71.7390
  213.5000   -18.5700  -999.2500  -999.2500     0.2090  -999.2500  -999.2500  -999.2500    72.9420
  214.0000   -24.0540  -999.2500  -999.2500     0.2060  -999.2500  -999.2500  -999.2500    74.1550
  214.5000   -29.6020  -999.2500  -999.2500     0.2060  -999.2500  -999.2500  -999.2500    75.3570
  215.0000   -33.7620  -999.2500  -999.2500     0.2060  -999.2500  -999.2500  -999.2500    76.5660
  215.5000   -37.8440  -999.2500  -999.2500     0.3340  -999.2500  -999.2500  -999.2500    77.7760
  216.0000   -42.1320  -999.2500  -999.2500     3.1610  -999.2500  -999.2500  -999.2500    78.9680
  216.5000   -45.4780  -999.2500     8.0960     7.1140  -999.2500  -999.2500  -999.2500    80.2030
  217.0000   -47.5130  -999.2500     8.5560    10.1030  -999.2500  -999.2500  -999.2500    81.3780
  217.5000   -49.8030  -999.2500     5.6670    10.9990  -999.2500  -999.2500  -999.2500    82.5010
  218.0000   -52.0350     5.8550     8.2460    12.1510  -999.2500  -999.2500  -999.2500    82.1640
  218.5000   -54.2810     7.8290     8.3220    12.2880  -999.2500  -999.2500  -999.2500    81.7490
  219.0000   -55.6640     8.3070     8.4000    12.4440  -999.2500  -999.2500  -999.2500    81.3320
  219.5000   -56.4140     8.4000    10.2460    12.6000     9.1900  -999.2500  -999.2500    80.5610
  220.0000   -57.1850    10.6780    10.1480    12.7560     9.2900     2.2740     0.1360    79.8970
  220.5000   -57.9350    10.4920    12.8420    12.9120     9.3900     2.2830     0.1450    79.2010
  221.0000   -58.1510    10.1850    12.7920    13.0820     9.5410     2.2840     0.1490    78.5020
  221.5000   -58.3570    10.2100    12.7470    13.4570     9.8130     2.2860     0.1350    77.8430
  222.0000   -58.5380     9.7250    12.7010    13.8690    10.0840     2.2880     0.1240    77.0700
  222.5000   -58.7350     9.2120    12.6560    14.2810    10.2260     2.3010     0.1130    76.8830
  223.0000   -58.9250     9.8060    12.6080    14.6930    10.2350     2.3170     0.1030    76.7430
  223.5000   -59.1190    11.6160    12.1020    14.8860    10.2470     2.3260     0.1000    76.6680
  224.0000   -59.3090    13.4260    11.5580    14.2560    10.2470     2.3400     0.0940    77.5330
  224.5000   -59.5010    15.2360    11.0150    13.4000    10.3010     2.3540     0.0880    78.4270
  225.0000   -59.6980    17.0460    10.5040    12.7740    10.3950     2.3610     0.0760    79.3950
  225.5000   -59.8650    18.5770    10.0050    12.6080    10.5840     2.3670     0.0640    80.2620
  226.0000   -60.3170    17.2020     9.5060    12.4280    10.7440     2.3740     0.0540    81.3120
  226.5000   -61.5290    16.0120     9.0070    12.2730    10.9140     2.3770     0.0500    81.3910
  227.0000   -63.0760    15.7330     8.5080    12.1180    11.0290     2.3760     0.0450    81.4130
  227.5000   -64.5090    15.7330     8.0960    11.9630    11.1140     2.3770     0.0460    81.3920
  228.0000   -66.2080    15.3130     8.2190    11.8080    11.1820     2.3760     0.0470    81.3970
  228.5000   -67.1030    13.3130     8.3240    11.6530    11.2260     2.3800     0.0490    81.4910
  229.0000   -68.1720    10.1030     8.4300    11.4960    11.2620     2.3880     0.0500    81.7560
  229.5000   -69.0950     9.5490     8.5560    11.5440    11.2980     2.3940     0.0520    82.0000
  230.0000   -69.8530     9.2120     8.7190    11.5930    11.3050     2.4000     0.0530    82.1770
  230.5000   -70.6720     9.0720     8.9230    11.6420    11.3100     2.3990     0.0550    81.9520
  231.0000   -70.2830     8.8780     9.0550    11.7100    11.3150     2.3980     0.0560    81.7600
  231.5000   -69.8040     9.1040     9.0820    11.6690    11.3200     2.3970     0.0580    81.5710
  232.0000   -67.4390    10.1610     9.1100    11.6020    11.3240     2.3960     0.0590    81.3410
  232.5000   -64.8900    11.2180     9.1370    11.4960    11.3310     2.3950     0.0610    81.1710
  233.0000   -64.0700    12.2750     9.1650    11.6850    11.3340     2.3950     0.0620    81.1240
  233.5000   -64.6120    13.3320     9.1920    12.1280    11.3360     2.3960     0.0640    82.5570
  234.0000   -64.9700    14.3460     9.2200    12.5710    11.2920     2.3960     0.0630    83.7750
  234.5000   -65.3990    13.5740     9.2470    13.0820    11.2000     2.3970     0.0600    85.0340
  235.0000   -65.4130    13.3150     9.2750    12.9560    11.0490     2.4010     0.0570    86.3550
  235.5000   -65.1150    12.8420     9.3030    12.8070    10.9020     2.4100     0.0540    87.5880
  236.0000   -64.3820    12.9470     9.3300    12.6080    10.7400     2.4210     0.0540    88.3430
  236.5000   -63.3560    13.1770     9.3580    12.6430    10.6560     2.4330     0.0580    87.6320
  237.0000   -62.3360    13.4070     9.3850    12.6970    10.6230     2.4350     0.0630    88.4860
  237.5000   -62.0520    13.7660     9.4130    12.7500    10.5660     2.4240     0.0610    86.2450
  238.0000   -61.7820    14.4710     9.4400    12.8040    10.5450     2.4140     0.0550    84.5280
  238.5000   -61.5290    15.1760     9.4680    12.9950    10.5210     2.4140     0.0490    82.6630
  239.0000   -61.2720    15.8800     9.4950    13.5350    10.4950     2.4200     0.0520    81.8090
  239.5000   -61.0140    16.9390     9.5230    14.3460    10.4700     2.4260     0.0570    81.4110
  240.0000   -60.7580    16.2910     9.5570    14.0270    10.4450     2.4310     0.0620    81.6290
  240.5000   -60.5000    14.9880     9.5360    13.3250    10.4210     2.4290     0.0640    81.7590
  241.0000   -60.2430    14.3460     9.5000    13.3250    10.4200     2.4240     0.0610    81.9070
  241.5000   -59.9880    14.3460     9.4640    13.3250    10.4200     2.4170     0.0580    82.0650
  242.0000   -59.7240    14.2900     9.4300    13.3250    10.4200     2.4070     0.0540    82.2080
  242.5000   -59.4800    14.1800     9.3950    13.3250    10.4200     2.3920     0.0510    82.3550
  243.0000   -59.1880    14.0840     9.3600    13.0180    10.4200     2.3830     0.0470    82.5310
  243.5000   -59.1660    14.4600     9.3250    12.6860    10.4200     2.3760     0.0450    82.4770
  244.0000   -59.1590    14.8860     9.2900    12.3540    10.4200     2.3810     0.0480    82.1310
  244.5000   -59.1670    14.5580     9.2560    12.0220    10.4200     2.3890     0.0560    81.8000
  245.0000   -59.1620    14.0840     9.2210    11.6900    10.4200     2.4040     0.0640    81.4510
  245.5000   -59.1600    14.1280     9.2120    11.3590    10.4200     2.4170     0.0730    81.2030
  246.0000   -59.1750    14.2540     9.2120    11.0790    10.4180     2.4310     0.0820    80.1040
