~VERSION INFORMATION
 VERS.                2.0:   CWLS LOG ASCII STANDARD - VERSION 2.0
 WRAP.                 NO:   ONE LINE PER DEPTH STEP
~WELL INFORMATION
#MNEM.UNIT      DATA TYPE    INFORMATION
#----------   ------------   ------------------------------
 STRT.F            0.0000:   START DEPTH
 STOP.F         4022.0000:   STOP DEPTH
 STEP.F            0.5000:   STEP LENGTH
 NULL.          -999.2500:   NO VALUE
 COMP. LAWRENCE - ALLISON:   COMPANY
 WELL. LAWRENCE NPR 3 "MX" #58-10:   WELL
 FLD .                MPR:   FIELD
 LOC .      S10 T38N R78W:   LOCATION
 CNTY.            NATRONA:   COUNTY
 STAT.            WYOMING:   STATE
 CTRY. UNITED STATES OF AMERICA:   COUNTRY
 SRVC.      DRESSER ATLAS:   SERVICE COMPANY
 DATE.        12-FEB-1984:   LOGDATE
 API .     49025109610000:   API NUMBER
~CURVE INFORMATION
#MNEM.UNIT       API CODE    CURVE DESCRIPTION
#----------   ------------   ------------------------------
 DEPT.F                  :   
 GRR .GAPI   07 310 01 00:   GAMMA RAY FROM RESISTIVITY
 SPR .MV     07 010 01 00:   SPONTANEOUS POTENTIAL
 TENR.LBS    07 635 01 00:   TENSION FROM RESISTIVITY
 ILD .OHMM   07 120 46 00:   DEEP INDUCTION RESISTIVITY
 ILM .OHMM   07 120 44 00:   INDUCTION LOG MEDIUM RESISTIVITY
 SFL .OHMM   07 220 01 00:   SHALLOW FOCUSED LOG RESISTIVITY
 DT  .US/F   60 520 00 00:   DELTA TIME
 TENS.LBS    60 635 01 00:   TENSION FROM SONIC LOG
 CNC .DEC    42 890 03 00:   NEUTRON PORISITY SANDSTONE
 CALD.IN     45 280 60 00:   CALIPER FROM DENSITY LOG
 RHOB.G/C3   45 350 01 00:   BULK DENSITY
 CORR.G/C3   45 356 01 00:   DENSITY CORRECTION
 TEND.LBS    45 635 01 00:   TENSION FROM DENSITY LOG
~PARAMETER INFORMATION
#MNEM.UNIT          VALUE    DESCRIPTION
#----------   ------------   ------------------------------
 EKB .F         5218.0000:   Kelly bushing
 EGL .F         5208.0000:   Ground level
 EDF .F         5217.0000:   Drilling floor
 TD  .F         4014.0000:   Total depth
 DATE.        12-FEB-1984:   Date logged
 CLNT.            A2DTECH:   Client Code
 SL  . 500' FSL & 2150' FEL:   Surface Location
 PD  .                 GL:   Permanent Datum
 EPD .F              5208:   Elevation Permanent Datum
 LMF .                 KB:   Log Measured From
 DMF .                 KB:   Drilling Measured From
 DD  .F              4014:   Depth driller
 DL  .F              4011:   Depth logger
 BLI .F              4009:   Bottom log interval
 CS1 .IN            8.625:   Casing size
 CBD1.      8.625" @ 526':   Casing driller 1
 CBL1.F               525:   Casing logger 1
 BS1 .IN            7.875:   Bit size
 DFT .            GEL/KCL:   Type fluid in hole
 DFD .                8.9:   Density
 DFV .                 48:   Viscosity
 DFPH.                  8:   pH
 DFL .                1.3:   Fluid loss
 MSS .           MUD/TANK:   Source of sample
 RMS .OHMM           .556:   Rm
 MST .F                61:   Rm Meas. temp.
 RMF .OHMM           .423:   Rmf
 MFST.F                61:   Rmf Meas. temp.
 RMC .OHMM           .662:   Rmc
 MCST.F                61:   Rmc Meas. temp.
 MFSS.           MUD/TANK:   Source Rmf.
 RMB .OHMM            .80:   Rm. at BHT
 BHT .F               119:   BHT.
 TCS .HRS               5:   Time Circ. stopped
 MRT .F               119:   Maximum recorded temp.
 LUN .               6302:   Logging unit number
 ENGI.              GETTY:   Recorded By
 ORIG.           5" PRINT:   Origin of data
 UWI .     49025109610000:   Unique Well ID
 DICO. A2D TECHNOLOGIES, INC.:   Digitizing Company
 TLI .F                 0:   Top log interval
~OTHER INFORMATION
~A    DEPT      GRR       SPR       TENR        ILD        ILM        SFL         DT       TENS        CNC       CALD       RHOB       CORR       TEND   
# ...
 1430.0000    88.9100   -28.0250  -115.4040     8.0800     7.9080     8.8700  -999.2500  -999.2500     0.2390     8.4420     2.5290    -0.0100   -98.2460
 1430.5000    88.1720   -27.5020  -103.9710     8.1340     7.9840     8.9960  -999.2500  -999.2500     0.2380     8.4210     2.5290    -0.0100   -95.9040
 1431.0000    88.3060   -27.8010   -96.9840     8.1880     7.9840     8.9140  -999.2500  -999.2500     0.2320     8.3940     2.5220    -0.0250   -93.5620
 1431.5000    91.8200   -27.9620  -103.2900     8.2420     7.9840     8.6030  -999.2500  -999.2500     0.2260     8.3940     2.5120    -0.0360   -91.2210
 1432.0000    95.9330   -27.9630  -105.4340     8.2960     7.9840     8.3040  -999.2500  -999.2500     0.2270     8.4190     2.5060    -0.0240   -88.8790
 1432.5000    97.3190   -27.9350  -105.4340     8.3500     7.9840     7.9110  -999.2500  -999.2500     0.2310     8.4440     2.5130    -0.0080   -86.5370
 1433.0000    98.3000   -27.8150  -105.4340     8.4040     7.9840     7.9740  -999.2500  -999.2500     0.2300     8.4690     2.5230     0.0080   -85.7470
 1433.5000   101.6230   -27.6970  -105.3620     8.4580     7.9840     8.0670  -999.2500  -999.2500     0.2220     8.4790     2.5340     0.0240   -86.2050
 1434.0000   103.3540   -27.5700  -104.6610     8.5130     8.0010     8.1590  -999.2500  -999.2500     0.2210     8.4760     2.5380     0.0220   -86.6630
 1434.5000   100.7560   -27.1990  -103.9600     8.5670     8.0250     8.2520  -999.2500  -999.2500     0.2280     8.4740     2.5370     0.0050   -87.1200
 1435.0000    97.2160   -26.7940  -103.2600     8.6210     8.0500     8.3440  -999.2500  -999.2500     0.2350     8.4720     2.5370    -0.0110   -87.5780
 1435.5000    94.9860   -26.7750  -102.5590     8.6750     8.0740     8.4370  -999.2500  -999.2500     0.2350     8.4700     2.5370    -0.0060   -88.0360
 1436.0000    93.8900   -26.7780  -101.8580     8.7520     8.0980     8.5170  -999.2500  -999.2500     0.2240     8.4670     2.5400     0.0080   -88.4940
 1436.5000    93.1450   -26.7780  -101.1580     8.6500     8.1320     8.5320  -999.2500  -999.2500     0.2280     8.4650     2.5420     0.0080   -88.9510
 1437.0000    94.8000   -26.7790  -100.4570     8.4700     8.0910     8.5470  -999.2500  -999.2500     0.2360     8.4630     2.5440     0.0070   -89.4090
 1437.5000    96.7480   -26.7890   -99.7560     8.2890     8.0220     8.5630  -999.2500  -999.2500     0.2400     8.4600     2.5400    -0.0020   -89.8670
 1438.0000    97.6470   -26.4560   -99.0560     8.1090     7.9520     8.5780  -999.2500  -999.2500     0.2420     8.4670     2.5300    -0.0200   -90.3240
 1438.5000    95.7560   -26.3030   -98.3550     7.9290     7.8130     8.5930  -999.2500  -999.2500     0.2470     8.4750     2.5200    -0.0290   -90.7820
 1439.0000    91.1080   -26.1950   -97.6540     7.7490     7.5790     8.3880  -999.2500  -999.2500     0.2530     8.4830     2.5190    -0.0150   -91.2400
 1439.5000    88.7310   -26.3660   -96.9540     7.5690     7.3450     8.1180  -999.2500  -999.2500     0.2550     8.4920     2.5240     0.0000   -91.6980
 1440.0000    92.8760   -26.5790   -96.2530     7.3890     7.1970     7.7530  -999.2500  -999.2500     0.2510     8.5000     2.5270     0.0160   -92.1550
 1440.5000   100.2460   -26.7810   -95.5520     7.2090     7.1510     7.4870  -999.2500  -999.2500     0.2450     8.5080     2.5270     0.0200   -92.6130
 1441.0000   100.3850   -26.8960   -95.4640     7.1380     7.1060     7.5560  -999.2500  -999.2500     0.2370     8.5160     2.5220     0.0150   -93.0710
 1441.5000    95.8310   -26.8800   -95.4640     7.1200     7.0610     7.8070  -999.2500  -999.2500     0.2220     8.5310     2.5180     0.0070   -93.5290
 1442.0000    87.6720   -26.4810   -95.4640     7.1010     7.0210     8.2070  -999.2500  -999.2500     0.2180     8.5530     2.5140    -0.0050   -93.9860
 1442.5000    85.5990   -26.3850   -95.4640     7.0820     7.0210     8.2070  -999.2500  -999.2500     0.2290     8.5760     2.5100    -0.0170   -94.4440
 1443.0000    87.7830   -26.3830   -95.4640     7.0630     7.0210     7.5560  -999.2500  -999.2500     0.2440     8.5420     2.5070    -0.0170   -94.9020
 1443.5000    91.0810   -26.3830   -95.4640     7.0440     7.0210     7.6280  -999.2500  -999.2500     0.2490     8.4920     2.5040    -0.0060   -95.3590
 1444.0000    94.6430   -26.3830   -95.3160     7.0250     6.9560     7.7670  -999.2500  -999.2500     0.2450     8.4410     2.4860     0.0060   -87.7530
 1444.5000    98.1990   -26.2890   -94.8960     6.9160     6.8870     7.5470  -999.2500  -999.2500     0.2380     8.3910     2.4650     0.0140   -74.3270
 1445.0000    97.6210   -26.1230   -94.4760     6.7780     6.8070     7.2560  -999.2500  -999.2500     0.2420     8.3720     2.4440     0.0190   -60.9010
 1445.5000    95.1160   -25.8940   -94.0560     6.6400     6.6760     7.0080  -999.2500  -999.2500     0.2510     8.4030     2.4360     0.0130   -60.3850
 1446.0000    95.5330   -25.3930   -93.6360     6.5480     6.5460     6.9430  -999.2500  -999.2500     0.2570     8.4330     2.4440    -0.0020   -68.3340
 1446.5000    97.7020   -24.8840   -93.2160     6.4880     6.4150     6.8770  -999.2500  -999.2500     0.2540     8.4630     2.4570    -0.0070   -76.2840
 1447.0000    99.7280   -24.9460   -92.7960     6.4290     6.2880     6.8110  -999.2500  -999.2500     0.2460     8.4810     2.4620    -0.0030   -84.2340
 1447.5000    99.3460   -25.1170   -92.3760     6.3690     6.2000     6.7460  -999.2500  -999.2500     0.2370     8.4850     2.4640     0.0190   -86.6360
 1448.0000    96.9770   -25.2930   -91.9560     6.3090     6.1170     6.6800  -999.2500  -999.2500     0.2350     8.4880     2.4670     0.0360   -87.9940
 1448.5000    94.3250   -25.4650   -91.5360     6.2880     6.4250     6.6450  -999.2500  -999.2500     0.2460     8.4920     2.4710     0.0190   -89.3520
 1449.0000    91.7930   -25.5550   -91.1160     6.2880     6.4640     6.7680  -999.2500  -999.2500     0.2540     8.4950     2.4750    -0.0080   -90.7110
 1449.5000    91.2680   -25.3820   -90.6960     6.2880     6.4780     7.2840  -999.2500  -999.2500     0.2550     8.4980     2.4790    -0.0210   -92.0690
 1450.0000    92.5600   -25.2020   -90.2760     6.4320     6.5260     7.2170  -999.2500  -999.2500     0.2400     8.5000     2.4840     0.0000   -93.4270
 1450.5000    95.5200   -24.7780   -89.8560     6.5930     6.5740     6.8930  -999.2500  -999.2500     0.2390     8.5000     2.4880     0.0240   -94.7850
 1451.0000    98.9040   -24.6180   -89.4360     6.7540     6.6220     6.8930  -999.2500  -999.2500     0.2400     8.5000     2.4920     0.0450   -95.4640
 1451.5000    99.7020   -25.3520   -89.0160     6.8930     6.7240     7.0860  -999.2500  -999.2500     0.2400     8.5000     2.4960     0.0450   -95.4640
 1452.0000    97.2370   -26.1920   -88.5960     7.0140     6.8740     7.2040  -999.2500  -999.2500     0.2320     8.5000     2.4980     0.0220   -95.4640
 1452.5000    94.4530   -26.3060   -88.1760     7.1340     7.0240     7.3300  -999.2500  -999.2500     0.2280     8.5000     2.4960    -0.0010   -95.4640
 1453.0000    94.2680   -26.2120   -87.7560     7.2550     7.1740     7.4570  -999.2500  -999.2500     0.2280     8.5000     2.4900    -0.0170   -95.4640
 1453.5000    95.5190   -26.1100   -87.3360     7.3490     7.3190     7.5840  -999.2500  -999.2500     0.2270     8.5000     2.4850    -0.0310   -95.4640
 1454.0000    96.7420   -26.0050   -86.9160     7.4340     7.4640     7.7110  -999.2500  -999.2500     0.2230     8.5000     2.4790    -0.0460   -95.4640
 1454.5000    96.2220   -26.0730   -86.4960     7.4830     7.6810     7.8390  -999.2500  -999.2500     0.2190     8.5000     2.4750    -0.0480   -95.4640
 1455.0000    94.7480   -26.1950   -86.0760     7.4410     7.6470     7.8120  -999.2500  -999.2500     0.2150     8.5000     2.4770    -0.0300   -95.4640
 1455.5000    94.9330   -26.6430   -85.6560     7.4080     7.5220     7.7860  -999.2500  -999.2500     0.2140     8.5000     2.4820    -0.0030   -95.4640
