~VERSION INFORMATION
 VERS.                2.0:   CWLS LOG ASCII STANDARD - VERSION 2.0
 WRAP.                 NO:   ONE LINE PER DEPTH STEP
~WELL INFORMATION
#MNEM.UNIT      DATA TYPE    INFORMATION
#----------   ------------   ------------------------------
 STRT.F          794.0000:   START DEPTH
 STOP.F         2828.0000:   STOP DEPTH
 STEP.F            0.5000:   STEP LENGTH
 NULL.          -999.2500:   NO VALUE
 COMP.           U S NAVY:   COMPANY
 WELL. U S NAVY NPR 3 "A" #10-33:   WELL
 FLD .        TEAPOT DOME:   FIELD
 LOC .      S33 T39N R78W:   LOCATION
 CNTY.            NATRONA:   COUNTY
 STAT.            WYOMING:   STATE
 CTRY. UNITED STATES OF AMERICA:   COUNTRY
 SRVC.         MCCULLOUGH:   SERVICE COMPANY
 DATE.        25-JUL-1968:   LOGDATE
 API .     49025102180000:   API NUMBER
~CURVE INFORMATION
#MNEM.UNIT       API CODE    CURVE DESCRIPTION
#----------   ------------   ------------------------------
 DEPT.F                  :   
 GRN .GAPI   35 310 01 00:   GAMMA RAY
 NEUT.NAPI   35 330 01 00:   NEUTRON
 TEMP.DEG    99 000 00 00:   TEMPERATURE AT TOOL
~PARAMETER INFORMATION
#MNEM.UNIT          VALUE    DESCRIPTION
#----------   ------------   ------------------------------
 EKB .F            0.0000:   Kelly bushing
 EGL .F            0.0000:   Ground level
 EDF .F            0.0000:   Drilling floor
 EPD .F            0.0000:   Permanent datum
 TD  .F         2829.0000:   Total depth
 DATE.        25-JUL-1968:   Date logged
 CLNT.            A2DTECH:   Client Code
 DL  .F              2829:   Depth logger
 BLI .F              2825:   Bottom log interval
 TLI .F               800:   Top log interval
 DFT .                DRY:   Type fluid in hole
 TCS .HRS               2:   Time Circ. stopped
 ENGI.           KIMBERRY:   Recorded By
 ORIG.        2" 5" PRINT:   Origin of data
 UWI .     49025102180000:   Unique Well ID
 DICO. A2D TECHNOLOGIES, INC.:   Digitizing Company
~OTHER INFORMATION
~A   DEPT       GRN      NEUT       TEMP   
# ...
 2705.0000    83.3880   151.7870   103.7160
 2705.5000    84.1220   150.3180   103.7430
 2706.0000    84.5260   150.2660   103.7690
 2706.5000    81.2910   152.8700   103.7930
 2707.0000    79.5300   155.7940   103.8180
 2707.5000    80.0940   158.7800   103.8420
 2708.0000    80.7490   162.9410   103.8660
 2708.5000    77.9860   172.3700   103.8880
 2709.0000    80.4150   170.8460   103.9040
 2709.5000    80.5320   167.9980   103.9200
 2710.0000    82.0140   168.4780   103.9360
 2710.5000    84.3860   162.7940   103.9520
 2711.0000    86.0180   162.7960   103.9680
 2711.5000    86.9860   166.2320   104.0010
 2712.0000    85.6850   171.8100   104.0320
 2712.5000    83.7900   181.8940   104.0620
 2713.0000    81.8080   197.1780   104.0690
 2713.5000    81.2580   196.4480   104.0750
 2714.0000    80.3970   193.6350   104.0810
 2714.5000    79.7180   191.5550   104.0970
 2715.0000    80.7520   198.4130   104.1180
 2715.5000    81.0230   190.9320   104.1400
 2716.0000    80.8430   184.1800   104.1610
 2716.5000    81.4810   171.8230   104.1820
 2717.0000    81.0230   174.4670   104.2040
 2717.5000    83.8640   181.2310   104.2250
 2718.0000    84.4130   183.3750   104.2450
 2718.5000    84.0340   193.6520   104.2700
 2719.0000    81.2560   189.3030   104.2980
 2719.5000    79.7010   187.0530   104.3260
 2720.0000    81.3840   189.4000   104.3540
 2720.5000    80.8800   190.5640   104.3820
 2721.0000    79.2330   180.7150   104.4090
 2721.5000    77.5200   179.1770   104.4290
 2722.0000    76.8220   176.0530   104.4500
 2722.5000    77.1610   179.1280   104.4710
 2723.0000    76.7500   184.3200   104.4920
 2723.5000    75.1270   183.0460   104.5130
 2724.0000    73.4520   177.6360   104.5270
 2724.5000    72.6260   191.5770   104.5300
 2725.0000    72.8360   184.2830   104.5320
 2725.5000    71.9570   182.3990   104.5350
 2726.0000    71.6600   181.3200   104.5370
 2726.5000    74.4150   178.1490   104.5400
 2727.0000    74.0940   180.5860   104.5420
 2727.5000    74.6800   182.8770   104.5440
 2728.0000    78.0800   183.4480   104.5390
 2728.5000    80.2950   178.7560   104.5050
 2729.0000    80.0490   184.6920   104.4710
 2729.5000    78.7500   192.4450   104.4370
 2730.0000    77.2140   187.4280   104.4030
 2730.5000    74.3560   171.8570   104.3470
 2731.0000    72.5780   164.1510   104.2920
 2731.5000    70.3820   164.4820   104.2360
 2732.0000    70.3610   163.2240   104.1810
 2732.5000    69.1460   159.3430   104.1260
 2733.0000    68.3070   169.9770   104.0710
 2733.5000    68.7750   179.3700   104.0160
 2734.0000    67.5380   186.0500   103.9610
 2734.5000    64.1970   190.5830   103.9060
 2735.0000    62.7800   181.2270   103.8500
 2735.5000    63.3680   181.0700   103.7940
 2736.0000    64.1370   176.1890   103.7500
 2736.5000    67.8730   165.0550   103.7080
 2737.0000    69.7210   161.0910   103.6670
 2737.5000    71.1340   161.3050   103.6260
 2738.0000    72.8800   168.5780   103.5910
 2738.5000    71.6230   174.5800   103.5710
 2739.0000    69.6160   168.4190   103.5510
 2739.5000    69.0030   162.5510   103.5310
 2740.0000    67.8230   163.2620   103.5140
 2740.5000    70.7610   165.2570   103.5040
 2741.0000    69.7700   160.3060   103.4940
 2741.5000    69.4350   154.7430   103.4840
 2742.0000    70.6120   155.1140   103.4780
 2742.5000    70.4770   162.1140   103.4780
 2743.0000    71.3590   177.4240   103.4780
 2743.5000    73.1670   193.9890   103.4780
 2744.0000    72.9970   187.6570   103.4780
 2744.5000    74.0130   190.9130   103.4780
 2745.0000    71.9450   196.1940   103.4780
 2745.5000    70.3250   195.9940   103.4770
 2746.0000    73.2030   200.3000   103.4570
 2746.5000    76.3420   193.8160   103.4360
 2747.0000    75.9900   192.8400   103.4180
 2747.5000    76.7000   195.2750   103.4170
 2748.0000    77.4270   196.7550   103.4170
 2748.5000    77.0600   186.8210   103.4170
 2749.0000    75.7860   177.7270   103.4350
 2749.5000    77.7290   174.0560   103.4560
 2750.0000    80.3690   170.3800   103.4770
 2750.5000    81.4750   167.7510   103.4420
 2751.0000    81.8530   169.4540   103.3920
 2751.5000    83.1470   171.5370   103.3400
 2752.0000    82.7600   173.0160   103.3210
 2752.5000    85.2440   190.4570   103.2990
 2753.0000    84.6320   199.4140   103.2770
 2753.5000    83.1540   204.9110   103.2910
 2754.0000    82.8110   205.3740   103.3080
 2754.5000    80.4920   195.2050   103.3060
 2755.0000    80.0120   193.2110   103.2780
 2755.5000    80.9420   194.9850   103.2420
 2756.0000    81.9570   200.8440   103.2060
 2756.5000    77.4440   205.8560   103.1700
 2757.0000    75.7250   206.5520   103.1340
 2757.5000    76.0820   219.3790   103.0990
 2758.0000    76.5000   208.4090   103.0770
 2758.5000    75.8010   214.5730   103.0850
 2759.0000    73.5680   212.3980   103.0930
 2759.5000    72.5560   211.6050   103.0950
 2760.0000    68.7550   211.6680   103.0950
 2760.5000    67.5730   216.9520   103.0950
 2761.0000    69.0350   225.8860   103.0950
 2761.5000    69.8640   229.4020   103.0950
 2762.0000    71.0940   231.3120   103.0920
 2762.5000    72.3360   222.6730   103.0830
 2763.0000    73.1360   211.7690   103.0750
 2763.5000    72.7180   205.7250   103.0810
 2764.0000    71.7530   205.9240   103.0890
 2764.5000    72.6010   215.0280   103.0960
 2765.0000    73.3100   214.1960   103.1030
 2765.5000    73.2030   206.0050   103.1100
 2766.0000    75.7560   198.1220   103.1180
 2766.5000    76.8080   196.9760   103.1250
 2767.0000    76.8750   198.4890   103.1320
 2767.5000    75.8650   209.3940   103.1390
 2768.0000    76.1030   215.3030   103.1460
 2768.5000    76.7340   210.6240   103.1540
 2769.0000    76.9770   213.3650   103.1420
 2769.5000    77.8490   217.7630   103.1190
 2770.0000    80.5460   209.8480   103.0950
 2770.5000    84.2390   204.5880   103.0670
 2771.0000    86.2110   203.0320   103.0250
 2771.5000    92.0110   201.8830   102.9740
 2772.0000    91.2650   206.2580   102.9240
 2772.5000    98.4750   223.4870   102.8740
 2773.0000   100.5710   231.4180   102.8330
 2773.5000    96.1210   232.7070   102.7920
 2774.0000    88.1970   239.5130   102.7330
 2774.5000    76.8190   253.6250   102.6730
 2775.0000    67.6900   262.5340   102.6130
 2775.5000    68.1770   264.7600   102.5520
 2776.0000    67.1950   255.7860   102.4920
 2776.5000    67.8480   247.8310   102.4320
 2777.0000    66.9160   259.8200   102.3720
 2777.5000    68.9200   265.2200   102.3280
 2778.0000    67.5900   260.7260   102.2950
 2778.5000    70.9730   255.9810   102.2610
 2779.0000    73.1920   258.5810   102.2270
 2779.5000    77.4540   266.7300   102.1850
 2780.0000    79.7260   268.4790   102.1430
 2780.5000    81.8170   253.7400   102.1010
 2781.0000    86.6720   253.9940   102.0590
 2781.5000    92.6270   247.4730   102.0180
 2782.0000    95.4300   249.8850   101.9820
 2782.5000    96.1930   254.8430   101.9470
 2783.0000   102.0180   254.8560   101.9120
 2783.5000   103.4570   242.5320   101.8610
 2784.0000   104.5100   234.2160   101.8090
 2784.5000   107.5940   250.2430   101.7560
 2785.0000   107.2380   274.4430   101.7030
 2785.5000    98.5020   320.3390   101.6510
 2786.0000    83.0690   400.8210   101.5980
 2786.5000    83.7350   450.9510   101.5450
 2787.0000    84.2900   496.5350   101.4920
 2787.5000    86.5830   540.8740   101.4400
 2788.0000    86.3150   561.1720   101.3840
 2788.5000    87.8410   519.2040   101.3480
 2789.0000    86.8600   489.1330   101.3110
 2789.5000    86.1510   462.5140   101.2750
 2790.0000    88.7440   423.1500   101.2420
 2790.5000    86.0270   367.8800   101.1790
 2791.0000    85.4860   337.9150   101.1090
 2791.5000    86.1430   313.9470   101.0380
 2792.0000    84.1040   308.6320   100.9680
 2792.5000    86.3270   328.2590   100.9100
 2793.0000    88.1250   370.9100   100.8550
 2793.5000    88.6030   390.9830   100.8000
 2794.0000    89.0130   414.6550   100.7440
 2794.5000    88.6160   422.5660   100.6840
 2795.0000    88.1550   418.6160   100.6160
 2795.5000    88.0890   413.3090   100.5490
