~VERSION INFORMATION
 VERS.                2.0:   CWLS LOG ASCII STANDARD - VERSION 2.0
 WRAP.                 NO:   ONE LINE PER DEPTH STEP
~WELL INFORMATION
#MNEM.UNIT      DATA TYPE    INFORMATION
#----------   ------------   ------------------------------
 STRT.F            0.0000:   START DEPTH
 STOP.F         1071.5000:   STOP DEPTH
 STEP.F            0.5000:   STEP LENGTH
 NULL.          -999.2500:   NO VALUE
 COMP.       FLUOR DANIEL:   COMPANY
 WELL.     FLUOR X #82-22:   WELL
 FLD .                NPR:   FIELD
 LOC .      S22 T38N R78W:   LOCATION
 CNTY.            NATRONA:   COUNTY
 STAT.            WYOMING:   STATE
 CTRY. UNITED STATES OF AMERICA:   COUNTRY
 SRVC.      WESTERN ATLAS:   SERVICE COMPANY
 DATE.        19-SEP-1994:   LOGDATE
 API .     49025226520000:   API NUMBER
~CURVE INFORMATION
#MNEM.UNIT       API CODE    CURVE DESCRIPTION
#----------   ------------   ------------------------------
 DEPT.F                  :   
 GRR .GAPI   07 310 01 00:   GAMMA RAY FROM RESISTIVITY
 TENR.LBS    07 635 01 00:   TENSION
 ILD .OHMM   07 120 46 00:   INDUCTION LOG DEEP RESISTIVITY
 ILM .OHMM   07 120 44 00:   INDUCTION LOG MEDIUM RESISTIVITY
~PARAMETER INFORMATION
#MNEM.UNIT          VALUE    DESCRIPTION
#----------   ------------   ------------------------------
 EKB .F         5288.0000:   Kelly bushing
 EGL .F         5278.0000:   Ground level
 EDF .F         5287.0000:   Drilling floor
 EPD .F         5278.0000:   Permanent datum
 TD  .F         1062.0000:   Total depth
 DATE.        19-SEP-1994:   Date logged
 CLNT.            A2DTECH:   Client Code
 SL  . 937' FNL & 347' FEL:   Surface Location
 PD  .                 GL:   Permanent Datum
 LMF .                 KB:   Log Measured From
 DMF .                 KB:   Drilling Measured From
 DAPD.F                10:   Feet Above Permanent Datum
 DD  .F              1060:   Depth driller
 DL  .F              1062:   Depth logger
 BLI .F              1054:   Bottom log interval
 CS1 .IN            9.625:   Casing size
 CBD1.       9.625" @ 77':   Casing driller 1
 CBL1.F                78:   Casing logger 1
 BS1 .IN             8.75:   Bit size
 BSD1.F              1060:   Depth drilled with bit1
 DFT .                AIR:   Type fluid in hole
 LUN .            HL 6530:   Logging unit number
 LUL .             CASPER:   Logging unit location
 ENGI.      PAT RASMUSSEN:   Recorded By
 WITN.        GARY STRONG:   Witnessed by
 ORIG.           5" PRINT:   Origin of data
 UWI .     49025226520000:   Unique Well ID
 DICO. A2D TECHNOLOGIES, INC.:   Digitizing Company
~OTHER INFORMATION
~A    DEPT      GRR      TENR        ILD        ILM   
# ...
  146.0000   114.1010   -39.8550     5.6660     5.6930
  146.5000   113.1210   -42.5610     5.4450     5.5070
  147.0000   112.9700   -40.4010     5.3200     5.2430
  147.5000   113.1270   -34.3530     5.2270     5.2750
  148.0000   113.2880   -28.3050     5.0990     5.3300
  148.5000   112.4090   -24.1770     5.1410     5.4180
  149.0000   111.1520   -26.5150     5.2090     5.5120
  149.5000   110.5470   -28.8530     5.2760     5.6060
  150.0000   110.5580   -31.1910     5.3440     5.7000
  150.5000   111.6700   -33.7020     5.4290     5.7950
  151.0000   114.9450   -33.7020     5.5500     5.8890
  151.5000   118.8060   -33.7020     5.6710     5.9830
  152.0000   122.6850   -33.7020     5.7920     6.0780
  152.5000   125.4830   -33.7020     5.9130     6.1720
  153.0000   124.8260   -33.7020     6.0340     6.2660
  153.5000   122.9990   -33.7020     6.1550     6.3610
  154.0000   118.1020   -33.7020     6.2250     6.4620
  154.5000   111.9320   -34.9380     6.2710     6.5820
  155.0000   110.8360   -37.3910     6.3170     6.7330
  155.5000   114.2010   -39.8440     6.3630     6.6860
  156.0000   118.8380   -42.2970     6.4280     6.6220
  156.5000   121.2410   -41.3240     6.3340     6.4870
  157.0000   122.9100   -35.2650     6.1760     6.3340
  157.5000   120.3390   -29.2050     6.0180     6.1800
  158.0000   117.6130   -23.6420     5.8600     6.0270
  158.5000   115.7960   -28.9500     5.7020     5.8590
  159.0000   115.0240   -33.8560     5.5440     5.7440
  159.5000   114.2620   -38.7610     5.4110     5.6180
  160.0000   113.8960   -43.7630     5.3270     5.4910
  160.5000   114.4350   -33.6620     5.2430     5.3650
  161.0000   114.9470   -23.3600     5.2600     5.2910
  161.5000   114.9730   -13.5810     5.2780     5.3640
  162.0000   112.2590   -10.7330     5.3180     5.4140
  162.5000   108.8740    -8.0220     5.4170     5.5370
  163.0000   109.7250    -5.3110     5.5160     5.7350
  163.5000   111.5860    -5.5410     5.6850     5.9330
  164.0000   112.8030   -11.4840     5.8540     6.1300
  164.5000   113.4650   -17.4280     6.0240     6.2790
  165.0000   114.3360   -23.3710     6.1110     6.3500
  165.5000   115.2240   -29.3140     6.1940     6.4210
  166.0000   116.1530   -33.2530     6.2270     6.4880
  166.5000   118.3510   -31.5360     6.2580     6.4320
  167.0000   121.2510   -29.8190     6.2890     6.3790
  167.5000   122.5610   -28.1020     6.3100     6.3270
  168.0000   122.4570   -26.3850     6.2490     6.2520
  168.5000   122.2310   -24.6680     6.2030     6.2580
  169.0000   121.2870   -22.9510     6.1580     6.2690
  169.5000   119.0680   -21.2340     6.1120     6.2800
  170.0000   116.4540   -19.5170     6.0660     6.2910
  170.5000   113.7730   -17.8000     6.0240     6.3020
  171.0000   114.8040   -16.0830     6.1320     6.3450
  171.5000   117.1670   -14.3660     6.2320     6.4600
  172.0000   119.3570   -19.1750     6.3320     6.5750
  172.5000   118.4770   -29.4770     6.4320     6.6900
  173.0000   118.6760   -31.6770     6.5320     6.8050
  173.5000   119.2620   -28.2430     6.6320     6.9200
  174.0000   119.8460   -24.8090     6.7320     7.0350
  174.5000   120.7070   -27.4200     6.8320     7.0730
  175.0000   121.8520   -33.1430     6.9230     7.0970
  175.5000   121.8220   -38.8670     6.9320     7.1210
  176.0000   121.4580   -44.5900     6.9400     7.1450
  176.5000   119.6850   -50.3130     6.9480     7.1690
  177.0000   117.9970   -53.8230     6.9560     7.2070
  177.5000   117.7640   -53.8230     6.9650     7.2680
  178.0000   118.5500   -53.8230     6.9730     7.3280
  178.5000   118.5920   -53.8230     6.9810     7.3880
  179.0000   118.5790   -53.8230     7.0030     7.4490
  179.5000   119.6160   -53.8230     7.0650     7.4550
  180.0000   121.3130   -53.8230     7.1180     7.4550
  180.5000   121.9090   -53.8230     6.9280     7.2040
  181.0000   118.1880   -49.8590     6.7610     6.8680
  181.5000   115.0810   -44.7080     6.5950     6.6390
  182.0000   117.2580   -39.5570     6.3690     6.4880
  182.5000   119.4560   -34.4060     6.3780     6.5420
  183.0000   121.6450   -29.2560     6.3920     6.5940
  183.5000   123.7920   -23.6420     6.4070     6.6460
  184.0000   123.2760   -27.9040     6.4210     6.7260
  184.5000   118.0470   -32.5860     6.5010     6.8330
  185.0000   112.7270   -24.6480     6.6360     6.9400
  185.5000   110.8010   -12.7610     6.7710     7.0470
  186.0000   112.9050    -5.4330     6.9060     7.1540
  186.5000   114.6740   -14.0170     7.0410     7.2610
  187.0000   113.8960   -22.6020     7.1750     7.3870
  187.5000   110.3920   -31.1870     7.3100     7.5350
  188.0000   108.5800   -30.0600     7.4550     7.7010
  188.5000   108.1980   -24.9090     7.6690     7.9930
  189.0000   108.9970   -19.7590     7.9610     8.2860
  189.5000   110.1240   -14.6080     8.2550     8.5790
  190.0000   111.2240    -9.4570     8.3980     8.8170
  190.5000   109.5450    -4.3060     8.5410     8.8590
  191.0000   107.8370     0.8450     8.6470     8.8900
  191.5000   106.1410     5.9960     8.6470     8.7640
  192.0000   104.3880     2.5330     8.6270     8.6070
  192.5000   104.4580    -1.9460     8.4490     8.4500
  193.0000   106.3150    -6.4260     8.2720     8.2930
  193.5000   110.2550   -10.9050     8.0950     8.1370
  194.0000   110.1220   -15.3840     7.9380     7.9800
  194.5000   108.2210   -19.8630     7.8570     7.8230
  195.0000   107.4840   -24.3420     7.7760     7.7200
  195.5000   112.2790   -28.8210     7.6960     7.6820
  196.0000   117.8540   -33.7020     7.6150     7.6450
  196.5000   123.2420   -33.7020     7.5340     7.6080
  197.0000   123.2350   -33.7020     7.4530     7.5700
  197.5000   122.1090   -33.7020     7.3850     7.5330
  198.0000   121.9770   -33.7020     7.3760     7.5180
  198.5000   123.4320   -33.7020     7.3680     7.5090
  199.0000   124.8940   -33.7020     7.3590     7.5000
  199.5000   124.4030   -33.7020     7.3510     7.4910
  200.0000   121.8920   -31.8160     7.3420     7.4820
  200.5000   117.8460   -29.6700     7.3340     7.4730
  201.0000   117.7680   -27.5230     7.3260     7.4640
  201.5000   117.7650   -25.3770     7.3050     7.4550
  202.0000   117.7330   -23.2310     7.2280     7.3940
  202.5000   119.6560   -21.0850     7.1510     7.3310
  203.0000   121.7390   -18.9390     7.0740     7.2680
  203.5000   120.8330   -16.7920     6.9870     7.1840
  204.0000   119.8480   -14.6460     7.0090     7.2050
  204.5000   120.1870   -16.2670     7.0350     7.2370
  205.0000   121.1760   -21.5950     7.0610     7.2690
  205.5000   122.2110   -26.9240     7.0870     7.3000
  206.0000   122.6670   -32.2520     7.1120     7.3320
  206.5000   120.5300   -37.5810     7.1580     7.3640
  207.0000   118.6720   -42.9090     7.2100     7.3960
  207.5000   120.1130   -43.1450     7.2610     7.4270
  208.0000   120.5700   -42.4090     7.3120     7.4590
  208.5000   119.7620   -41.6730     7.3780     7.4910
  209.0000   119.8610   -40.9370     7.4450     7.5250
  209.5000   120.7000   -40.2010     7.5130     7.5770
  210.0000   119.5920   -39.4650     7.5800     7.6330
  210.5000   117.2940   -38.7300     7.6470     7.6890
  211.0000   117.3550   -37.9940     7.7150     7.7450
  211.5000   117.9290   -37.2580     7.7820     7.8010
  212.0000   118.6060   -36.5220     7.8490     7.8830
  212.5000   122.3860   -35.7860     7.9170     7.9700
  213.0000   125.6620   -35.0500     7.9840     8.0590
  213.5000   124.9030   -34.3140     8.0510     8.1560
  214.0000   121.0640   -34.2430     8.1180     8.2530
  214.5000   115.3420   -37.4620     8.1860     8.3490
  215.0000   113.4630   -40.6820     8.2530     8.4460
  215.5000   113.5230   -43.7630     8.3200     8.5430
  216.0000   113.6160   -41.5240     8.3880     8.6390
  216.5000   112.9310   -39.3780     8.5070     8.7270
  217.0000   113.3890   -37.2320     8.6510     8.8090
  217.5000   114.6460   -35.0860     8.7960     8.8840
  218.0000   115.4640   -32.9390     8.9400     8.9590
  218.5000   111.2890   -30.7930     8.9810     9.0340
