~VERSION INFORMATION
 VERS.                2.0:   CWLS LOG ASCII STANDARD - VERSION 2.0
 WRAP.                 NO:   ONE LINE PER DEPTH STEP
~WELL INFORMATION
#MNEM.UNIT      DATA TYPE    INFORMATION
#----------   ------------   ------------------------------
 STRT.F          190.0000:   START DEPTH
 STOP.F         3215.0000:   STOP DEPTH
 STEP.F            0.5000:   STEP LENGTH
 NULL.          -999.2500:   NO VALUE
 COMP.    FENIX & SCISSON:   COMPANY
 WELL.  FENIX "AX" #78-34:   WELL
 FLD . NAVAL PET. RES. NO. 3:   FIELD
 LOC .      S34 T39N R78W:   LOCATION
 CNTY.            NATRONA:   COUNTY
 STAT.            WYOMING:   STATE
 CTRY. UNITED STATES OF AMERICA:   COUNTRY
 SRVC.       SCHLUMBERGER:   SERVICE COMPANY
 DATE.        16-DEC-1980:   LOGDATE
 API .     49025108670000:   API NUMBER
~CURVE INFORMATION
#MNEM.UNIT       API CODE    CURVE DESCRIPTION
#----------   ------------   ------------------------------
 DEPT.F                  :   
 TEND.LBS    45 635 01 00:   TENSION FORM DENSITY LOG
 GRD .GAPI   45 310 01 00:   GAMMA RAY FROM DENSITY LOG
 CALD.IN     45 280 60 00:   CALIPER FROM DENSITY LOG
 CORR.G/C3   45 356 01 00:   DENSITY CORRECTION
 RHOB.G/C3   45 350 01 00:   BULK DENSITY
 SPR .MV     07 010 01 00:   SPONTANEOUS POTENTIAL
 TENR.LBS    07 635 01 00:   TENSION FROM RESISTIVITY
 ILD .OHMM   07 120 46 00:   DEEP INDUCTION RESISTIVITY
 ILM .OHMM   07 120 44 00:   INDUCTION LOG MEDIUM RESISTIVITY
 SFL .OHMM   07 220 01 00:   SHALLOW FOCUSED LOG RESISTIVITY
~PARAMETER INFORMATION
#MNEM.UNIT          VALUE    DESCRIPTION
#----------   ------------   ------------------------------
 EKB .F         5068.0000:   Kelly bushing
 EGL .F         5058.0000:   Ground level
 EDF .F            0.0000:   Drilling floor
 EPD .F            0.0000:   Permanent datum
 TD  .F         3202.0000:   Total depth
 CLNT.            A2DTECH:   Client Code
 SL  . 542' FSL & 693' FEL:   Surface Location
 PD  .                 GL:   Permanent Datum
 DAPD.F                10:   Feet Above Permanent Datum
 DATE.        16-DEC-1980:   Date Logged [DD-MMM-YYYY]
 DD  .F              3200:   Depth driller
 DL  .F              3202:   Depth logger
 BLI .F              3199:   Bottom log interval
 TLI .F               193:   Top log interval
 CS1 .IN            8.625:   Casing size
 CBD1.      8.625" @ 215':   Casing driller 1
 CBL1.F               193:   Casing logger 1
 BS1 .IN            7.875:   Bit size
 BSD1.F              3200:   Depth drilled with bit1
 DFT .               LSND:   Type fluid in hole
 DFD .                9.1:   Density
 DFV .                 35:   Viscosity
 DFPH.                  8:   pH
 DFL .                 16:   Fluid loss
 MSS .            MUD PIT:   Source of sample
 RMS .OHMM            2.9:   Rm
 MST .F                56:   Rm Meas. temp.
 RMF .OHMM            2.4:   Rmf
 MFST.F                56:   Rmf Meas. temp.
 MFSS.               MEAS:   Source Rmf.
 RMC .OHMM            2.7:   Rmc
 MCST.F                56:   Rmc Meas. temp.
 MCSS.               CALC:   Source Rmc.
 RMB .OHMM           1.35:   Rm. at BHT
 BHT .F               120:   BHT.
 TCS .HRS            2100:   Time Circ. stopped
 MRT .F               120:   Maximum recorded temp.
 LUN .               8161:   Logging unit number
 ENGI.             SITTON:   Recorded By
 WITN.              FIVAS:   Witnessed by
 ORIG.           5" PRINT:   Origin of data
 UWI .     49025108670000:   Unique Well ID
 DICO. A2D TECHNOLOGIES, INC.:   Digitizing Company
~OTHER INFORMATION
~A   DEPT     TEND         GRD      CALD       CORR       RHOB        SPR       TENR        ILD        ILM        SFL   
# ...
 3171.5000   864.4913   105.7316     8.2495     0.0546     2.5287   -28.2075   735.5510     3.4536     3.4720     4.0800
 3172.0000   858.9246   108.1481     8.2495     0.0484     2.5190   -28.2243   749.5494     3.3843     3.4495     4.0532
 3172.5000   853.4136   113.4815     8.2495     0.0375     2.5047   -28.2410   748.4983     3.3160     3.4509     3.8908
 3173.0000   856.0087   115.8519     8.2495     0.0329     2.4844   -28.2578   732.4323     3.3174     3.4264     3.8123
 3173.5000   858.5779   115.2593     8.2495     0.0306     2.4807   -28.2746   731.3812     3.2955     3.3829     3.6094
 3174.0000   861.1472   112.2963     8.2499     0.0284     2.4777   -28.2914   730.1236     3.2740     3.3382     3.4884
 3174.5000   863.7164   111.1111     8.2496     0.0252     2.4740   -28.3081   729.0900     3.2531     3.3162     3.4417
 3175.0000   866.2856   111.3241     8.2712     0.0189     2.4692   -28.3240   728.0558     3.2319     3.2498     3.4673
 3175.5000   868.8549   110.5185     8.2693     0.0153     2.4613   -28.2875   712.0073     3.1449     3.2066     3.5904
 3176.0000   871.4650   114.6667     8.2690     0.0146     2.4591   -28.1946   710.9731     3.0601     3.0989     3.7696
 3176.5000   872.3198   117.3333     8.2692     0.0147     2.4576   -28.1026   709.9395     2.9776     3.0157     3.7712
 3177.0000   866.0482   119.4074     8.2691     0.0147     2.4569   -28.0093   724.1788     2.8963     2.9347     3.5934
 3177.5000   859.7515   120.2963     8.2690     0.0148     2.4555   -27.8933   707.8718     2.8172     2.8558     3.3744
 3178.0000   853.4136   119.0637     8.2820     0.0164     2.4525   -27.6828   706.8377     2.7369     2.7984     3.2141
 3178.5000   860.0134   116.3401     8.2671     0.0196     2.4548   -27.4779   721.0775     2.6514     2.7608     2.9673
 3179.0000   866.6934   114.0741     8.2691     0.0244     2.4586   -27.2745   719.7855     2.5976     2.7056     2.7898
 3179.5000   873.4940   112.5926     8.2693     0.0293     2.4661   -27.1802   703.7364     2.5629     2.6695     2.6778
 3180.0000   872.5387   111.4074     8.2692     0.0355     2.4745   -27.2390   702.7028     2.5463     2.6340     2.8309
 3180.5000   871.5659   111.7037     8.2692     0.0402     2.4807   -27.2958   701.6517     2.5476     2.5989     3.1192
 3181.0000   870.5931   115.5556     8.2692     0.0450     2.4858   -27.3532   700.6006     2.5308     2.6000     3.2745
 3181.5000   869.6202   119.7037     8.2692     0.0482     2.4791   -27.4104   744.3876     2.5146     2.5831     3.2088
 3182.0000   868.6474   121.7778     8.2692     0.0490     2.4738   -27.4675   743.3540     2.4980     2.5664     3.0590
 3182.5000   867.6746   121.1852     8.2692     0.0483     2.4724   -27.5251   742.3204     2.4817     2.5497     2.8366
 3183.0000   866.7018   120.5926     8.2691     0.0492     2.4769   -27.5483   726.2713     2.4656     2.5510     2.7606
 3183.5000   865.7289   120.2963     8.2691     0.0508     2.4860   -27.5480   725.2377     2.4327     2.5343     2.7236
 3184.0000   864.7561   119.1016     8.2696     0.0540     2.4920   -27.5548   724.2036     2.4171     2.5007     2.7819
 3184.5000   863.7833   115.5556     8.2504     0.0494     2.4898   -27.6978   723.1700     2.4014     2.4843     2.9208
 3185.0000   862.8105   113.7778     8.2292     0.0284     2.4771   -27.7547   722.1359     2.3693     2.4514     3.0665
 3185.5000   861.8376   113.1852     8.2342     0.0105     2.4529   -27.9552   721.1022     2.3539     2.4356     2.9838
 3186.0000   860.8648   116.1481     8.2628     0.0144     2.4388   -27.9447   720.0687     2.3549     2.4366     2.7296
 3186.5000   859.8920   117.3333     8.2691     0.0223     2.4418   -27.9407   704.0195     2.3396     2.4205     2.5487
 3187.0000   858.9192   117.0370     8.2692     0.0318     2.4487   -27.9395   702.9860     2.3408     2.4048     2.4800
 3187.5000   857.9464   117.3333     8.2692     0.0413     2.4585   -27.9545   701.9518     2.3253     2.3895     2.5862
 3188.0000   856.9735   118.5185     8.2692     0.0491     2.4683   -27.7302   700.9008     2.3104     2.3577     2.6966
 3188.5000   856.0007   118.5185     8.2651     0.0554     2.4766   -27.7404   699.8497     2.3114     2.3424     2.8312
 3189.0000   855.0279   117.3333     8.2365     0.0602     2.4826   -27.5511   713.8655     2.3123     2.3270     3.0346
 3189.5000   854.0551   115.5556     8.2300     0.0603     2.4849   -27.2819   712.5730     2.2971     2.2962     3.1208
 3190.0000   854.3362   115.2593     8.2298     0.0611     2.4842   -26.9606   711.5394     2.2666     2.2813     2.9139
 3190.5000   857.0444   115.5556     8.2298     0.0619     2.4775   -26.7662   695.4908     2.2361     2.2825     2.6285
 3191.0000   859.7525   115.5556     8.2299     0.0511     2.4622   -26.7693   694.4567     2.2372     2.2834     2.2593
 3191.5000   862.4606   115.2593     8.2299     0.0301     2.4418   -26.7043   708.6965     2.2537     2.3002     2.3246
 3192.0000   865.1688   114.6667     8.2299     0.0176     2.4295   -26.4096   707.4040     2.2547     2.3011     2.4611
 3192.5000   867.8769   113.4815     8.2298     0.0267     2.4340   -26.3525   721.6438     2.2871     2.3021     2.6539
 3193.0000   870.5850   112.2963     8.2300     0.0397     2.4566   -26.3172   720.3513     2.3039     2.3190     2.7645
 3193.5000   873.4940   112.2963     8.2399     0.0475     2.4694   -26.1845   719.3177     2.3370     2.3360     2.7848
 3194.0000   874.7862   114.8196     8.2495     0.0539     2.4755   -26.1608   703.2690     2.3380     2.3859     2.7101
 3194.5000   876.1819   116.7407     8.2496     0.0516     2.4703   -26.3912   732.2825     2.3552     2.5933     2.6738
 3195.0000   877.5779   117.3333     8.2496     0.0438     2.4613   -26.5353   761.2614     2.3399     2.8777     3.0289
 3195.5000   878.9734   117.3333     8.2496     0.0306     2.4568   -26.5720   775.2423     2.3434     2.8988     3.4192
 3196.0000   880.3692   117.0370     8.2466     0.0276     2.4644   -26.6320   759.1593     2.3583     2.9813     4.0782
 3196.5000   881.7649   117.0370     8.2223     0.0362     2.4803  -999.2500   757.9012  -999.2500  -999.2500  -999.2500
 3197.0000   883.1606   117.0370     8.1971     0.0506     2.4941  -999.2500   711.8226  -999.2500  -999.2500  -999.2500
 3197.5000   884.5564   117.0370     8.1867     0.0741     2.5058  -999.2500   680.7584  -999.2500  -999.2500  -999.2500
 3198.0000   885.9521   117.0370     8.1515     0.1029     2.5119  -999.2500   664.7098  -999.2500  -999.2500  -999.2500
 3198.5000   887.3478   117.0370     8.1121     0.1287     2.5089  -999.2500   708.7213  -999.2500  -999.2500  -999.2500
 3199.0000   888.7436  -999.2500     7.9533     0.1514     2.4999  -999.2500   737.7172  -999.2500  -999.2500  -999.2500
 3199.5000   890.1393  -999.2500  -999.2500  -999.2500  -999.2500  -999.2500   796.7436  -999.2500  -999.2500  -999.2500
 3200.0000   891.5351  -999.2500  -999.2500  -999.2500  -999.2500  -999.2500   886.0580  -999.2500  -999.2500  -999.2500
 3200.5000   892.9308  -999.2500  -999.2500  -999.2500  -999.2500  -999.2500   764.6459  -999.2500  -999.2500  -999.2500
 3201.0000   896.4983  -999.2500  -999.2500  -999.2500  -999.2500  -999.2500   688.5367  -999.2500  -999.2500  -999.2500
 3201.5000   901.9235  -999.2500  -999.2500  -999.2500  -999.2500  -999.2500   627.4430  -999.2500  -999.2500  -999.2500
 3202.0000   907.3487  -999.2500  -999.2500  -999.2500  -999.2500  -999.2500   566.3494  -999.2500  -999.2500  -999.2500
 3202.5000   912.7739  -999.2500  -999.2500  -999.2500  -999.2500  -999.2500   550.3002  -999.2500  -999.2500  -999.2500
 3203.0000   849.4965  -999.2500  -999.2500  -999.2500  -999.2500  -999.2500   534.2342  -999.2500  -999.2500  -999.2500
 3203.5000   771.7224  -999.2500  -999.2500  -999.2500  -999.2500  -999.2500   533.1832  -999.2500  -999.2500  -999.2500
 3204.0000   694.0213  -999.2500  -999.2500  -999.2500  -999.2500  -999.2500   516.9105  -999.2500  -999.2500  -999.2500
 3204.5000   627.6896  -999.2500  -999.2500  -999.2500  -999.2500  -999.2500   515.8764  -999.2500  -999.2500  -999.2500
