~VERSION INFORMATION
 VERS.                2.0:   CWLS LOG ASCII STANDARD - VERSION 2.0
 WRAP.                 NO:   ONE LINE PER DEPTH STEP
~WELL INFORMATION
#MNEM.UNIT      DATA TYPE    INFORMATION
#----------   ------------   ------------------------------
 STRT.F          200.0000:   START DEPTH
 STOP.F         3060.0000:   STOP DEPTH
 STEP.F            0.5000:   STEP LENGTH
 NULL.          -999.2500:   NO VALUE
 COMP.    FENIX & SCISSON:   COMPANY
 WELL. FENIX NPR 3 "AX" #58-21:   WELL
 FLD .      NPR - WILDCAT:   FIELD
 LOC .      S21 T39N R78W:   LOCATION
 CNTY.            NATRONA:   COUNTY
 STAT.            WYOMING:   STATE
 CTRY. UNITED STATES OF AMERICA:   COUNTRY
 SRVC.              WELEX:   SERVICE COMPANY
 DATE.        12-JUN-1977:   LOGDATE
 API .     49025103790000:   API NUMBER
~CURVE INFORMATION
#MNEM.UNIT       API CODE    CURVE DESCRIPTION
#----------   ------------   ------------------------------
 DEPT.F                  :   
 CALD.IN     45 280 60 00:   CALIPER FROM DENSITY LOG
 GRD .GAPI   45 310 01 00:   GAMMA RAY FROM DENSITY LOG
 CORR.G/C3   45 356 01 00:   DENSITY CORRECTION
 RHOB.G/C3   45 350 01 00:   BULK DENSITY
 SPR .MV     07 010 01 00:   SPONTANEOUS POTENTIAL
 ILD .OHMM   07 120 46 00:   DEEP INDUCTION RESISTIVITY
 GURD.OHMM   07 220 05 00:   GUARD LOG RESISTIVITY
 ILM .OHMM   07 120 44 00:   INDUCTION LOG MEDIUM RESISTIVITY
 DT  .US/F   60 520 00 00:   DELTA TIME
 SPHI.DEC    60 890 00 00:   SONIC POROSITY
~PARAMETER INFORMATION
#MNEM.UNIT          VALUE    DESCRIPTION
#----------   ------------   ------------------------------
 EKB .F         5016.0000:   Kelly bushing
 EGL .F         5006.0000:   Ground level
 EDF .F            0.0000:   Drilling floor
 EPD .F            0.0000:   Permanent datum
 TD  .F         3062.0000:   Total depth
 DATE.        12-JUN-1977:   Date logged
 CLNT.            A2DTECH:   Client Code
 SL  . 280' FSL & 2160' FEL:   Surface Location
 PD  .                 GL:   Permanent Datum
 DD  .F              3060:   Depth driller
 DL  .F              3062:   Depth logger
 BLI .F              3060:   Bottom log interval
 TLI .F              2450:   Top log interval
 CS1 .IN            8.625:   Casing size
 CBD1.      8.625" @ 200':   Casing driller 1
 CBL1.F               218:   Casing logger 1
 BS1 .IN            7.875:   Bit size
 BSD1.F              3060:   Depth drilled with bit1
 DFT .            KCL/MUD:   Type fluid in hole
 DFD .                8.7:   Density
 DFV .                 33:   Viscosity
 DFPH.                7.5:   pH
 DFL .                 36:   Fluid loss
 MSS .           FLOWLINE:   Source of sample
 TCS .HRS             4.5:   Time Circ. stopped
 MRT .F               110:   Maximum recorded temp.
 LUN .               8611:   Logging unit number
 LUL .           GILLETTE:   Logging unit location
 ENGI.            C. DOAK:   Recorded By
 WITN.            RHOADES:   Witnessed by
 ORIG.           5" PRINT:   Origin of data
 UWI .     49025103790000:   Unique Well ID
 DICO. A2D TECHNOLOGIES, INC.:   Digitizing Company
 DAPD.                 10:   Feet Above Permanent Datum
 RMS .OHMM            1.3:   Rm
 MST .F                84:   Rm Meas. temp.
 RMF .OHMM            .52:   Rmf
 MFST.F                84:   Rmf Meas. temp.
 MFSS.               FANN:   Source Rmf.
 RMC .OHMM           1.43:   Rmc
 MCST.F                84:   Rmc Meas. temp.
 MCSS.                KIT:   Source Rmc.
 RMB .OHMM            .99:   Rm. at BHT
 BHT .F               110:   BHT.
~OTHER INFORMATION
~A   DEPT     CALD         GRD      CORR       RHOB        SPR        ILD       GURD        ILM         DT       SPHI   
# ...
  970.5000     9.4200   101.2430     0.0190     2.4820   -65.0390    10.2390    11.1950    11.1450  -999.2500  -999.2500
  971.0000     9.4350   101.3800     0.0170     2.4750   -65.2000    10.1660    10.9910    11.0970  -999.2500  -999.2500
  971.5000     9.4500   100.5160     0.0140     2.4750   -65.5530    10.0920    11.1430    11.0490  -999.2500  -999.2500
  972.0000     9.4660    99.6370     0.0110     2.4750   -65.7740    10.0180    11.2990    11.0000  -999.2500  -999.2500
  972.5000     9.4800    99.1590     0.0090     2.4710   -65.4470     9.9440    11.4560    10.9520  -999.2500  -999.2500
  973.0000     9.4970    99.4580     0.0060     2.4660   -65.1580     9.8700    11.6150    10.9040  -999.2500  -999.2500
  973.5000     9.4930   100.4440     0.0030     2.4680   -64.8620     9.7960    11.6150    10.8550  -999.2500  -999.2500
  974.0000     9.4820   101.3650     0.0020     2.4730   -64.6700     9.7220    11.4090    10.8070  -999.2500  -999.2500
  974.5000     9.4700   102.3830     0.0020     2.4790   -65.1410     9.6470    11.1480    10.7590  -999.2500  -999.2500
  975.0000     9.4580   101.7460     0.0060     2.4810   -65.5850     9.5730    10.9910    10.7100  -999.2500  -999.2500
  975.5000     9.4460   100.5220     0.0110     2.4770   -65.7050     9.4850    11.0350    10.6620  -999.2500  -999.2500
  976.0000     9.4350    99.3980     0.0150     2.4780   -65.3450     9.6610    11.1080    10.6140  -999.2500  -999.2500
  976.5000     9.4230    98.2680     0.0180     2.4830   -65.0610     9.6610    11.1950    10.5660  -999.2500  -999.2500
  977.0000     9.4110    96.9570     0.0140     2.4860   -65.5540     9.6610    11.1350    10.5170  -999.2500  -999.2500
  977.5000     9.4000    96.0190     0.0100     2.4850   -65.8240     9.6610    10.9900    10.4690  -999.2500  -999.2500
  978.0000     9.3880    96.3470     0.0060     2.4770   -65.8080     9.6610    10.7900    10.4210  -999.2500  -999.2500
  978.5000     9.3760    96.5020     0.0020     2.4710   -65.8090     9.6610    10.8690    10.3720  -999.2500  -999.2500
  979.0000     9.3650    96.7090    -0.0020     2.4640   -65.8120     9.6610    11.2140    10.3240  -999.2500  -999.2500
  979.5000     9.3530    96.8930     0.0010     2.4560   -65.8090     9.6610    11.6150    10.2760  -999.2500  -999.2500
  980.0000     9.3410    96.9950     0.0040     2.4570   -65.8110     9.6610    11.4030    10.2110  -999.2500  -999.2500
  980.5000     9.3300    97.1230     0.0060     2.4630   -65.8100     9.6600    11.2620    10.2190  -999.2500  -999.2500
  981.0000     9.3180    97.2470     0.0090     2.4630   -65.8100     9.6640    11.1270    10.2550  -999.2500  -999.2500
  981.5000     9.3060    97.3680     0.0110     2.4610   -65.8100     9.6320    10.9910    10.2900  -999.2500  -999.2500
  982.0000     9.3000    97.4910     0.0130     2.4600   -65.8100     9.5780    10.8560    10.3260  -999.2500  -999.2500
  982.5000     9.3010    97.6140     0.0150     2.4590   -65.8100     9.5280    10.7200    10.3610  -999.2500  -999.2500
  983.0000     9.3050    97.7360     0.0180     2.4640   -65.8100     9.4780    10.5930    10.3970  -999.2500  -999.2500
  983.5000     9.3080    97.8590     0.0200     2.4700   -65.8100     9.4280    10.7080    10.4320  -999.2500  -999.2500
  984.0000     9.3120    97.9800     0.0220     2.4750   -65.8100     9.3780    10.8160    10.4680  -999.2500  -999.2500
  984.5000     9.3150    98.1040     0.0250     2.4810   -65.8100     9.3280    10.9240    10.5040  -999.2500  -999.2500
  985.0000     9.3190    98.2280     0.0260     2.4870   -65.8100     9.2780    11.0320    10.5400  -999.2500  -999.2500
  985.5000     9.3220    98.3410     0.0260     2.4880   -65.8100     9.2270    11.1950    10.5900  -999.2500  -999.2500
  986.0000     9.3260    98.5940     0.0220     2.4840   -65.8100     9.1770    11.1400    10.5570  -999.2500  -999.2500
  986.5000     9.3290    99.0210     0.0180     2.4800   -65.8100     9.1350    11.0270    10.4780  -999.2500  -999.2500
  987.0000     9.3330    99.4380     0.0140     2.4760   -65.8100     9.1100    10.9140    10.3990  -999.2500  -999.2500
  987.5000     9.3360    99.8640     0.0100     2.4710   -65.8100     9.0860    10.7900    10.3210  -999.2500  -999.2500
  988.0000     9.3390   100.2730     0.0060     2.4740   -65.8100     9.0610    10.7900    10.2430  -999.2500  -999.2500
  988.5000     9.3430   100.6890     0.0060     2.4790   -65.8110     9.0370    10.7900    10.1650  -999.2500  -999.2500
  989.0000     9.3460   100.5130     0.0060     2.4760   -65.8100     9.0130    10.7900    10.0870  -999.2500  -999.2500
  989.5000     9.3500   100.1380     0.0060     2.4710   -65.8100     8.9880    10.7900    10.0090  -999.2500  -999.2500
  990.0000     9.3530    99.7610     0.0050     2.4660   -65.8110     8.9640    10.7900     9.9310  -999.2500  -999.2500
  990.5000     9.3570    99.4070     0.0030     2.4620   -65.8080     8.9390    10.6150     9.8530  -999.2500  -999.2500
  991.0000     9.3600    99.0230     0.0020     2.4570   -65.8490     8.9150    10.2100     9.7760  -999.2500  -999.2500
  991.5000     9.3640    98.6480     0.0010     2.4530   -65.9340     8.8900    10.2530     9.6980  -999.2500  -999.2500
  992.0000     9.3670    98.4400     0.0000     2.4500   -66.0120     8.8660    10.3840     9.6610  -999.2500  -999.2500
  992.5000     9.3710    99.4940    -0.0010     2.4490   -66.0660     8.8410    10.5150     9.6830  -999.2500  -999.2500
  993.0000     9.3740   100.6050    -0.0020     2.4480   -66.2040     8.8110    10.6450     9.7130  -999.2500  -999.2500
  993.5000     9.3770   101.7760    -0.0020     2.4470   -65.8780     8.8500    10.7760     9.7430  -999.2500  -999.2500
  994.0000     9.3810   102.9350    -0.0010     2.4450   -65.6090     8.9640    10.9910     9.7730  -999.2500  -999.2500
  994.5000     9.3840   103.8500     0.0010     2.4470   -65.4210     9.0780    10.9700     9.8020  -999.2500  -999.2500
  995.0000     9.3880   104.5710     0.0020     2.4490   -65.4250     9.1920    10.9110     9.8320  -999.2500  -999.2500
  995.5000     9.3910   104.6610     0.0030     2.4520   -65.4860     9.3140    10.8530     9.8620  -999.2500  -999.2500
  996.0000     9.3950   103.2200     0.0050     2.4540   -65.5980     9.3090    10.7940     9.8920  -999.2500  -999.2500
  996.5000     9.3980   101.8170     0.0060     2.4590   -65.6880     9.3100    10.7350     9.9220  -999.2500  -999.2500
  997.0000     9.4020   100.3910     0.0080     2.4660   -65.7980     9.3110    10.6770     9.9520  -999.2500  -999.2500
  997.5000     9.4050    98.9870     0.0090     2.4740   -65.7230     9.3120    10.6180     9.9810  -999.2500  -999.2500
  998.0000     9.4090    97.5400     0.0100     2.4810   -65.6140     9.3120    10.5930    10.0110  -999.2500  -999.2500
  998.5000     9.4120    96.1670     0.0100     2.4880   -65.5000     9.3120    10.7250    10.0410  -999.2500  -999.2500
  999.0000     9.4160    94.5780     0.0100     2.4910   -65.4180     9.3120    10.8930    10.0710  -999.2500  -999.2500
  999.5000     9.4190    93.3980     0.0090     2.4860   -65.4160     9.3120    11.0610    10.1010  -999.2500  -999.2500
 1000.0000     9.4260    92.8140     0.0070     2.4790   -65.4140     9.3120    11.1950    10.1300  -999.2500  -999.2500
 1000.5000     9.4330    92.9080     0.0050     2.4720   -65.4150     9.3120    11.1820    10.1600  -999.2500  -999.2500
 1001.0000     9.4390    92.8980     0.0030     2.4650   -65.4150     9.3120    11.1480    10.1900  -999.2500  -999.2500
 1001.5000     9.4460    93.8830     0.0020     2.4580   -65.4150     9.3120    11.1150    10.2200  -999.2500  -999.2500
 1002.0000     9.4530    95.2120     0.0000     2.4510   -65.4150     9.3110    11.0810    10.2500  -999.2500  -999.2500
 1002.5000     9.4600    96.5240    -0.0020     2.4440   -65.4150     9.3240    11.0480    10.2790  -999.2500  -999.2500
 1003.0000     9.4660    97.8270    -0.0030     2.4380   -65.4150     9.3610    11.0140    10.3090  -999.2500  -999.2500
 1003.5000     9.4730    99.1320    -0.0050     2.4330   -65.4150     9.3970    10.9810    10.3390  -999.2500  -999.2500
