~VERSION INFORMATION
 VERS.                2.0:   CWLS LOG ASCII STANDARD - VERSION 2.0
 WRAP.                 NO:   ONE LINE PER DEPTH STEP
~WELL INFORMATION
#MNEM.UNIT      DATA TYPE    INFORMATION
#----------   ------------   ------------------------------
 STRT.F          200.0000:   START DEPTH
 STOP.F         3120.0000:   STOP DEPTH
 STEP.F            0.5000:   STEP LENGTH
 NULL.          -999.2500:   NO VALUE
 COMP.    FENIX & SCISSON:   COMPANY
 WELL. FENIX NPR 3 "AX" #83-28:   WELL
 FLD .                NPR:   FIELD
 LOC .      S28 T39N R78W:   LOCATION
 CNTY.            NATRONA:   COUNTY
 STAT.            WYOMING:   STATE
 CTRY. UNITED STATES OF AMERICA:   COUNTRY
 SRVC.              WELEX:   SERVICE COMPANY
 DATE.        29-SEP-1977:   LOGDATE
 API .     49025104240000:   API NUMBER
~CURVE INFORMATION
#MNEM.UNIT       API CODE    CURVE DESCRIPTION
#----------   ------------   ------------------------------
 DEPT.F                  :   
 CALD.IN     45 280 60 00:   CALIPER FROM DENSITY LOG
 GRD .GAPI   45 310 01 00:   GAMMA RAY FROM DENSITY LOG
 RHOB.G/C3   45 350 01 00:   BULK DENSITY
 CORR.G/C3   45 356 01 00:   DENSITY CORRECTION
 SPR .MV     07 010 01 00:   SPONTANEOUS POTENTIAL
 SGRD.MV     07 220 05 00:   SHLLOW GUARD
 ILD .OHMM   07 120 46 00:   DEEP INDUCTION RESISTIVITY
 ILM .OHMM   07 120 44 00:   INDUCTION LOG MEDIUM RESISTIVITY
~PARAMETER INFORMATION
#MNEM.UNIT          VALUE    DESCRIPTION
#----------   ------------   ------------------------------
 EKB .F         5034.0000:   Kelly bushing
 EGL .F         5024.0000:   Ground level
 TD  .F         3110.0000:   Total depth
 DATE.        29-SEP-1977:   Date logged
 CLNT.            A2DTECH:   Client Code
 SL  . 1650' FNL & 330' FEL:   Surface Location
 PD  .                 GL:   Permanent Datum
 EPD .F              5024:   Elevation Permanent Datum
 LMF .                 KB:   Log Measured From
 DMF .                 KB:   Drilling Measured From
 DAPD.F                10:   Feet Above Permanent Datum
 DD  .F              3110:   Depth driller
 DL  .F              3110:   Depth logger
 BLI .F              3108:   Bottom log interval
 TLI .F               210:   Top log interval
 CS1 .IN            8.625:   Casing size
 CBD1.      8.625" @ 201':   Casing driller 1
 CBL1.F               210:   Casing logger 1
 BS1 .IN            7.875:   Bit size
 BSD1.F              3110:   Depth drilled with bit1
 DFT .          KCL/WATER:   Type fluid in hole
 DFD .                  9:   Density
 DFV .                 40:   Viscosity
 DFPH.                 11:   pH
 DFL .                6.4:   Fluid loss
 MSS .            MUD/PIT:   Source of sample
 RMS .OHMM            .56:   Rm
 MST .F                60:   Rm Meas. temp.
 RMF .OHMM            .34:   Rmf
 MFST.F                60:   Rmf Meas. temp.
 RMC .OHMM            .61:   Rmc
 MCST.F                60:   Rmc Meas. temp.
 MFSS.               MEAS:   Source Rmf.
 MCSS.               MEAS:   Source Rmc.
 RMB .OHMM            .28:   Rm. at BHT
 BHT .F               120:   BHT.
 TCS .HRS               3:   Time Circ. stopped
 MRT .F               120:   Maximum recorded temp.
 LUN .               9685:   Logging unit number
 LUL .             CASPER:   Logging unit location
 ENGI. G. BENTSEN/T. JOYNER:   Recorded By
 WITN.         PETTINGILL:   Witnessed by
 ORIG.   1" 2.5" 5" PRINT:   Origin of data
 UWI .     49025104240000:   Unique Well ID
 DICO. A2D TECHNOLOGIES, INC.:   Digitizing Company
~OTHER INFORMATION
~A   DEPT     CALD         GRD      RHOB       CORR        SPR       SGRD        ILD        ILM   
# ...
 2306.0000     8.7427    92.0072     2.4811     0.0267   -63.4014    11.1570     7.6419     7.9292
 2306.5000     8.7817    90.4166     2.4791     0.0267   -63.4138     9.3624     7.8566     8.1521
 2307.0000     8.7419    90.4102     2.4791     0.0227   -63.4262     9.3625     7.9296     8.4970
 2307.5000     8.7809    91.1912     2.4732     0.0108   -63.4386     9.9876     7.9297     8.7772
 2308.0000     8.7806    91.9753     2.4613     0.0227   -63.4510    11.2611     7.9299     8.5376
 2308.5000     8.7801    91.9657     2.4513     0.0187   -63.4634    12.9334     7.9301     8.5378
 2309.0000     8.7798    92.7499     2.4493     0.0187   -63.4759    12.3502     7.9302     8.5379
 2309.5000     8.7793    92.7403     2.4453     0.0187   -63.4883    10.0808     7.9304     8.4596
 2310.0000     8.7790    91.9434     2.4453     0.0187   -63.5007    10.0809     7.8576     8.3820
 2310.5000     8.8180    93.5149     2.4454     0.0187   -63.5149    11.2617     7.6432     8.3051
 2311.0000     8.8177    94.2990     2.4454     0.0187   -63.5164    11.9030     7.5731     8.2290
 2311.5000     8.8569    97.4515     2.4473     0.0187   -63.5183    11.0560     6.9697     8.0045
 2312.0000     8.7774    97.4451     2.4493     0.0187   -63.5205     7.2987     7.2989     7.9310
 2312.5000     8.7769    98.2261     2.4434     0.0226   -63.5224     7.3665     7.1655     7.7146
 2313.0000     8.8161    99.0102     2.4414     0.0266   -63.5243     9.4511     7.0347     7.5737
 2313.5000     8.8949   101.3754     2.4414     0.0266   -63.5262    10.6559     6.9062     7.1659
 2314.0000     8.8156   102.9469     2.4414     0.0305   -63.5285    10.8546     6.7801     7.1660
 2314.5000     8.8150   105.3120     2.4414     0.0345   -63.5304     9.5391     6.5951     6.9705
 2315.0000     8.8144   107.6740     2.4454     0.0424   -63.5323     7.9317     6.5953     6.8432
 2315.5000     8.8141   108.4581     2.4474     0.0464   -63.5342     7.3674     6.2980     6.7805
 2316.0000     8.8137   110.0296     2.4474     0.0464   -63.5365     7.2328     6.1262     6.7807
 2316.5000     8.8134   110.8137     2.4394     0.0424   -63.5384     7.1665     6.0701     6.7808
 2317.0000     8.7736   110.8042     2.4335     0.0384   -63.5403     7.1667     6.0702     6.7809
 2317.5000     8.7332   112.3788     2.4275     0.0305   -63.5422     7.3680     6.1266     6.9074
 2318.0000     8.7726   113.9503     2.4215     0.0265   -63.5444     9.2797     6.2987     7.1014
 2318.5000     8.7723   117.8965     2.4156     0.0225   -63.5463    12.5825     6.7191     7.3685
 2319.0000     8.7718   117.8869     2.4096     0.0185   -63.5482    13.9267     7.1017     7.7881
 2319.5000     8.8505   117.8806     2.4096     0.0185   -62.7517    14.9935     7.3688     8.0810
 2320.0000     8.8105   119.4520     2.4116     0.0106   -62.7540    12.6995     7.6459     8.6203
 2320.5000     8.7707   120.2362     2.4156     0.0225   -62.7559    11.4741     7.8607     8.9445
 2321.0000     8.8097   121.0171     2.4176     0.0264   -62.9574    11.2644     7.8609     9.1112
 2321.5000     8.8094   120.2202     2.4176     0.0264   -63.1593    12.3532     7.7173     9.1113
 2322.0000     8.8090   120.2107     2.4136     0.0224   -63.1612    13.5471     7.3018     9.0278
 2322.5000     8.7691   121.7853     2.4136     0.0224   -63.3627     9.2809     6.8455     8.6210
 2323.0000     8.8082   127.3093     2.4096     0.0224   -63.5642     7.7175     6.7204     8.2325
 2323.5000     8.8869   127.3030     2.4017     0.0184   -63.5657    10.5608     6.4177     7.5073
 2324.0000     8.8074   128.0839     2.3997     0.0303   -63.7676    10.3678     6.1853     6.8459
 2324.5000     8.8070   129.6586     2.4103     0.0343   -63.9691     9.1119     5.7987     6.4179
 2325.0000     8.8066   132.8111     2.4209     0.0422   -63.9713     7.7896     5.1912     6.0168
 2325.5000     8.8458   136.7573     2.4355     0.0462   -64.1740     5.5375     5.0965     5.6407
 2326.0000     8.8059   134.3793     2.4510     0.0502   -64.1743     5.2395     4.9120     5.4365
 2326.5000     8.8054   131.9982     2.4665     0.0541   -63.9774     4.9575     4.7781     5.3867
 2327.0000     8.8053   129.6203     2.4820     0.0462   -63.7793     4.6050     4.5629     5.1917
 2327.5000     8.9232   123.2867     2.4970     0.0462   -63.7816     4.4795     4.3174     5.1442
 2328.0000     8.9624   121.6992     2.5129     0.0382   -63.7839     4.9124     4.1612     5.0041
 2328.5000     9.0015   120.1087     2.5090     0.0302   -63.7854     5.7997     4.0477     4.9582
 2329.0000     9.0407   119.3118     2.5010     0.0302   -63.7873     6.0178     4.0107     4.8231
 2329.5000     8.9612   118.5117     2.4831     0.0302   -63.7899     5.6417     4.0480     4.8232
 2330.0000     9.0594   117.7148     2.4800     0.0262   -63.7915     5.3382     4.0856     4.8233
 2330.5000     9.0593   114.5432     2.4772     0.0262   -63.5941     5.3877     4.1618     4.8682
 2331.0000     9.0744   112.9558     2.4792     0.0262   -63.5960     5.3879     4.2394     5.0048
 2331.5000     9.0896   110.5747     2.4851     0.0302   -63.5979     5.3880     4.3584     5.3882
 2332.0000     9.1048   109.7778     2.4951     0.0302   -63.6002     5.4380     4.3989     5.5908
 2332.5000     9.1199   108.9777     2.5050     0.0302   -63.6021     5.4382     4.4809     5.5909
 2333.0000     9.1351   108.9713     2.5070     0.0302   -63.6040     5.4384     4.6068     5.6429
 2333.5000     9.1503   108.1713     2.5169     0.0301   -63.8055     5.4385     4.6927     5.6953
 2334.0000     9.1655   108.9554     2.5169     0.0341   -64.0070     5.4386     4.7363     5.8014
 2334.5000     9.1806   107.3648     2.5209     0.0341   -64.2085     5.4388     4.7803     5.8015
 2335.0000     9.1958   107.3584     2.5129     0.0341   -64.2111     5.4389     4.7805     5.8017
 2335.5000     9.2110   104.1868     2.5070     0.0341   -64.2130     5.4390     4.7806     5.8018
 2336.0000     9.2262   107.3425     2.5070     0.0301   -64.2149     5.4392     4.7807     5.8557
 2336.5000     9.2413   108.9140     2.5070     0.0261   -64.2168     5.4393     4.7808     5.8559
 2337.0000     9.2565   108.9076     2.5070     0.0340   -64.2191     5.4395     4.7810     5.8561
 2337.5000     9.2717   106.5265     2.5129     0.0459   -64.2210     5.4396     4.7811     5.8561
 2338.0000     9.2900   107.3106     2.5149     0.0459   -64.2229     5.4398     4.8702     5.9653
 2338.5000     9.2897   107.3042     2.5149     0.0539   -64.2248     5.4399     4.8703     5.9655
 2339.0000     9.2700   107.2947     2.5149     0.0538   -64.2271     5.4905     4.9156     5.9656
 2339.5000     9.3091   108.0788     2.5109     0.0538   -64.2290     5.5414     4.9612     6.0210
 2340.0000     9.3481   108.0693     2.5070     0.0499   -64.2309     5.6447     5.0537     6.0211
 2340.5000     9.3478   108.8534     2.4990     0.0459   -64.2331     5.8031     5.1007     6.1901
 2341.0000     9.3473   109.6343     2.4871     0.0379   -64.2350     5.8570     5.1481     6.3054
 2341.5000     9.3470   109.6280     2.4851     0.0339   -64.2369     5.8572     5.1958     6.2477
 2342.0000     9.3465   108.8279     2.4752     0.0300   -64.2388     5.9115     5.1960     6.1906
 2342.5000     9.3462   110.4026     2.4712     0.0300   -64.2411     5.9117     5.0544     6.1339
 2343.0000     9.3457   110.3930     2.4673     0.0339   -64.2430     5.9118     4.9167     6.1340
 2343.5000     9.3454   111.1771     2.4752     0.0379   -64.2449     5.8040     4.7827     5.9669
 2344.0000     9.3453   108.7960     2.4871     0.0458   -64.6460     5.3421     4.6525     5.6983
 2344.5000     9.3841   109.5802     2.4951     0.0458   -64.6479     5.1489     4.5676     5.5431
 2345.0000     9.3837   108.7801     2.5010     0.0497   -64.6498     5.0086     4.4843     5.3426
 2345.5000     9.3833   108.7737     2.5030     0.0458   -64.6521     4.6527     4.3222     5.1021
 2346.0000     9.4224   107.9736     2.4951     0.0378   -64.6540     4.4844     4.2044     4.9630
