~VERSION INFORMATION
 VERS.                2.0:   CWLS LOG ASCII STANDARD - VERSION 2.0
 WRAP.                 NO:   ONE LINE PER DEPTH STEP
~WELL INFORMATION
#MNEM.UNIT      DATA TYPE    INFORMATION
#----------   ------------   ------------------------------
 STRT.F          203.5000:   START DEPTH
 STOP.F         3126.0000:   STOP DEPTH
 STEP.F            0.5000:   STEP LENGTH
 NULL.          -999.2500:   NO VALUE
 COMP.    FENIX & SCISSON:   COMPANY
 WELL. FENIX NPR 3 "AX" #88-33:   WELL
 FLD .        TEAPOT DOME:   FIELD
 LOC .      S33 T39N R78W:   LOCATION
 CNTY.            NATRONA:   COUNTY
 STAT.            WYOMING:   STATE
 CTRY. UNITED STATES OF AMERICA:   COUNTRY
 SRVC.       SCHLUMBERGER:   SERVICE COMPANY
 DATE.        23-JAN-1978:   LOGDATE
 API .     49025105610000:   API NUMBER
~CURVE INFORMATION
#MNEM.UNIT       API CODE    CURVE DESCRIPTION
#----------   ------------   ------------------------------
 DEPT.F                  :   
 CALD.IN     45 280 60 00:   CALIPER FROM DENSITY LOG
 GRD .GAPI   45 310 01 00:   GAMMA RAY FROM DENSITY LOG
 RHOB.G/C3   45 350 01 00:   BULK DENSITY
 CORR.G/C3   45 356 01 00:   DENSITY CORRECTION
 SPR .MV     05 010 01 00:   SPONTANEOUS POTENTIAL
 SN  .OHMM   05 040 16 00:   SHORT NORMAL 16"
 ILD .OHMM   05 120 46 00:   DEEP INDUCTION RESISTIVITY
~PARAMETER INFORMATION
#MNEM.UNIT          VALUE    DESCRIPTION
#----------   ------------   ------------------------------
 EKB .F         5174.0000:   Kelly bushing
 EGL .F         5164.0000:   Ground level
 EDF .F            0.0000:   Drilling floor
 TD  .F         3115.0000:   Total depth
 DATE.        23-JAN-1978:   Date logged
 CLNT.            A2DTECH:   Client Code
 PD  .                 GL:   Permanent Datum
 EPD .F              5164:   Elevation Permanent Datum
 LMF .                 KB:   Log Measured From
 DMF .                 KB:   Drilling Measured From
 DD  .F              3115:   Depth driller
 DL  .F              3115:   Depth logger
 BLI .F              3115:   Bottom log interval
 TLI .F               210:   Top log interval
 CS1 .IN            8.625:   Casing size
 CBD1.      9.625" @ 219':   Casing driller 1
 CBL1.F               219:   Casing logger 1
 BS1 .IN            7.875:   Bit size
 BSD1.F              3115:   Depth drilled with bit1
 DFT .                GEL:   Type fluid in hole
 DFD .                8.9:   Density
 DFV .                 36:   Viscosity
 DFPH.                 10:   pH
 DFL .                7.8:   Fluid loss
 MSS .           FLOWLINE:   Source of sample
 RMS .OHMM            2.2:   Rm
 MST .F                62:   Rm Meas. temp.
 RMF .OHMM           1.94:   Rmf
 MFST.F                54:   Rmf Meas. temp.
 RMC .OHMM            3.4:   Rmc
 MCST.F                54:   Rmc Meas. temp.
 MFSS.               MEAS:   Source Rmf.
 MCSS.               MEAS:   Source Rmc.
 RMB .OHMM            1.1:   Rm. at BHT
 BHT .F               114:   BHT.
 TCS .HRS             4.5:   Time Circ. stopped
 MRT .F               114:   Maximum recorded temp.
 LUN .               2958:   Logging unit number
 LUL .             CASPER:   Logging unit location
 ENGI.           REYNOLDS:   Recorded By
 WITN.           MCGINLEY:   Witnessed by
 ORIG.           5" PRINT:   Origin of data
 UWI .     49025105610000:   Unique Well ID
 DICO. A2D TECHNOLOGIES, INC.:   Digitizing Company
 DAPD.F              5164:   Feet Above Permanent Datum
 SL  . 100' FSL & 550' FEL:   Surface Location
~OTHER INFORMATION
~A   DEPT     CALD        GRD       RHOB       CORR        SPR         SN        ILD   
# ...
  977.0000    10.9218    97.0279     2.5331     0.1429   -45.0571     8.4397     9.9743
  977.5000    10.9218    97.2261     2.5291     0.1350   -45.4564     8.5169     9.9736
  978.0000    10.9218    97.0280     2.5211     0.1270   -45.6569     8.5167     9.9730
  978.5000    10.9218    95.2444     2.5082     0.1270   -45.6584     8.4381     9.9723
  979.0000    10.9614    94.8481     2.5022     0.1270   -45.4611     8.4375     9.8800
  979.5000    10.9614    94.0555     2.5132     0.1270   -45.4626     8.3596     9.8793
  980.0000    10.9613    94.6501     2.5181     0.1270   -45.2653     8.2824     9.8787
  980.5000    10.9613    96.1357     2.5211     0.1251   -44.6702     7.9822     9.6972
  981.0000    10.9613    95.9375     2.5132     0.1291   -43.8763     7.9085     9.3446
  981.5000    10.9613    95.3431     2.5052     0.1291   -43.6787     7.8355     9.2583
  982.0000    10.9613    92.6689     2.5042     0.1311   -43.2825     7.7631     9.0047
  982.5000    10.9612    92.0746     2.5072     0.1311   -43.2841     7.7626     9.0041
  983.0000    10.9612    90.2914     2.5062     0.1271   -43.2856     7.6862     9.0036
  983.5000    10.9612    89.6973     2.5022     0.1291   -43.0884     7.5456     9.0030
  984.0000    10.9612    89.4992     2.4923     0.1331   -43.4877     7.5366     9.0024
  984.5000    11.0404    94.2548     2.4714     0.1391   -43.6881     7.5275     8.9191
  985.0000    11.0404    93.0662     2.4783     0.1371   -44.0874     7.5185     9.0012
  985.5000    11.0404    94.2550     2.4893     0.1312   -44.0890     7.5095     9.0006
  986.0000    11.0404    95.2458     2.4953     0.1332   -44.0906     7.5005     9.0000
  986.5000    11.0403    96.8309     2.4923     0.1332   -44.0921     7.4915     8.9994
  987.0000    11.0403    94.2554     2.4834     0.1392   -44.2926     7.4826     8.9988
  987.5000    11.0403    94.2555     2.4774     0.1432   -44.2941     7.4736     8.9983
  988.0000    11.0403    93.3632     2.4734     0.1472   -44.2957     7.4647     8.9977
  988.5000    11.0403    99.4066     2.4774     0.1631   -44.2970     7.4557     8.9971
  989.0000    11.0402    98.4161     2.4824     0.1731   -44.4974     7.4468     8.9965
  989.5000    11.0402    97.4256     2.4814     0.1891   -44.4989     7.4379     8.9959
  990.0000    11.0402    96.8314     2.4794     0.1971   -44.5005     7.4290     8.8306
  990.5000    11.0402    95.6429     2.4864     0.2051   -44.5021     7.4201     8.8302
  991.0000    11.0402    95.4449     2.4894     0.2051   -44.5036     7.4112     8.8296
  991.5000    11.0401    95.0488     2.4924     0.2031   -44.5052     7.4708     8.8290
  992.0000    11.0401    94.2565     2.4934     0.1931   -44.3079     7.3342     8.7475
  992.5000    11.0401    92.8701     2.4894     0.1872   -44.5083     7.3339     8.7467
  993.0000    11.0401    93.8607     2.4894     0.1852   -44.5099     7.3335     8.5861
  993.5000    11.0401    92.4743     2.4894     0.1852   -44.3126     7.2660     8.5855
  994.0000    11.0400    91.8802     2.4894     0.1832   -43.9166     7.2656     8.4278
  994.5000    11.0400    93.2668     2.4894     0.1733   -43.7193     7.2653     8.4277
  995.0000    11.0400    95.2476     2.4875     0.1633   -43.3229     7.2649     8.4268
  995.5000    11.0400    92.2768     2.4825     0.1573   -43.5233     7.2732     8.4261
  996.0000    11.0400    90.8906     2.4795     0.1573   -43.3261     7.2815     8.5038
  996.5000    11.0399    88.8103     2.4705     0.1673   -43.5262     7.2897     8.4250
  997.0000    11.0399    91.0890     2.4556     0.1713   -43.5280     7.2980     8.4245
  997.5000    11.0399    92.2775     2.4686     0.1713   -43.5296     7.3063     8.4240
  998.0000    11.0399    91.0894     2.4735     0.1713   -43.9288     7.3146     8.6600
  998.5000    11.0399    90.8915     2.4835     0.1574   -44.1292     7.3229     8.8210
  999.0000    11.0398    90.6937     2.4920     0.1434   -44.5284     7.3972     8.8204
  999.5000    11.0398    90.6939     2.4806     0.1415   -44.5300     7.5345     8.9017
 1000.0000    11.0398    89.7040     2.4506     0.1395   -44.7303     7.5045     8.9011
 1000.5000    11.0398    90.0423     2.4330     0.1705   -44.7319     7.5834     9.1324
 1001.0000    11.0398    90.6941     2.4407     0.1914   -44.7285     7.8900     9.1518
 1001.5000    11.0398    90.4960     2.4527     0.2053   -44.7275     7.8902     9.1522
 1002.0000    11.0398    91.4861     2.4756     0.2093   -44.7265     7.9060     9.2376
 1002.5000    11.0398    90.8921     2.4856     0.1794   -44.7255     7.9218     9.2380
 1003.0000    11.0398    90.4960     2.4776     0.1795   -44.5257     7.9377     9.2384
 1003.5000    11.0398    89.5059     2.4716     0.1914   -44.1272     7.9536     9.2389
 1004.0000    11.0398    89.1099     2.4706     0.2054   -43.7286     7.9695     9.2393
 1004.5000    11.0398    89.5059     2.4696     0.2074   -43.7276     7.9854     9.2397
 1005.0000    11.0398    90.1000     2.4666     0.2174   -43.3290     8.0014     9.2402
 1005.5000    11.0398    89.9020     2.4607     0.2254   -43.5268     8.0174     9.2406
 1006.0000    11.0398    90.1000     2.4587     0.2354   -43.3270     8.0335     9.2410
 1006.5000    11.0398    89.9020     2.4637     0.2354   -43.5248     8.0496     9.2414
 1007.0000    11.0398    89.7040     2.4587     0.2354   -43.7226     8.0657     9.2419
 1007.5000    11.0398    89.3079     2.4587     0.2295   -44.3180     8.0818     9.2423
 1008.0000    11.0200    89.3079     2.4587     0.2255   -44.3170     8.0980     9.2427
 1008.5000    11.0398    90.2980     2.4657     0.1996   -44.3160     8.1166     9.2432
 1009.0000    11.0398    93.0703     2.4687     0.1916   -44.3150     8.1167     9.2436
 1009.5000    11.0398    94.2584     2.4727     0.1777   -44.3140     8.0992     9.4163
 1010.0000    11.0398    96.0406     2.4817     0.1677   -44.1142     8.0818     9.5040
 1010.5000    11.0398    93.8624     2.4737     0.1677   -43.9144     8.0644     9.3306
 1011.0000    11.0398    93.2683     2.4847     0.1678   -43.9134     8.0440     9.3311
 1011.5000    11.0398    92.4762     2.4926     0.1678   -43.9124     7.9706     9.2457
 1012.0000    11.0398    91.8822     2.4936     0.1698   -44.1102     7.8979     9.0769
 1012.5000    11.0398    92.0802     2.4936     0.1698   -44.3080     7.8258     9.0773
 1013.0000    11.0398    91.8822     2.4917     0.1698   -44.5058     7.8986     9.0777
 1013.5000    11.0398    91.0901     2.4867     0.1738   -44.7036     7.8989     8.9947
 1014.0000    11.0398    91.0901     2.4787     0.1918   -44.5038     7.8268     9.0786
 1014.5000    11.0398    93.0703     2.4807     0.1918   -44.5028     7.4766     9.0790
 1015.0000    11.0398    94.0604     2.4857     0.1898   -44.1042     7.4767     8.9959
 1015.5000    11.0398    92.8723     2.4997     0.1679   -43.7056     7.5463     9.0798
 1016.0000    11.0398    92.4762     2.4987     0.1400   -43.7046     7.5466     9.0802
 1016.5000    11.0398    92.8723     2.4857     0.1380   -43.5048     7.4778     8.9972
 1017.0000    11.0398    92.4762     2.4727     0.1420   -43.3052     7.4781     8.9149
 1017.5000    11.0398    91.2881     2.4727     0.1520   -42.9065     7.4785     8.9152
 1018.0000    11.0398    93.4663     2.4718     0.1700   -43.1044     7.5480     8.8338
 1018.5000    11.0398    91.6842     2.4708     0.1820   -43.3022     7.4792     8.9159
 1019.0000    11.0398    90.8921     2.4698     0.1940   -43.3012     7.5487     8.9719
 1019.5000    11.0398    90.8921     2.4698     0.1980   -43.4990     7.4798     8.8350
 1020.0000    11.0398    92.4762     2.4678     0.2100   -43.8956     7.4802     8.9174
 1020.5000    11.0596    92.8723     2.4668     0.2180   -43.6958     7.4805     8.8358
 1021.0000    11.0398    92.8723     2.4917     0.2176   -43.8936     7.4809     8.8362
 1021.5000    11.0398    92.8723     2.4947     0.2116   -44.0914     7.4812     8.8366
 1022.0000    11.0398    93.6644     2.4977     0.1957   -44.4880     7.5508     8.8371
