~VERSION INFORMATION
 VERS.                2.0:   CWLS LOG ASCII STANDARD - VERSION 2.0
 WRAP.                 NO:   ONE LINE PER DEPTH STEP
~WELL INFORMATION
#MNEM.UNIT      DATA TYPE    INFORMATION
#----------   ------------   ------------------------------
 STRT.F          794.0000:   START DEPTH
 STOP.F         2828.0000:   STOP DEPTH
 STEP.F            0.5000:   STEP LENGTH
 NULL.          -999.2500:   NO VALUE
 COMP.           U S NAVY:   COMPANY
 WELL. U S NAVY NPR 3 "A" #10-33:   WELL
 FLD .        TEAPOT DOME:   FIELD
 LOC .      S33 T39N R78W:   LOCATION
 CNTY.            NATRONA:   COUNTY
 STAT.            WYOMING:   STATE
 CTRY. UNITED STATES OF AMERICA:   COUNTRY
 SRVC.         MCCULLOUGH:   SERVICE COMPANY
 DATE.        25-JUL-1968:   LOGDATE
 API .     49025102180000:   API NUMBER
~CURVE INFORMATION
#MNEM.UNIT       API CODE    CURVE DESCRIPTION
#----------   ------------   ------------------------------
 DEPT.F                  :   
 GRN .GAPI   35 310 01 00:   GAMMA RAY
 NEUT.NAPI   35 330 01 00:   NEUTRON
 TEMP.DEG    99 000 00 00:   TEMPERATURE AT TOOL
~PARAMETER INFORMATION
#MNEM.UNIT          VALUE    DESCRIPTION
#----------   ------------   ------------------------------
 EKB .F            0.0000:   Kelly bushing
 EGL .F            0.0000:   Ground level
 EDF .F            0.0000:   Drilling floor
 EPD .F            0.0000:   Permanent datum
 TD  .F         2829.0000:   Total depth
 DATE.        25-JUL-1968:   Date logged
 CLNT.            A2DTECH:   Client Code
 DL  .F              2829:   Depth logger
 BLI .F              2825:   Bottom log interval
 TLI .F               800:   Top log interval
 DFT .                DRY:   Type fluid in hole
 TCS .HRS               2:   Time Circ. stopped
 ENGI.           KIMBERRY:   Recorded By
 ORIG.        2" 5" PRINT:   Origin of data
 UWI .     49025102180000:   Unique Well ID
 DICO. A2D TECHNOLOGIES, INC.:   Digitizing Company
~OTHER INFORMATION
~A   DEPT       GRN      NEUT       TEMP   
# ...
 1795.0000    71.7230   524.2220  -999.2500
 1795.5000    72.3420   520.3430  -999.2500
 1796.0000    71.9930   521.0940  -999.2500
 1796.5000    71.3140   514.7310  -999.2500
 1797.0000    71.7720   499.2570  -999.2500
 1797.5000    71.8470   483.8640  -999.2500
 1798.0000    72.0020   483.7190  -999.2500
 1798.5000    69.8440   472.3660  -999.2500
 1799.0000    69.1500   472.3670  -999.2500
 1799.5000    69.1650   471.2980  -999.2500
 1800.0000    69.0430   493.8380  -999.2500
 1800.5000    67.9020   494.8800  -999.2500
 1801.0000    69.0750   493.5290  -999.2500
 1801.5000    71.5340   497.3110  -999.2500
 1802.0000    74.5040   502.0470  -999.2500
 1802.5000    77.5520   493.7640  -999.2500
 1803.0000    77.2140   493.2320  -999.2500
 1803.5000    76.7050   492.9190  -999.2500
 1804.0000    76.6070   505.3630  -999.2500
 1804.5000    75.5880   527.2170  -999.2500
 1805.0000    75.2810   543.6510  -999.2500
 1805.5000    75.1100   557.0120  -999.2500
 1806.0000    75.5670   559.0960  -999.2500
 1806.5000    76.5830   529.7590  -999.2500
 1807.0000    77.3830   510.9070  -999.2500
 1807.5000    78.3790   511.6950  -999.2500
 1808.0000    76.9910   524.5330  -999.2500
 1808.5000    77.0660   533.2970  -999.2500
 1809.0000    78.7920   527.1090  -999.2500
 1809.5000    79.7160   523.0780  -999.2500
 1810.0000    78.6950   525.9230  -999.2500
 1810.5000    76.9730   508.6390  -999.2500
 1811.0000    75.5300   508.6380  -999.2500
 1811.5000    74.8090   510.0100  -999.2500
 1812.0000    72.9410   494.7810  -999.2500
 1812.5000    72.2060   479.4380  -999.2500
 1813.0000    72.3430   474.2510  -999.2500
 1813.5000    73.6510   475.8180  -999.2500
 1814.0000    74.1930   475.9530  -999.2500
 1814.5000    73.4920   482.1810  -999.2500
 1815.0000    76.1680   468.0970  -999.2500
 1815.5000    78.7200   466.0370  -999.2500
 1816.0000    77.3470   461.6830  -999.2500
 1816.5000    75.6990   451.7400  -999.2500
 1817.0000    72.8550   453.4240  -999.2500
 1817.5000    71.8990   456.8970  -999.2500
 1818.0000    71.8070   457.6420  -999.2500
 1818.5000    71.7010   459.2600  -999.2500
 1819.0000    71.7080   458.6180  -999.2500
 1819.5000    71.7700   467.4630  -999.2500
 1820.0000    73.1490   475.1770  -999.2500
 1820.5000    73.6340   468.1580  -999.2500
 1821.0000    71.5950   461.7090  -999.2500
 1821.5000    71.9030   455.0530  -999.2500
 1822.0000    73.0750   449.7730  -999.2500
 1822.5000    73.1360   448.5450  -999.2500
 1823.0000    71.7110   452.2300  -999.2500
 1823.5000    70.3930   458.1120  -999.2500
 1824.0000    69.5620   468.3630  -999.2500
 1824.5000    69.0030   478.3800  -999.2500
 1825.0000    69.2030   488.5300  -999.2500
 1825.5000    69.1610   487.1310  -999.2500
 1826.0000    67.7610   480.6530  -999.2500
 1826.5000    68.8120   472.7320  -999.2500
 1827.0000    69.3460   458.2540  -999.2500
 1827.5000    69.7810   449.0880  -999.2500
 1828.0000    71.7000   443.3640  -999.2500
 1828.5000    71.5810   444.5760  -999.2500
 1829.0000    72.2000   445.9480  -999.2500
 1829.5000    70.2890   449.3620  -999.2500
 1830.0000    67.7750   461.9120  -999.2500
 1830.5000    67.0070   465.6390  -999.2500
 1831.0000    68.5090   456.2070  -999.2500
 1831.5000    67.7020   457.7800  -999.2500
 1832.0000    66.2380   451.3810  -999.2500
 1832.5000    67.7920   449.1290  -999.2500
 1833.0000    68.6030   461.5240  -999.2500
 1833.5000    69.1130   464.5850  -999.2500
 1834.0000    69.7140   451.0590  -999.2500
 1834.5000    70.1230   436.3770  -999.2500
 1835.0000    70.0340   436.0180  -999.2500
 1835.5000    70.4160   437.2580  -999.2500
 1836.0000    71.3420   440.3700  -999.2500
 1836.5000    72.6010   445.2930  -999.2500
 1837.0000    72.9250   444.1180  -999.2500
 1837.5000    73.2790   440.4090  -999.2500
 1838.0000    73.7320   439.6420  -999.2500
 1838.5000    74.6460   434.4400  -999.2500
 1839.0000    75.5340   414.5760  -999.2500
 1839.5000    76.7510   411.4960  -999.2500
 1840.0000    78.2200   413.6330  -999.2500
 1840.5000    79.3480   417.1280  -999.2500
 1841.0000    78.8140   419.5090  -999.2500
 1841.5000    75.8860   421.1750  -999.2500
 1842.0000    73.8060   422.8140  -999.2500
 1842.5000    74.5850   425.3230  -999.2500
 1843.0000    75.0490   427.7250  -999.2500
 1843.5000    73.0370   429.9220  -999.2500
 1844.0000    70.8010   421.6700  -999.2500
 1844.5000    70.5690   413.8010  -999.2500
 1845.0000    71.0850   424.8590  -999.2500
 1845.5000    72.9600   442.6270  -999.2500
 1846.0000    75.3100   451.8940  -999.2500
 1846.5000    76.3250   466.1310  -999.2500
 1847.0000    76.2880   466.4060  -999.2500
 1847.5000    75.7700   456.2260  -999.2500
 1848.0000    74.5450   448.5520  -999.2500
 1848.5000    72.9460   441.5030  -999.2500
 1849.0000    72.0860   439.3840  -999.2500
 1849.5000    71.7490   439.4050  -999.2500
 1850.0000    73.8720   441.7580  -999.2500
 1850.5000    74.4830   445.2310  -999.2500
 1851.0000    72.9060   440.9500  -999.2500
 1851.5000    72.0200   429.6320  -999.2500
 1852.0000    70.0900   427.9190  -999.2500
 1852.5000    68.9860   433.5390  -999.2500
 1853.0000    66.8320   430.9010  -999.2500
 1853.5000    66.0500   432.5790  -999.2500
 1854.0000    65.4720   432.4480  -999.2500
 1854.5000    66.7980   416.1050  -999.2500
 1855.0000    68.3170   413.0740  -999.2500
 1855.5000    69.8180   420.9280  -999.2500
 1856.0000    71.3520   416.8260  -999.2500
 1856.5000    72.8460   408.0040  -999.2500
 1857.0000    73.0920   399.9500  -999.2500
 1857.5000    72.9470   405.0230  -999.2500
 1858.0000    70.9310   413.1450  -999.2500
 1858.5000    72.3640   415.6100  -999.2500
 1859.0000    74.6440   421.8220  -999.2500
 1859.5000    75.4180   427.3750  -999.2500
 1860.0000    75.2320   425.8890  -999.2500
 1860.5000    74.5660   434.6320  -999.2500
 1861.0000    75.1200   446.9780  -999.2500
 1861.5000    75.2270   452.6150  -999.2500
 1862.0000    75.0630   457.9570  -999.2500
 1862.5000    75.4940   454.7540  -999.2500
 1863.0000    75.6650   456.0120  -999.2500
 1863.5000    75.0700   457.4850  -999.2500
 1864.0000    73.8370   445.8350  -999.2500
 1864.5000    70.1030   434.0400  -999.2500
 1865.0000    68.2940   450.7420  -999.2500
 1865.5000    68.3060   465.9010  -999.2500
 1866.0000    68.7100   472.9740  -999.2500
 1866.5000    68.7480   475.6440  -999.2500
 1867.0000    68.3580   461.3770  -999.2500
 1867.5000    69.8630   444.3400  -999.2500
 1868.0000    70.5390   441.3040  -999.2500
 1868.5000    73.2930   448.5560  -999.2500
 1869.0000    73.4840   451.6920  -999.2500
 1869.5000    73.7660   456.5870  -999.2500
 1870.0000    73.9190   457.2710  -999.2500
 1870.5000    74.0390   451.9000  -999.2500
 1871.0000    74.7920   458.6600  -999.2500
 1871.5000    75.9880   453.5630  -999.2500
 1872.0000    76.9250   444.5650  -999.2500
 1872.5000    75.2400   442.5530  -999.2500
 1873.0000    74.1530   439.5330  -999.2500
 1873.5000    72.5040   442.1640  -999.2500
 1874.0000    72.0960   442.4460  -999.2500
 1874.5000    71.4620   436.8390  -999.2500
 1875.0000    71.6150   445.0660  -999.2500
 1875.5000    73.1460   454.8200  -999.2500
 1876.0000    76.3520   456.5310  -999.2500
 1876.5000    77.4480   461.9760  -999.2500
 1877.0000    78.4240   473.1510  -999.2500
 1877.5000    79.9920   477.2160  -999.2500
 1878.0000    79.9660   475.0560  -999.2500
 1878.5000    82.0090   465.5380  -999.2500
 1879.0000    82.3710   459.7690  -999.2500
 1879.5000    83.9870   460.7630  -999.2500
 1880.0000    86.1070   463.2540  -999.2500
 1880.5000    86.8180   478.1040  -999.2500
 1881.0000    87.0240   485.8670  -999.2500
 1881.5000    87.6510   491.8860  -999.2500
 1882.0000    88.2580   489.3090  -999.2500
 1882.5000    89.2090   482.2520  -999.2500
 1883.0000    88.3540   479.5000  -999.2500
 1883.5000    85.5760   485.7720  -999.2500
 1884.0000    84.6160   492.7750  -999.2500
 1884.5000    82.8070   493.5380  -999.2500
 1885.0000    82.0360   493.3270  -999.2500
 1885.5000    82.3550   490.7490  -999.2500
