~VERSION INFORMATION
 VERS.                2.0:   CWLS LOG ASCII STANDARD - VERSION 2.0
 WRAP.                 NO:   ONE LINE PER DEPTH STEP
~WELL INFORMATION
#MNEM.UNIT      DATA TYPE    INFORMATION
#----------   ------------   ------------------------------
 STRT.F           16.0000:   START DEPTH
 STOP.F         2834.0000:   STOP DEPTH
 STEP.F            0.5000:   STEP LENGTH
 NULL.          -999.2500:   NO VALUE
 COMP.    FENIX & SCISSON:   COMPANY
 WELL. FENIX NPR 3 "AX" #14-21:   WELL
 FLD .              N P R:   FIELD
 LOC .      S21 T39N R78W:   LOCATION
 CNTY.            NATRONA:   COUNTY
 STAT.            WYOMING:   STATE
 CTRY. UNITED STATES OF AMERICA:   COUNTRY
 SRVC.           BIRDWELL:   SERVICE COMPANY
 DATE.        26-JUL-1978:   LOGDATE
 API .     49025106740000:   API NUMBER
~CURVE INFORMATION
#MNEM.UNIT       API CODE    CURVE DESCRIPTION
#----------   ------------   ------------------------------
 DEPT.F                  :   
 GRD .GAPI   45 310 01 00:   GAMMA RAY FROM DENSITY LOG
 CALD.IN     45 280 60 00:   CALIPER FROM DENSITY LOG
 RHOB.G/C3   45 350 01 00:   BULK DENSITY
 CORR.G/C3   45 356 01 00:   DENSITY CORRECTION
 SPR .MV     05 010 01 00:   SPONTANEOUS POTENTIAL
 ILD .OHMM   05 120 46 00:   DEEP INDUCTION RESISTIVITY
 SN  .OHMM   05 040 00 00:   SHORT NORMAL
~PARAMETER INFORMATION
#MNEM.UNIT          VALUE    DESCRIPTION
#----------   ------------   ------------------------------
 EKB .F         4998.0000:   Kelly bushing
 EGL .F         4988.0000:   Ground level
 EDF .F            0.0000:   Drilling floor
 EPD .F            0.0000:   Permanent datum
 TD  .F         2850.0000:   Total depth
 DATE.        26-JUL-1978:   Date logged
 CLNT.            A2DTECH:   Client Code
 SL  . 2640' FNL & 500' FWL:   Surface Location
 PD  .                 GL:   Permanent Datum
 DD  .F              2850:   Depth driller
 DL  .F              2838:   Depth logger
 BLI .F              2832:   Bottom log interval
 CS1 .IN            8.625:   Casing size
 CBD1.      8.625" @ 208':   Casing driller 1
 BS1 .IN            7.875:   Bit size
 DFT .            MUD/GEL:   Type fluid in hole
 DFD .                9.4:   Density
 DFV .                 37:   Viscosity
 DFPH.                 11:   pH
 TCS .HRS               4:   Time Circ. stopped
 LUN .               2958:   Logging unit number
 LUL .               CASP:   Logging unit location
 ENGI.             MILLER:   Recorded By
 WITN.           MCGINLEY:   Witnessed by
 ORIG.           5" PRINT:   Origin of data
 UWI .     49025106740000:   Unique Well ID
 DICO. A2D TECHNOLOGIES, INC.:   Digitizing Company
 DAPD.                 12:   Feet Above Permanent Datum
 BSD1.               3950:   Depth drilled with bit1
 MCSS.               CALC:   Source Rmc.
 TLI .F               230:   Top log interval
~OTHER INFORMATION
~A   DEPT       GRD      CALD       RHOB       CORR        SPR        ILD         SN   
# ...
 1927.0000    95.8510     7.9910     2.4690     0.2430   -38.3630     4.9960     6.1080
 1927.5000    95.8510     7.9920     2.4790     0.2400   -38.3690     5.1340     6.1200
 1928.0000    95.5600     7.9970     2.4890     0.2330   -38.3750     5.1340     6.1320
 1928.5000    94.9530     8.3140     2.4910     0.2310   -38.3810     5.1340     6.1440
 1929.0000    94.9800     8.0180     2.4900     0.2300   -38.3870     5.1340     6.1570
 1929.5000    97.0320     7.9620     2.4890     0.2290   -38.3930     5.2050     6.2190
 1930.0000   100.0480     7.9550     2.4950     0.2280   -38.3990     5.4170     6.3890
 1930.5000   102.6290     7.9460     2.5010     0.2270   -38.4050     5.6290     6.5690
 1931.0000   101.5690     7.9370     2.5060     0.2260   -38.4110     5.8420     6.8970
 1931.5000    99.5410     7.9410     2.5070     0.2250   -38.4180     6.0540     7.2450
 1932.0000    98.8700     7.9570     2.5080     0.2250   -38.4240     6.1960     7.5920
 1932.5000    99.1090     7.9740     2.5080     0.2240   -38.4300     6.3150     7.9570
 1933.0000    99.4200     7.9900     2.5100     0.2230   -38.4360     6.3880     7.9110
 1933.5000    97.4500     7.9930     2.5120     0.2230   -38.4420     6.3550     7.8300
 1934.0000    95.1390     7.9890     2.5150     0.2230   -38.4480     6.3330     7.7490
 1934.5000    94.1350     7.9850     2.5140     0.2240   -38.4540     6.3270     7.6680
 1935.0000    94.3800     7.9800     2.5060     0.2260   -38.4600     6.3080     7.6020
 1935.5000    94.2400     7.9760     2.4990     0.2270   -38.4660     6.2900     7.6020
 1936.0000    92.0700     7.9720     2.5000     0.2280   -38.4720     6.2760     7.6930
 1936.5000    90.3280     7.9670     2.5060     0.2290   -38.4780     6.2960     7.8080
 1937.0000    90.5270     7.9630     2.5110     0.2290   -38.4870     6.4000     7.9240
 1937.5000    90.6810     7.9590     2.5160     0.2310   -38.5620     6.5040     8.0400
 1938.0000    89.6910     7.9570     2.5120     0.2310   -38.6370     6.6080     8.1550
 1938.5000    88.0090     7.9590     2.5080     0.2320   -38.7120     6.7130     8.1780
 1939.0000    86.4120     7.9610     2.5080     0.2340   -38.7870     6.8170     8.1780
 1939.5000    85.8380     7.9630     2.5080     0.2350   -38.8610     6.9210     8.1780
 1940.0000    86.9640     7.9650     2.5060     0.2360   -38.9360     7.0020     8.2300
 1940.5000    88.8310     7.9660     2.5030     0.2360   -39.0110     6.9570     8.4700
 1941.0000    90.7230     7.9680     2.5000     0.2380   -39.0860     6.9190     8.7090
 1941.5000    91.5230     7.9700     2.4970     0.2390   -39.1600     6.8820     8.7970
 1942.0000    91.5290     7.9720     2.4990     0.2400   -39.2350     6.7040     8.5120
 1942.5000    91.5310     7.9740     2.5020     0.2430   -39.3100     6.4330     8.1880
 1943.0000    91.5470     7.9760     2.4990     0.2490   -39.3850     6.1620     7.8630
 1943.5000    91.5520     7.9760     2.4970     0.2500   -39.4580     5.8910     7.5620
 1944.0000    93.8710     7.9760     2.5010     0.2500   -39.3360     5.6200     7.2650
 1944.5000    98.0080     7.9760     2.4980     0.2500   -39.1840     5.4230     6.9680
 1945.0000   102.1760     7.9760     2.4870     0.2520   -39.0330     5.3740     6.6290
 1945.5000   104.0740     8.0020     2.4820     0.2570   -38.8810     5.3870     6.6450
 1946.0000   103.3240     8.1780     2.4880     0.2530   -38.7240     5.4000     6.6680
 1946.5000   102.4980     7.9070     2.5030     0.2420   -38.6970     5.4130     6.6900
 1947.0000   101.6500     7.7900     2.5120     0.2340   -38.7170     5.4230     6.8100
 1947.5000   100.8210     8.5540     2.5010     0.2340   -38.7390     5.4230     7.0020
 1948.0000   102.3410     7.9770     2.4900     0.2340   -38.7610     5.5410     6.9810
 1948.5000   104.0700     7.9830     2.4840     0.2340   -38.7830     5.6050     6.9350
 1949.0000   105.7960     7.9930     2.4850     0.2340   -38.8040     5.6760     6.8900
 1949.5000   107.5530     8.0120     2.4760     0.2330   -38.8260     5.6560     6.8450
 1950.0000   108.1920     8.0160     2.4700     0.2320   -38.8470     5.6250     6.8130
 1950.5000   108.1120     8.0160     2.4800     0.2310   -38.8690     5.6250     6.8950
 1951.0000   108.2860     8.0160     2.4880     0.2300   -38.8910     5.6900     6.9580
 1951.5000   109.1980     8.0160     2.4950     0.2290   -38.9120     5.8210     7.0670
 1952.0000   109.3180     8.0910     2.5020     0.2290   -38.9340     5.9410     7.1810
 1952.5000   107.2690     8.1090     2.5000     0.2290   -38.9560     5.8360     7.3450
 1953.0000   105.2320     8.0750     2.4990     0.2280   -38.9770     5.6830     7.3970
 1953.5000   103.4560     8.0790     2.5000     0.2250   -38.9990     5.5730     7.3590
 1954.0000   103.5230     8.0820     2.5130     0.2230   -39.0210     5.5730     7.2520
 1954.5000   103.5640     8.0850     2.5190     0.2230   -39.0420     5.5730     7.0020
 1955.0000   103.3040     8.0890     2.5120     0.2230   -39.0640     5.5730     6.8030
 1955.5000    96.1310     8.0920     2.5110     0.2230   -39.0680     5.3820     6.6200
 1956.0000    92.1840     8.0940     2.5200     0.2230   -39.0550     5.2050     6.4500
 1956.5000    91.7080     8.0940     2.5290     0.2230   -39.0420     5.0410     6.4340
 1957.0000    91.9540     8.0940     2.5300     0.2230   -39.0280     5.0410     6.4200
 1957.5000    93.8010     8.0940     2.5270     0.2220   -39.0150     5.0850     6.4050
 1958.0000    97.1730     8.0940     2.5170     0.2220   -39.0020     5.1260     6.4500
 1958.5000    99.2130     8.0940     2.5080     0.2230   -38.9880     5.1810     6.3930
 1959.0000    99.7040     8.0940     2.4990     0.2240   -38.9750     5.1480     6.3070
 1959.5000   100.5660     8.0940     2.4970     0.2250   -38.9620     5.0970     6.2210
 1960.0000   101.7440     8.0940     2.4930     0.2250   -38.9480     5.0470     6.1350
 1960.5000   106.5370     8.0950     2.4860     0.2240   -38.9350     4.9970     6.1060
 1961.0000   111.2320     8.0860     2.4790     0.2210   -38.9220     4.9500     6.1060
 1961.5000   116.0560     8.0570     2.4750     0.2230   -38.9090     4.9050     6.1060
 1962.0000   118.7010     7.9920     2.4590     0.2270   -38.8950     4.9050     6.1060
 1962.5000   118.6570     8.5830     2.4540     0.2280   -38.8820     4.9050     6.0340
 1963.0000   118.9810     8.1830     2.4630     0.2300   -38.8690     4.9050     5.9660
 1963.5000   119.5110     8.2730     2.4690     0.2320   -38.8550     4.8760     5.8980
 1964.0000   119.1370     8.2660     2.4690     0.2360   -38.8420     4.7570     5.8340
 1964.5000   118.7810     8.1350     2.4660     0.2400   -38.8290     4.6430     5.8230
 1965.0000   117.9500     8.2890     2.4620     0.2400   -38.8150     4.6430     5.8070
 1965.5000   116.8120     8.1550     2.4700     0.2350   -38.8020     4.6430     5.7900
 1966.0000   115.6910     8.1780     2.4820     0.2330   -38.7890     4.6430     5.7810
 1966.5000   115.6480     8.5350     2.4810     0.2350   -38.7760     4.6020     5.6620
 1967.0000   116.2230     8.1050     2.4780     0.2310   -38.7620     4.5380     5.5730
 1967.5000   119.9170     8.1770     2.4940     0.2270   -38.7490     4.4730     5.5830
 1968.0000   125.1950     8.3240     2.4970     0.2250   -38.7360     4.4360     5.5980
 1968.5000   129.6620     8.0520     2.4850     0.2240   -38.7220     4.4980     5.6130
 1969.0000   130.7400     8.4640     2.4750     0.2270   -38.7090     4.5970     5.6590
 1969.5000   127.8480     8.1620     2.4650     0.2290   -38.6960     4.6950     5.8110
 1970.0000   124.3680     8.1670     2.4590     0.2280   -38.6820     4.7940     5.9620
 1970.5000   120.8350     8.1830     2.4650     0.2270   -38.6730     4.8920     6.0510
 1971.0000   117.1940     8.4250     2.4700     0.2260   -38.6640     4.9500     6.0510
 1971.5000   114.8810     8.0770     2.4740     0.2250   -38.6540     5.1750     6.2180
 1972.0000   113.7120     8.2730     2.4740     0.2240   -38.6450     5.4680     6.7390
