~VERSION INFORMATION
 VERS.                2.0:   CWLS LOG ASCII STANDARD - VERSION 2.0
 WRAP.                 NO:   ONE LINE PER DEPTH STEP
~WELL INFORMATION
#MNEM.UNIT      DATA TYPE    INFORMATION
#----------   ------------   ------------------------------
 STRT.F          450.0000:   START DEPTH
 STOP.F         3098.0000:   STOP DEPTH
 STEP.F            0.5000:   STEP LENGTH
 NULL.          -999.2500:   NO VALUE
 COMP. FENIX & SCISSON - U.S NAVY:   COMPANY
 WELL. FENIX NPR 3 "AX" #11-33:   WELL
 FLD .              N P R:   FIELD
 LOC .      S33 T39N R78W:   LOCATION
 CNTY.            NATRONA:   COUNTY
 STAT.            WYOMING:   STATE
 CTRY. UNITED STATES OF AMERICA:   COUNTRY
 SRVC.              WELEX:   SERVICE COMPANY
 DATE.        12-MAR-1977:   LOGDATE
 API .     49025103210000:   API NUMBER
~CURVE INFORMATION
#MNEM.UNIT       API CODE    CURVE DESCRIPTION
#----------   ------------   ------------------------------
 DEPT.F                  :   
 CALD.IN     45 280 60 00:   CALIPER FROM DENSITY LOG
 GRD .GAPI   45 310 01 00:   GAMMA RAY FROM DENSITY LOG
 RHOB.G/C3   45 350 01 00:   BULK DENSITY
 CORR.G/C3   45 356 01 00:   DENSITY CORRECTION
 SPR .MV     07 010 01 00:   SPONTANEOUS POTENTIAL
 SGRD.MV     07 010 01 00:   SHALLOW GUARD RESISTIVITY
 ILD .OHMM   07 120 46 00:   DEEP INDUCTION RESISTIVITY
 ILM .OHMM   07 120 44 00:   INDUCTION LOG MEDIUM RESISTIVITY
~PARAMETER INFORMATION
#MNEM.UNIT          VALUE    DESCRIPTION
#----------   ------------   ------------------------------
 EKB .F         5133.0000:   Kelly bushing
 EGL .F         5122.0000:   Ground level
 TD  .F         3130.0000:   Total depth
 DATE.        12-MAR-1977:   Date logged
 CLNT.            A2DTECH:   Client Code
 SL  . 331' FNL & 430' FWL:   Surface Location
 PD  .                 GL:   Permanent Datum
 DD  .F              3130:   Depth driller
 DL  .F              3102:   Depth logger
 BLI .F              3100:   Bottom log interval
 CS1 .IN            8.625:   Casing size
 CBD1.      8.625" @ 459':   Casing driller 1
 CBL1.F               455:   Casing logger 1
 BS1 .IN            7.875:   Bit size
 DFT .                KCL:   Type fluid in hole
 DFD .                9.3:   Density
 DFV .                 36:   Viscosity
 DFL .               16.2:   Fluid loss
 MSS .           FLOWLINE:   Source of sample
 RMS .OHMM           0.37:   Rm
 MST .F                50:   Rm Meas. temp.
 RMF .OHMM           0.32:   Rmf
 MFST.F                55:   Rmf Meas. temp.
 RMC .OHMM           0.58:   Rmc
 MCST.F                55:   Rmc Meas. temp.
 MFSS.               MEAS:   Source Rmf.
 RMB .OHMM           .168:   Rm. at BHT
 BHT .F               110:   BHT.
 TCS .HRS               4:   Time Circ. stopped
 MRT .F               110:   Maximum recorded temp.
 LUN .               0716:   Logging unit number
 LUL .             VERNAT:   Logging unit location
 ENGI.        E. CALLAHAN:   Recorded By
 WITN.            K. JAPP:   Witnessed by
 ORIG.           5" PRINT:   Origin of data
 UWI .     49025103210000:   Unique Well ID
 DICO. A2D TECHNOLOGIES, INC.:   Digitizing Company
 DAPD.F                11:   Feet Above Permanent Datum
 BSD1.               3950:   Depth drilled with bit1
 MCSS.               CALC:   Source Rmc.
 EPD .F              5122:   Elevation Permanent Datum
 LMF .                 KB:   Log Measured From
 DMF .                 KB:   Drilling Measured From
 TLI .F               455:   Top log interval
~OTHER INFORMATION
~A   DEPT       CALD       GRD        RHOB      CORR       SPR       SGRD        ILD        ILM   
# ...
  612.0000     9.7564   109.3339     2.4743     0.0680   -60.1161    12.8390    10.1073    11.7110
  612.5000     9.7765   109.7330     2.4693     0.0680   -59.9283    12.7179    10.1056    11.8154
  613.0000     9.7569   109.5370     2.4584     0.0680   -59.7406    12.7144    10.0092    11.8121
  613.5000     9.7770   109.3410     2.4874     0.0760   -59.7505    12.5945     9.9142    11.3821
  614.0000     9.7971   107.7565     2.4634     0.0701   -59.9579    12.5910     9.8218    11.0692
  614.5000     9.8172   108.5523     2.4624     0.0701   -59.9678    12.3581     9.8202    10.9648
  615.0000     9.8174   109.5465     2.4584     0.0661   -59.9776    12.0183     9.8170    10.9624
  615.5000     9.8375   110.1919     2.4564     0.0621   -60.1851    11.6879     9.8132    10.9594
  616.0000     9.8776   106.1797     2.4575     0.0601   -59.9974    11.2618     9.9017    10.9558
  616.5000     9.8656   105.5870     2.4674     0.0602   -59.6120    12.0084     9.8984    10.6545
  617.0000     9.8535   105.7878     2.4535     0.0562   -59.8195    12.1160     9.8957    10.5546
  617.5000     9.8387   105.1951     2.4345     0.0522   -59.8293    12.0018     9.8935    10.4545
  618.0000     9.8388   105.1976     2.4405     0.0503   -60.0368    12.3343     9.9822    10.4528
  618.5000     9.8193   105.9934     2.4515     0.0483   -60.0467    12.4449     9.9795    10.4493
  619.0000     9.7997   106.7892     2.4425     0.0503   -60.0565    11.9919     9.9762    10.4465
  619.5000     9.7999   107.7833     2.4456     0.0543   -59.8688    11.5553     9.9734    10.4430
  620.0000     9.8001   109.1741     2.4546     0.0663   -60.0762    11.5522     9.9707    10.5366
  620.5000     9.8996   109.1764     2.4436     0.0504   -59.8885    11.4432     9.9680    10.5337
  621.0000     9.9197   109.5755     2.4386     0.0484   -59.8984    11.1286    10.0568    10.5314
  621.5000     9.9398   110.1729     2.4401     0.0404   -59.9082    11.0236    10.0551    10.4321
  622.0000     9.9599   111.3652     2.4411     0.0324   -59.9181    11.0206    10.0535    10.2390
  622.5000     9.9800   112.3593     2.4316     0.0345   -59.9279    10.9166     9.6859     9.9570
  623.0000     9.9802   113.1549     2.4503     0.0485   -60.1354    10.4229     9.3333     9.8636
  623.5000     9.9805   112.9589     2.4690     0.0685   -60.1453    10.4201     9.0772     9.7701
  624.0000    10.0006   113.3579     2.4906     0.0685   -60.1551    10.3223     8.7463     9.6784
  624.5000    10.0009   114.3519     2.4737     0.0565   -60.1650    10.3142     8.5840     9.5866
  625.0000    10.0012   115.3458     2.4337     0.0406   -59.9772    10.5034     8.4251     9.2382
  625.5000    10.0014   115.3481     2.4447     0.0386   -60.1847    10.5981     8.3461     9.1500
  626.0000    10.0215   116.3420     2.4547     0.0546   -59.9970    10.7920     8.2679     9.2331
  626.5000    10.0416   116.7405     2.4647     0.0586   -60.2044    10.6896     8.0397     9.2295
  627.0000    10.0617   116.9416     2.4797     0.0786   -60.0187    10.3958     7.9638     9.2280
  627.5000    10.0818   117.3401     2.4907     0.0726   -60.2241    10.1100     8.0353     9.2255
  628.0000    10.0820   119.3255     2.4717     0.0607   -60.0364     9.8320     7.9595     9.3072
  628.5000    10.0823   119.5260     2.4578     0.0607   -60.0463     9.6496     7.8122     9.3051
  629.0000    10.1024   119.9249     2.4688     0.0667   -60.0561     9.5586     7.7385     9.3025
  629.5000    10.1026   120.3238     2.4858     0.0787   -60.0660     9.8273     7.7335     9.2995
  630.0000    10.1227   120.3261     2.4968     0.1067   -60.2734     9.7346     7.7313     9.2969
  630.5000    10.1230   119.9317     2.4998     0.0868   -60.0857     9.4670     7.7292     9.2944
  631.0000    10.1034   120.1323     2.4868     0.0708   -60.0956     9.4644     7.7275     9.2928
  631.5000    10.1036   119.7384     2.4958     0.0648   -60.3030     9.6380     7.7254     9.2882
  632.0000    10.0642   118.9475     2.4748     0.0629   -60.7081     9.7239     7.7233     9.2872
  632.5000    10.0248   116.7686     2.4748     0.0549   -60.5203     9.7212     7.7207     9.2841
  633.0000    10.0053   116.1760     2.4669     0.0509   -60.3326     9.7186     7.8649     9.2816
  633.5000    10.0055   116.1784     2.4579     0.0509   -60.1449     9.7164     8.0088     9.1098
  634.0000     9.9859   116.5772     2.4749     0.0550   -60.1547     9.8036     8.0814     9.0249
  634.5000     9.9862   115.5881     2.4969     0.0630   -60.1646     9.9823     8.2284     8.9393
  635.0000     9.9865   115.3921     2.5129     0.0630   -60.1744     9.9796     8.2266     8.8545
  635.5000    10.0065   115.3945     2.4859     0.0690   -60.1843     9.9768     8.2238     8.9339
  636.0000     9.9870   113.8105     2.4989     0.0730   -60.1942     9.8827     8.2216     9.0973
  636.5000     9.9872   112.8215     2.4989     0.0750   -60.2040     9.8800     8.2202     9.0953
  637.0000    10.0073   111.0394     2.4869     0.0731   -60.2139    10.0613     8.2180     9.1763
  637.5000     9.9877   110.2486     2.5069     0.0891   -60.0262    10.6233     8.1396     9.1748
  638.0000     9.9880   110.2496     2.4950     0.0851   -60.4312    10.6216     8.0632     9.0873
  638.5000    10.0279   113.9375     2.4820     0.0651   -60.2435    10.2392     7.9867     8.8360
  639.0000     9.9687   117.1951     2.4920     0.0652   -60.2533    10.3315     7.9850     8.8350
  639.5000     9.9491   116.9991     2.5020     0.0792   -60.4608    10.7153     8.0570     8.8335
  640.0000     9.9097   115.8118     2.4830     0.0532   -60.4706    10.7124     8.1284     8.9941
  640.5000     9.9100   117.5999     2.4691     0.0473   -60.4805    10.7094     8.5087     9.2433
  641.0000     9.7913   116.6095     2.4611     0.0433   -60.2928    11.0067     8.6644     9.6758
  641.5000     9.7718   113.0436     2.4541     0.0453   -60.1050    11.5211     8.9049    10.0364
  642.0000     9.7522   112.6495     2.4581     0.0473   -60.1149    11.7319     9.1511    10.3145
  642.5000     9.7326   113.0483     2.4641     0.0473   -60.1248    11.8371     9.4052    10.9970
  643.0000     9.6932   114.0419     2.4636     0.0394   -60.1346    11.6180     9.6657    11.3017
  643.5000     9.6539   113.4495     2.4701     0.0394   -60.1445    11.4030     9.7518    11.4043
  644.0000     9.6739   112.8571     2.4502     0.0454   -60.1543    11.2955     9.8393    11.5053
  644.5000     9.6742   113.4542     2.4432     0.0295   -59.9666    11.2930     9.9281    11.5027
  645.0000     9.7339   114.6459     2.4362     0.0255   -60.1741    11.2893     9.9248    11.0834
  645.5000     9.7738   116.2337     2.4302     0.0255   -60.1839    11.2862     9.9220    10.3886
  646.0000     9.8336   117.2268     2.4492     0.0435   -60.1938    11.2831     9.9199    10.2912
  646.5000     9.9131   115.8423     2.4273     0.0276   -60.0060    11.2800     9.9171    10.2895
  647.0000     9.9332   115.2499     2.4413     0.0336   -60.0159    11.2775     9.8236    10.0980
  647.5000     9.9136   115.2523     2.4533     0.0396   -60.0258    11.2738     9.6413    10.0952
  648.0000     9.9139   114.8581     2.4593     0.0366   -60.4308    11.2707     9.5503    10.0924
  648.5000     9.9142   115.2569     2.4713     0.0346   -60.0455    11.2676     9.5488    10.0902
  649.0000     9.9342   115.2592     2.4603     0.0397   -60.0553    10.9526     9.2852    10.0874
  649.5000     9.9345   115.6580     2.4728     0.0397   -60.0652    10.8499     9.1139    10.0841
  650.0000     9.9347   114.8674     2.4633     0.0397   -60.6679    10.7476     8.8628    10.0813
  650.5000     9.9548   114.6715     2.4473     0.0317   -60.1056    10.7444     8.7024    10.0782
  651.0000     9.9551   114.0801     2.4404     0.0317   -60.0876    10.7408     8.5329    10.0750
  651.5000     9.9553   114.8744     2.4494     0.0318   -60.0936    10.7381     8.4531    10.1649
  652.0000     9.9754   115.8678     2.4324     0.0278   -60.0995    10.7340     8.2996    10.1623
