~VERSION INFORMATION
 VERS.                2.0:   CWLS LOG ASCII STANDARD - VERSION 2.0
 WRAP.                 NO:   ONE LINE PER DEPTH STEP
~WELL INFORMATION
#MNEM.UNIT      DATA TYPE    INFORMATION
#----------   ------------   ------------------------------
 STRT.F         3500.0000:   START DEPTH
 STOP.F         6855.0000:   STOP DEPTH
 STEP.F            0.5000:   STEP LENGTH
 NULL.          -999.2500:   NO VALUE
 COMP.          U.S. NAVY:   COMPANY
 WELL.  US NAVY "G" #1-10:   WELL
 FLD . TEAPOT NAVAL RESERVE:   FIELD
 LOC .      S10 T38N R78W:   LOCATION
 CNTY.            NATRONA:   COUNTY
 STAT.            WYOMING:   STATE
 CTRY. UNITED STATES OF AMERICA:   COUNTRY
 SRVC.         LANE WELLS:   SERVICE COMPANY
 DATE.        23-MAR-1952:   LOGDATE
 API .     49025063380000:   API NUMBER
~CURVE INFORMATION
#MNEM.UNIT       API CODE    CURVE DESCRIPTION
#----------   ------------   ------------------------------
 DEPT.F                  :   
 GRN .GAPI   35 310 01 00:   GAMMA RAY
 NEUT.NAPI   35 330 01 00:   NEUTRON
~PARAMETER INFORMATION
#MNEM.UNIT          VALUE    DESCRIPTION
#----------   ------------   ------------------------------
 EKB .F         5195.0000:   Kelly bushing
 EGL .F         5184.0000:   Ground level
 EDF .F         5195.0000:   Drilling floor
 EPD .F            0.0000:   Permanent datum
 TD  .F         6861.0000:   Total depth
 CLNT.            A2DTECH:   Client Code
 PD  .                 GL:   Permanent Datum
 DATE.        23-MAR-1952:   Date Logged [DD-MMM-YYYY]
 DD  .F              6861:   Depth driller
 DL  .F              6861:   Depth logger
 BLI .F              6855:   Bottom log interval
 TLI .F              3500:   Top log interval
 BSD1.F              6861:   Depth drilled with bit1
 DFT .                MUD:   Type fluid in hole
 ENGI.            GAMBERG:   Recorded By
 WITN.           GRIBBENS:   Witnessed by
 ORIG.         2.5" PRINT:   Origin of data
 UWI .     49025063380000:   Unique Well ID
 DICO. A2D TECHNOLOGIES, INC.:   Digitizing Company
~OTHER INFORMATION
~A  DEPT       GRN        NEUT  
# ...
 4350.5000    42.9484   287.6681
 4351.0000    44.1684   275.3342
 4351.5000    45.1451   270.2761
 4352.0000    45.8785   287.8045
 4352.5000    46.3686   292.6535
 4353.0000    46.0631   287.7271
 4353.5000    45.0676   301.5638
 4354.0000    44.4326   322.9118
 4354.5000    45.2971   340.8974
 4355.0000    46.9832   354.4468
 4355.5000    48.6589   359.3969
 4356.0000    50.5310   302.6185
 4356.5000    51.7510   238.4328
 4357.0000    52.7277   189.0619
 4357.5000    52.9745   174.0930
 4358.0000    52.9961   167.3641
 4358.5000    53.3088   147.7142
 4359.0000    54.9504   168.1058
 4359.5000    56.6646   234.5475
 4360.0000    58.3127   274.7375
 4360.5000    59.4597   273.1010
 4361.0000    59.0827   260.7671
 4361.5000    58.6002   258.3098
 4362.0000    57.1438   275.6055
 4362.5000    52.7677   290.4321
 4363.0000    50.0544   300.3204
 4363.5000    49.6117   286.6092
 4364.0000    50.1022   267.9490
 4364.5000    48.3758   251.6001
 4365.0000    46.3748   250.6652
 4365.5000    45.7803   275.1874
 4366.0000    49.3875   300.3971
 4366.5000    52.0674   315.2237
 4367.0000    53.2874   320.1738
 4367.5000    54.0208   297.9633
 4368.0000    50.8423   280.6912
 4368.5000    50.3449   286.5224
 4369.0000    49.7222   302.0446
 4369.5000    47.5431   313.5846
 4370.0000    45.2798   309.3827
 4370.5000    46.1583   304.2275
 4371.0000    47.7208   307.9284
 4371.5000    48.2109   332.6315
 4372.0000    45.5380   354.8655
 4372.5000    44.7930   367.2230
 4373.0000    45.5450   364.7657
 4373.5000    44.9738   349.7004
 4374.0000    43.6055   340.0979
 4374.5000    45.8664   351.1769
 4375.0000    47.7085   362.3406
 4375.5000    48.1143   371.8761
 4376.0000    47.8121   378.4677
 4376.5000    49.4640   359.9159
 4377.0000    49.9541   332.7672
 4377.5000    49.7143   303.1493
 4378.0000    48.7415   308.0994
 4378.5000    48.0181   310.5803
 4379.0000    49.6808   289.8317
 4379.5000    51.4084   264.4472
 4380.0000    52.1648   238.1809
 4380.5000    50.8316   209.8899
 4381.0000    49.2537   175.5212
 4381.5000    48.2840   154.8715
 4382.0000    49.5040   145.2367
 4382.5000    48.7776   132.9028
 4383.0000    47.0779   142.7912
 4383.5000    45.8431   160.0869
 4384.0000    45.6250   182.5679
 4384.5000    46.4975   227.9846
 4385.0000    47.6723   286.5544
 4385.5000    48.4298   339.9121
 4386.0000    48.1363   390.1716
 4386.5000    45.1575   400.8506
 4387.0000    43.7011   403.5641
 4387.5000    42.7314   389.8168
 4388.0000    41.7616   370.0755
 4388.5000    40.7745   330.5811
 4389.0000    40.9611   296.0250
 4389.5000    42.6980   270.9425
 4390.0000    43.4793   250.6203
 4390.5000    43.2397   241.1803
 4391.0000    44.1413   239.2821
 4391.5000    46.6539   241.7654
 4392.0000    48.1172   238.0590
 4392.5000    48.1553   224.5085
 4393.0000    47.3942   212.1747
 4393.5000    44.6676   199.8408
 4394.0000    42.3860   189.9760
 4394.5000    40.3472   175.1730
 4395.0000    38.3939   180.7900
 4395.5000    36.8659   198.2074
 4396.0000    37.0212   199.8997
 4396.5000    39.3911   197.4424
 4397.0000    40.8545   218.0060
 4397.5000    42.5611   234.6674
 4398.0000    44.2677   232.0516
 4398.5000    45.4878   224.6560
 4399.0000    43.9983   222.1975
 4399.5000    44.9372   219.7407
 4400.0000    46.3096   217.2840
 4400.5000    45.6227   206.9644
 4401.0000    45.4890   194.1674
 4401.5000    48.1857   182.0613
 4402.0000    50.3920   177.8250
 4402.5000    50.6424   197.8938
 4403.0000    49.9147   210.2464
 4403.5000    49.4315   225.0742
 4404.0000    50.6599   248.4657
 4404.5000    49.8406   268.9706
 4405.0000    48.6469   276.9836
 4405.5000    48.8147   271.0685
 4406.0000    49.6931   261.0314
 4406.5000    50.4462   249.3391
 4407.0000    51.1868   232.3228
 4407.5000    51.4371   207.5467
 4408.0000    50.4650   192.6715
 4408.5000    48.5148   162.9449
 4409.0000    46.5543   153.0198
 4409.5000    46.0483   148.7988
 4410.0000    46.3325   109.8969
 4410.5000    45.6886    88.6195
 4411.0000    44.7740    76.5678
 4411.5000    44.5126    67.4544
 4412.0000    43.9131    56.3321
 4412.5000    44.8969    53.8327
 4413.0000    46.1253    66.1854
 4413.5000    47.8426   103.2907
 4414.0000    49.5599   157.7226
 4414.5000    50.8105   202.9400
 4415.0000    51.2836   207.1806
 4415.5000    51.8062   210.1890
 4416.0000    54.6236   227.5266
 4416.5000    58.0024   249.3771
 4417.0000    59.6525   273.9065
 4417.5000    60.8506   303.5860
 4418.0000    61.3455   310.9901
 4418.5000    58.4173   291.1627
 4419.0000    55.7337   296.3534
 4419.5000    55.0060   304.6819
 4420.0000    57.0333   322.1163
 4420.5000    56.0933   325.7222
 4421.0000    51.2841   309.6498
 4421.5000    50.6284   315.7625
 4422.0000    50.6357   328.1152
 4422.5000    49.4205   335.5175
 4423.0000    46.7368   337.9692
 4423.5000    44.7867   345.5244
 4424.0000    45.7705   374.0736
 4424.5000    48.4658   406.7344
 4425.0000    49.9389   454.1876
 4425.5000    49.7000   526.0774
 4426.0000    49.4386   633.7689
 4426.5000    47.4862   805.6147
 4427.0000    46.0688   914.5021
 4427.5000    44.4261   997.4515
 4428.0000    42.6416  1104.0208
 4428.5000    38.6688  1275.6334
 4429.0000    37.1683  1381.8143
 4429.5000    35.5288  1444.0798
 4430.0000    34.0834  1474.0985
 4430.5000    32.7427  1485.7778
 4431.0000    30.5457  1498.4686
 4431.5000    29.0822  1484.7096
 4432.0000    30.0637  1461.3483
 4432.5000    31.0664  1426.6041
 4433.0000    32.0632  1359.7490
 4433.5000    30.7375  1330.0226
 4434.0000    28.0085  1280.4941
 4434.5000    26.9155  1222.9437
 4435.0000    26.1743  1184.7308
 4435.5000    25.9333  1164.1962
 4436.0000    27.1593  1151.6873
 4436.5000    28.8742  1161.5594
 4437.0000    29.6112  1165.6907
 4437.5000    28.8200  1181.3080
 4438.0000    28.1512  1206.0369
 4438.5000    27.8271  1233.2412
 4439.0000    27.8898  1262.9207
 4439.5000    28.9243  1295.1201
 4440.0000    29.8783  1347.5247
 4440.5000    29.6373  1373.8354
 4441.0000    28.6628  1389.0642
 4441.5000    28.4218  1386.6564
 4442.0000    29.2573  1408.8075
 4442.5000    31.6076  1438.4871
 4443.0000    31.5338  1468.1664
 4443.5000    31.3704  1492.8955
 4444.0000    31.9934  1548.2518
 4444.5000    33.0899  1570.7710
 4445.0000    32.1153  1584.4091
 4445.5000    33.0968  1577.2968
 4446.0000    34.5673  1519.2666
 4446.5000    36.0923  1450.6635
 4447.0000    37.9321  1368.9568
 4447.5000    40.5287  1289.7253
 4448.0000    44.8041  1245.1475
 4448.5000    48.9069  1170.3151
 4449.0000    55.1278  1074.5356
 4449.5000    59.0433   965.3701
 4450.0000    65.1592   759.9010
 4450.5000    69.0747   657.2224
 4451.0000    73.8118   599.1438
 4451.5000    77.3440   557.1772
 4452.0000    80.6083   503.4939
 4452.5000    84.8277   474.9608
 4453.0000    89.7168   465.1938
 4453.5000    96.7256   460.2198
 4454.0000   100.1878   440.3943
 4454.5000   102.9806   408.1926
 4455.0000   110.9118   371.4980
 4455.5000   118.3793   297.8575
 4456.0000   122.9222   254.0627
 4456.5000   127.8719   218.2232
 4457.0000   130.2475   194.0062
 4457.5000   130.9845   180.3171
 4458.0000   128.7875   190.1946
 4458.5000   126.8229   207.4978
 4459.0000   124.3934   232.2268
 4459.5000   124.4523   254.7451
 4460.0000   125.0530   275.5816
 4460.5000   125.4908   284.1365
 4461.0000   126.1444   279.1584
 4461.5000   124.4126   277.7789
 4462.0000   119.5261   281.8853
 4462.5000   112.6836   303.8327
 4463.0000   108.7751   333.5122
 4463.5000   104.2419   387.9442
 4464.0000    99.6554   447.3266
 4464.5000    96.3173   483.3306
 4465.0000    91.4308   509.6474
 4465.5000    89.4782   559.3619
 4466.0000    90.2152   611.9539
 4466.5000    87.6249   664.3204
 4467.0000    83.7518   704.5995
 4467.5000    80.4064   724.3781
 4468.0000    78.2011   754.0575
 4468.5000    77.1508   796.1132
 4469.0000    77.2794   788.1348
 4469.5000    77.7719   769.7228
 4470.0000    79.4868   748.1815
 4470.5000    83.1578   716.8578
 4471.0000    88.6128   667.8566
 4471.5000    91.7879   605.3665
