~VERSION INFORMATION
 VERS.                2.0:   CWLS LOG ASCII STANDARD - VERSION 2.0
 WRAP.                 NO:   ONE LINE PER DEPTH STEP
~WELL INFORMATION
#MNEM.UNIT      DATA TYPE    INFORMATION
#----------   ------------   ------------------------------
 STRT.F            4.0000:   START DEPTH
 STOP.F         5696.0000:   STOP DEPTH
 STEP.F            0.5000:   STEP LENGTH
 NULL.          -999.2500:   NO VALUE
 COMP.       FLUOR DANIEL:   COMPANY
 WELL.   FLUOR "X" #72-10:   WELL
 FLD .             NPR #3:   FIELD
 LOC .      S10 T38N R78W:   LOCATION
 CNTY.            NATRONA:   COUNTY
 STAT.            WYOMING:   STATE
 CTRY. UNITED STATES OF AMERICA:   COUNTRY
 SRVC.      WESTERN ATLAS:   SERVICE COMPANY
 DATE.        26-SEP-1996:   LOGDATE
 API .     49025228080000:   API NUMBER
~CURVE INFORMATION
#MNEM.UNIT       API CODE    CURVE DESCRIPTION
#----------   ------------   ------------------------------
 DEPT.F                  :   
 GRR .GAPI   07 310 01 00:   GAMMA RAY FROM RESISTIVITY
 SPR .MV     07 010 01 00:   SPONTANEOUS POTENTIAL
 CALR.IN     07 280 01 00:   CALIPER FROM RESISTIVITY
 RD  .OHMM   07 220 10 00:   RESISTIVITY DEEP
 RS  .OHMM   07 220 09 00:   RESISTIVITY SHALLOW
 TENR.LBS    07 635 01 00:   TENSION FROM RESISTIVITY
~PARAMETER INFORMATION
#MNEM.UNIT          VALUE    DESCRIPTION
#----------   ------------   ------------------------------
 EKB .F         5178.0000:   Kelly bushing
 EGL .F         5168.0000:   Ground level
 EDF .F         5177.0000:   Drilling floor
 TD  .F         5698.0000:   Total depth
 CLNT.            A2DTECH:   Client Code
 SL  . 687' FNL & 1002' FEL:   Surface Location
 PD  .                 GL:   Permanent Datum
 EPD .F              5168:   Elevation Permanent Datum
 LMF .                 KB:   Log Measured From
 DMF .                 KB:   Drilling Measured From
 DAPD.F                10:   Feet Above Permanent Datum
 DATE.        26-SEP-1996:   Date Logged [DD-MMM-YYYY]
 DD  .F              5698:   Depth driller
 DL  .F              5697:   Depth logger
 BLI .F              5685:   Bottom log interval
 CS1 .IN            9.625:   Casing size
 CBD1.      9.625" @ 526':   Casing driller 1
 CBL1.F               526:   Casing logger 1
 BS1 .IN             8.75:   Bit size
 BSD1.F              5698:   Depth drilled with bit1
 DFT .               CHEM:   Type fluid in hole
 DFD .                9.1:   Density
 DFV .                 60:   Viscosity
 DFPH.                9.5:   pH
 DFL .                7.6:   Fluid loss
 MSS .               CIRC:   Source of sample
 RMS .OHMM           0.82:   Rm
 MST .F                64:   Rm Meas. temp.
 RMF .OHMM           0.64:   Rmf
 MFST.F                64:   Rmf Meas. temp.
 MFSS.               CALC:   Source Rmf.
 RMC .OHMM           1.08:   Rmc
 MCST.F                64:   Rmc Meas. temp.
 MCSS.               CALC:   Source Rmc.
 RMB .OHMM           0.29:   Rm. at BHT
 BHT .F               183:   BHT.
 TCS .HRS               5:   Time Circ. stopped
 MRT .F               183:   Maximum recorded temp.
 LUN .            HL-6530:   Logging unit number
 LUL .             CASPER:   Logging unit location
 ENGI.           BROWNLOW:   Recorded By
 ORIG.        2" 5" PRINT:   Origin of data
 UWI .     49025228080000:   Unique Well ID
 WITN.              HARDY:   Witnessed by
 DICO. A2D TECHNOLOGIES, INC.:   Digitizing Company
~OTHER INFORMATION
~A  DEPTH      GRR        SPR       CALR         RD         RS       TENR
# ...
 2240.0000    84.3997   -57.8614     9.1243     6.5569     6.4131    -4.1159
 2240.5000    90.7503   -57.8426     9.1105     6.2046     6.2396    -4.0455
 2241.0000   102.5290   -57.5259     9.1120     7.1301     6.6765   -27.3832
 2241.5000   105.2651   -57.5104     9.1097     7.7510     7.9048   -33.8898
 2242.0000   104.0856   -57.3404     9.0992     8.3098     8.3584   -26.3056
 2242.5000   100.0952   -57.3249     9.0859     8.3043     8.4779   -26.2353
 2243.0000    95.7088   -57.1588     9.0871     7.8115     7.6966   -33.6612
 2243.5000    94.8305   -57.1431     9.0883     7.3407     6.9867   -33.5732
 2244.0000    96.9643   -57.1240     9.0897     6.6632     6.4308   -41.0167
 2244.5000   105.1284   -57.1085     9.0913     5.8831     6.0398   -48.4258
 2245.0000   109.0694   -57.0930     9.0926     5.3032     5.2997   -48.3370
 2245.5000   113.3116   -57.0736     9.0938     4.9149     4.9462   -48.2667
 2246.0000   117.0325   -57.0581     9.0954     4.7817     4.8120   -40.7001
 2246.5000   121.8023   -57.0426     9.0812     5.6105     5.1795   -33.1179
 2247.0000   123.0261   -57.1777     9.0674     6.5825     6.6257   -18.0530
 2247.5000   116.1300   -57.1584     9.0538     8.3811     8.6865   -25.4789
 2248.0000   109.8364   -57.2974     9.0399    10.7561    10.1921   -32.9224
 2248.5000   109.2530   -57.2780     9.0415    11.6889    11.3141   -40.3307
 2249.0000   112.5979   -57.5637     9.0428    11.5280    10.2705   -40.2427
 2249.5000   116.8694   -57.8455     9.0289    10.2467     8.5194   -32.6761
 2250.0000   120.8476   -57.9845     9.0457     8.4981     7.6801   -25.1095
 2250.5000   125.3992   -57.8145     9.0621     7.2964     6.7346    -9.3281
 2251.0000   136.6024   -57.4940     9.0937     6.6217     6.3732    -2.4800
 2251.5000   145.3837   -57.1773     9.0953     6.3520     6.4643   -24.8808
 2252.0000   151.4459   -57.1618     9.1117     6.6678     6.8906   -47.2992
 2252.5000   155.3933   -56.9955     9.1281     6.9509     6.9813   -47.2264
 2253.0000   155.0342   -56.8257     9.1597     6.6848     6.3820   -39.6447
 2253.5000   152.4170   -56.8102     9.2068     5.2316     5.3307   -32.0780
 2254.0000   151.5306   -56.4935     9.2383     4.1334     3.7441   -32.0077
 2254.5000   149.7379   -56.3235     9.2851     3.4758     3.2827   -31.9197
 2255.0000   144.4722   -56.3080     9.3177     3.3112     3.4235   -31.8494
 2255.5000   131.3537   -56.2926     9.3485     3.4518     3.6706   -31.7790
 2256.0000   122.9144   -56.4277     9.3650     3.6740     3.9086   -24.2124
 2256.5000   118.1005   -56.7095     9.3662     3.8834     3.8560   -31.6383
 2257.0000   115.4015   -56.8446     9.3678     3.9650     3.7517   -31.5504
 2257.5000   115.4264   -56.9836     9.3691     3.7773     3.7556   -38.9939
 2258.0000   116.0505   -57.1286     9.3549     3.7253     3.9412   -46.4022
 2258.5000   116.3726   -57.2499     9.3414     3.8300     4.0534   -53.8280
 2259.0000   113.0407   -57.3850     9.3430     3.9939     4.1400   -61.2539
 2259.5000   109.4688   -57.2151     9.3288     4.1911     4.1992   -68.6798
 2260.0000   106.7697   -56.8945     9.3446     4.3089     4.1715   -76.0881
 2260.5000   104.6748   -56.5778     9.3440     4.3690     4.0873   -68.5039
 2261.0000   103.7884   -56.5623     9.3434     4.3383     4.0323   -68.4336
 2261.5000   105.3239   -56.5467     9.3428     4.3089     3.9505   -60.8670
 2262.0000   106.5523   -56.3768     9.3422     4.3089     3.8440   -45.8021
 2262.5000   105.3638   -56.2107     9.3416     4.3388     3.7920   -30.7236
 2263.0000   104.1752   -56.0446     9.3410     4.3388     3.8204   -30.6533
 2263.5000   103.5910   -55.8780     9.3404     4.3690     4.0116   -30.5829
 2264.0000   101.8032   -55.8592     9.3398     4.4300     4.1545   -30.4950
 2264.5000   100.6097   -56.1488     9.3392     4.6502     4.2432   -37.9385
 2265.0000   103.3536   -56.4307     9.3386     4.9153     4.3338   -52.8430
 2265.5000   106.3997   -56.4112     9.3380     5.0886     4.3654   -60.2699
 2266.0000   106.1125   -56.5502     9.3374     5.1240     4.1602   -75.1910
 2266.5000   105.8304   -56.6853     9.3368     4.9495     3.8827   -82.6169
 2267.0000   107.3659   -56.6657     9.3362     4.6825     3.5990   -45.0477
 2267.5000   108.2971   -56.6466     9.3356     4.3994     3.4774   -29.9848
 2268.0000   105.9001   -56.6311     9.3350     4.1911     3.4069   -37.3932
 2268.5000   103.8053   -56.6156     9.3344     3.9926     3.3379   -52.3329
 2269.0000   104.1273   -56.5962     9.3338     3.8566     3.2254   -59.7588
 2269.5000   106.8713   -56.5807     9.3332     3.8035     3.1818   -59.6702
 2270.0000   109.9124   -56.4146     9.3326     3.7773     3.1831   -67.0967
 2270.5000   111.7450   -56.2485     9.3320     3.8035     3.2526   -59.5125
 2271.0000   111.7649   -56.2292     9.3314     3.8566     3.2978   -59.4422
 2271.5000   111.1418   -56.2137     9.3308     3.8834     3.3218   -59.3703
 2272.0000   110.5963   -56.1982     9.3302     3.8566     3.2999   -59.2839
 2272.5000   110.0170   -56.1822     9.3296     3.7253     3.0438   -59.2135
 2273.0000   109.4320   -56.1633     9.3295     3.4518     2.6250   -59.1432
 2273.5000   108.8177   -55.8466     9.3306     2.9533     2.2039   -59.0705
 2274.0000   107.9620   -55.8311     9.3317     2.6161     2.1288   -58.9848
 2274.5000   112.8208   -55.5105     9.3325     2.7084     2.3136   -58.9145
 2275.0000   115.2576   -55.3444     9.3334     3.0051     2.7137   -51.3479
 2275.5000   114.3712   -55.0277     9.3342     3.4593     3.0322   -43.7637
 2276.0000   116.5109   -54.8617     9.3353     3.6995     2.9697   -28.7008
 2276.5000   117.4322   -55.1435     9.3208     3.4518     2.8685   -36.1267
 2277.0000   115.0402   -55.3807     9.3065     3.3343     2.7900   -43.5532
 2277.5000   111.9767   -55.6620     9.3076     3.3575     2.8094   -35.9684
 2278.0000   109.0378   -56.0818     9.3238     3.4758     2.8487   -28.4018
 2278.5000   110.8754   -56.0676     9.3398     3.5489     2.8685   -20.8352
 2279.0000   116.0313   -56.2076     9.3558     3.5735     2.8487   -28.3234
 2279.5000   116.9577   -56.3404     9.3567     3.5238     2.8094   -50.6618
 2280.0000   115.1698   -56.4769     9.3577     3.4758     2.7707   -58.1053
 2280.5000   110.6580   -56.6133     9.3586     3.4518     2.7707   -65.5312
 2281.0000   107.9589   -56.5955     9.3441     3.4758     2.7900   -80.4358
 2281.5000   106.1662   -56.7319     9.3452     3.5000     2.8094   -87.8617
 2282.0000   106.4932   -56.8683     9.3614     3.5244     2.8094   -87.7737
 2282.5000   108.3258   -57.0047     9.3622     3.5489     2.8094   -72.7109
 2283.0000   109.2521   -56.8364     9.3479     3.5984     2.7707   -57.6462
 2283.5000   108.9698   -56.8222     9.3488     3.5984     2.6949   -50.0638
 2284.0000   109.5991   -56.6538     9.3345     3.5000     2.6578   -42.4972
 2284.5000   111.7338   -56.3384     9.3355     3.4758     2.6578   -27.4343
 2285.0000   113.5665   -56.0266     9.3516     3.5000     2.7326   -27.3464
 2285.5000   114.1906   -56.4608     9.3524     3.5489     2.7326   -27.2760
 2286.0000   113.9084   -56.2923     9.3838     3.5000     2.6746   -27.2056
 2286.5000   115.7460   -55.9769     9.3998     3.4518     2.7137   -27.1353
 2287.0000   117.2766   -55.8121     9.4006     3.6995     2.8685   -27.0473
 2287.5000   117.2965   -55.7979     9.4015     3.9926     3.0745   -26.9770
 2288.0000   111.8833   -55.4819     9.4177     4.3388     3.3220   -26.9066
 2288.5000   108.8821   -55.4647     9.4186     4.4300     3.3646   -26.8363
 2289.0000   107.9957   -55.2999     9.4194     3.6995     2.9697   -26.7483
 2289.5000   108.9220   -55.2696     9.4203     3.3575     2.6394   -26.6780
 2290.0000   110.8773   -55.2914     9.4214     3.0414     2.3590   -26.6076
 2290.5000   116.2176   -55.4080     9.4222     2.9637     2.2503   -26.5367
 2291.0000   118.9566   -55.6950     9.4231     2.9637     2.3622   -33.9455
 2291.5000   119.2786   -55.6772     9.4239     3.0051     2.4626   -33.8752
