~VERSION INFORMATION
 VERS.                2.0:   CWLS LOG ASCII STANDARD - VERSION 2.0
 WRAP.                 NO:   ONE LINE PER DEPTH STEP
~WELL INFORMATION
#MNEM.UNIT      DATA TYPE    INFORMATION
#----------   ------------   ------------------------------
 STRT.F          200.0000:   START DEPTH
 STOP.F         3135.5000:   STOP DEPTH
 STEP.F            0.5000:   STEP LENGTH
 NULL.          -999.2500:   NO VALUE
 COMP.    FENOX & SCISSON:   COMPANY
 WELL. FENIX NPR 23 "AX" #3-11:   WELL
 FLD .                NPR:   FIELD
 LOC .      S11 T38N R78W:   LOCATION
 CNTY.            NATRONA:   COUNTY
 STAT.            WYOMING:   STATE
 CTRY. UNITED STATES OF AMERICA:   COUNTRY
 SRVC.       SCHLUMBERGER:   SERVICE COMPANY
 DATE.        06-NOV-1977:   LOGDATE
 API .     49025104320000:   API NUMBER
~CURVE INFORMATION
#MNEM.UNIT       API CODE    CURVE DESCRIPTION
#----------   ------------   ------------------------------
 DEPT.F                  :   
 CALD.IN     45 280 60 00:   CALIPER FROM DENSITY LOG
 GRD .GAPI   45 310 01 00:   GAMMA RAY FROM DENSITY LOG
 RHOB.G/C3   45 350 01 00:   BULK DENSITY
 CORR.G/C3   45 356 01 00:   DENSITY CORRECTION
 SPR .MV     07 010 01 00:   SPONTANEOUS POTENTIAL
 LL8 .OHMM   07 220 08 00:   LATEROLOG-8 RES.
 ILD .OHMM   07 120 46 00:   DEEP INDUCTION RESISTIVITY
 ILM .OHMM   07 120 44 00:   INDUCTION LOG MEDIUM RESISTIVITY
~PARAMETER INFORMATION
#MNEM.UNIT          VALUE    DESCRIPTION
#----------   ------------   ------------------------------
 EKB .F         5176.0000:   Kelly bushing
 EGL .F         5171.0000:   Ground level
 TD  .F         3138.0000:   Total depth
 DATE.        06-NOV-1977:   Date logged
 CLNT.            A2DTECH:   Client Code
 SL  . 1650' FNL & 750' FWL:   Surface Location
 PD  .                 GL:   Permanent Datum
 EPD .F              5171:   Elevation Permanent Datum
 LMF .                 KB:   Log Measured From
 DMF .                 KB:   Drilling Measured From
 DAPD.F                 5:   Feet Above Permanent Datum
 DD  .F              3138:   Depth driller
 DL  .F              3135:   Depth logger
 BLI .F              3134:   Bottom log interval
 TLI .F               196:   Top log interval
 CS1 .IN            8.625:   Casing size
 CBD1.      8.625" @ 205':   Casing driller 1
 CBL1.F               205:   Casing logger 1
 BS1 .IN            7.875:   Bit size
 BSD1.F              3138:   Depth drilled with bit1
 DFT .            KCL/MUD:   Type fluid in hole
 DFD .                8.8:   Density
 DFV .                 34:   Viscosity
 DFPH.                 11:   pH
 DFL .                  6:   Fluid loss
 MSS .            MUD/PIT:   Source of sample
 RMS .OHMM           0.27:   Rm
 MST .F                48:   Rm Meas. temp.
 RMF .OHMM           0.29:   Rmf
 MFST.F                48:   Rmf Meas. temp.
 RMC .OHMM           0.39:   Rmc
 MCST.F                48:   Rmc Meas. temp.
 MFSS.               MEAS:   Source Rmf.
 MCSS.               CALC:   Source Rmc.
 RMB .OHMM           0.12:   Rm. at BHT
 BHT .F               104:   BHT.
 TCS .HRS            1500:   Time Circ. stopped
 TLAB.HRS            1930:   Time logger at bottom
 MRT .F               104:   Maximum recorded temp.
 LUN .               7711:   Logging unit number
 LUL .               CSPR:   Logging unit location
 ENGI.       CRAIG/SAYLER:   Recorded By
 WITN.         PETTINGILL:   Witnessed by
 ORIG.           5" PRINT:   Origin of data
 UWI .     49025104320000:   Unique Well ID
 DICO. A2D TECHNOLOGIES, INC.:   Digitizing Company
~OTHER INFORMATION
~A   DEPT     CALD        GRD       RHOB       CORR        SPR        LL8        ILD        ILM   
# ...
 1739.0000     8.3264   107.0969     2.5737     0.0107   -97.0615     8.8481     9.3497     8.5288
 1739.5000     8.3264   106.7971     2.5667     0.0027   -97.2637     8.8863     9.1788     8.5280
 1740.0000     8.3265   107.3998     2.5557     0.0116   -97.2647     8.6446     9.1780     8.4491
 1740.5000     8.3265   108.6042     2.5667     0.0156   -97.2657     9.0493     9.1773     8.6849
 1741.0000     8.3265   110.7112     2.5797     0.0156   -97.2667     8.9661     9.2613     8.6845
 1741.5000     8.3265   113.1191     2.5887     0.0146   -97.2677     9.3001     9.4324     8.9263
 1742.0000     8.3466   115.5271     2.5857     0.0136   -97.2687     9.3850     9.6067     9.0912
 1742.5000     8.3466   116.4308     2.5847     0.0136   -97.2697     9.3843     9.7843     9.0907
 1743.0000     8.3667   117.3345     2.5827     0.0086   -97.0695     9.4700     9.7836     9.0899
 1743.5000     8.3467   117.9374     2.5757     0.0026   -96.8693     9.4693     9.7828     9.1731
 1744.0000     8.3467   117.9388     2.5607    -0.0004   -97.0715     9.4686     9.7821     9.3426
 1744.5000     8.3668   117.6391     2.5377    -0.0014   -97.0725     9.4678     9.7813     9.3418
 1745.0000     8.3668   117.0385     2.5387    -0.0024   -96.8723     9.6423     9.7801     9.2557
 1745.5000     8.3468   115.8362     2.5447    -0.0024   -97.0745     9.2097     9.7797     9.1703
 1746.0000     8.3669   114.3330     2.5457    -0.0024   -97.0755     9.2937     9.6008     9.0026
 1746.5000     8.3669   114.3341     2.5387    -0.0024   -97.0765     8.9587     9.2534     8.7570
 1747.0000     8.3669   115.5387     2.5277    -0.0034   -97.0775     8.9578     9.1682     8.5182
 1747.5000     8.3469   117.6461     2.5237    -0.0064   -97.0785     8.6347     9.0006     8.3625
 1748.0000     8.3669   119.4526     2.5227    -0.0084   -97.2807     8.5550     8.8359     8.3618
 1748.5000     8.3670   119.4538     2.5217    -0.0074   -97.2817     8.4764     8.7543     8.2088
 1749.0000     8.3670   119.7558     2.5247    -0.0044   -97.2829     8.4758     8.5941     8.1329
 1749.5000     8.3670   119.7570     2.5337     0.0036   -97.2839     8.3212     8.5934     7.9842
 1750.0000     8.2667   119.7582     2.5457     0.0236   -97.2849     8.0210     8.5929     7.9837
 1750.5000     8.3671   119.7599     2.5467     0.0336   -97.0847     8.2440     8.5135     7.9829
 1751.0000     8.3270   118.5570     2.5357     0.0326   -96.8845     8.3193     8.5126     8.1304
 1751.5000     8.3270   118.5581     2.5297     0.0166   -96.8855     8.3186     8.5122     8.1298
 1752.0000     8.3270   117.9575     2.5297     0.0056   -96.8865     8.1669     8.5115     8.1669
 1752.5000     8.3270   117.3568     2.5327     0.0086   -96.8875     8.0918     8.4331     8.0542
 1753.0000     8.3271   116.7561     2.5327     0.0046   -96.8885     8.2408     8.4323     8.1280
 1753.5000     8.3070   117.3591     2.5317     0.0006   -96.8895     8.2402     8.4317     8.2026
 1754.0000     8.3472   120.0689     2.5387     0.0006   -97.0917     8.4693     8.4310     8.2776
 1754.5000     8.3271   121.2738     2.5407     0.0006   -96.8915     8.5466     8.6661     8.4305
 1755.0000     8.3271   120.9740     2.5507     0.0006   -96.8924     8.8651     8.9078     8.5863
 1755.5000     8.3272   119.7715     2.5637     0.0046   -96.8934     8.9461     9.2407     8.6648
 1756.0000     8.3272   116.7633     2.5697     0.0106   -96.6932     9.1109     9.4987     8.7443
 1756.5000     8.3272   115.2598     2.5687     0.0136   -96.8954     9.8034     9.6740     8.9881
 1757.0000     8.3272   115.8628     2.5607     0.0076   -96.8964     9.8026     9.8026     9.0703
 1757.5000     8.3273   117.3687     2.5587     0.0026   -96.8974     9.4488     9.4488     9.1533
 1758.0000     8.3273   119.7774     2.5647     0.0076   -96.8984     9.1080     9.1080     9.1525
 1758.5000     8.3273   120.6815     2.5697     0.0136   -96.8994     9.4474     9.4474     8.9851
 1759.0000     8.3273   122.1874     2.5687     0.0136   -96.9004     9.7101     9.7101     8.9844
 1759.5000     8.3274   122.4896     2.5588     0.0046   -96.7006     9.7093     9.7093     9.3202
 1760.0000     8.3675   123.0927     2.5578     0.0026   -96.7018     9.3591     9.3591     9.0660
 1760.5000     8.3274   123.0940     2.5647     0.0066   -96.9034     9.3583     9.3583     8.7380
 1761.0000     8.3274   122.4932     2.5707     0.0126   -96.9046     9.0207     9.0207     8.7373
 1761.5000     8.3275   122.1935     2.5787     0.0206   -96.9056     8.9377     8.9377     8.7368
 1762.0000     8.3475   120.9908     2.5827     0.0276   -96.9064     8.9370     8.9370     8.6561
 1762.5000     8.3275   119.1861     2.5797     0.0266   -96.9076     9.1017     8.9365     8.4978
 1763.0000     8.3275   117.3815     2.5767     0.0236   -97.1098     8.8541     8.8541     8.4971
 1763.5000     8.3275   115.2757     2.5787     0.0216   -97.1108     8.9350     8.9350     8.5748
 1764.0000     8.3276   115.5781     2.5847     0.0126   -97.1118     8.8528     8.8528     8.8528
 1764.5000     8.3276   116.1812     2.5738     0.0076   -97.1128     8.9336     8.9336     8.9336
 1765.0000     8.3276   117.6873     2.5658     0.0036   -97.1138     8.8514     8.8514     8.5728
 1765.5000     8.3678   118.8925     2.5608     0.0056   -96.9136     8.9323     8.9323     8.5722
 1766.0000     8.3277   119.4956     2.5578     0.0036   -96.9146     9.2652     9.2652     8.6508
 1766.5000     8.3277   120.0988     2.5628     0.0036   -96.9156     9.3498     9.3498     8.8919
 1767.0000     8.3277   120.1000     2.5668     0.0076   -96.7154     9.0955     9.0955     8.9734
 1767.5000     8.3478   119.4992     2.5708     0.0066   -96.9176     9.0948     9.0948     8.9730
 1768.0000     8.3078   116.4903     2.5698    -0.0004   -96.9186     9.0109     9.0109     9.6968
 1768.5000     8.3078   116.1904     2.5548    -0.0024   -96.7184     9.1770     9.1770     9.6961
 1769.0000     8.3078   116.4926     2.5518    -0.0104   -96.7194     9.3461     9.3461     9.6952
 1769.5000     8.3279   117.3968     2.5448    -0.0164   -96.7204     9.0089     9.0089     9.6948
 1770.0000     8.3279   119.5051     2.5338    -0.0184   -96.9226     9.0082     9.0082     9.5177
 1770.5000     8.3279   120.4094     2.5448    -0.0014   -96.7224     9.0075     9.0075     9.5169
 1771.0000     8.3280   123.1200     2.5538     0.0066   -96.9246     8.6825     8.9247     9.4293
 1771.5000     8.3280   124.6264     2.5498     0.0026   -96.9256     8.8425     8.8425     9.4289
 1772.0000     8.3280   125.5307     2.5448     0.0006   -96.9272     9.0884     9.0884     9.4279
 1772.5000     8.3280   124.3278     2.5408    -0.0064   -96.9276     9.1714     9.2556     9.4274
 1773.0000     8.3280   121.3187     2.5328    -0.0084   -96.9286     8.6798     9.2552     8.6798
 1773.5000     8.3280   119.8147     2.5308    -0.0054   -96.9296     8.7587     9.2544     9.0030
 1774.0000     8.3280   117.4075     2.5378    -0.0004   -96.9307     8.7584     8.8391     8.8391
 1774.5000     8.3281   117.7097     2.5448     0.0046   -96.9317     8.8380     8.9198     8.9198
 1775.0000     8.3281   118.6140     2.5458     0.0076   -96.9327     8.9191     8.9191     8.9191
 1775.5000     8.3482   118.9163     2.5458     0.0066   -96.9338     9.0006     9.0006     9.0006
 1776.0000     8.3281   117.7132     2.5428     0.0036   -96.9348     8.9178     8.9178     8.9178
 1776.5000     8.3081   117.4133     2.5258    -0.0014   -96.7346     9.1658     9.1658     9.1658
 1777.0000     8.3282   118.9198     2.5239    -0.0014   -96.7356     9.0814     9.0814     9.0814
 1777.5000     8.3483   120.7274     2.5308    -0.0024   -96.7366     9.2488     9.2488     9.2488
 1778.0000     8.3483   123.7393     2.5368    -0.0004   -96.7375     8.9970     8.9970     8.9970
 1778.5000     8.3282   124.6437     2.5408    -0.0004   -96.5373     8.9964     8.9964     8.9964
 1779.0000     8.3283   124.6449     2.5418    -0.0044   -96.7395     8.7516     8.7516     8.7516
