~VERSION INFORMATION
 VERS.                2.0:   CWLS LOG ASCII STANDARD - VERSION 2.0
 WRAP.                 NO:   ONE LINE PER DEPTH STEP
~WELL INFORMATION
#MNEM.UNIT      DATA TYPE    INFORMATION
#----------   ------------   ------------------------------
 STRT.F           90.0000:   START DEPTH
 STOP.F         3342.0000:   STOP DEPTH
 STEP.F            0.5000:   STEP LENGTH
 NULL.          -999.2500:   NO VALUE
 COMP. LAWRENCE ALLISON AND ASSOCIATES:   COMPANY
 WELL. LAWERNCE "X" #83-3:   WELL
 FLD .             NPR #3:   FIELD
 LOC .       S3 T38N R78W:   LOCATION
 CNTY.            NATRONA:   COUNTY
 STAT.            WYOMING:   STATE
 CTRY. UNITED STATES OF AMERICA:   COUNTRY
 SRVC.      DRESSER ATLAS:   SERVICE COMPANY
 DATE.        23-APR-1985:   LOGDATE
 API .     49025110210000:   API NUMBER
~CURVE INFORMATION
#MNEM.UNIT       API CODE    CURVE DESCRIPTION
#----------   ------------   ------------------------------
 DEPT.F                  :   
 TENR.LBS    07 635 01 00:   TENSION FROM RESISTIVITY
 CALR.IN     07 280 01 00:   CALIPER FROM RESISTIVITY
 SPR .MV     07 010 01 00:   SPONTANEOUS POTENTIAL
 GRR .GAPI   07 310 01 00:   GAMMA RAY FROM RESISTIVITY
 RFOC.OHMM   07 220 04 00:   RESISTIVITY FOCUSED LOG RES.
 RILD.OHMM   07 120 46 00:   DEEP INDUCTION RESISTIVITY
 RILM.OHMM   07 120 44 00:   INDUCTION LOG MEDIUM RESISTIVITY
 NPHI.DEC    42 890 03 00:   NEUTRON POROSITY SANDSTONE
 RHOB.G/C3   45 350 01 00:   BULK DENSITY
 TEND.LBS    45 635 01 00:   TENSION FROM DENSITY LOG
 CORR.G/C3   45 356 01 00:   DENSITY CORRECTION
~PARAMETER INFORMATION
#MNEM.UNIT          VALUE    DESCRIPTION
#----------   ------------   ------------------------------
 EKB .F         5125.0000:   Kelly bushing
 EGL .F         5112.0000:   Ground level
 EDF .F            0.0000:   Drilling floor
 TD  .F         3330.0000:   Total depth
 DATE.        23-APR-1985:   Date logged
 CLNT.            A2DTECH:   Client Code
 SL  . 1745' FNL & 612' FEL:   Surface Location
 PD  .                 GL:   Permanent Datum
 DD  .F              3330:   Depth driller
 DL  .F              3328:   Depth logger
 BLI .F              3326:   Bottom log interval
 CS1 .IN            8.625:   Casing size
 CBD1.      8.625" @ 526':   Casing driller 1
 CBL1.F               528:   Casing logger 1
 BS1 .IN            7.875:   Bit size
 DFT .            KCL-GEL:   Type fluid in hole
 DFD .                9.1:   Density
 DFV .                 43:   Viscosity
 DFPH.                  8:   pH
 DFL .                  8:   Fluid loss
 MSS .           FLOWLINE:   Source of sample
 RMS .OHMM          0.445:   Rm
 MST .F                72:   Rm Meas. temp.
 RMF .OHMM           0.36:   Rmf
 MFST.F                70:   Rmf Meas. temp.
 RMC .OHMM           0.55:   Rmc
 MCST.F                72:   Rmc Meas. temp.
 MFSS.               MEAS:   Source Rmf.
 RMB .OHMM          0.286:   Rm. at BHT
 BHT .F               116:   BHT.
 TCS .HRS               3:   Time Circ. stopped
 MRT .F               116:   Maximum recorded temp.
 LUN .               6274:   Logging unit number
 LUL .               GLTE:   Logging unit location
 ENGI.             RAUTIO:   Recorded By
 WITN.             STRONG:   Witnessed by
 ORIG.           5" PRINT:   Origin of data
 UWI .     49025110210000:   Unique Well ID
 DICO. A2D TECHNOLOGIES, INC.:   Digitizing Company
 DAPD.                 13:   Feet Above Permanent Datum
 BSD1.               3330:   Depth drilled with bit1
 MCSS.               CALC:   Source Rmc.
 EPD .               5112:   Elevation Permanent Datum
 LMF .                 KB:   Log Measured From
 DMF .                 KB:   Drilling Measured From
~OTHER INFORMATION
~A   DEPT     TENR       CALR        SPR         GRR      RFOC       RILD       RILM       NPHI       RHOB       TEND       CORR   
# ...
 2194.5000   -68.4170    11.2220   -76.8090    74.6780     7.1350     6.1740     6.0830  -999.2500  -999.2500  -999.2500  -999.2500
 2195.0000   -68.7580    11.2330   -76.9380    75.1360     7.0860     6.3300     6.1170  -999.2500  -999.2500  -999.2500  -999.2500
 2195.5000   -69.0990    11.2450   -77.0730    80.1220     7.0860     6.4690     6.2390  -999.2500  -999.2500  -999.2500  -999.2500
 2196.0000   -69.4410    11.2560   -77.1280    85.9440     7.0860     6.6080     6.3680  -999.2500  -999.2500  -999.2500  -999.2500
 2196.5000   -69.7820    11.2680   -77.1090    84.4670     7.0860     6.7460     6.4970  -999.2500  -999.2500  -999.2500  -999.2500
 2197.0000   -70.1230    11.2790   -77.0580    81.9160     7.1810     6.8930     6.6450  -999.2500  -999.2500  -999.2500  -999.2500
 2197.5000   -70.4650    11.2910   -77.0070    79.4090     7.6560     6.8930     6.5660  -999.2500  -999.2500  -999.2500  -999.2500
 2198.0000   -70.8060    11.3020   -76.9620    80.8670     8.2070     6.5850     6.2040  -999.2500  -999.2500  -999.2500  -999.2500
 2198.5000   -71.1470    11.3140   -77.0790    82.6440     7.7830     6.0920     5.8420  -999.2500  -999.2500  -999.2500  -999.2500
 2199.0000   -71.4890    11.3260   -77.7290    85.7370     7.2170     5.6320     5.4800  -999.2500  -999.2500  -999.2500  -999.2500
 2199.5000   -71.8300    11.3370   -78.3520    89.3940     6.6250     5.5000     5.1180  -999.2500  -999.2500  -999.2500  -999.2500
 2200.0000   -72.1710    11.3490   -78.3350    94.0990     6.0700     5.3760     4.8630  -999.2500  -999.2500  -999.2500  -999.2500
 2200.5000   -72.5130    11.3600   -78.0930    99.3680     5.5990     5.2520     4.8800  -999.2500  -999.2500  -999.2500  -999.2500
 2201.0000   -72.8540    11.3590   -77.8420   103.9380     5.3200     5.1290     4.9150  -999.2500  -999.2500  -999.2500  -999.2500
 2201.5000   -73.1950    11.3370   -77.5840   104.0000     5.1850     5.0450     4.9500  -999.2500  -999.2500  -999.2500  -999.2500
 2202.0000   -73.5370    11.3150   -77.5230   103.3210     5.7420     5.1030     4.9840  -999.2500  -999.2500  -999.2500  -999.2500
 2202.5000   -73.8780    11.2930   -77.7330   102.4490     6.2380     5.1550     5.0190  -999.2500  -999.2500  -999.2500  -999.2500
 2203.0000   -74.2190    11.2710   -77.9730   101.6640     6.9570     5.2070     5.0540  -999.2500  -999.2500  -999.2500  -999.2500
 2203.5000   -74.5600    11.2630   -78.2650   104.0010     6.7070     5.2590     5.0880  -999.2500  -999.2500  -999.2500  -999.2500
 2204.0000   -74.9020    11.2580   -78.4180   106.5660     6.2550     5.2820     5.1230  -999.2500  -999.2500  -999.2500  -999.2500
 2204.5000   -75.2430    11.2530   -78.6190   106.1880     5.7900     5.2820     5.1380  -999.2500  -999.2500  -999.2500  -999.2500
 2205.0000   -75.5230    11.2440   -78.8350   103.8510     5.7900     5.2820     5.1380  -999.2500  -999.2500  -999.2500  -999.2500
 2205.5000   -65.1910    11.1980   -79.0470   101.5930     5.7900     5.4180     5.1380  -999.2500  -999.2500  -999.2500  -999.2500
 2206.0000   -64.5710    11.1620   -79.2590   100.2830     5.7900     5.6450     5.2160  -999.2500  -999.2500  -999.2500  -999.2500
 2206.5000   -63.9510    11.1260   -79.4710    98.0440     5.8510     5.8720     5.3470  -999.2500  -999.2500  -999.2500  -999.2500
 2207.0000   -63.3300    11.0900   -79.6830    94.5880     5.9510     6.0620     5.4780  -999.2500  -999.2500  -999.2500  -999.2500
 2207.5000   -62.7100    11.0540   -79.8950    91.9280     6.6320     6.1740     5.6320  -999.2500  -999.2500  -999.2500  -999.2500
 2208.0000   -62.0900    11.0480   -80.1070    92.1260     7.4190     6.0180     5.5670  -999.2500  -999.2500  -999.2500  -999.2500
 2208.5000   -61.4690    11.0470   -80.2920    93.8910     7.0210     5.8910     5.4870  -999.2500  -999.2500  -999.2500  -999.2500
 2209.0000   -60.8490    11.0450   -80.4350    95.6020     6.4980     5.7630     5.4070  -999.2500  -999.2500  -999.2500  -999.2500
 2209.5000   -60.2290    11.0430   -80.6260    95.2540     5.9750     5.6350     5.3270  -999.2500  -999.2500  -999.2500  -999.2500
 2210.0000   -59.6080    11.0410   -80.8190    91.6750     5.3790     5.5070     5.2470  -999.2500  -999.2500  -999.2500  -999.2500
 2210.5000   -58.9880    11.0390   -81.0110    87.8440     5.4820     5.3800     5.1670  -999.2500  -999.2500  -999.2500  -999.2500
 2211.0000   -58.3670    11.0370   -81.2040    87.5350     5.7040     5.2520     5.0880  -999.2500  -999.2500  -999.2500  -999.2500
 2211.5000   -57.7470    11.0360   -81.3970    87.9560     5.9260     5.1850     4.9980  -999.2500  -999.2500  -999.2500  -999.2500
 2212.0000   -57.1270    11.0340   -81.5900    88.6400     5.9730     5.2030     5.0270  -999.2500  -999.2500  -999.2500  -999.2500
 2212.5000   -56.5060    11.0320   -81.7820    90.0610     5.9970     5.2160     5.0860  -999.2500  -999.2500  -999.2500  -999.2500
 2213.0000   -55.8860    11.0300   -81.9730    91.9390     6.0210     5.2290     5.1380  -999.2500  -999.2500  -999.2500  -999.2500
 2213.5000   -54.1130    11.0290   -82.1580   101.4290     6.0450     5.2330     5.1380  -999.2500  -999.2500  -999.2500  -999.2500
 2214.0000   -51.2420    11.0290   -82.3110   115.3080     6.0620     5.1540     5.0150  -999.2500  -999.2500  -999.2500  -999.2500
 2214.5000   -48.3710    11.0280   -83.3490   129.3910     5.8570     5.0680     4.9210  -999.2500  -999.2500  -999.2500  -999.2500
 2215.0000   -45.4990    11.0270   -84.4010   137.6860     5.7030     4.9820     4.8270  -999.2500  -999.2500  -999.2500  -999.2500
 2215.5000   -42.6280    11.0270   -85.4470   128.2680     5.5480     4.8960     4.7330  -999.2500  -999.2500  -999.2500  -999.2500
 2216.0000   -39.7560    11.0260   -86.4870   119.8090     5.3930     4.8100     4.6390  -999.2500  -999.2500  -999.2500  -999.2500
 2216.5000   -36.8850    11.0250   -87.3350   111.6030     5.2330     4.6870     4.5600  -999.2500  -999.2500  -999.2500  -999.2500
 2217.0000   -35.6430    11.0240   -87.6620   110.8980     5.1850     4.7450     4.5600  -999.2500  -999.2500  -999.2500  -999.2500
 2217.5000   -35.6430    11.0240   -87.9850   116.4580     5.1380     4.9030     4.6440  -999.2500  -999.2500  -999.2500  -999.2500
 2218.0000   -39.1610    11.0230   -87.9630   120.9110     5.1850     5.0600     4.7410  -999.2500  -999.2500  -999.2500  -999.2500
 2218.5000   -42.7500    11.0220   -87.0340   122.0250     5.3990     5.2180     4.9070  -999.2500  -999.2500  -999.2500  -999.2500
 2219.0000   -45.6130    11.0220   -86.1430   120.3400     5.6980     5.3750     5.0740  -999.2500  -999.2500  -999.2500  -999.2500
 2219.5000   -45.6130    11.0210   -85.2530   118.6240     5.9970     5.5320     5.2400  -999.2500  -999.2500  -999.2500  -999.2500
 2220.0000   -45.6130    11.0200   -84.3550   120.5330     6.2880     5.6900     5.4060  -999.2500  -999.2500  -999.2500  -999.2500
 2220.5000   -45.6130    11.0190   -83.4980   122.5440     6.4640     5.8470     5.5720  -999.2500  -999.2500  -999.2500  -999.2500
 2221.0000   -45.6130    11.0190   -83.7630   121.9830     6.7530     6.0050     5.7380  -999.2500  -999.2500  -999.2500  -999.2500
 2221.5000   -45.6130    11.0180   -84.0780   121.4620     7.0860     6.1620     5.9040  -999.2500  -999.2500  -999.2500  -999.2500
 2222.0000   -41.0530    11.0170   -84.3880   122.6290     7.0220     6.3190     6.0620  -999.2500  -999.2500  -999.2500  -999.2500
 2222.5000   -36.6830    11.0170   -84.6960   123.9830     6.9230     6.4640     6.1170  -999.2500  -999.2500  -999.2500  -999.2500
 2223.0000   -32.3140    11.0160   -85.0040   122.9120     6.8300     6.4640     6.0680  -999.2500  -999.2500  -999.2500  -999.2500
 2223.5000   -27.9440    11.0150   -85.3120   121.9890     7.0320     6.4640     5.9920  -999.2500  -999.2500  -999.2500  -999.2500
 2224.0000   -26.9430    11.0150   -85.6220   118.2770     7.4870     6.3760     5.9170  -999.2500  -999.2500  -999.2500  -999.2500
 2224.5000   -29.5880    11.0140   -85.9550   112.9030     7.3640     6.2770     5.8410  -999.2500  -999.2500  -999.2500  -999.2500
