~VERSION INFORMATION
 VERS.                2.0:   CWLS LOG ASCII STANDARD - VERSION 2.0
 WRAP.                 NO:   ONE LINE PER DEPTH STEP
~WELL INFORMATION
#MNEM.UNIT      DATA TYPE    INFORMATION
#----------   ------------   ------------------------------
 STRT.F          466.5000:   START DEPTH
 STOP.F         3184.0000:   STOP DEPTH
 STEP.F            0.5000:   STEP LENGTH
 NULL.          -999.2500:   NO VALUE
 COMP. LAWRENCE ALLISON AND ASSOCIATES:   COMPANY
 WELL. LAWRENCE 66 "X" #3-28:   WELL
 FLD .              N P R:   FIELD
 LOC .      S28 T39N R78W:   LOCATION
 CNTY.            NATRONA:   COUNTY
 STAT.            WYOMING:   STATE
 CTRY. UNITED STATES OF AMERICA:   COUNTRY
 SRVC.      DRESSER ATLAS:   SERVICE COMPANY
 DATE.        16-APR-1986:   LOGDATE
 API .     49025111340000:   API NUMBER
~CURVE INFORMATION
#MNEM.UNIT       API CODE    CURVE DESCRIPTION
#----------   ------------   ------------------------------
 DEPT.F                  :   
 RHOB.G/C3   45 350 01 00:   BULK DENSITY
 CORR.G/C3   45 356 01 00:   DENSITY CORRECTION
 TEND.LBS    45 635 01 00:   TENSION FROM DENSITY LOG
 NPHI.DEC    42 890 03 00:   NEUTRON POROSITY SANDSTONE
 DT  .US/F   60 520 00 00:   DELTA TIME
 TENS.LBS    51 635 01 00:   TENSION
 CALR.IN     07 280 01 00:   CALIPER FROM RESISTIVITY
 SPR .MV     07 010 01 00:   SPONTANEOUS POTENTIAL
 TENR.LBS    07 635 01 00:   TENSION FROM RESISTIVITY
 RFOC.OHMM   07 220 04 00:   RESISTIVITY FOCUSED LOG RES.
 GRR .GAPI   07 310 01 00:   GAMMA RAY FROM RESISTIVITY
 RILD.OHMM   07 120 46 00:   DEEP INDUCTION RESISTIVITY
 RILM.OHMM   07 120 44 00:   INDUCTION LOG MEDIUM RESISTIVITY
~PARAMETER INFORMATION
#MNEM.UNIT          VALUE    DESCRIPTION
#----------   ------------   ------------------------------
 EKB .F         5071.0000:   Kelly bushing
 EGL .F         5059.0000:   Ground level
 TD  .F         3176.0000:   Total depth
 DATE.        16-APR-1986:   Date logged
 CLNT.            A2DTECH:   Client Code
 SL  . 1685' FEL & 1915'FSL:   Surface Location
 PD  .                 GL:   Permanent Datum
 EPD .F              5059:   Elevation Permanent Datum
 LMF .                 KB:   Log Measured From
 DD  .F              3176:   Depth driller
 DL  .F              3176:   Depth logger
 BLI .F              3174:   Bottom log interval
 TLI .F               480:   Top log interval
 CS1 .IN            8.625:   Casing size
 BS1 .IN            7.875:   Bit size
 DFT .        POLYMER KCL:   Type fluid in hole
 DFD .                  9:   Density
 DFV .                 40:   Viscosity
 DFPH.                8.5:   pH
 DFL .               10.2:   Fluid loss
 MSS .           FLOWLINE:   Source of sample
 RMS .OHMM           .226:   Rm
 MST .F                65:   Rm Meas. temp.
 RMF .OHMM           .169:   Rmf
 MFST.F                65:   Rmf Meas. temp.
 RMC .OHMM           .283:   Rmc
 MCST.F                65:   Rmc Meas. temp.
 MFSS.               CALC:   Source Rmf.
 MCSS.               CALC:   Source Rmc.
 RMB .OHMM           .118:   Rm. at BHT
 BHT .F               125:   BHT.
 TCS .HRS               5:   Time Circ. stopped
 MRT .F               125:   Maximum recorded temp.
 LUN .               6264:   Logging unit number
 LUL .           GILLETTE:   Logging unit location
 ENGI.             MILLER:   Recorded By
 WITN.             STRONG:   Witnessed by
 ORIG.           5" PRINT:   Origin of data
 UWI .     49025111340000:   Unique Well ID
 DICO. A2D TECHNOLOGIES, INC.:   Digitizing Company
 DMF .                 KB:   Drilling Measured From
 DAPD.F                12:   Feet Above Permanent Datum
 CBD1.      8.625" @ 475':   Casing driller 1
 CBL1.F               480:   Casing logger 1
 BSD1.F              3176:   Depth drilled with bit1
~OTHER INFORMATION
~A   DEPT     RHOB       CORR       TEND       NPHI         DT       TENS       CALR        SPR       TENR       RFOC         GRR      RILD       RILM   
# ...
 2260.5000     2.4940     0.0720   -92.5250     0.2990    93.5890   -63.6100    10.9070   -85.2150   -68.7600     3.7150   106.8760     3.3040     3.1190
 2261.0000     2.4850     0.0500   -71.5230     0.2930    93.3760   -55.5240    10.8900   -85.0860   -58.3200     3.7590   111.6630     3.3040     3.1010
 2261.5000     2.4730     0.0500   -50.7770     0.2830    93.1460   -47.4380    10.8730   -84.9560   -47.8800     3.6610   115.3070     3.3040     3.0820
 2262.0000     2.4620     0.0630   -31.0870     0.2710    92.9160   -39.3530    10.8560   -84.9760   -37.4400     3.5170   113.8170     3.3040     3.0630
 2262.5000     2.4560     0.0640   -28.3070     0.2770    92.7080   -31.2670    10.8400   -85.1760   -35.0000     3.4280   112.4610     3.3040     3.0410
 2263.0000     2.4620     0.0390   -33.9320     0.2840    92.8360   -26.3020    10.8250   -85.3760   -38.0500     3.5560   109.7590     3.3040     3.0900
 2263.5000     2.4680     0.0150   -39.5580     0.2880    92.9530   -40.3180    10.8090   -85.5720   -51.1000     3.6230   106.9230     3.3360     3.1500
 2264.0000     2.4740    -0.0080   -45.1830     0.2820    93.0700   -54.3330    10.7940   -85.5810   -65.0000     3.6140   104.9760     3.3620     3.2110
 2264.5000     2.4660     0.0010   -50.8090     0.2850    92.9940   -62.0030    10.7780   -85.2440   -62.5600     3.6020   107.7100     3.3880     3.2710
 2265.0000     2.4520     0.0160   -52.3380     0.2900    92.8080   -53.2430    10.7610   -84.9120   -59.9500     3.5890   110.9780     3.4140     3.3320
 2265.5000     2.4430     0.0290   -45.3370     0.2930    92.0650   -44.3830    10.7420   -84.5720   -57.3400     3.8810   114.3010     3.4280     3.3650
 2266.0000     2.4420     0.0170   -38.3370     0.2820    91.2770   -53.0420    10.7220   -84.1430   -53.8430     4.1660   117.0900     3.2750     3.2260
 2266.5000     2.4450     0.0040   -24.8700     0.2740    90.4880   -61.8020    10.7030   -84.0210   -42.6570     4.3550   119.2000     3.1690     3.1290
 2267.0000     2.4450     0.0000    -3.8680     0.2710    89.7990   -53.4300    10.6840   -83.9250   -31.4710     3.6930   119.9790     3.0630     3.0320
 2267.5000     2.4380     0.0000     5.5110     0.2770    91.0040   -37.6630    10.6690   -84.1260   -28.3330     3.1970   120.8340     2.9570     2.9360
 2268.0000     2.4360     0.0080    -5.2100     0.3000    92.2910   -39.4170    10.6650   -84.4480   -36.2420     2.9040   120.0080     2.8520     2.8390
 2268.5000     2.4480     0.0160   -31.4630     0.2950    93.5790   -45.8270    10.6620   -84.7750   -44.1520     3.0880   118.5290     2.7460     2.7420
 2269.0000     2.4600     0.0240   -56.1620     0.2860    94.6640   -52.2360    10.6580   -85.1030   -52.0610     3.3520   114.6040     2.6830     2.6240
 2269.5000     2.4630     0.0210   -60.2440     0.2750    94.2440   -58.6450    10.6550   -85.4290   -59.9700     3.4600   110.6170     2.6490     2.6330
 2270.0000     2.4650     0.0140   -47.8900     0.2810    93.8230   -65.0550    10.6510   -85.7570   -67.8790     3.1820   109.2470     2.6830     2.6430
 2270.5000     2.4730     0.0080   -35.5360     0.2870    93.5780   -71.4640    10.6450   -85.9710   -76.7330     2.8960   108.2030     2.7330     2.6830
 2271.0000     2.4800     0.0020   -25.7940     0.2800    93.8410   -77.8740    10.6380   -86.1040   -87.3370     3.0840   107.1470     2.8040     2.7530
 2271.5000     2.4900     0.0110   -37.0460     0.2700    94.1120   -84.5040    10.6310   -86.2350  -103.8210     3.2740   107.4440     2.8760     2.8240
 2272.0000     2.5010     0.0310   -48.2970     0.2600    93.7950  -101.4210    10.6250   -86.3680  -120.3050     3.3640   107.9350     3.0020     2.9470
 2272.5000     2.5120     0.0520   -50.4190     0.2620    93.2320  -118.9400    10.6180   -86.4900  -136.7890     3.4540   106.3290     3.1620     3.1050
 2273.0000     2.5220     0.0490   -40.8730     0.2610    92.3680  -136.4590    10.6110   -86.2490  -145.0000     3.5450   100.8520     3.3340     3.2740
 2273.5000     2.5240     0.0380   -37.1170     0.2640    91.5050  -154.7140    10.5970   -85.9800  -132.2000     3.6360    97.1260     3.6060     3.5410
 2274.0000     2.5180     0.0270   -44.6180     0.2790    90.4970  -137.9300    10.5820   -86.0210  -104.6000     3.9700    94.0020     3.9000     3.8290
 2274.5000     2.5100     0.0170   -52.1190     0.2870    89.2920  -107.1860    10.5670   -86.1930   -69.8000     4.3730    92.5440     4.2380     4.0940
 2275.0000     2.5030     0.0150   -59.6190     0.2770    87.5980   -73.3990    10.5520   -86.3670   -45.0000     4.7770    98.3610     4.4070     4.2870
 2275.5000     2.5000     0.0210   -67.1200     0.2620    86.2680   -45.1250    10.5370   -86.3950   -45.0000     5.0870   103.4620     4.4310     4.4810
 2276.0000     2.5130     0.0310   -74.6210     0.2530    85.2700   -50.3810    10.5210   -85.8560   -45.0000     5.1880   107.4620     4.4540     4.6190
 2276.5000     2.5270     0.0410   -82.1210     0.2550    85.3690   -55.6370    10.5060   -85.3300   -45.0000     4.9610   109.5610     4.4780     4.6880
 2277.0000     2.5360     0.0460   -84.6690     0.2650    86.5630   -60.8930    10.4910   -85.1070   -45.0000     4.5260   104.1610     4.5020     4.7760
 2277.5000     2.5270     0.0350   -84.6690     0.2780    88.2150   -66.1480    10.4760   -84.9600   -45.0000     4.0910    99.1660     4.5260     4.8200
 2278.0000     2.5190     0.0240   -59.9200     0.2870    89.8660   -71.4040    10.4610   -84.7880   -50.2870     3.7240    97.2050     4.5490     4.8200
 2278.5000     2.5240     0.0170   -33.6670     0.2840    90.4010   -76.6600    10.4430   -84.8410   -60.0750     4.2200    95.0920     4.5730     4.8200
 2279.0000     2.5330     0.0270   -14.5290     0.2800    89.2100   -81.9160    10.4180   -85.3270   -69.8620     4.6480    94.4240     4.5970     4.8200
 2279.5000     2.5430     0.0370   -14.5290     0.2760    87.7970   -91.1740    10.3930   -85.8060   -83.2670     5.0010    94.8240     4.6200     4.8240
 2280.0000     2.5480     0.0340   -33.6230     0.2790    86.3850  -104.3130    10.3690   -86.2860  -100.6670     5.0470    95.8560     4.6440     4.7720
 2280.5000     2.5330     0.0200   -54.0410     0.2820    86.6220  -112.9000    10.3440   -86.7840  -118.0670     4.7940    96.4780     4.6680     4.7750
 2281.0000     2.5200     0.0060   -74.4600     0.2850    87.2980  -105.1130    10.3190   -86.9610  -119.7670     4.6450    96.3480     4.6920     4.8210
 2281.5000     2.5080     0.0150   -79.4190     0.2870    87.9940   -97.3270    10.2940   -87.0390  -111.0670     4.7960    96.8170     4.7150     4.8500
 2282.0000     2.5070     0.0320   -68.9180     0.2760    88.0940   -89.5410    10.2940   -86.8890  -102.3670     4.9190    98.9980     4.7760     4.8640
 2282.5000     2.5120     0.0280   -77.0540     0.2670    87.4920   -81.7550    10.3000   -86.0420   -93.6670     5.0470   104.9290     4.5550     4.7570
 2283.0000     2.5180     0.0150   -79.7480     0.2690    87.6270   -74.4730    10.3050   -85.8630   -85.0000     5.0140   110.7870     4.3960     4.6850
 2283.5000     2.5230     0.0060   -72.0260     0.2710    88.3540   -70.4760    10.3090   -85.6770   -68.8770     4.7640   112.9110     4.4840     4.6130
 2284.0000     2.5260     0.0110   -64.3050     0.2640    89.5490   -66.7220    10.3010   -85.5080   -52.8150     4.3830   107.8590     4.5570     4.5400
 2284.5000     2.5320     0.0170   -56.5840     0.2560    90.6020   -69.0350    10.2940   -85.6170   -51.3060     4.0010   101.4440     4.6300     4.4360
 2285.0000     2.5320     0.0180   -48.8620     0.2500    90.5020   -80.7140    10.2880   -85.7350   -63.5880     3.7590    98.6360     4.7040     4.5170
 2285.5000     2.5290     0.0070   -41.1410     0.2490    89.2050   -72.6680    10.2850   -85.8520   -75.8710     3.9720    99.7290     4.7760     4.7130
 2286.0000     2.5280    -0.0130   -38.4770     0.2490    87.9790   -55.1490    10.2820   -85.9680   -80.5330     4.6350   101.8180     5.0640     4.9830
