~VERSION INFORMATION
 VERS.                2.0:   CWLS LOG ASCII STANDARD - VERSION 2.0
 WRAP.                 NO:   ONE LINE PER DEPTH STEP
~WELL INFORMATION
#MNEM.UNIT      DATA TYPE    INFORMATION
#----------   ------------   ------------------------------
 STRT.F          200.5000:   START DEPTH
 STOP.F         3118.5000:   STOP DEPTH
 STEP.F            0.5000:   STEP LENGTH
 NULL.          -999.2500:   NO VALUE
 COMP.    FENIX & SCISSON:   COMPANY
 WELL. FENIX SCISSON "A" #16-27:   WELL
 FLD .                NPR:   FIELD
 LOC .      S27 T39N R78W:   LOCATION
 CNTY.            NATRONA:   COUNTY
 STAT.            WYOMING:   STATE
 CTRY. UNITED STATES OF AMERICA:   COUNTRY
 SRVC.       SCHLUMBERGER:   SERVICE COMPANY
 DATE.        31-AUG-1977:   LOGDATE
 API .     49025104180000:   API NUMBER
~CURVE INFORMATION
#MNEM.UNIT       API CODE    CURVE DESCRIPTION
#----------   ------------   ------------------------------
 DEPT.F                  :   
 CALD.IN     45 280 60 00:   CALIPER FROM DENSITY LOG
 GRD .GAPI   45 310 01 00:   GAMMA RAY FROM DENSITY LOG
 DPHI.DEC    42 890 03 00:   DENSITY POROSITY SANDSTONE
 RHOB.G/C3   45 350 01 00:   BULK DENSITY
 CORR.G/C3   45 356 01 00:   DENSITY CORRECTION
 SPR .MV     07 010 01 00:   SPONTANEOUS POTENTIAL
 GURD.OHMM   07 220 05 00:   GUARD LOG RESISTIVITY
 ILD .OHMM   07 120 46 00:   DEEP INDUCTION RESISTIVITY
 ILM .OHMM   07 120 44 00:   INDUCTION LOG MEDIUM RESISTIVITY
~PARAMETER INFORMATION
#MNEM.UNIT          VALUE    DESCRIPTION
#----------   ------------   ------------------------------
 EKB .F         5095.0000:   Kelly bushing
 EGL .F         5085.0000:   Ground level
 EDF .F            0.0000:   Drilling floor
 TD  .F         3121.0000:   Total depth
 DATE.        31-AUG-1977:   Date logged
 CLNT.            A2DTECH:   Client Code
 SL  . 1430' FSL & 330' FNL:   Surface Location
 PD  .                 GL:   Permanent Datum
 EPD .F              5085:   Elevation Permanent Datum
 LMF .                 KB:   Log Measured From
 DMF .                 KB:   Drilling Measured From
 DAPD.F                10:   Feet Above Permanent Datum
 DD  .F              3120:   Depth driller
 DL  .F              3121:   Depth logger
 BLI .F              3119:   Bottom log interval
 TLI .F               200:   Top log interval
 CS1 .IN            8.625:   Casing size
 CBD1.      8.625" @ 206':   Casing driller 1
 CBL1.F               215:   Casing logger 1
 BS1 .IN            7.875:   Bit size
 BSD1.F              3120:   Depth drilled with bit1
 DFT .            KCL/MUD:   Type fluid in hole
 DFD .                  9:   Density
 DFV .                 36:   Viscosity
 DFPH.                 11:   pH
 DFL .                8.4:   Fluid loss
 MSS .           FLOWLINE:   Source of sample
 RMS .OHMM            2.5:   Rm
 MST .F                89:   Rm Meas. temp.
 RMF .OHMM           2.45:   Rmf
 MFST.F                89:   Rmf Meas. temp.
 RMC .OHMM           3.30:   Rmc
 MCST.F                89:   Rmc Meas. temp.
 MFSS.               FANN:   Source Rmf.
 MCSS.                KIT:   Source Rmc.
 RMB .OHMM           1.91:   Rm. at BHT
 BHT .F               116:   BHT.
 TCS .HRS              12:   Time Circ. stopped
 MRT .F               116:   Maximum recorded temp.
 LUN .               9585:   Logging unit number
 LUL .             CASPEN:   Logging unit location
 ENGI.         G. BENTSEN:   Recorded By
 WITN.      W. PETTINGILL:   Witnessed by
 ORIG.           5" PRINT:   Origin of data
 UWI .     49025104180000:   Unique Well ID
 DICO. A2D TECHNOLOGIES, INC.:   Digitizing Company
~OTHER INFORMATION
~A   DEPT     CALD         GRD      DPHI       RHOB        CORR       SPR       GURD        ILD        ILM   
# ...
 2682.5000     8.4286    79.0087     0.1271     2.4322    -0.0008   -50.5437    16.5392     8.9634    10.4893
 2683.0000     8.4479    79.7892     0.1235     2.4372     0.0012   -50.7411    20.2245     9.0460    10.4896
 2683.5000     8.4869    79.7793     0.1204     2.4501     0.0012   -51.1358    18.1232     9.0464    10.0204
 2684.0000     8.4864    79.3742     0.1176     2.4570     0.0031   -51.3332    16.6919     8.5762    10.2999
 2684.5000     8.4859    78.1767     0.1156     2.4580     0.0011   -51.7279    15.2339     8.3323    10.3001
 2685.0000     8.4855    77.3764     0.1160     2.4580     0.0030   -51.9253    14.8221     8.3326    10.3005
 2685.5000     8.5048    77.3617     0.1160     2.4579     0.0010   -51.9253    14.8224     8.1820    10.3007
 2686.0000     8.5240    76.9566     0.1164     2.4559     0.0030   -52.1226    14.6878     7.9609    10.3011
 2686.5000     8.5235    76.1563     0.1164     2.4549     0.0029   -52.1226    14.5544     7.9612    10.3013
 2687.0000     8.5033    75.3560     0.1157     2.4549     0.0049   -52.1226    14.8233     7.9615    10.3015
 2687.5000     8.5423    74.9508     0.1121     2.4608     0.0148   -52.3200    14.8236     7.9618    10.3967
 2688.0000     8.5418    74.9409     0.1093     2.4678     0.0168   -52.3200    14.9600     7.9621    11.1871
 2688.5000     8.5413    74.9310     0.1065     2.4717     0.0247   -52.3200    15.0977     8.1093    11.8399
 2689.0000     8.5409    74.9211     0.1046     2.4737     0.0247   -52.3200    15.2366     8.2592    12.5307
 2689.5000     8.5406    74.9112     0.0982     2.4746     0.0246   -52.3200    15.8042     8.2595    13.2618
 2690.0000     8.5204    74.9013     0.0998     2.4756     0.0206   -52.3200    17.3170     9.0502    13.6846
 2690.5000     8.4999    74.8914     0.1014     2.4756     0.0146   -52.3200    17.7986     9.1335    14.1952
 2691.0000     8.4798    74.8815     0.1034     2.4766     0.0146   -52.3200    20.0443     9.3879    15.1349
 2691.5000     8.4792    74.8716     0.1066     2.4745     0.0185   -53.1095    25.1894     9.1342    14.7252
 2692.0000     8.5181    75.2588     0.1074     2.4695     0.0185   -53.5042    28.3671     9.6495    14.0668
 2692.5000     8.5176    76.0393     0.1122     2.4685     0.0185   -54.0963    19.6821     9.6497    13.6860
 2693.0000     8.5171    76.8198     0.1142     2.4645     0.0164   -54.6884    16.2456     9.5621    12.8370
 2693.5000     8.5364    77.9955     0.1170     2.4585     0.0144   -54.8858    17.1614     9.3039    13.1948
 2694.0000     8.5359    78.7760     0.1178     2.4535     0.0144   -56.2674    17.9639     8.9703    11.8226
 2694.5000     8.5354    79.5565     0.1178     2.4495     0.0123   -56.6621    15.3798     8.8082    11.5027
 2695.0000     8.5546    79.9418     0.1178     2.4515     0.0123   -57.0568    13.1673     8.3385    11.3981
 2695.5000     8.5739    81.5195     0.1178     2.4524     0.0123   -57.4516    12.6951     7.7512    10.9888
 2696.0000     8.5734    81.9048     0.1174     2.4534     0.0142   -57.8463    12.8119     7.4052    10.6915
 2696.5000     8.5729    83.0805     0.1167     2.4554     0.0162   -58.0437    12.4658     7.2053    10.3076
 2697.0000     8.5724    84.2582     0.1159     2.4563     0.0182   -58.2411    12.0189     7.0108    10.1209
 2697.5000     8.5719    86.2203     0.1155     2.4583     0.0221   -58.2411    10.4800     6.9473     9.8471
 2698.0000     8.5714    86.6095     0.1139     2.4623     0.0241   -58.2411     9.8310     6.7054     9.1523
 2698.5000     8.5709    86.9929     0.1123     2.4652     0.0240   -58.2411    10.6738     6.7055     8.9867
 2699.0000     8.5704    86.9829     0.1103     2.4662     0.0260   -59.2279    11.9107     6.6447     9.4077
 2699.5000     8.5699    86.9750     0.1095     2.4662     0.0279   -59.2279    12.4677     6.5845    10.1224
 2700.0000     8.5694    85.7795     0.1096     2.4622     0.0179   -59.2279    12.5824     6.5848    10.7922
 2700.5000     8.5511    85.1973     0.1127     2.4575     0.0258   -59.2279    11.9110     6.6418    11.5641
 2701.0000     8.5485    84.9637     0.1168     2.4531     0.0238   -59.2279    12.0201     6.7059    10.1222
 2701.5000     8.5479    84.9518     0.1184     2.4481     0.0197   -59.2279    11.5885     6.8922     9.1527
 2702.0000     8.5473    84.9376     0.1204     2.4461     0.0057   -59.8200    11.1724     7.0192     9.0690
 2702.5000     8.5467    84.9304     0.1240     2.4431     0.0056   -59.4253    12.4665     7.0190     9.1521
 2703.0000     8.5264    85.3137     0.1252     2.4400     0.0056   -59.6226    12.5806     6.9547     9.2359
 2703.5000     8.5258    85.6946     0.1236     2.4400     0.0075   -59.4253    12.4659     6.9545     9.3205
 2704.0000     8.5252    86.4731     0.1220     2.4420     0.0134   -59.8200    12.1286     6.9465     9.7566
 2704.5000     8.5246    87.2516     0.1200     2.4469     0.0133   -60.0174    12.2396     6.9462     9.9365
 2705.0000     8.5240    88.0253     0.1173     2.4519     0.0133   -60.6095    12.7212     6.9459     9.6671
 2705.5000     8.5036    88.4133     0.1141     2.4548     0.0152   -60.8068    12.6052     6.9456     9.1503
 2706.0000     8.4836    89.1918     0.1117     2.4588     0.0151   -61.2016    11.1908     6.8824     8.9841
 2706.5000     8.5420    89.5751     0.1089     2.4617     0.0170   -61.3989    12.0167     6.8194     9.0664
 2707.0000     8.5216    90.3536     0.1074     2.4657     0.0170   -61.5963    12.1267     6.6956     9.0661
 2707.5000     8.5408    91.1321     0.1058     2.4696     0.0189   -61.9911    11.3750     6.5741     8.2727
 2708.0000     8.5402    91.5153     0.1030     2.4746     0.0208   -61.9911    10.1006     6.2861     8.1224
 2708.5000     8.5198    91.8986     0.0998     2.4775     0.0207   -61.9911    10.1003     6.1583     8.1221
 2709.0000     8.5192    92.2819     0.1002     2.4795     0.0207   -62.5832     9.7374     6.0331     8.2720
 2709.5000     8.5384    92.6652     0.1042     2.4764     0.0186   -62.7805     9.6485     5.9105     8.3477
 2710.0000     8.5180    92.2581     0.1059     2.4724     0.0166   -62.7805     9.5604     5.7904     8.0471
 2710.5000     8.5174    92.2462     0.1075     2.4704     0.0145   -63.3726     9.5601     5.6727     7.8289
 2711.0000     8.5366    93.0247     0.1083     2.4704     0.0144   -63.5700     9.5598     5.5574     7.5472
 2711.5000     8.5360    93.4080     0.1087     2.4703     0.0144   -63.7674     9.5595     5.4445     7.0784
 2712.0000     8.5355    93.0009     0.1087     2.4703     0.0143   -63.7674     9.5592     5.3338     7.0137
 2712.5000     8.5547    93.7769     0.1087     2.4703     0.0142   -64.3595     9.0627     5.2254     6.8861
 2713.0000     8.5739    94.1602     0.1083     2.4702     0.0142   -64.3595     8.8169     5.0902     7.2084
 2713.5000     8.5930    95.3339     0.1083     2.4692     0.0141   -64.3595     8.4221     4.9977     7.2081
 2714.0000     8.5727    96.5076     0.1088     2.4692     0.0140   -64.3595     8.1189     4.9041     6.7603
 2714.5000     8.5721    97.2860     0.1104     2.4691     0.0139   -64.3595     7.8267     4.9488     6.4576
 2715.0000     8.5715    97.6693     0.1132     2.4641     0.0079   -63.7674     7.6143     4.8590     6.2823
 2715.5000     8.5906    97.6574     0.1152     2.4611     0.0058   -63.7674     7.4758     4.7273     6.5762
 2716.0000     8.5703    97.6455     0.1192     2.4581     0.0038   -63.7674     7.6838     4.6840     6.1115
 2716.5000     8.5697    97.6336     0.1176     2.4570     0.0037   -63.7674     7.7442     4.6412     6.1113
 2717.0000     8.5889    97.2265     0.1160     2.4600     0.0056   -63.7674     7.5344     4.5987     6.4561
 2717.5000     8.5883    97.2146     0.1073     2.4669     0.0095   -63.7674     7.3975     4.5984     6.0550
 2718.0000     8.5679    96.8075     0.1045     2.4709     0.0094   -63.7674     7.4652     4.5983     6.3968
 2718.5000     8.5871    96.7956     0.1037     2.4738     0.0174   -63.7674     7.9584     4.6402     6.8201
