~VERSION INFORMATION
 VERS.                2.0:   CWLS LOG ASCII STANDARD - VERSION 2.0
 WRAP.                 NO:   ONE LINE PER DEPTH STEP
~WELL INFORMATION
#MNEM.UNIT      DATA TYPE    INFORMATION
#----------   ------------   ------------------------------
 STRT.F          196.5000:   START DEPTH
 STOP.F         3219.0000:   STOP DEPTH
 STEP.F            0.5000:   STEP LENGTH
 NULL.          -999.2500:   NO VALUE
 COMP.    FENIX & SCISSON:   COMPANY
 WELL.  FENIX "AX" #73-15:   WELL
 FLD .              NPR 3:   FIELD
 LOC .      S15 T38N R78W:   LOCATION
 CNTY.            NATRONA:   COUNTY
 STAT.            WYOMING:   STATE
 CTRY. UNITED STATES OF AMERICA:   COUNTRY
 SRVC.       SCHLUMBERGER:   SERVICE COMPANY
 DATE.        30-AUG-1977:   LOGDATE
 API .     49025104270000:   API NUMBER
~CURVE INFORMATION
#MNEM.UNIT       API CODE    CURVE DESCRIPTION
#----------   ------------   ------------------------------
 DEPT.F                  :   
 NPHI.DEC    42 890 03 00:   NEUTRON POROSITY SANDSTONE
 CALD.IN     45 280 60 00:   CALIPER FROM DENSITY LOG
 GRD .GAPI   45 310 01 00:   GAMMA RAY FROM DENSITY LOG
 CORR.G/C3   45 356 01 00:   DENSITY CORRECTION
 RHOB.G/C3   45 350 01 00:   BULK DENSITY
 SPR .MV     07 010 01 00:   SPONTANEOUS POTENTIAL
 RILD.OHMM   07 120 46 00:   DEEP INDUCTION RESISTIVITY
 RILM.OHMM   07 120 44 00:   INDUCTION LOG MEDIUM RESISTIVITY
 LL8 .OHMM   07 220 08 00:   LATEROLOG-8 RES.
~PARAMETER INFORMATION
#MNEM.UNIT          VALUE    DESCRIPTION
#----------   ------------   ------------------------------
 EKB .F         5263.0000:   Kelly bushing
 EGL .F         5253.0000:   Ground level
 TD  .F         3220.0000:   Total depth
 CLNT.            A2DTECH:   Client Code
 SL  . 1650' FNL & 875' FEL:   Surface Location
 PD  .                 GL:   Permanent Datum
 EPD .F              5253:   Elevation Permanent Datum
 LMF .                 KB:   Log Measured From
 DMF .                 KB:   Drilling Measured From
 DAPD.F                10:   Feet Above Permanent Datum
 DATE.        30-AUG-1977:   Date Logged [DD-MMM-YYYY]
 DD  .F              3220:   Depth driller
 DL  .F              3219:   Depth logger
 BLI .F              3209:   Bottom log interval
 TLI .F               216:   Top log interval
 CS1 .IN            8.625:   Casing size
 CBL1.F               216:   Casing logger 1
 BS1 .IN            7.875:   Bit size
 BSD1.F              3220:   Depth drilled with bit1
 DFT .                FGM:   Type fluid in hole
 DFD .                8.9:   Density
 DFPH.                 11:   pH
 MSS .            MUDTANK:   Source of sample
 RMS .OHMM           0.40:   Rm
 MST .F                82:   Rm Meas. temp.
 RMF .OHMM           0.25:   Rmf
 MFST.F                72:   Rmf Meas. temp.
 MFSS.               MEAS:   Source Rmf.
 RMC .OHMM           0.60:   Rmc
 MCST.F                82:   Rmc Meas. temp.
 MCSS.               CALC:   Source Rmc.
 RMB .OHMM           0.27:   Rm. at BHT
 BHT .F               120:   BHT.
 MRT .F               120:   Maximum recorded temp.
 LUN .               5642:   Logging unit number
 LUL .               CSPR:   Logging unit location
 ENGI.                FIX:   Recorded By
 WITN.         RETTINGILL:   Witnessed by
 ORIG.           5" PRINT:   Origin of data
 UWI .     49025104270000:   Unique Well ID
 DICO. A2D TECHNOLOGIES, INC.:   Digitizing Company
 DFV .                 35:   Viscosity
 DFL .                8.4:   Fluid loss
 CBD1.      8.625" @ 216':   Casing driller 1
~OTHER INFORMATION
~A   DEPT       NPHI     CALD        GRD       CORR       RHOB        SPR       RILD       RILM        LL8   
# ...
 1182.0000     0.3595    12.2547    75.2952     0.0688     2.4707   -75.9185     8.6809     8.4245     8.9247
 1182.5000     0.3707    12.2714    75.9937     0.0679     2.4820   -75.8902     8.6858     8.4283     8.9295
 1183.0000     0.3926    12.2881    78.2546     0.0582     2.4633   -75.8620     8.6899     8.3754     8.9338
 1183.5000     0.3960    12.2750    78.7299     0.0477     2.4552   -75.8337     8.6935     8.3228     8.9380
 1184.0000     0.3865    12.2618    78.5354     0.0372     2.4269   -75.7626     8.6977     8.3292     8.8795
 1184.5000     0.3822    12.2636    79.2656     0.0261     2.4172   -75.6259     8.6423     8.3339     8.8846
 1185.0000     0.3800    12.2500    81.5403     0.0526     2.4146   -75.5976     8.6464     8.3393     8.8698
 1185.5000     0.3749    12.2672    83.5625     0.0414     2.4346   -75.5688     8.5906     8.3448     8.8314
 1186.0000     0.3716    12.2689    84.2321     0.0377     2.4197   -75.5401     8.5354     8.2920     8.7329
 1186.5000     0.3682    12.2707    84.2612     0.0386     2.4196   -75.5057     8.5102     8.2400     8.5888
 1187.0000     0.3664    12.2725    83.8494     0.0454     2.4267   -75.6358     8.4531     8.2450     8.4773
 1187.5000     0.3709    12.2743    81.8692     0.0635     2.4433   -75.6004     8.3842     8.1936     8.3657
 1188.0000     0.3793    12.2909    79.6659     0.0659     2.4613   -75.5722     8.3688     8.1736     8.3179
 1188.5000     0.3876    12.2927    79.9179     0.0622     2.4577   -75.5439     8.3221     8.1468     8.2074
 1189.0000     0.3831    12.2796    81.0628     0.0849     2.4720   -75.5156     8.3270     8.1530     8.1445
 1189.5000     0.3801    12.2814    83.5469     0.0857     2.4811   -75.4873     8.3309     8.1580     8.1029
 1190.0000     0.3796    12.2981    83.1293     0.0542     2.4517   -75.4591     8.3345     8.1629     8.1068
 1190.5000     0.3848    12.2849    81.8116     0.0512     2.4436   -75.4308     8.3385     8.1679     8.1109
 1191.0000     0.3920    12.2867    82.7405     0.0657     2.4562   -75.5609     8.3683     8.1729     8.1712
 1191.5000     0.4040    12.2885    84.5550     0.0748     2.4673   -75.5255     8.4632     8.2345     8.2319
 1192.0000     0.4151    12.2903    85.0230     0.0350     2.4329   -75.4973     8.4950     8.4120     8.4103
 1192.5000     0.4201    12.2924    83.2661     0.0304     2.4233   -75.4690     8.5894     8.4804     8.5341
 1193.0000     0.4135    12.2939    86.8736     0.0316     2.4121   -75.4402     8.6569     8.6583     8.7748
 1193.5000     0.4009    12.2960    87.3416     0.0391     2.4100   -75.4115     8.8400     8.7851     8.9632
 1194.0000     0.3930    12.3127    82.4669     0.0662     2.4475   -75.3771     8.9676     8.8514     9.0926
 1194.5000     0.3879    12.2995    79.3707     0.0618     2.4454   -75.3488     9.2238     8.8568     9.1601
 1195.0000     0.3851    12.3013    78.5066     0.0529     2.4148   -75.1693     9.4219     8.8012     9.1645
 1195.5000     0.3813    12.3031    78.5354     0.0469     2.4074   -75.2993     9.5579     8.8065     9.1045
 1196.0000     0.3737    12.2453    79.4571     0.0440     2.4262   -75.2640     9.1099     8.7513     8.7232
 1196.5000     0.3794    12.2019    79.9323     0.0433     2.4495   -75.3870     8.7433     8.6964     8.2555
 1197.0000     0.3839    12.2190    81.0772     0.0660     2.4841   -75.2103     8.6861     8.6416     8.4367
 1197.5000     0.3956    12.2357    83.5613     0.0759     2.5021   -75.1792     8.7516     8.5874     8.9860
 1198.0000     0.3976    12.2524    88.7241     0.0542     2.4386   -75.1509     8.8779     8.4749     9.3095
 1198.5000     0.3901    12.2541    89.6651     0.0580     2.4349   -75.1226     8.9439     8.4802     9.3165
 1199.0000     0.3868    12.2406    89.5932     0.0453     2.4275   -75.0944     8.9582     8.4174     9.1953
 1199.5000     0.3843    12.2428    89.1707     0.0604     2.4321   -75.0661     9.0156     8.3176     9.0130
 1200.0000     0.3918    12.2595    89.4188     0.0838     2.4457   -75.0402     9.0825     8.3227     8.9558
 1200.5000     0.3849    12.2910    89.6669     0.0584     2.4308   -75.0715     9.0868     8.2692     9.1524
 1201.0000     0.3789    12.3077    87.2264     0.0648     2.4481   -75.1004     9.0273     8.3455     9.4819
 1201.5000     0.3693    12.3393    85.6879     0.0792     2.4534   -75.1293     9.0327     8.4330     9.4235
 1202.0000     0.3542    12.3425    85.9463     0.0827     2.4557   -75.1583     8.9116     8.5205     9.1096
 1202.5000     0.3647    12.3523    87.0901     0.0715     2.4595   -75.1872     8.7943     8.6080     8.9290
 1203.0000     0.3778    12.3620    88.0015     0.0594     2.4476   -75.2161     8.7377     8.6955     8.9358
 1203.5000     0.3871    12.3718    87.3240     0.0678     2.4597   -75.2451     8.7556     8.7830     9.0048
 1204.0000     0.3838    12.3756    84.4379     0.0581     2.4342   -75.2617     8.7790     8.8705     9.0130
 1204.5000     0.3837    12.3621    85.8531     0.0535     2.4238   -75.3843     8.8024     8.9050     9.0185
 1205.0000     0.3843    12.3040    86.1028     0.0680     2.4396   -75.2042     8.8258     8.9110     9.0265
 1205.5000     0.3855    12.2906    87.7429     0.0801     2.4502   -75.3273     8.8492     8.9164     9.0333
 1206.0000     0.3798    12.2921    89.0427     0.0696     2.4383   -75.1477     8.8726     8.9217     8.9760
 1206.5000     0.3740    12.2489    86.8129     0.0697     2.4451   -75.2707     8.8960     8.9273     8.9671
 1207.0000     0.3698    12.2504    86.4093     0.0743     2.4474   -75.2354     8.8874     8.8713     8.8658
 1207.5000     0.3674    12.2220    87.6414     0.0828     2.4460   -75.3654     8.8597     8.8767     8.8129
 1208.0000     0.3724    12.2235    90.9776     0.0781     2.4476   -75.3301     8.8038     8.8176     8.8190
 1208.5000     0.3739    12.2250    93.2661     0.0868     2.4569   -75.4602     8.7492     8.7058     8.7652
 1209.0000     0.3694    12.2268    95.6729     0.0831     2.4536   -75.4248     8.7551     8.5926     8.7723
 1209.5000     0.3720    12.1985    93.6011     0.0703     2.4466   -75.3966     8.7001     8.4943     8.7108
 1210.0000     0.3795    12.1851    92.8159     0.0671     2.4455   -75.5196     8.6471     8.3111     8.6314
 1210.5000     0.3708    12.1716    94.2451     0.0717     2.4502   -75.6426     8.5929     8.1457     8.6108
 1211.0000     0.3696    12.1731    95.8375     0.0613     2.4552   -75.6143     8.5258     8.0377     8.5566
 1211.5000     0.3743    12.1597    98.3585     0.0794     2.4765   -75.7383     8.4121     7.9873     8.5657
 1212.0000     0.3836    12.1612   101.7767     0.0674     2.4503   -75.8608     8.3513     7.8842     8.5040
 1212.5000     0.3779    12.1474   104.4153     0.0705     2.4421   -75.8321     8.3215     7.8138     8.4590
 1213.0000     0.3709    12.1492   104.8112     0.0646     2.4489   -75.9551     8.2686     7.7316     8.3505
 1213.5000     0.3673    12.1354   101.3226     0.0571     2.4325   -75.9259     8.1052     7.6302     8.2975
 1214.0000     0.3755    12.1075    98.3368     0.0587     2.4319   -75.8915     7.9986     7.5573     8.1910
 1214.5000     0.3906    12.0643    97.6892     0.0633     2.4297   -75.8632     7.8395     7.5170     8.1391
 1215.0000     0.4049    12.0356    96.8678     0.0678     2.4253   -75.9933     7.7366     7.4360     8.0714
 1215.5000     0.4159    12.0072    94.6569     0.0566     2.4193   -75.9579     7.6613     7.4407     8.0199
 1216.0000     0.4197    11.9938    92.4460     0.0770     2.4381   -75.9297     7.5874     7.3941     7.8813
 1216.5000     0.4016    11.9804    90.2350     0.0868     2.4562   -76.0597     7.5923     7.3475     7.7250
 1217.0000     0.3803    11.9822    91.6009     0.0831     2.4532   -76.1828     7.5450     7.2954     7.6244
 1217.5000     0.3677    11.9837    93.4138     0.0832     2.4488   -76.1474     7.5497     7.2560     7.5252
 1218.0000     0.3557    11.9852    95.8974     0.0893     2.4549   -76.1191     7.5024     7.2606     7.5309
