~VERSION INFORMATION
 VERS.                2.0:   CWLS LOG ASCII STANDARD - VERSION 2.0
 WRAP.                 NO:   ONE LINE PER DEPTH STEP
~WELL INFORMATION
#MNEM.UNIT      DATA TYPE    INFORMATION
#----------   ------------   ------------------------------
 STRT.F            0.5000:   START DEPTH
 STOP.F         5663.0000:   STOP DEPTH
 STEP.F            0.5000:   STEP LENGTH
 NULL.          -999.2500:   NO VALUE
 COMP.         U. S. NAVY:   COMPANY
 WELL.         US TP #1-3:   WELL
 FLD . TEAPOT NAVAL RESERVE:   FIELD
 LOC .       S3 T38N R78W:   LOCATION
 CNTY.            NATRONA:   COUNTY
 STAT.            WYOMING:   STATE
 CTRY. UNITED STATES OF AMERICA:   COUNTRY
 SRVC.       SCHLUMBERGER:   SERVICE COMPANY
 DATE.        27-FEB-1953:   LOGDATE
 API .     49025064250000:   API NUMBER
~CURVE INFORMATION
#MNEM.UNIT       API CODE    CURVE DESCRIPTION
#----------   ------------   ------------------------------
 DEPT.F                  :   
 SPR .MV     01 010 01 00:   SPONTANEOUS POTENTIAL FROM RES.
 ASN .OHMM   01 041 16 00:   AMPLIFIED SHORT NORMAL 16"
 LAT .OHMM   01 070 00 00:   LATERAL
 LN  .OHMM   01 060 64 00:   LONG NORMAL 64"
 GRN .CPS    35 310 01 00:   GAMMA RAY
 NEUT.NAPI   35 330 01 00:   NEUTRON
~PARAMETER INFORMATION
#MNEM.UNIT          VALUE    DESCRIPTION
#----------   ------------   ------------------------------
 EKB .F            0.0000:   Kelly bushing
 EGL .F            0.0000:   Ground level
 EDF .F            0.0000:   Drilling floor
 EPD .F            0.0000:   Permanent datum
 TD  .F         5653.0000:   Total depth
 DATE.        27-FEB-1953:   Date logged
 CLNT.            A2DTECH:   Client Code
 DD  .F              5653:   Depth driller
 DL  .F              5653:   Depth logger
 BLI .F              5652:   Bottom log interval
 TLI .F               446:   Top log interval
 CBD1.F               445:   Casing driller 1
 CBL1.F               446:   Casing logger 1
 BS1 .IN                9:   Bit size
 BSD1.F              5653:   Depth drilled with bit1
 DFT .          LIMA/BASE:   Type fluid in hole
 DFD .                9.9:   Density
 DFV .                 43:   Viscosity
 RMS .OHMM            1.1:   Rm
 MST .F                55:   Rm Meas. temp.
 RMB .OHMM            .34:   Rm. at BHT
 BHT .F               166:   BHT.
 TCS .HRS               1:   Time Circ. stopped
 MRT .F               166:   Maximum recorded temp.
 LUN .                728:   Logging unit number
 LUL .               CSPR:   Logging unit location
 ENGI.            EVENSON:   Recorded By
 WITN.              MILLS:   Witnessed by
 ORIG.      1" 2.5" PRINT:   Origin of data
 UWI .     49025064250000:   Unique Well ID
 DICO. A2D TECHNOLOGIES, INC.:   Digitizing Company
~OTHER INFORMATION
~A  DEPTH      SPR        ASN        LAT         LN        GRN       NEUT
# ...
 4576.5000   -36.7568    77.8977    41.4605   213.0016    11.3087  1057.5000
 4577.0000   -37.0270    76.5534    43.5089   216.5622    12.5771  1055.0000
 4577.5000   -36.7568    76.5533    44.7883   218.5308    12.3062  1057.5000
 4578.0000   -36.7568    76.5531    45.7676   221.5911    10.5549  1067.5000
 4578.5000   -36.7568    75.6606    46.5342   223.3353     9.0538  1100.0000
 4579.0000   -36.7568    74.9448    47.2673   226.0448     9.0524  1147.5000
 4579.5000   -36.7568    74.1185    48.1458   227.3990     9.0513  1210.1923
 4580.0000   -36.7568    72.5201   117.9081   227.3984     9.0500  1235.0000
 4580.5000   -36.4865    70.3982   128.7896   227.3976     9.2987  1202.5000
 4581.0000   -36.2162    69.1080   144.1342   228.7521    10.0475  1142.5000
 4581.5000   -35.9459    67.0449   166.4226   228.7513    10.6943  1162.5000
 4582.0000   -35.9459    64.4550   185.4821   227.3957    11.2948  1187.5000
 4582.5000   -35.9459    63.5709   206.7439   221.9748    11.7937  1162.5000
 4583.0000   -35.9459    61.1695   225.3564   216.5542    12.2923  1019.2485
 4583.5000   -35.8137    59.0781   261.8500   206.6200    14.7910   917.5000
 4584.0000   -35.6757    58.4688   313.3468   190.8076    21.2898   845.0000
 4584.5000   -35.6757    56.3896   416.7095   180.7915    30.2886   845.0000
 4585.0000   -35.6757    55.0454   479.5901   171.8360    37.7873   842.5000
 4585.5000   -35.4054    63.1097   492.8744   164.3307    42.5361   815.0000
 4586.0000   -35.1351    68.7405   501.0941   151.5094    46.2848   702.5000
 4586.5000   -35.1351    72.5180   500.0289   137.5850    48.7836   607.5000
 4587.0000   -34.8649    75.2060   499.7486   110.8576    50.3384   547.5000
 4587.5000   -34.8649    76.5499   499.7480    96.9267    52.0311   447.5000
 4588.0000   -34.8649    77.8938   499.7473    86.4660    54.0299   397.5000
 4588.5000   -34.8649    76.5496   498.0714    79.6223    57.2786   405.0000
 4589.0000   -34.8649    75.2053   494.3695    58.7999    60.0274   419.2012
 4589.5000   -35.1351    62.0537   491.1885    55.8036    65.2761   432.5000
 4590.0000   -35.1351    53.6996   484.9596    52.8074    73.0249   417.5000
 4590.5000   -35.4054    21.4827   480.2142    49.6063    78.2736   380.0000
 4591.0000   -35.6757    18.8874   472.8615    45.5202    81.5224   330.0000
 4591.5000   -35.6757    18.1558   464.5831    44.1849    85.7711   307.5000
 4592.0000   -35.6757    17.1398   451.3547    43.1006    88.5199   292.5000
 4592.5000   -35.9459    16.4123   442.6581    40.5250    88.2687   297.8353
 4593.0000   -35.9459    15.5265   433.3881    38.8220    85.7991   327.5000
 4593.5000   -36.2162    15.5264   421.4789    37.1361    77.0162   365.0000
 4594.0000   -36.7568    15.5262   408.4062    36.1834    66.2649   405.0000
 4594.5000   -37.0270    15.7905   392.2116    35.6823    63.2637   437.5000
 4595.0000   -37.0270    16.1206   372.5841    35.1822    61.7624   467.5000
 4595.5000   -37.0270    16.3321   349.1996    34.7767    61.2614   488.0752
 4596.0000   -37.5676    16.5564   331.6707    34.5199    66.2599   497.5000
 4596.5000   -37.8378    16.7617   312.9079    34.4221    76.0087   412.5000
 4597.0000   -37.8378    16.9536   297.6300    34.2858    89.0073   337.5000
 4597.5000   -37.8378    17.1379   272.5839    33.9994    97.5060   307.5000
 4598.0000   -37.8378    17.1378   246.8158    33.7425   105.5048   297.5000
 4598.5000   -37.8378    17.1376   210.7546    33.4533   106.0039   310.0000
 4599.0000   -37.8378    16.9917   191.4996    33.1196   104.5023   325.0000
 4599.5000   -37.8378    16.6976   173.1188    32.7891    95.0010   347.5000
 4600.0000   -37.8383    16.4649   165.0538    32.5540    86.0803   365.0000
 4600.5000   -37.8389    16.1653   151.7871    32.0542    84.7479   375.0000
 4601.0000   -37.8394    15.8771   134.1384    31.5383    87.4946   377.5000
 4601.5000   -37.8400    15.5658   113.9603    30.7567    90.2422   350.0000
 4602.0000   -37.8406    15.5235    96.5027    30.4410    93.9897   330.0000
 4602.5000   -37.8412    15.4368    90.2188    30.2134    96.7372   360.0000
 4603.0000   -37.8419    15.5232    84.4045    30.2127    96.4847   410.0000
 4603.5000   -37.7740    15.5230    75.6074    30.4830    89.9823   437.5000
 4604.0000   -37.5730    15.6572    64.2419    30.8518    88.2298   447.5000
 4604.5000   -37.2534    15.8073    55.5412    31.4301    88.7277   427.5000
 4605.0000   -37.0338    16.0601    51.4944    32.1155    88.7249   390.0000
 4605.5000   -37.0345    16.2034    49.3015    32.6532    87.3668   392.5000
 4606.0000   -37.0353    16.6634    49.0510    33.3252    84.2199   416.8047
 4606.5000   -37.0358    16.9934    48.3473    34.0420    78.4670   427.5000
 4607.0000   -37.0366    17.3645    46.7647    34.9498    70.2146   425.0000
 4607.5000   -37.0372    17.9423    45.8168    35.6775    66.9625   515.0000
 4608.0000   -37.0378    18.3872    44.4888    36.5745    61.9596   525.0000
 4608.5000   -37.0385    18.8516    42.7305    37.7274    57.7071   530.0000
 4609.0000   -37.0392    19.2646    40.5916    38.8766    52.2047   547.5000
 4609.5000   -37.0399    19.9565    37.2184    39.5997    48.7022   582.5000
 4610.0000   -37.0405    20.9782    36.3643    40.3657    45.1997   647.5000
 4610.5000   -36.7709    22.9131    36.0073    41.0648    41.9472   697.5000
 4611.0000   -36.7716    23.7455    36.3327    41.8549    38.9448   717.5000
 4611.5000   -36.7724    24.6601    38.1565    42.1253    37.4423   695.0000
 4612.0000   -36.7730    25.0632    39.2147    42.2603    37.1902   660.0000
 4612.5000   -36.7736    25.1974    40.8433    42.1240    41.1873   575.0000
 4613.0000   -36.7743    25.4661    42.2708    41.7415    47.9349   537.5000
 4613.5000   -36.7751    25.2840    44.8742    41.2231    54.9324   527.5000
 4614.0000   -36.7757    25.1969    46.1313    40.5567    66.6795   407.5000
 4614.5000   -36.7764    24.8921    47.5610    39.7341    77.9270   377.5000
 4615.0000   -36.7770    24.3901    48.3776    38.8729    88.1746   362.5000
 4615.5000   -36.7777    23.5098    49.1045    37.7838    92.4221   327.5000
 4616.0000   -36.7784    22.5080    49.3064    36.7664    94.6700   292.5000
 4616.5000   -36.7791    21.7971    49.4403    34.8014    92.9172   277.5000
 4617.0000   -37.0501    20.4916    49.5739    33.9862    90.4147   315.0000
 4617.5000   -37.0507    19.1280    49.5733    33.3816    87.6622   372.5000
 4618.0000   -37.0514    16.8790    49.5725    32.9024    84.3784   517.5000
 4618.5000   -37.0520    16.3769    49.5321    32.7148    80.1573   552.5000
 4619.0000   -37.0528    17.1001    49.1679    32.3590    76.1548   557.5000
 4619.5000   -37.0534    17.7600    46.6398    32.4377    72.6523   517.5000
 4620.0000   -37.0542    18.2458    38.2795    33.4417    70.1498   509.4970
 4620.5000   -37.0547    18.5761    35.9267    34.4734    71.1474   505.0000
 4621.0000   -37.3258    18.9608    35.4918    35.4728    73.3949   500.0000
 4621.5000   -37.3264    19.4148    36.1618    36.1976    75.6420   485.0000
 4622.0000   -37.5973    19.7009    36.9513    37.1178    76.6395   465.1035
 4622.5000   -37.8683    19.9600    37.6839    37.6431    75.8871   447.5000
 4623.0000   -37.8689    20.2269    38.5456    38.0415    73.8846   482.5000
 4623.5000   -37.8696    20.4559    39.6189    38.3150    72.8821   527.5000
 4624.0000   -37.8703    20.6649    41.0650    38.6125    72.8796   540.0000
 4624.5000   -37.8710    20.8531    42.0369    38.7202    71.8009   545.0000
 4625.0000   -37.8716    21.0265    42.9933    38.7195    68.1247   547.5000
 4625.5000   -37.8724    21.2354    44.0517    38.4478    63.1222   555.0000
 4626.0000   -37.8730    21.4294    44.5379    38.1458    61.8697   517.5000
 4626.5000   -37.8737    21.4293    45.1256    37.7689    62.6173   462.5000
 4627.0000   -37.8743    21.4291    45.6266    37.4018    68.1148   417.5000
 4627.5000   -37.8751    21.4289    46.4683    37.0097    75.8623   387.5000
 4628.0000   -37.8757    21.2836    47.6157    36.6761    87.6099   387.5000
