~VERSION INFORMATION
 VERS.                2.0:   CWLS LOG ASCII STANDARD - VERSION 2.0
 WRAP.                 NO:   ONE LINE PER DEPTH STEP
~WELL INFORMATION
#MNEM.UNIT      DATA TYPE    INFORMATION
#----------   ------------   ------------------------------
 STRT.F          634.0000:   START DEPTH
 STOP.F         3464.0000:   STOP DEPTH
 STEP.F            0.5000:   STEP LENGTH
 NULL.          -999.2500:   NO VALUE
 COMP. LAWRENCE-ALLISON & ASSOCIATES W:   COMPANY
 WELL. LAWRENCE "TX" #44-27:   WELL
 FLD .   NAVAL RESERVE #3:   FIELD
 LOC .      S27 T39N R78W:   LOCATION
 CNTY.            NATRONA:   COUNTY
 STAT.            WYOMING:   STATE
 CTRY. UNITED STATES OF AMERICA:   COUNTRY
 SRVC.       SCHLUMBERGER:   SERVICE COMPANY
 DATE.        13-MAR-1982:   LOGDATE
 API .     49025108870000:   API NUMBER
~CURVE INFORMATION
#MNEM.UNIT       API CODE    CURVE DESCRIPTION
#----------   ------------   ------------------------------
 DEPT.F                  :   
 TENR.LBS    07 635 01 00:   TENSION FROM RESISTIVITY
 ILD .OHMM   07 120 46 00:   DEEP INDUCTION RESISTIVITY
 ILM .OHMM   07 120 44 00:   INDUCTION LOG MEDIUM RESISTIVITY
 SFLU.OHMM   07 220 01 00:   SPHERICALLY FOCUSED LOG UNAVERAGED RESISTIVITY
 SPR .MV     07 010 01 00:   SPONTANEOUS POTENTIAL
 TENN.LBS    42 635 01 00:   TENSION FROM COMPENSATE NEUTRON
 CALD.IN     45 280 60 00:   CALIPER FROM DENSITY LOG
 GRD .GAPI   45 310 01 00:   GAMMA RAY FROM DENSITY LOG
 RHOB.G/C3   45 350 01 00:   BULK DENSITY
 DRHO.G/C3   45 356 01 00:   DENSITY CORRECTION
 NPHI.DEC    42 890 03 00:   NEUTRON POROSITY SANDSTONE
~PARAMETER INFORMATION
#MNEM.UNIT          VALUE    DESCRIPTION
#----------   ------------   ------------------------------
 EKB .F         5049.0000:   Kelly bushing
 EGL .F         5039.0000:   Ground level
 EDF .F            0.0000:   Drilling floor
 EPD .F            0.0000:   Permanent datum
 TD  .F         3440.0000:   Total depth
 DATE.        13-MAR-1982:   Date logged
 CLNT.            A2DTECH:   Client Code
 PD  .                 GL:   Permanent Datum
 DD  .F              3440:   Depth driller
 DL  .F              3439:   Depth logger
 BLI .F              3433:   Bottom log interval
 CS1 .IN            9.625:   Casing size
 CBD1.      9.625" @ 650':   Casing driller 1
 CBL1.F               647:   Casing logger 1
 BS1 .IN            7.875:   Bit size
 DFT .                GEL:   Type fluid in hole
 DFD .                9.3:   Density
 DFV .                 48:   Viscosity
 DFPH.                 10:   pH
 DFL .                  8:   Fluid loss
 MSS .                PIT:   Source of sample
 RMS .OHMM           1.82:   Rm
 MST .F                67:   Rm Meas. temp.
 RMF .OHMM           1.32:   Rmf
 MFST.F                67:   Rmf Meas. temp.
 MFSS.               MEAS:   Source Rmf.
 RMB .OHMM           1.09:   Rm. at BHT
 BHT .F               112:   BHT.
 TCS .HRS            1300:   Time Circ. stopped
 MRT .F               112:   Maximum recorded temp.
 LUN .               8039:   Logging unit number
 LUL .               CSPR:   Logging unit location
 ENGI.   WAGNER/CONOSENTI:   Recorded By
 WITN.           JENNINGS:   Witnessed by
 ORIG.           5" PRINT:   Origin of data
 UWI .     49025108870000:   Unique Well ID
 DICO. A2D TECHNOLOGIES, INC.:   Digitizing Company
 DAPD.                 10:   Feet Above Permanent Datum
 BSD1.F              3440:   Depth drilled with bit1
 TLI .F               647:   Top log interval
 TLAB.HRS            1800:   Time logger at bottom
~OTHER INFORMATION
~A   DEPT     TENR        ILD        ILM       SFLU        SPR       TENN       CALD         GRD      RHOB       DRHO       NPHI   
# ...
 3409.5000  1613.8090     4.7050     4.9630     6.0460   -19.5910  1974.3669     8.1020   139.4950     2.5280     0.0280     0.2280
 3410.0000  1613.2760     4.7870     4.9520     5.7030   -19.5850  1977.6200     8.0920   140.4950     2.5200     0.0240     0.2340
 3410.5000  1612.7430     4.8340     4.9400     5.8230   -19.5860  1982.0140     8.0810   139.3950     2.5150     0.0220     0.2390
 3411.0000  1612.2100     4.7060     4.9290     6.0590   -19.5870  1986.4091     8.0780   138.0850     2.5220     0.0250     0.2380
 3411.5000  1611.6770     4.5920     4.8340     6.2960   -19.5860  1990.8030     8.0780   138.7760     2.5340     0.0270     0.2310
 3412.0000  1611.1440     4.4770     4.6990     6.5460   -19.5900  1995.1970     8.0780   140.4530     2.5410     0.0290     0.2210
 3412.5000  1610.6121     4.3630     4.5640     6.1750   -19.7060  1999.5920     8.0770   143.2980     2.5280     0.0300     0.2260
 3413.0000  1610.0790     4.3020     4.3690     5.6750   -19.8260  2003.9860     8.0620   146.0620     2.5180     0.0300     0.2380
 3413.5000  1609.5460     4.4090     4.4060     5.1750   -19.9460  2008.3800     8.0580   148.0840     2.5080     0.0280     0.2460
 3414.0000  1609.0129     4.2960     4.3810     5.0610   -20.0660  2012.7740     8.0580   149.5620     2.5030     0.0210     0.2460
 3414.5000  1608.4800     4.1800     4.3060     5.3940   -20.1850  2017.1689     8.0580   147.4630     2.5000     0.0150     0.2390
 3415.0000  1607.9470     4.0640     4.2300     5.6510   -20.3030  2021.5630     8.0580   145.3760     2.4920     0.0100     0.2340
 3415.5000  1607.4139     3.9490     4.1550     5.2340   -20.4030  2025.9570     8.0580   145.9250     2.4790     0.0090     0.2380
 3416.0000  1606.8810     3.9490     4.0890     4.8850   -20.6430  2030.3510     8.0580   147.0340     2.4850     0.0170     0.2450
 3416.5000  1606.7860     3.9410     4.0560     4.6160   -20.8800  2027.1541     8.0580   146.7650     2.4950     0.0250     0.2520
 3417.0000  1606.7860     3.8980     4.0230     4.7130   -20.9530  1998.6960     8.0580   145.7010     2.5060     0.0310     0.2570
 3417.5000  1606.7860     3.8550     3.9900     4.9380   -20.6460  1994.0480     8.0580   145.3310     2.5170     0.0340     0.2580
 3418.0000  1606.7860     3.8120     3.9390     5.0610   -20.3360  1995.4100     8.0580   145.1410     2.5130     0.0380     0.2590
 3418.5000  1606.7860     3.7710     3.8850     4.8590   -20.0270  1996.7209     8.0580   144.4850     2.5080     0.0440     0.2600
 3419.0000  1606.7860     3.7020     3.8310     4.6680   -19.7160  1998.0320     8.0580   145.6860     2.5110     0.0520     0.2610
 3419.5000  1606.7860     3.5960     3.7770     4.5320   -19.5860  1999.3420     8.0580   146.8900     2.5180     0.0590     0.2620
 3420.0000  1606.7860     3.5170     3.6670     4.7250   -19.5900  2000.6530     8.0580   148.0760     2.5240     0.0580     0.2590
 3420.5000  1606.7860     3.4370     3.5500     4.7890   -19.6360  2001.9630     8.0580   149.2690     2.5130     0.0490     0.2570
 3421.0000  1606.7860     3.3580     3.4330     4.4600   -18.9260  2003.2740     8.0580   149.4890     2.5010     0.0410     0.2580
 3421.5000  1606.7860     3.2780     3.3420     4.2080   -18.2740  2004.5840     8.0580   148.4740     2.4900     0.0400     0.2650
 3422.0000  1606.7860     3.1980     3.2760     3.9560   -18.4530  2005.8950     8.0550   145.9520     2.4820     0.0420     0.2700
 3422.5000  1606.7860     3.1190     3.2090     3.8410   -19.1760  2007.2061     8.0500   143.8850     2.4790     0.0450     0.2730
 3423.0000  1606.7860     3.0390     3.1420     3.8520   -19.2960  2008.5160     8.0450   144.9120     2.4840     0.0520     0.2760
 3423.5000  1606.7860     2.9590     3.0760     3.8710   -19.5400  2009.8270     8.0390   146.0020     2.4890     0.0600     0.2800
 3424.0000  1606.7860     2.8800     3.0090     3.8900   -19.7800  2011.1370     8.0340   150.1760     2.4770     0.0490     0.2850
 3424.5000  1606.7860     2.8110     2.9420     3.9490   -20.0210  2012.4480     8.0280   150.6980     2.4570     0.0320     0.2870
 3425.0000  1606.7860     2.7590     2.9150     3.7940   -20.2620  2013.8890     8.0230   150.3040     2.4370     0.0240     0.2850
 3425.5000  1606.7860     2.8190     2.9420     3.5330   -20.5010  2012.7090     8.0170   149.7530     2.4310     0.0290     0.2810
 3426.0000  1606.7860     2.9020     3.0220     3.2720   -20.7460  2011.3979     8.0120   146.4800     2.4460     0.0430     0.2760
 3426.5000  1606.7860     2.9860     3.1080     3.2260   -21.0240  2010.0880     8.0070   144.2090     2.4680     0.0460     0.2750
 3427.0000  1606.7860     3.0700     3.1940     3.9930   -20.7340  2008.7770     8.0010   146.4830     2.4900     0.0440     0.2780
 3427.5000  1606.7860     3.1540     3.2800     4.9150   -20.4460  2007.4670     7.9960   148.6520     2.5060     0.0430     0.2820
 3428.0000  1606.7860     3.2380     3.3650     5.6510   -20.0720  2006.1560     7.9900   149.9120     2.5210     0.0500     0.2870
 3428.5000  1606.7860     3.3160     3.4460     5.4470   -19.7020  2004.8450     7.9850   150.0740     2.5350     0.0610     0.2920
 3429.0000  1606.7860     3.3360     3.5040     4.9950   -19.3360  2003.5350     7.9800   150.2430     2.5350     0.0710     0.2930
 3429.5000  1606.7860     3.3460     3.5040     4.5710   -19.0030  2002.2240     7.9740   150.4430     2.5280     0.0790     0.2880
 3430.0000  1606.7860     3.2430     3.3700     4.1480   -18.6750  2000.9139     7.9690   148.8570     2.5150     0.0770     0.2830
 3430.5000  1606.7860     3.1380     3.2460     3.7630   -18.3160  1999.6030     7.9630   146.5740     2.5010     0.0660     0.2790
 3431.0000  1606.7860     3.0340     3.1290     3.6920   -17.9830  1998.2930     7.9580   144.4640     2.4920     0.0550     0.2780
 3431.5000  1606.7860     2.9420     3.0810     3.6210   -17.9810  1996.9821     7.9530   145.8560     2.4850     0.0440     0.2800
 3432.0000  1606.7860     2.9750     3.0810     3.5500   -18.3410  1995.6710     7.9470   148.5590     2.4850     0.0450     0.2840
 3432.5000  1606.7860     3.0350     3.1380     3.5040   -18.7480  1994.3610     7.9420   150.5120     2.4910     0.0560     0.2890
 3433.0000  1606.7860     3.0950     3.2260     3.5690   -19.1550  1995.0450     7.9360   150.4550     2.5020     0.0660     0.2900
 3433.5000  1606.7860     3.1090     3.3810     4.1680   -19.5650  1996.3550     7.9310   150.4340     2.5150     0.0640     0.2880
 3434.0000  1606.7860  -999.2500     3.6030     5.2520   -19.9740  1997.6660     7.9260   149.3540     2.5280     0.0570     0.2840
 3434.5000  1606.7860  -999.2500     3.8240     6.1380  -999.2500  1998.9771     7.9200   146.3460     2.5400     0.0510     0.2830
 3435.0000  1610.5880  -999.2500     4.0460     6.2520  -999.2500  2000.2870     7.9150   142.8140     2.5500     0.0530     0.2820
 3435.5000  1620.1880  -999.2500     4.1340     6.3100  -999.2500  2001.5980     7.9090   126.0560     2.5540     0.0550     0.2760
 3436.0000  1629.7880  -999.2500     4.1340     6.3100  -999.2500  2002.9080     7.9030    94.1130     2.5540     0.0560     0.2680
 3436.5000  1639.3879  -999.2500     4.1340     6.3100  -999.2500  2004.2190     7.8990    52.8750     2.5430     0.0420     0.2670
 3437.0000  1648.9880  -999.2500     4.1340     6.3100  -999.2500  2005.5291     7.8650    34.0420     2.5350     0.0270     0.2730
 3437.5000  1658.5880  -999.2500     4.1340     6.3100  -999.2500  2006.8400     7.8160    29.9880     2.5090     0.0250     0.2800
 3438.0000  1668.1870  -999.2500     4.1340     6.3100  -999.2500  2008.1510     7.8380  -999.2500     2.4550     0.0630     0.2880
 3438.5000  1677.7870  -999.2500     4.1340     6.3100  -999.2500  2009.4611     6.7290  -999.2500     2.3610     0.0980     0.2950
 3439.0000  1686.6270  -999.2500     4.1340     6.3100  -999.2500  2010.7720  -999.2500  -999.2500     2.3300     0.2080     0.3030
 3439.5000  1550.6490  -999.2500     4.1340     6.3100  -999.2500  2012.0820  -999.2500  -999.2500     2.3210  -999.2500     0.3090
