~VERSION INFORMATION
 VERS.                2.0:   CWLS LOG ASCII STANDARD - VERSION 2.0
 WRAP.                 NO:   ONE LINE PER DEPTH STEP
~WELL INFORMATION
#MNEM.UNIT      DATA TYPE    INFORMATION
#----------   ------------   ------------------------------
 STRT.F         1053.5000:   START DEPTH
 STOP.F         3062.0000:   STOP DEPTH
 STEP.F            0.5000:   STEP LENGTH
 NULL.          -999.2500:   NO VALUE
 COMP.    FENIX & SCISSON:   COMPANY
 WELL.  FENIX "A" #301-11:   WELL
 FLD .              NPR-3:   FIELD
 LOC .      S11 T38N R78W:   LOCATION
 CNTY.            NATRONA:   COUNTY
 STAT.            WYOMING:   STATE
 CTRY. UNITED STATES OF AMERICA:   COUNTRY
 SRVC.      NL MCCULLOUGH:   SERVICE COMPANY
 DATE.        13-OCT-1977:   LOGDATE
 API .     49025104410000:   API NUMBER
~CURVE INFORMATION
#MNEM.UNIT       API CODE    CURVE DESCRIPTION
#----------   ------------   ------------------------------
 DEPT.F                  :   
 GR  .GAPI   35 310 01 00:   GAMMA RAY
 NEUT.NAPI   35 330 01 00:   NEUTRON
~PARAMETER INFORMATION
#MNEM.UNIT          VALUE    DESCRIPTION
#----------   ------------   ------------------------------
 EDF .F         5165.0000:   Drilling floor
 TD  .F         3097.0000:   Total depth
 CLNT.            A2DTECH:   Client Code
 PD  .                 DF:   Permanent Datum
 EPD .F              5165:   Elevation Permanent Datum
 LMF .                 GL:   Log Measured From
 DMF .                 DF:   Drilling Measured From
 DATE.        13-OCT-1977:   Date Logged [DD-MMM-YYYY]
 DD  .F              3097:   Depth driller
 BLI .F              3060:   Bottom log interval
 TLI .F              1060:   Top log interval
 BSD1.F              3097:   Depth drilled with bit1
 DFT .              WATER:   Type fluid in hole
 ENGI.            MUNDELL:   Recorded By
 ORIG.           5" PRINT:   Origin of data
 UWI .     49025104410000:   Unique Well ID
 DICO. A2D TECHNOLOGIES, INC.:   Digitizing Company
~OTHER INFORMATION
~A  DEPT         GR      NEUT   
# ...
 2754.5000    84.0078   233.6827
 2755.0000    83.3819   237.0286
 2755.5000    82.9124   237.0286
 2756.0000    83.0689   234.7980
 2756.5000    83.6949   234.7980
 2757.0000    84.1643   234.7980
 2757.5000    84.6338   233.6827
 2758.0000    84.9467   232.0098
 2758.5000    85.4162   229.2216
 2759.0000    85.5727   223.6451
 2759.5000    85.8856   210.8191
 2760.0000    86.0421   202.4544
 2760.5000    86.0421   203.0121
 2761.0000    86.0421   204.6984
 2761.5000    86.3551   208.1650
 2762.0000    87.9199   215.8380
 2762.5000    89.4847   224.2517
 2763.0000    89.7977   242.3131
 2763.5000    88.2329   247.8788
 2764.0000    83.0017   244.5222
 2764.5000    80.4087   244.5114
 2765.0000    79.7828   246.7313
 2765.5000    78.8439   245.0476
 2766.0000    77.5920   235.1144
 2766.5000    76.3402   232.2002
 2767.0000    76.4985   237.2056
 2767.5000    75.8289   240.5407
 2768.0000    74.4624   244.4335
 2768.5000    74.1494   245.5384
 2769.0000    74.7753   246.1040
 2769.5000    72.5846   248.8597
 2770.0000    69.7679   253.3102
 2770.5000    67.1010   249.9535
 2771.0000    65.3105   254.9616
 2771.5000    64.1345   256.6265
 2772.0000    63.9780   246.0178
 2772.5000    64.1345   244.3338
 2773.0000    65.3864   245.4386
 2773.5000    66.6382   247.0981
 2774.0000    66.6382   250.4333
 2774.5000    66.6382   253.2108
 2775.0000    66.9512   252.0847
 2775.5000    67.2642   253.1893
 2776.0000    67.2642   257.6397
 2776.5000    67.4206   249.8192
 2777.0000    67.8901   245.9049
 2777.5000    68.0466   244.2212
 2778.0000    64.7604   244.2104
 2778.5000    64.7604   246.4303
 2779.0000    65.5428   248.6501
 2779.5000    65.8558   249.7547
 2780.0000    66.0123   251.9718
 2780.5000    66.7947   254.1917
 2781.0000    68.5306   255.8539
 2781.5000    69.2984   258.0737
 2782.0000    69.1420   267.5430
 2782.5000    68.8290   269.7628
 2783.0000    67.8901   251.9046
 2783.5000    67.2642   240.7409
 2784.0000    67.1077   239.6149
 2784.5000    66.6195   239.6041
 2785.0000    67.8901   237.3628
 2785.5000    69.2984   235.1214
 2786.0000    70.3938   235.1103
 2786.5000    69.7679   234.8939
 2787.0000    69.4318   233.2121
 2787.5000    69.9244   229.7560
 2788.0000    69.2984   223.1212
 2788.5000    69.7679   221.4394
 2789.0000    70.8633   220.8788
 2789.5000    71.0197   215.2727
 2790.0000    70.8633   212.4697
 2790.5000    71.0197   211.9091
 2791.0000    71.1762   214.1515
 2791.5000    71.4892   218.6544
 2792.0000    69.4549   220.8788
 2792.5000    67.8901   224.2424
 2793.0000    67.2642   229.8485
 2793.5000    66.0123   234.3333
 2794.0000    65.5428   236.5758
 2794.5000    65.0651   236.5758
 2795.0000    64.7604   236.0152
 2795.5000    66.6382   236.5758
 2796.0000    67.4206   236.5013
 2796.5000    68.5160   233.7727
 2797.0000    70.2373   232.0909
 2797.5000    69.4549   232.0909
 2798.0000    68.5036   232.0909
 2798.5000    67.8901   232.6515
 2799.0000    67.8901   234.3333
 2799.5000    67.5771   234.3333
 2800.0000    67.7336   234.3333
 2800.5000    68.3595   232.5861
 2801.0000    68.9855   228.1667
 2801.5000    68.8290   225.3636
 2802.0000    68.5160   223.1212
 2802.5000    67.7336   225.3636
 2803.0000    67.1077   225.9242
 2803.5000    67.8901   227.6061
 2804.0000    68.2031   231.5303
 2804.5000    69.8247   232.0909
 2805.0000    70.6117   230.9697
 2805.5000    70.6192   236.5758
 2806.0000    70.9529   241.0606
 2806.5000    71.1023   241.6212
 2807.0000    70.7953   243.3030
 2807.5000    69.8625   243.3030
 2808.0000    67.9892   242.7424
 2808.5000    69.5616   242.1818
 2809.0000    69.5717   242.1818
 2809.5000    68.6348   243.3030
 2810.0000    68.1729   243.8636
 2810.5000    68.8048   243.3030
 2811.0000    68.6544   242.1818
 2811.5000    68.3460   238.2576
 2812.0000    69.2924   241.0606
 2812.5000    72.1151   245.5455
 2813.0000    73.0603   246.1061
 2813.5000    72.5966   239.3788
 2814.0000    73.0736   238.2576
 2814.5000    73.3927   237.6970
 2815.0000    72.9292   237.1364
 2815.5000    69.3362   237.1364
 2816.0000    66.9950   236.5758
 2816.5000    67.4705   236.0152
 2817.0000    65.6002   229.8485
 2817.5000    64.3544   216.3939
 2818.0000    63.1070   213.5909
 2818.5000    64.0520   208.5455
 2819.0000    61.8688   194.5303
 2819.5000    61.1807   183.8176
 2820.0000    56.8749   181.0758
 2820.5000    57.3504   182.1970
 2821.0000    57.5129   181.0758
 2821.5000    57.3625   180.5152
 2822.0000    57.9944   179.3939
 2822.5000    59.7218   179.3939
 2823.0000    60.8487   180.5152
 2823.5000    60.0483   179.3939
 2824.0000    57.7071   180.5152
 2824.5000    56.9308   183.8788
 2825.0000    58.3451   186.1212
 2825.5000    58.1947   188.3636
 2826.0000    58.3572   190.6061
 2826.5000    58.8329   192.9076
 2827.0000    58.6838   193.9697
 2827.5000    58.3753   191.7273
 2828.0000    60.5736   190.0455
 2828.5000    61.9880   190.0455
 2829.0000    62.3070   190.0455
 2829.5000    62.0001   186.6818
 2830.0000    62.0269   189.1460
 2830.5000    63.2655   193.9697
 2831.0000    63.2716   193.9697
 2831.5000    63.1196   193.9697
 2832.0000    64.3790   194.5303
 2832.5000    63.4462   194.5303
 2833.0000    62.6679   196.2121
 2833.5000    62.0499   196.2121
 2834.0000    62.6834   195.6515
 2834.5000    63.3154   192.2879
 2835.0000    63.3214   186.6818
 2835.5000    62.5450   183.8788
 2836.0000    63.1770   183.8788
 2836.5000    63.6525   183.9004
 2837.0000    62.7211   185.0000
 2837.5000    62.2562   185.0000
 2838.0000    62.7332   201.8182
 2838.5000    65.3994   204.6212
 2839.0000    65.5605   205.1818
 2839.5000    65.2549   204.0606
 2840.0000    67.1913   204.0606
 2840.5000    67.9273   206.3030
 2841.0000    67.3074   209.6667
 2841.5000    69.1928   215.8333
 2842.0000    70.2927   224.2424
 2842.5000    69.0484   222.0000
 2843.0000    67.9590   233.2121
 2843.5000    67.3247   238.9228
 2844.0000    66.7207   241.0606
 2844.5000    66.5703   237.6970
 2845.0000    67.2023   243.3030
 2845.5000    68.4602   254.5152
 2846.0000    69.0921   267.9697
 2846.5000    69.4111   273.0151
 2847.0000    70.3750   276.9394
 2847.5000    73.6498   279.1818
 2848.0000    74.9077   276.9394
 2848.5000    75.3832   261.2424
 2849.0000    79.1448   246.1061
 2849.5000    82.9064   234.3333
 2850.0000    87.2940   216.3939
 2850.5000    89.9604   194.4373
 2851.0000    91.8456   181.0758
 2851.5000    95.2942   199.0152
 2852.0000    99.6625   200.6970
 2852.5000    99.8205   200.1364
 2853.0000   101.0739   202.9394
 2853.5000   103.4289   220.9525
 2854.0000   105.4754   232.0909
 2854.5000   107.6511   235.4545
 2855.0000   109.9999   239.3788
 2855.5000   109.5320   247.7879
 2856.0000   101.7094   265.7273
 2856.5000   100.4590   296.5606
 2857.0000    99.0522   331.2509
 2857.5000    98.7404   346.4164
 2858.0000    94.3608   332.8185
 2858.5000    90.4502   326.6408
 2859.0000    89.0434   326.0693
 2859.5000    89.2014   324.9371
 2860.0000    88.2644   319.3201
 2860.5000    88.5789   315.9455
 2861.0000    90.7712   314.8134
 2861.5000    92.3376   312.5600
 2862.0000    90.7743   301.8975
 2862.5000    89.2106   282.1238
 2863.0000    91.2468   268.2365
 2863.5000    92.9696   258.6953
 2864.0000    94.3921   233.4571
 2864.5000    94.2033   227.2822
 2865.0000    94.8524   243.5261
 2865.5000    93.7585   270.4242
 2866.0000    92.3517   272.6584
 2866.5000    94.8570   266.4781
 2867.0000    96.8928   263.1035
 2867.5000    97.0504   263.0925
 2868.0000    94.8615   261.3994
 2868.5000    94.3936   263.0679
 2869.0000    94.3952   269.7843
 2869.5000    95.2117   274.2609
 2870.0000    95.4940   283.2169
 2870.5000    95.9650   288.8120
 2871.0000    97.5313   294.4071
 2871.5000    98.7847   296.6386
 2872.0000    95.6566   292.1428
 2872.5000    94.2497   283.1262
 2873.0000    95.3467   276.2978
 2873.5000    96.7565   268.5618
 2874.0000    97.5405   263.5054
 2874.5000    98.8158   269.1005
 2875.0000    99.4214   274.1350
 2875.5000    99.4232   279.1695
