~VERSION INFORMATION
 VERS.                2.0:   CWLS LOG ASCII STANDARD - VERSION 2.0
 WRAP.                 NO:   ONE LINE PER DEPTH STEP
~WELL INFORMATION
#MNEM.UNIT      DATA TYPE    INFORMATION
#----------   ------------   ------------------------------
 STRT.F          417.0000:   START DEPTH
 STOP.F         4133.0000:   STOP DEPTH
 STEP.F            0.5000:   STEP LENGTH
 NULL.          -999.2500:   NO VALUE
 COMP.    FENIX & SCISSON:   COMPANY
 WELL. FENIX  "LX" #18-11:   WELL
 FLD .              NPR 3:   FIELD
 LOC .      S11 T38N R78W:   LOCATION
 CNTY.            NATRONA:   COUNTY
 STAT.            WYOMING:   STATE
 CTRY. UNITED STATES OF AMERICA:   COUNTRY
 SRVC.       SCHLUMBERGER:   SERVICE COMPANY
 DATE.        14-JAN-1978:   LOGDATE
 API .     49025105590000:   API NUMBER
~CURVE INFORMATION
#MNEM.UNIT       API CODE    CURVE DESCRIPTION
#----------   ------------   ------------------------------
 DEPT.F                  :   
 SPR .MV     07 010 01 00:   SPONTANEOUS POTENTIAL
 SFL .OHMM   07 220 01 00:   SHALLOW FOCUSED LOG RESISTIVITY
 ILD .OHMM   07 120 46 00:   DEEP INDUCTION RESISTIVITY
 ILM .OHMM   07 120 44 00:   INDUCTION LOG MEDIUM RESISTIVITY
 CALD.IN     45 280 60 00:   CALIPER FROM DENSITY LOG
 GRD .GAPI   45 310 01 00:   GAMMA RAY FROM DENSITY LOG
 RHOB.G/C3   45 350 01 00:   BULK DENSITY
 CORR.G/C3   45 356 01 00:   DENSITY CORRECTION
 NPHI.DEC    42 890 03 00:   NEUTRON POROSITY SANDSTONE
~PARAMETER INFORMATION
#MNEM.UNIT          VALUE    DESCRIPTION
#----------   ------------   ------------------------------
 EKB .F         5220.0000:   Kelly bushing
 EGL .F         5210.0000:   Ground level
 EDF .F            0.0000:   Drilling floor
 TD  .F         4125.0000:   Total depth
 DATE.        14-JAN-1978:   Date logged
 CLNT.            A2DTECH:   Client Code
 SL  . 330' FSL & 530' FWL:   Surface Location
 PD  .                 GL:   Permanent Datum
 EPD .F              5210:   Elevation Permanent Datum
 LMF .                 KB:   Log Measured From
 DMF .                 KB:   Drilling Measured From
 DAPD.F                10:   Feet Above Permanent Datum
 DD  .F              4125:   Depth driller
 DL  .F              4121:   Depth logger
 BLI .F              4116:   Bottom log interval
 TLI .F               427:   Top log interval
 CS1 .IN            8.625:   Casing size
 CBD1.      8.625" @ 513':   Casing driller 1
 CBL1.F               427:   Casing logger 1
 BS1 .IN            7.875:   Bit size
 BSD1.F              4125:   Depth drilled with bit1
 DFT .                KCL:   Type fluid in hole
 DFD .                8.8:   Density
 DFV .                 40:   Viscosity
 DFPH.                 12:   pH
 DFL .                7.4:   Fluid loss
 MSS .           MUD TANK:   Source of sample
 RMS .OHMM           .418:   Rm
 MST .F                60:   Rm Meas. temp.
 RMF .OHMM           .343:   Rmf
 MFST.F                60:   Rmf Meas. temp.
 MFSS.               MEAS:   Source Rmf.
 RMB .OHMM            .20:   Rm. at BHT
 BHT .F               123:   BHT.
 TCS .HRS            0600:   Time Circ. stopped
 TLAB.HRS            0845:   Time logger at bottom
 MRT .F               123:   Maximum recorded temp.
 LUN .               8035:   Logging unit number
 LUL .               CSPR:   Logging unit location
 ENGI.             MARTIN:   Recorded By
 WITN.         HARRINGTON:   Witnessed by
 ORIG.      2.5" 5" PRINT:   Origin of data
 UWI .     49025105590000:   Unique Well ID
 DICO. A2D TECHNOLOGIES, INC.:   Digitizing Company
~OTHER INFORMATION
~A   DEPT      SPR        SFL        ILD        ILM       CALD         GRD      RHOB       CORR       NPHI   
# ...
 3118.0000   -33.0680     8.9050    10.6150     9.8580     8.2420    52.5040     2.3390     0.0240     0.2290
 3118.5000   -33.1340     9.1210    10.2630     9.6850     8.2480    54.8280     2.3130     0.0100     0.2530
 3119.0000   -33.2010     9.2400     9.8830     9.4990     8.2270    57.1210     2.3110     0.0050     0.2550
 3119.5000   -33.3360     9.1720     9.5030     9.3120     8.2100    59.4110     2.3260     0.0160     0.2580
 3120.0000   -33.5410     9.1140     9.1230     9.1250     8.1920    61.7270     2.3390     0.0270     0.2620
 3120.5000   -33.7460     9.0560     9.0710     8.9390     8.1760    63.9810     2.3520     0.0300     0.2620
 3121.0000   -33.9500     8.9980     9.0710     8.7520     8.1900    66.2100     2.3510     0.0300     0.2620
 3121.5000   -34.1550     8.9400     9.0710     8.5650     8.2280    66.9200     2.3440     0.0240     0.2590
 3122.0000   -34.3600     8.9050     9.0710     8.3790     8.2640    66.9160     2.3340     0.0230     0.2630
 3122.5000   -34.5650     8.9050     9.0710     8.2700     8.3000    63.7600     2.3400     0.0220     0.2630
 3123.0000   -34.7700     8.9050     9.0710     8.2700     8.3320    62.0240     2.3580     0.0290     0.2590
 3123.5000   -34.9750     8.9050     9.0710     8.3620     8.3310    64.0420     2.3680     0.0300     0.2570
 3124.0000   -35.1860     8.9050     9.0710     8.4690     8.3240    68.5090     2.3700     0.0310     0.2630
 3124.5000   -35.2300     8.9050     9.0710     8.5750     8.3170    79.6860     2.3620     0.0250     0.2750
 3125.0000   -35.2330     8.9050     9.0710     8.6610     8.3090    88.1330     2.3480     0.0200     0.2860
 3125.5000   -35.2160     8.9060     9.0740     8.6610     8.3030    91.6800     2.3340     0.0130     0.2780
 3126.0000   -34.8130     8.9030     8.9280     8.3560     8.2960    86.6110     2.3420     0.0150     0.2710
 3126.5000   -34.4000     8.9090     8.6120     8.1410     8.3530    77.5500     2.3650     0.0180     0.2630
 3127.0000   -33.9900     8.4010     8.2960     7.9260     8.4210    68.7340     2.3790     0.0230     0.2550
 3127.5000   -33.5810     8.0610     7.9800     7.7110     8.4920    59.2170     2.3620     0.0170     0.2470
 3128.0000   -33.1700     7.7220     7.6640     7.4960     8.5600    56.8050     2.3420     0.0110     0.2460
 3128.5000   -32.7610     7.3830     7.3490     7.2810     8.6290    57.4760     2.3350     0.0110     0.2510
 3129.0000   -32.4540     7.1320     7.0330     7.0660     8.7010    66.5510     2.3620     0.0170     0.2530
 3129.5000   -32.6150     7.1320     6.8100     6.8100     8.7080    73.9610     2.3820     0.0230     0.2600
 3130.0000   -32.7670     7.5860     6.9330     6.8950     8.6130    81.6970     2.3910     0.0230     0.2720
 3130.5000   -32.9170     8.0850     7.0280     7.0130     8.5220    80.4680     2.3860     0.0240     0.2810
 3131.0000   -33.0680     8.2700     7.1220     7.1320     8.4320    79.3950     2.3930     0.0260     0.2760
 3131.5000   -33.2190     8.0520     7.2170     7.2500     8.3340    71.9500     2.3910     0.0330     0.2710
 3132.0000   -33.3690     7.7510     7.3120     7.3680     8.2830    68.5590     2.3760     0.0420     0.2810
 3132.5000   -33.5200     8.1240     7.4070     7.4870     8.2510    64.7020     2.3400     0.0340     0.2930
 3133.0000   -33.6700     8.6670     7.4700     7.6050     8.2570    61.0400     2.3170     0.0150     0.3040
 3133.5000   -33.8210     9.3260     7.4700     7.6800     8.3000    57.6310     2.3150     0.0110     0.2920
 3134.0000   -33.9710     8.7730     7.4410     7.0420     8.3690    58.9360     2.3450     0.0080     0.2720
 3134.5000   -34.1220     8.0680     7.3670     6.6850     8.4610    60.8130     2.3580     0.0060     0.2650
 3135.0000   -34.2740     7.3640     7.2940     6.8100     8.5690    62.0960     2.3600     0.0080     0.2660
 3135.5000   -34.4240     6.8100     7.2210     6.9300     8.6760    62.8420     2.3480     0.0110     0.2670
 3136.0000   -34.3450     6.8100     7.1470     7.0490     8.7850    64.8750     2.3350     0.0140     0.2830
 3136.5000   -34.2570     7.1450     7.0740     7.1690     8.8890    66.8520     2.3180     0.0080     0.2990
 3137.0000   -33.8840     7.4970     7.0020     7.2890     8.9950    72.7950     2.3010     0.0010     0.2980
 3137.5000   -33.4510     7.8490     6.9620     7.3330     9.0120    77.7880     2.2970    -0.0070     0.2780
 3138.0000   -33.0180     8.2010     6.9230     7.3330     9.0270    82.5190     2.3600    -0.0060     0.2680
 3138.5000   -32.5850     8.5810     6.8840     7.3330     9.0390    86.1970     2.4170     0.0060     0.2540
 3139.0000   -32.1490     8.6610     6.8350     7.3010     9.0520    87.6880     2.4490     0.0130     0.2410
 3139.5000   -31.2800     8.2230     6.7620     7.0840     9.0650    89.3270     2.4760     0.0170     0.2350
 3140.0000   -30.3840     7.6470     6.5880     6.8680     9.0780    90.8460     2.4690     0.0100     0.2410
 3140.5000   -30.1970     7.0700     6.3860     6.6510     9.0920    95.1450     2.4610     0.0070     0.2490
 3141.0000   -29.9930     6.4940     6.1850     6.4340     9.1040    99.0590     2.4490     0.0040     0.2500
 3141.5000   -29.7890     6.2090     5.9830     6.2170     9.1170   103.3350     2.4450     0.0050     0.2500
 3142.0000   -29.5850     6.1520     5.7820     6.0010     9.1250   107.9170     2.4470     0.0070     0.2540
 3142.5000   -29.3770     6.1520     5.5800     5.7840     9.1320   108.1750     2.4520     0.0080     0.2590
 3143.0000   -29.0210     6.1520     5.3050     5.5670     9.1400   110.8610     2.4520     0.0050     0.2620
 3143.5000   -28.4530     6.1520     5.3120     5.4050     9.1470   113.9380     2.4500     0.0010     0.2560
 3144.0000   -28.6430     5.6360     5.3220     5.3550     9.1550   115.1170     2.4480    -0.0020     0.2520
 3144.5000   -28.8180     5.1130     5.3320     5.4080     9.1620   112.2450     2.4510    -0.0010     0.2530
 3145.0000   -28.9920     5.4400     5.3430     5.4440     9.1690   109.7660     2.4600     0.0020     0.2530
 3145.5000   -29.1660     6.0430     5.3530     5.4800     9.1770   107.0950     2.4670     0.0040     0.2500
 3146.0000   -29.3400     6.6470     5.3550     5.5160     9.1840   104.6490     2.4740     0.0070     0.2410
 3146.5000   -29.5140     6.7470     5.1490     5.5570     9.1910   101.8860     2.4750     0.0100     0.2310
 3147.0000   -29.6880     6.5910     4.9730     5.4350     9.1990   103.4960     2.4740     0.0120     0.2200
 3147.5000   -29.8620     6.1230     4.9730     5.2540     9.2060   107.7220     2.4730     0.0090     0.2140
 3148.0000   -30.0360     5.3830     4.9730     5.0740     9.2140   116.8660     2.4760     0.0070     0.2160
 3148.5000   -30.2140     4.9270     4.9010     4.8930     9.2210   122.3050     2.4800     0.0040     0.2200
 3149.0000   -30.1700     4.9270     4.7150     4.7130     9.2280   118.7760     2.4780     0.0020     0.2320
 3149.5000   -30.0850     4.9270     4.5280     4.5320     9.2360   115.2780     2.4710    -0.0010     0.2460
 3150.0000   -29.9990     4.9270     4.3410     4.3690     9.2430   115.8570     2.4660    -0.0020     0.2420
 3150.5000   -29.9140     4.5770     4.2830     4.3480     9.2500   119.5560     2.4670     0.0000     0.2330
 3151.0000   -29.8290     4.3290     4.2750     4.3290     9.2580   122.9360     2.4670     0.0020     0.2380
 3151.5000   -29.7440     4.3860     4.2670     4.3100     9.2650   126.3980     2.4640     0.0040     0.2570
 3152.0000   -29.6590     4.5830     4.2590     4.2910     9.2730   126.5710     2.4670     0.0060     0.2630
 3152.5000   -29.5730     4.7800     4.2520     4.2720     9.2800   122.8110     2.4820     0.0080     0.2570
 3153.0000   -29.4880     4.8820     4.2440     4.2530     9.2870   121.9810     2.4980     0.0100     0.2510
 3153.5000   -29.4030     4.7540     4.2360     4.2330     9.2950   122.1880     2.4980     0.0120     0.2450
 3154.0000   -29.3180     4.6680     4.2280     4.2140     9.3020   128.9560     2.4980     0.0120     0.2390
