~VERSION INFORMATION
 VERS.                2.0:   CWLS LOG ASCII STANDARD - VERSION 2.0
 WRAP.                 NO:   ONE LINE PER DEPTH STEP
~WELL INFORMATION
#MNEM.UNIT      DATA TYPE    INFORMATION
#----------   ------------   ------------------------------
 STRT.F          740.0000:   START DEPTH
 STOP.F         2749.0000:   STOP DEPTH
 STEP.F            0.5000:   STEP LENGTH
 NULL.          -999.2500:   NO VALUE
 COMP.    FENIX & SCISSON:   COMPANY
 WELL.   FENIX SHX #11-10:   WELL
 FLD .                NPR:   FIELD
 LOC .      S10 T38N R78W:   LOCATION
 CNTY.            NATRONA:   COUNTY
 STAT.            WYOMING:   STATE
 CTRY. UNITED STATES OF AMERICA:   COUNTRY
 SRVC.              WELEX:   SERVICE COMPANY
 DATE.        09-APR-1980:   LOGDATE
 API .     49025108060000:   API NUMBER
~CURVE INFORMATION
#MNEM.UNIT       API CODE    CURVE DESCRIPTION
#----------   ------------   ------------------------------
 DEPT.F                  :   
 GRD .GAPI   45 310 01 00:   GAMMA RAY FROM DENSITY LOG
 CALD.IN     45 280 60 00:   CALIPER FROM DENSITY LOG
 TEND.LBS    45 635 01 00:   TENSION FROM DENSITY LOG
 RHOB.G/C3   45 350 01 00:   BULK DENSITY
 CORR.G/C3   45 356 01 00:   DENSITY CORRECTION
~PARAMETER INFORMATION
#MNEM.UNIT          VALUE    DESCRIPTION
#----------   ------------   ------------------------------
 EKB .F         5287.0000:   Kelly bushing
 EGL .F         5277.0000:   Ground level
 EDF .F            0.0000:   Drilling floor
 EPD .F         5277.0000:   Permanent datum
 TD  .F         2762.0000:   Total depth
 DATE.        09-APR-1980:   Date logged
 CLNT.            A2DTECH:   Client Code
 SL  . 474' FNL & 644' FWL:   Surface Location
 PD  .                 GL:   Permanent Datum
 LMF .                 KB:   Log Measured From
 DMF .                 KB:   Drilling Measured From
 DAPD.F                10:   Feet Above Permanent Datum
 DD  .F              2762:   Depth driller
 DL  .F            2751.5:   Depth logger
 BLI .F              2750:   Bottom log interval
 TLI .F               750:   Top log interval
 CS1 .IN            9.625:   Casing size
 CBD1.      9.625" @ 760':   Casing driller 1
 BS1 .IN             8.75:   Bit size
 BSD1.F              2762:   Depth drilled with bit1
 DFT .                AIR:   Type fluid in hole
 TCS .HRS               3:   Time Circ. stopped
 MRT .F               118:   Maximum recorded temp.
 ENGI.            BENTSEN:   Recorded By
 WITN.           DINSMORE:   Witnessed by
 ORIG.         2.5" PRINT:   Origin of data
 UWI .     49025108060000:   Unique Well ID
 DICO. A2D TECHNOLOGIES, INC.:   Digitizing Company
~OTHER INFORMATION
~A   DEPT       GRD      CALD       TEND       RHOB       CORR   
# ...
 2448.0000    89.3460     8.6450  1525.0070     2.4930     0.0890
 2448.5000    91.9090     8.6610  1525.3950     2.5050     0.1080
 2449.0000    91.2790     8.6760  1525.7830     2.5180     0.1250
 2449.5000    90.9790     8.6920  1526.1700     2.5130     0.1200
 2450.0000    90.4800     8.7070  1526.5580     2.5050     0.1340
 2450.5000    90.0180     8.7230  1526.9460     2.5100     0.1300
 2451.0000    89.5900     8.7370  1527.3340     2.5190     0.1410
 2451.5000    89.1080     8.7550  1527.7220     2.5460     0.1600
 2452.0000    89.0870     8.7430  1528.1100     2.5370     0.1520
 2452.5000    89.2560     8.7150  1528.4980     2.5180     0.1330
 2453.0000    89.4570     8.6890  1528.8860     2.5090     0.1390
 2453.5000    89.6570     8.6640  1529.2740     2.4880     0.1190
 2454.0000    90.7600     8.6400  1529.6620     2.4470     0.1030
 2454.5000    91.6840     8.6380  1530.0500     2.4540     0.0980
 2455.0000    92.6720     8.6370  1530.4380     2.4660     0.1230
 2455.5000    93.6360     8.6370  1530.8250     2.4690     0.1320
 2456.0000    94.6150     8.6360  1531.2130     2.4660     0.1240
 2456.5000    95.5500     8.6350  1531.6010     2.4700     0.1140
 2457.0000    96.5060     8.6340  1531.9890     2.4760     0.1130
 2457.5000    95.8160     8.6340  1532.3770     2.4810     0.1140
 2458.0000    94.6280     8.6330  1532.7650     2.4880     0.1070
 2458.5000    93.4260     8.6320  1533.1530     2.4630     0.0910
 2459.0000    92.2710     8.6310  1533.5410     2.4780     0.1060
 2459.5000    91.1220     8.6310  1533.9290     2.5140     0.1300
 2460.0000    91.5760     8.6300  1534.3170     2.5040     0.1310
 2460.5000    92.3860     8.6290  1534.7050     2.4530     0.0920
 2461.0000    90.4850     8.6290  1535.0920     2.4390     0.0650
 2461.5000    88.9020     8.6280  1535.4800     2.4160     0.0460
 2462.0000    87.1030     8.6270  1535.8680     2.4390     0.0380
 2462.5000    86.7980     8.6260  1536.2560     2.4520     0.0420
 2463.0000    87.2520     8.6260  1536.6440     2.4340     0.0450
 2463.5000    87.6490     8.6250  1537.0320     2.4160     0.0240
 2464.0000    87.9920     8.6240  1537.4200     2.4390     0.0360
 2464.5000    88.3380     8.6230  1537.8080     2.4540     0.0520
 2465.0000    87.6730     8.6230  1538.1960     2.4660     0.0580
 2465.5000    86.9980     8.6220  1538.5840     2.4760     0.0630
 2466.0000    86.3070     8.6210  1538.9720     2.4310     0.0490
 2466.5000    85.6030     8.6200  1539.3590     2.4460     0.0340
 2467.0000    85.9050     8.6200  1539.7469     2.4660     0.0470
 2467.5000    86.6140     8.6190  1540.1350     2.4830     0.0730
 2468.0000    87.3140     8.6180  1540.5229     2.4920     0.0970
 2468.5000    88.0420     8.6170  1540.9110     2.5100     0.1090
 2469.0000    88.4240     8.6170  1541.2990     2.4470     0.0510
 2469.5000    88.3870     8.6160  1541.6880     2.4580     0.0260
 2470.0000    88.3890     8.6150  1542.0740     2.4310     0.0230
 2470.5000    88.4010     8.6140  1542.4611     2.4250     0.0200
 2471.0000    88.4020     8.6140  1542.8610     2.4130     0.0150
 2471.5000    88.3670     8.6130  1543.2690     2.4000     0.0110
 2472.0000    88.4470     8.6120  1543.6970     2.4220     0.0160
 2472.5000    88.4500     8.6120  1544.1350     2.4630     0.0440
 2473.0000    90.0810     8.6110  1544.5760     2.4680     0.0750
 2473.5000    89.6380     8.6100  1545.0140     2.4630     0.0740
 2474.0000    89.1170     8.6090  1545.4530     2.4680     0.0790
 2474.5000    88.4770     8.6090  1545.8920     2.4680     0.0970
 2475.0000    86.3120     8.6080  1546.3311     2.4750     0.0890
 2475.5000    84.1190     8.6070  1546.7700     2.4540     0.0710
 2476.0000    83.4660     8.6060  1547.2090     2.4700     0.0650
 2476.5000    83.1800     8.6060  1547.6479     2.4440     0.0610
 2477.0000    83.7410     8.6050  1548.0870     2.4250     0.0590
 2477.5000    84.2700     8.6040  1548.5260     2.4320     0.0800
 2478.0000    84.8400     8.6030  1548.9650     2.4230     0.1000
 2478.5000    85.3450     8.6030  1549.4041     2.4190     0.1080
 2479.0000    85.9460     8.6020  1549.8430     2.4120     0.1110
 2479.5000    85.2890     8.6010  1550.2820     2.4170     0.1140
 2480.0000    84.4150     8.6000  1550.7209     2.4230     0.1170
 2480.5000    83.5400     8.6000  1551.1600     2.4310     0.1210
 2481.0000    82.6630     8.5990  1551.5990     2.4170     0.0960
 2481.5000    81.6950     8.5990  1552.0380     2.4280     0.0850
 2482.0000    82.3460     8.5990  1552.4771     2.4410     0.0940
 2482.5000    86.3650     8.5990  1552.9150     2.4290     0.1050
 2483.0000    86.9320     8.6000  1553.3540     2.4170     0.0910
 2483.5000    87.4790     8.6220  1553.7930     2.4350     0.1070
 2484.0000    87.8890     8.6420  1554.2321     2.4450     0.1150
 2484.5000    88.3960     8.6640  1554.6710     2.4540     0.1160
 2485.0000    89.2070     8.6850  1555.1100     2.4610     0.1190
 2485.5000    90.1140     8.7060  1555.5490     2.4150     0.0870
 2486.0000    90.7920     8.7280  1555.9880     2.4230     0.0810
 2486.5000    92.2170     8.7490  1556.4270     2.4300     0.0900
 2487.0000    93.9540     8.7700  1556.8660     2.4390     0.0970
 2487.5000    95.4470     8.7910  1557.3051     2.4540     0.1030
 2488.0000    94.8930     8.8020  1557.7440     2.4700     0.1180
 2488.5000    94.3520     8.8070  1558.1830     2.4670     0.1360
 2489.0000    93.6850     8.8130  1558.6219     2.4680     0.1480
 2489.5000    91.9350     8.8200  1559.0610     2.4530     0.1450
 2490.0000    90.1240     8.8230  1559.5000     2.4680     0.1360
 2490.5000    88.2440     8.8300  1559.9390     2.4630     0.1120
 2491.0000    86.6430     8.8440  1560.3781     2.4740     0.0880
 2491.5000    86.1290     8.8750  1560.8170     2.4910     0.0850
 2492.0000    87.3180     8.8490  1561.2550     2.4990     0.0940
 2492.5000    89.3470     8.8300  1561.6940     2.4890     0.0940
 2493.0000    90.6110     8.8090  1562.1331     2.4710     0.0770
 2493.5000    90.0480     8.7930  1562.5720     2.4630     0.0700
 2494.0000    89.4900     8.7850  1563.0110     2.4620     0.0580
 2494.5000    88.9020     8.7760  1563.4500     2.4750     0.0610
 2495.0000    88.2840     8.7670  1563.8890     2.4940     0.0680
 2495.5000    87.7390     8.7580  1564.3280     2.4880     0.0550
 2496.0000    86.6110     8.7500  1564.7670     2.4420     0.0240
 2496.5000    85.6020     8.7410  1565.2061     2.4120     0.0020
 2497.0000    84.6450     8.7320  1565.6450     2.4060     0.0040
 2497.5000    83.7290     8.7240  1566.0840     2.4150     0.0100
 2498.0000    84.4890     8.7030  1566.5229     2.4360     0.0200
 2498.5000    85.4130     8.6670  1566.9620     2.4530     0.0290
 2499.0000    86.4000     8.6350  1567.4010     2.4670     0.0390
 2499.5000    87.5220     8.6010  1567.8400     2.4650     0.0310
 2500.0000    86.2230     8.5990  1568.2791     2.4620     0.0170
 2500.5000    83.1530     8.5990  1568.7180     2.4320     0.0040
 2501.0000    82.9690     8.5990  1569.1560     2.4220    -0.0100
 2501.5000    83.8880     8.5990  1569.5950     2.4320    -0.0040
 2502.0000    85.8900     8.5990  1570.0341     2.4780     0.0030
 2502.5000    87.7620     8.5990  1570.4730     2.4660     0.0120
 2503.0000    89.6590     8.5990  1570.9120     2.4440     0.0100
 2503.5000    91.5530     8.5990  1571.3510     2.4290     0.0070
 2504.0000    93.4080     8.5990  1571.7900     2.4190     0.0060
 2504.5000    95.4610     8.5990  1572.2290     2.4090     0.0090
 2505.0000    95.4760     8.5990  1572.6680     2.4100     0.0130
 2505.5000    93.9180     8.5990  1573.1071     2.3940    -0.0020
 2506.0000    92.5680     8.5990  1573.5460     2.4610     0.0070
 2506.5000    91.1640     8.5990  1573.9850     2.4540     0.0240
 2507.0000    91.3320     8.5990  1574.4240     2.4330     0.0080
 2507.5000    92.1260     8.5990  1574.8630     2.4170    -0.0030
 2508.0000    92.5170     8.5990  1575.3020     2.4130    -0.0150
 2508.5000    90.2110     8.5990  1575.7410     2.4230    -0.0050
