~VERSION INFORMATION
 VERS.                2.0:   CWLS LOG ASCII STANDARD - VERSION 2.0
 WRAP.                 NO:   ONE LINE PER DEPTH STEP
~WELL INFORMATION
#MNEM.UNIT      DATA TYPE    INFORMATION
#----------   ------------   ------------------------------
 STRT.F          514.0000:   START DEPTH
 STOP.F         4154.0000:   STOP DEPTH
 STEP.F            0.5000:   STEP LENGTH
 NULL.          -999.2500:   NO VALUE
 COMP.    FENIX & SCISSON:   COMPANY
 WELL.  FENIX "MX" #86-10:   WELL
 FLD .        TEAPOT DOME:   FIELD
 LOC .      S10 T38N R78W:   LOCATION
 CNTY.            NATRONA:   COUNTY
 STAT.            WYOMING:   STATE
 CTRY. UNITED STATES OF AMERICA:   COUNTRY
 SRVC.       SCHLUMBERGER:   SERVICE COMPANY
 DATE.        30-SEP-1978:   LOGDATE
 API .     49025107290000:   API NUMBER
~CURVE INFORMATION
#MNEM.UNIT       API CODE    CURVE DESCRIPTION
#----------   ------------   ------------------------------
 DEPT.F                  :   
 SPR .MV     07 010 01 00:   SPONTANEOUS POTENTIAL
 TENR.LBS    07 635 01 00:   TENSION FROM RESISTIVITY
 SFL .OHMM   07 220 01 00:   SHALLOW FOCUSED LOG RESISTIVITY
 ILM .OHMM   07 120 44 00:   INDUCTION LOG MEDIUM RESISTIVITY
 ILD .OHMM   07 120 46 00:   INDUCTION LOG DEEP RESISTIVITY
 CALD.IN     45 280 60 00:   CALIPER FROM DENSITY LOG
 GRD .GAPI   45 310 01 00:   GAMMA RAY FROM DENSITY LOG
 TEND.LBS    45 635 01 00:   TENSION FROM DENSITY LOG
 CORR.G/C3   45 356 01 00:   DENSITY CORRECTION
 RHOB.G/C3   45 350 01 00:   BULK DENSITY
 NPHI.DEC    42 890 03 00:   NEUTRON POROSITY SANDSTONE
~PARAMETER INFORMATION
#MNEM.UNIT          VALUE    DESCRIPTION
#----------   ------------   ------------------------------
 EKB .F         5233.0000:   Kelly bushing
 EGL .F         5222.0000:   Ground level
 EDF .F            0.0000:   Drilling floor
 TD  .F         4150.0000:   Total depth
 DATE.        30-SEP-1978:   Date logged
 CLNT.            A2DTECH:   Client Code
 SL  . 1450' FSL & 600' FEL:   Surface Location
 PD  .                 GL:   Permanent Datum
 LMF .                 KB:   Log Measured From
 DMF .                 KB:   Drilling Measured From
 DAPD.F                11:   Feet Above Permanent Datum
 DD  .F              4150:   Depth driller
 DL  .F              4141:   Depth logger
 BLI .F              4135:   Bottom log interval
 TLI .F               520:   Top log interval
 CS1 .IN            9.625:   Casing size
 CBD1.      9.625" @ 529':   Casing driller 1
 CBL1.F               529:   Casing logger 1
 BS1 .IN             8.75:   Bit size
 BSD1.F              4150:   Depth drilled with bit1
 DFT .                FGM:   Type fluid in hole
 DFD .                9.5:   Density
 DFV .                 36:   Viscosity
 DFPH.                 11:   pH
 DFL .                 60:   Fluid loss
 MSS .           MUD TANK:   Source of sample
 RMS .OHMM            .57:   Rm
 MST .F                68:   Rm Meas. temp.
 RMF .OHMM           .449:   Rmf
 MFST.F                68:   Rmf Meas. temp.
 MFSS.               MEAS:   Source Rmf.
 RMB .OHMM            .27:   Rm. at BHT
 BHT .F               142:   BHT.
 TCS .HRS            1500:   Time Circ. stopped
 TLAB.HRS            0700:   Time logger at bottom
 MRT .F               142:   Maximum recorded temp.
 LUN .               8043:   Logging unit number
 LUL .               CSPR:   Logging unit location
 ENGI.             LARSON:   Recorded By
 WITN.           DINSMORE:   Witnessed by
 ORIG.           5" PRINT:   Origin of data
 UWI .     49025107290000:   Unique Well ID
 DICO. A2D TECHNOLOGIES, INC.:   Digitizing Company
 EPD .               5222:   Elevation Permanent Datum
~OTHER INFORMATION
~A   DEPT      SPR       TENR        SFL        ILM        ILD       CALD         GRD      TEND       CORR       RHOB         NPHI 
# ...
 1459.5000   -37.1530   548.5460     7.2190     6.5160     6.7600    12.8870    89.8570   728.0480     0.0500     2.5790     0.3320
 1460.0000   -37.1290   549.0830     7.3380     6.5160     6.8270    12.8470    90.1640   728.4040     0.0460     2.5680     0.3430
 1460.5000   -37.1060   549.6190     7.5180     6.5160     7.0200    12.8060    92.0960   728.7590     0.0290     2.5570     0.3540
 1461.0000   -37.0830   550.1560     7.6890     6.5160     7.2760    12.7660    92.0070   729.1150     0.0230     2.5510     0.3570
 1461.5000   -37.0600   550.6920     7.5020     6.5150     7.2140    12.7250    89.9000   729.4700     0.0220     2.5520     0.3520
 1462.0000   -37.0370   551.2280     7.3260     6.5190     7.1210    12.6850    87.9820   729.8260     0.0250     2.5560     0.3480
 1462.5000   -37.0140   551.7650     7.1490     6.5200     7.0280    12.6440    88.2170   730.1820     0.0300     2.5610     0.3350
 1463.0000   -36.9910   552.3010     7.0140     6.3990     6.9350    12.6380    92.6160   730.5370     0.0340     2.5580     0.3190
 1463.5000   -36.9670   552.8380     6.9510     6.1960     6.8420    12.6490    93.3190   730.8930     0.0410     2.5560     0.3210
 1464.0000   -36.9450   553.3740     6.8770     5.9980     6.7490    12.6600    91.7070   731.2480     0.0540     2.5600     0.3240
 1464.5000   -36.9220   553.9110     6.7600     5.8360     6.6440    12.6650    88.9520   731.6040     0.0670     2.5650     0.3250
 1465.0000   -36.8940   554.4470     6.8170     6.2450     6.6560    12.7090    88.9320   731.9590     0.0780     2.5560     0.3230
 1465.5000   -36.8830   554.9840     6.9520     6.7600     6.6790    12.7550    91.5880   732.3150     0.0780     2.5420     0.3360
 1466.0000   -36.8650   555.5200     7.0870     6.7060     6.7020    12.7910    93.7540   732.6710     0.0630     2.5280     0.3550
 1466.5000   -37.1570   556.0570     7.2760     6.6010     6.7250    12.8250    94.2450   733.0260     0.0540     2.5290     0.3710
 1467.0000   -37.4720   556.5930     7.2350     6.4950     6.7600    12.8610    92.6300   733.3820     0.0440     2.5330     0.3600
 1467.5000   -37.5770   557.1300     7.1670     6.3980     6.7420    12.8990    90.2940   733.7370     0.0390     2.5350     0.3440
 1468.0000   -37.2690   557.6660     7.0990     6.4540     6.7020    12.9090    88.1220   734.0930     0.0410     2.5320     0.3310
 1468.5000   -36.9870   558.2030     7.0310     6.5070     6.6620    12.8860    89.5250   734.4480     0.0430     2.5290     0.3360
 1469.0000   -36.7040   558.7390     6.9620     6.5600     6.6220    12.8670    90.2920   734.8040     0.0370     2.5190     0.3490
 1469.5000   -36.4670   559.2760     6.8860     6.6130     6.5820    12.8470    90.3640   735.1600     0.0270     2.5120     0.3620
 1470.0000   -36.4740   559.8120     6.9550     6.6660     6.5160    12.8270    90.3720   735.5150     0.0240     2.5140     0.3700
 1470.5000   -36.8530   560.3480     7.0340     6.7180     6.5450    12.8060    90.3200   735.8710     0.0270     2.5380     0.3590
 1471.0000   -37.2720   560.8850     7.1120     6.7600     6.6270    12.7930    90.6490   736.2260     0.0280     2.5410     0.3410
 1471.5000   -37.6850   561.4210     7.1910     6.7600     6.7100    12.7940    91.5690   736.5820     0.0210     2.5410     0.3240
 1472.0000   -38.0210   561.9580     7.2760     6.7600     6.7920    12.7940    91.7860   736.9370     0.0150     2.5300     0.3250
 1472.5000   -37.7760   562.4940     7.2230     6.7610     6.8740    12.7940    91.1870   737.2930     0.0090     2.5190     0.3300
 1473.0000   -37.5660   563.0310     7.1440     6.7610     6.9560    12.7940    90.5660   737.6490     0.0080     2.5170     0.3350
 1473.5000   -37.3230   563.5670     7.1770     6.7610     7.0380    12.7940    91.0620   738.0040     0.0120     2.5240     0.3430
 1474.0000   -37.2460   564.1040     7.2310     6.7610     7.1310    12.7940    92.9430   738.3600     0.0150     2.5300     0.3570
 1474.5000   -37.2510   564.6400     7.2850     6.7610     7.1030    12.7940    94.6940   738.7150     0.0200     2.5310     0.3750
 1475.0000   -37.2510   565.1770     7.3390     6.7600     7.0470    12.7940    94.9210   739.0710     0.0230     2.5320     0.3680
 1475.5000   -37.2480   565.7130     7.4110     6.7600     6.9910    12.7940    94.6470   739.4260     0.0240     2.5340     0.3520
 1476.0000   -37.2470   566.2500     7.3480     6.7600     6.9340    12.7940    96.9980   739.7820     0.0180     2.5350     0.3360
 1476.5000   -37.2530   566.7860     7.2540     6.6940     6.8860    12.7940    98.5590   740.1380     0.0130     2.5330     0.3300
 1477.0000   -37.2540   567.3230     7.1590     6.6200     6.7860    12.7940   100.7080   740.4930     0.0090     2.5300     0.3350
 1477.5000   -37.5220   567.8590     7.0640     6.5460     6.6980    12.7950   100.4020   740.8490     0.0100     2.5310     0.3400
 1478.0000   -37.8680   568.3950     7.0050     6.4710     6.6100    12.7940    99.9270   741.2040     0.0160     2.5380     0.3450
 1478.5000   -38.2190   568.9320     6.9880     6.3970     6.5160    12.7930    95.8220   741.5600     0.0230     2.5430     0.3490
 1479.0000   -38.5740   569.4680     6.9700     6.3230     6.5160    12.7980    91.2960   741.9160     0.0290     2.5380     0.3380
 1479.5000   -38.8340   570.0050     6.9530     6.2490     6.5160    12.7740    88.0570   742.2710     0.0300     2.5340     0.3260
 1480.0000   -38.8100   570.5410     6.9350     6.1670     6.5160    12.8170    88.4700   742.6270     0.0350     2.5420     0.3180
 1480.5000   -38.2380   571.0780     6.9170     6.2520     6.5160    12.8630    88.8130   742.9820     0.0420     2.5490     0.3200
 1481.0000   -37.6780   571.6140     6.8910     6.3490     6.5160    12.9140    89.1700   743.3380     0.0380     2.5430     0.3210
 1481.5000   -37.0750   572.1510     6.9240     6.4450     6.5160    12.9680    89.4780   743.6930     0.0300     2.5330     0.3270
 1482.0000   -36.8370   572.6870     7.1030     6.5420     6.5160    12.9810    88.3640   744.0490     0.0240     2.5310     0.3400
 1482.5000   -36.9970   573.2240     7.2810     6.6380     6.7690    12.9160    87.3910   744.4050     0.0250     2.5320     0.3510
 1483.0000   -37.1670   573.7600     7.4600     6.7340     7.0050    12.8560    86.3870   744.7600     0.0260     2.5280     0.3550
 1483.5000   -37.3410   574.2970     7.6390     6.8310     7.2410    12.7960    86.3260   745.1160     0.0220     2.5250     0.3600
 1484.0000   -37.5180   574.8330     7.8170     6.9270     7.4780    12.7340    86.3790   745.4710     0.0180     2.5340     0.3600
 1484.5000   -37.6030   575.3700     7.9770     7.0140     7.6890    12.6750    86.4450   745.8270     0.0300     2.5450     0.3540
 1485.0000   -37.4150   575.9060     7.8570     6.8930     7.4440    12.6140    89.1020   746.1820     0.0400     2.5520     0.3480
 1485.5000   -37.2260   576.5410     7.7490     6.7850     7.2230    12.5480    91.7920   746.5380     0.0350     2.5450     0.3410
 1486.0000   -37.0450   573.9230     7.6410     6.6760     7.0020    12.5090    94.3310   746.8940     0.0320     2.5380     0.3320
 1486.5000   -36.8710   570.7170     7.5330     6.5680     6.7600    12.5060    92.3200   747.2490     0.0330     2.5420     0.3240
 1487.0000   -37.0670   567.5120     7.4250     6.5160     6.7960    12.4920    90.2690   747.6050     0.0340     2.5490     0.3180
 1487.5000   -37.2700   564.3060     7.2760     6.5160     6.8350    12.4780    88.7520   747.9600     0.0340     2.5490     0.3100
 1488.0000   -37.4760   561.1010     7.4110     6.5160     6.8740    12.4650    88.7580   748.3160     0.0280     2.5370     0.3140
 1488.5000   -37.6380   557.8960     7.3780     6.5160     6.9130    12.4530    89.2920   748.6710     0.0220     2.5340     0.3250
 1489.0000   -37.4680   554.6900     7.3380     6.5280     6.9520    12.4370    91.0350   749.0270     0.0160     2.5310     0.3370
 1489.5000   -37.3120   551.4850     7.2760     6.5640     6.9910    12.4270    91.1510   749.3830     0.0160     2.5260     0.3480
