~VERSION INFORMATION
 VERS.                2.0:   CWLS LOG ASCII STANDARD - VERSION 2.0
 WRAP.                 NO:   ONE LINE PER DEPTH STEP
~WELL INFORMATION
#MNEM.UNIT      DATA TYPE    INFORMATION
#----------   ------------   ------------------------------
 STRT.F            0.0000:   START DEPTH
 STOP.F         5576.0000:   STOP DEPTH
 STEP.F            0.5000:   STEP LENGTH
 NULL.          -999.2500:   NO VALUE
 COMP.      FLUCOR DANIEL:   COMPANY
 WELL.  FLUCOR "X" #76-10:   WELL
 FLD .          N.P.R. #3:   FIELD
 LOC .      S10 T38N R78W:   LOCATION
 CNTY.            NATRONA:   COUNTY
 STAT.            WYOMING:   STATE
 CTRY. UNITED STATES OF AMERICA:   COUNTRY
 SRVC. ATLAS WIRELINE SERVICES:   SERVICE COMPANY
 DATE.        16-MAR-1995:   LOGDATE
 API .     49025226860000:   API NUMBER
~CURVE INFORMATION
#MNEM.UNIT       API CODE    CURVE DESCRIPTION
#----------   ------------   ------------------------------
 DEPT.F                  :   
 CNC .DEC    42 890 01 00:   NEUTRON POROSITY LIMESTONE
 CALD.IN     45 280 60 00:   CALIPER FROM DENSITY LOG
 ZDEN.G/C3   45 350 01 00:   BULK DENSITY
 ZCOR.G/C3   45 356 01 00:   DENSITY CORRECTION
 RILD.OHMM   07 120 46 00:   INDUCTION LOG DEEP RESISTIVITY
 RILM.OHMM   07 120 44 00:   INDUCTION LOG MEDIUM RESISTIVITY
 RS  .OHMM   11 220 10 00:   RESISTIVITY SHALLOW
 RD  .OHMM   11 220 09 00:   RESISTIVITY DEEP
 GRR .GAPI   07 310 01 00:   GAMMA RAY
 TENR.LBS    07 635 01 00:   TENSION FROM RESISTIVITY
~PARAMETER INFORMATION
#MNEM.UNIT          VALUE    DESCRIPTION
#----------   ------------   ------------------------------
 EKB .F         5191.0000:   Kelly bushing
 EGL .F         5101.0000:   Ground level
 EDF .F         5190.0000:   Drilling floor
 TD  .F         5582.0000:   Total depth
 CLNT.            A2DTECH:   Client Code
 SL  . 1896' FSL & 832' FEL:   Surface Location
 PD  .                 GL:   Permanent Datum
 EPD .F              5181:   Elevation Permanent Datum
 LMF .                 KB:   Log Measured From
 DMF .                 KB:   Drilling Measured From
 DAPD.F                10:   Feet Above Permanent Datum
 DATE.        16-MAR-1995:   Date Logged [DD-MMM-YYYY]
 DD  .F              5582:   Depth driller
 DL  .F              5578:   Depth logger
 BLI .F              5566:   Bottom log interval
 TLI .F               518:   Top log interval
 CS1 .IN            8.625:   Casing size
 CBD1.      8.625" @ 519':   Casing driller 1
 CBL1.F               518:   Casing logger 1
 BS1 .IN             8.75:   Bit size
 BSD1.F              5582:   Depth drilled with bit1
 DFT .               LSND:   Type fluid in hole
 DFD .               10.1:   Density
 DFV .                 52:   Viscosity
 DFPH.                9.5:   pH
 DFL .                7.2:   Fluid loss
 MSS .           FLOWLINE:   Source of sample
 RMS .OHMM          0.536:   Rm
 MST .F                70:   Rm Meas. temp.
 RMF .OHMM          0.415:   Rmf
 MFST.F                70:   Rmf Meas. temp.
 MFSS.               MEAS:   Source Rmf.
 RMC .OHMM          0.646:   Rmc
 MCST.F                70:   Rmc Meas. temp.
 MCSS.               MEAS:   Source Rmc.
 RMB .OHMM          0.228:   Rm. at BHT
 BHT .F               165:   BHT.
 TCS .HRS             6.5:   Time Circ. stopped
 MRT .F               165:   Maximum recorded temp.
 LUN .            HL-6530:   Logging unit number
 LUL .             CASPER:   Logging unit location
 ENGI.      PAT RASMUSSEN:   Recorded By
 WITN.        GARY STRONG:   Witnessed by
 ORIG.           5" PRINT:   Origin of data
 UWI .     49025226860000:   Unique Well ID
 DICO. A2D TECHNOLOGIES, INC.:   Digitizing Company
~OTHER INFORMATION
~A  DEPTH      CNC       CALD       ZDEN       ZCOR       RILD       RILM         RS         RD        GRR       TENR
# ...
 3819.0000     0.4156    10.8654     2.3875     0.0077  -999.2500  -999.2500     4.4969     4.9950    98.8600   -87.4155
 3819.5000     0.3790    10.9102     2.2727     0.0965  -999.2500  -999.2500     4.1936     4.3136    98.8543   -72.0263
 3820.0000     0.3630    10.8942     2.2689     0.0558  -999.2500  -999.2500     3.5479     3.8564    99.4545   -56.6371
 3820.5000     0.3945    10.9237     2.3300     0.0482  -999.2500  -999.2500     3.5467     3.8541   102.4776   -32.6965
 3821.0000     0.4063    11.0293     2.3967     0.0602  -999.2500  -999.2500     3.8545     3.9605   104.8961   -25.7878
 3821.5000     0.3890    11.2092     2.4515     0.0858  -999.2500  -999.2500     4.3072     4.2484   104.2843   -40.6809
 3822.0000     0.3548    11.1934     2.5255     0.1068  -999.2500  -999.2500     5.0974     4.9415   101.8543   -55.4325
 3822.5000     0.2994    11.1169     2.5648     0.0659  -999.2500  -999.2500     6.8130     6.1699    99.1212   -70.1838
 3823.0000     0.2517    11.0256     2.6048     0.0295  -999.2500  -999.2500     8.5688     7.3889    98.2049   -92.5589
 3823.5000     0.2250    10.9040     2.6138     0.0067  -999.2500  -999.2500     9.7093    11.0531    98.1991   -84.7227
 3824.0000     0.2220    10.8580     2.6085     0.0187  -999.2500  -999.2500     9.2794    10.5951    98.7994   -69.3335
 3824.5000     0.2406    10.9517     2.5155     0.0499  -999.2500  -999.2500     7.9309     8.4756   100.6118   -61.4971
 3825.0000     0.2477    11.1434     2.4634     0.0775  -999.2500  -999.2500     6.8037     6.7802   104.8485   -76.2486
 3825.5000     0.2964    11.2635     2.4293     0.0789  -999.2500  -999.2500     5.3692     5.7334   105.7518   -83.5888
 3826.0000     0.3191    11.2175     2.4278     0.0470  -999.2500  -999.2500     4.1784     5.1623    96.9567   -83.0281
 3826.5000     0.3800    11.0053     2.4255     0.0303  -999.2500  -999.2500     3.5350     4.2758    95.1328   -52.6687
 3827.0000     0.4163    10.7778     2.3990     0.0325  -999.2500  -999.2500     3.1618     3.8718    94.8240   -22.1737
 3827.5000     0.4247    10.6562     2.3914     0.0679  -999.2500  -999.2500     2.9885     3.7415    93.0000   -21.8904
 3828.0000     0.4263    10.6102     2.4216     0.1056  -999.2500  -999.2500     2.9478     3.8448    83.5988   -29.7521
 3828.5000     0.3748    10.6397     2.4238     0.0495  -999.2500  -999.2500     3.2483     4.2652    73.2900   -59.0169
 3829.0000     0.3470    10.7296     2.2742    -0.0534  -999.2500  -999.2500     3.3624     4.5374    70.8600   -81.3921
 3829.5000     0.3461    11.0459     2.1504    -0.1286  -999.2500  -999.2500     3.3267     4.3797    69.6421   -81.1086
 3830.0000     0.3549    11.2567     2.0124    -0.0748  -999.2500  -999.2500     2.6711     3.7928    67.5152   -80.8157
 3830.5000     0.4111    11.1955     2.0206    -0.0129  -999.2500  -999.2500     2.1080     2.7346    65.3867   -50.2594
 3831.0000     0.4586    10.8927     2.0803    -0.0009  -999.2500  -999.2500     1.7105     2.1885    64.1688   -34.8701
 3831.5000     0.5337    10.6802     2.1663    -0.0070  -999.2500  -999.2500     1.5512     2.1723    62.6479   -49.6978
 3832.0000     0.5358    10.7400     2.1859    -0.0072  -999.2500  -999.2500     1.5727     2.2031    61.7330   -64.5148
 3832.5000     0.5349    10.7997     2.1859    -0.0057  -999.2500  -999.2500     1.6165     2.2491    62.0303   -64.1604
 3833.0000     0.5343    10.8443     2.1858    -0.0059  -999.2500  -999.2500     1.6387     2.2802    62.6306   -63.8770
 3833.5000     0.5334    10.9041     2.1903    -0.0090  -999.2500  -999.2500     1.6382     2.3118    62.9278   -48.4878
 3834.0000     0.5321    10.9797     2.1978    -0.0151  -999.2500  -999.2500     1.6378     2.2953    62.9206    12.2896
 3834.5000     0.5304    11.0535     2.1925    -0.0137  -999.2500  -999.2500     1.6373     2.2632    62.9149    12.5729
 3835.0000     0.5322    11.1283     2.1894    -0.0078  -999.2500  -999.2500     1.6128     2.2471    62.9091   -17.4259
 3835.5000     0.5385    11.2937     2.1916    -0.0034  -999.2500  -999.2500     1.5695     2.2467    62.9019   -17.0695
 3836.0000     0.5298    11.4894     2.2135    -0.0004  -999.2500  -999.2500     1.5691     2.2778    63.2006   -16.7173
 3836.5000     0.5131    11.8275     2.2203    -0.0021  -999.2500  -999.2500     1.5687     2.3424    63.8009   -16.4338
 3837.0000     0.5018    12.0016     2.2232    -0.0069  -999.2500  -999.2500     1.6695     2.4410    65.0058   -16.1505
 3837.5000     0.4874    11.6079     2.2292    -0.0098  -999.2500  -999.2500     1.8143     2.6903    66.8182   -15.8610
 3838.0000     0.4683    11.1238     2.2497    -0.0145  -999.2500  -999.2500     1.9311     2.9650    69.5382    14.6989
 3838.5000     0.4565    10.7908     2.2722    -0.0161  -999.2500  -999.2500     2.0141     3.0908    71.6537    45.1937
 3839.0000     0.4526    10.7429     2.2880    -0.0101  -999.2500  -999.2500     2.0980     3.2709    74.3752    60.5830
 3839.5000     0.4492    10.7289     2.3061     0.0176  -999.2500  -999.2500     2.1416     3.3587    79.2179    44.7476
 3840.0000     0.4193    10.7884     2.3211     0.0274  -999.2500  -999.2500     2.1862     3.4529    82.8485   -14.3080
 3840.5000     0.4097    10.9388     2.2961     0.0258  -999.2500  -999.2500     2.1684     3.4284    82.5382   -44.3068
 3841.0000     0.4048    11.3761     2.2312     0.0348  -999.2500  -999.2500     2.1103     3.3570    81.3204   -66.6111
 3841.5000     0.4327    12.8093     2.0899     0.0679  -999.2500  -999.2500     2.0094     3.2587    78.5873   -73.8806
 3842.0000     0.4723    13.5649     2.0528     0.1017  -999.2500  -999.2500     1.8739     2.8596    74.0361   -73.5262
 3842.5000     0.4949    13.8059     2.0407     0.1055  -999.2500  -999.2500     1.6760     2.6670    74.3333   -73.2428
 3843.0000     0.5083    13.8688     2.0320     0.0918  -999.2500  -999.2500     1.5630     2.4191    75.2352   -50.3007
 3843.5000     0.5131    14.4689     2.0074     0.0675  -999.2500  -999.2500     1.4883     2.3037    78.8658   -27.2877
 3844.0000     0.5262    15.3443     2.0000     0.0462  -999.2500  -999.2500     1.4265     2.1786    87.0418   -11.8986
 3844.5000     0.5271    15.5099     2.0526     0.0255  -999.2500  -999.2500     1.4978     2.1632    98.5512    -4.0623
 3845.0000     0.5089    15.0710     2.1636    -0.0008  -999.2500  -999.2500     1.5942     2.4006   122.7879    -3.7788
 3845.5000     0.4897    14.5896     2.2376     0.0021  -999.2500  -999.2500     1.6967     2.7394   154.9019   -11.0483
 3846.0000     0.4675    13.2265     2.3266     0.0141  -999.2500  -999.2500     2.0043     3.1043   171.2597   -40.9054
 3846.5000     0.4487    12.2288     2.3198     0.0185  -999.2500  -999.2500     2.2088     3.4933   173.0736   -55.7276
 3847.0000     0.4272    11.1715     2.3099     0.0233  -999.2500  -999.2500     2.3023     3.7968   165.7936   -55.4381
 3847.5000     0.4151    10.9290     2.3091     0.0364  -999.2500  -999.2500     2.3667     3.8764   158.5152   -55.0899
 3848.0000     0.4024    10.8223     2.3223     0.0499  -999.2500  -999.2500     2.4840     4.0974   143.9625   -47.2536
 3848.5000     0.3813    10.7892     2.3815     0.0544  -999.2500  -999.2500     2.7565     4.3036   125.7749   -31.8644
 3849.0000     0.3389    10.7449     2.4449     0.0452  -999.2500  -999.2500     3.1892     5.0114   106.3752    -8.9124
 3849.5000     0.2989    10.7440     2.4774     0.0403  -999.2500  -999.2500     3.7010     7.5533    95.7634    14.0906
 3850.0000     0.2918    10.7733     2.4864     0.0329  -999.2500  -999.2500     4.1230     8.6195    86.3636    21.9269
 3850.5000     0.2902    11.1652     2.2725     0.0373  -999.2500  -999.2500     4.1219     6.7524    78.4668     7.1047
 3851.0000     0.3171    12.0857     2.1834     0.0916  -999.2500  -999.2500     3.0343     4.8319    72.9978    22.5647
 3851.5000     0.3935    13.5350     2.0920     0.1248  -999.2500  -999.2500     1.9922     3.5101    67.5288    45.5068
 3852.0000     0.4875    14.6531     2.1290     0.1277  -999.2500  -999.2500     1.6422     2.8439    66.3022    38.1665
