~VERSION INFORMATION
 VERS.                2.0:   CWLS LOG ASCII STANDARD - VERSION 2.0
 WRAP.                 NO:   ONE LINE PER DEPTH STEP
~WELL INFORMATION
#MNEM.UNIT      DATA TYPE    INFORMATION
#----------   ------------   ------------------------------
 STRT.F           14.0000:   START DEPTH
 STOP.F         3246.0000:   STOP DEPTH
 STEP.F            0.5000:   STEP LENGTH
 NULL.          -999.2500:   NO VALUE
 COMP.   LAWRENCE ALLISON:   COMPANY
 WELL. LAWRENCE "34X" #11:   WELL
 FLD .             N.P.R.:   FIELD
 LOC .      S34 T38N R78W:   LOCATION
 CNTY.            NATRONA:   COUNTY
 STAT.            WYOMING:   STATE
 CTRY. UNITED STATES OF AMERICA:   COUNTRY
 SRVC.      DRESSER ATLAS:   SERVICE COMPANY
 DATE.        02-MAY-1985:   LOGDATE
 API .     49025110530001:   API NUMBER
~CURVE INFORMATION
#MNEM.UNIT       API CODE    CURVE DESCRIPTION
#----------   ------------   ------------------------------
 DEPT.F                  :   
 CNC .DEC    42 890 03 00:   NEUTRON POROSITY
 CALD.IN     45 280 60 00:   CALIPER FROM DENSITY LOG
 CORR.G/C3   45 356 01 00:   DENSITY CORRECTION
 RHOB.G/C3   45 350 01 00:   BULK DENSITY
 GRR .GAPI   07 310 01 00:   GAMMA RAY FROM RESISTIVITY
 SPR .MV     07 010 01 00:   SPONTANEOUS POTENTIAL FROM RES.
 TENR.LBS    06 635 01 00:   TENSION FROM RESISTIVITY
 RILD.OHMM   07 120 46 00:   DEEP INDUCTION RESISTIVITY
 RILM.OHMM   07 120 44 00:   INDUCTION LOG MEDIUM RESISTIVITY
 RFOC.OHMM   07 220 04 00:   RESISTIVITY FOCUSED LOG RES.
~PARAMETER INFORMATION
#MNEM.UNIT          VALUE    DESCRIPTION
#----------   ------------   ------------------------------
 EKB .F         5099.0000:   Kelly bushing
 TD  .F         3239.0000:   Total depth
 CLNT.            A2DTECH:   Client Code
 PD  .                 GL:   Permanent Datum
 EPD .F              5087:   Elevation Permanent Datum
 LMF .                 KB:   Log Measured From
 DMF .                 KB:   Drilling Measured From
 DAPD.F                12:   Feet Above Permanent Datum
 DATE.        02-MAY-1985:   Date Logged [DD-MMM-YYYY]
 DD  .F              3239:   Depth driller
 DL  .F              3242:   Depth logger
 BLI .F              3294:   Bottom log interval
 CS1 .IN            8.625:   Casing size
 CBD1.      8.625" @ 487':   Casing driller 1
 CBL1.F               487:   Casing logger 1
 BS1 .IN            7.875:   Bit size
 BSD1.F              3239:   Depth drilled with bit1
 DFT .            KCL GEL:   Type fluid in hole
 DFD .                9.1:   Density
 DFV .                 35:   Viscosity
 DFPH.                  8:   pH
 DFL .                9.8:   Fluid loss
 MSS .           FLOWLINE:   Source of sample
 RMS .OHMM           0.27:   Rm
 MST .F                68:   Rm Meas. temp.
 RMF .OHMM           0.20:   Rmf
 MFST.F                68:   Rmf Meas. temp.
 MFSS.               MEAS:   Source Rmf.
 RMC .OHMM           0.34:   Rmc
 MCST.F                68:   Rmc Meas. temp.
 MCSS.               CALC:   Source Rmc.
 RMB .OHMM           0.15:   Rm. at BHT
 BHT .F               126:   BHT.
 TCS .HRS               3:   Time Circ. stopped
 MRT .F               126:   Maximum recorded temp.
 LUN .               6274:   Logging unit number
 LUL .               GLTE:   Logging unit location
 ENGI.       MACK/EDWARDS:   Recorded By
 WITN.             STRONG:   Witnessed by
 ORIG.           5" PRINT:   Origin of data
 UWI .     49025110260000:   Unique Well ID
 DICO. A2D TECHNOLOGIES, INC.:   Digitizing Company
~OTHER INFORMATION
~A   DEPT      CNC       CALD       CORR       RHOB        GRR        SPR       TENR       RILD       RILM       RFOC   
# ...
 2828.0000     0.2320     9.0905     0.0045     2.5168    87.4133   -54.4491   -35.4769     5.4973     5.5115     5.5121
 2828.5000     0.2299     9.0771     0.0109     2.5161    86.9952   -54.4296   -36.9140     5.4657     5.5188     5.2937
 2829.0000     0.2257     9.0794     0.0184     2.5155    85.6801   -54.4088   -38.5891     5.5501     5.6413     5.4107
 2829.5000     0.2253     9.0779     0.0231     2.5171    82.5714   -54.3900   -39.9764     5.7129     5.8060     5.8118
 2830.0000     0.2265     9.0750     0.0278     2.5187    80.3595   -54.3713   -41.3644     5.8399     5.9343     6.0592
 2830.5000     0.2234     9.0721     0.0264     2.5218    79.2687   -54.3518   -42.7518     5.9305     6.0638     6.0659
 2831.0000     0.2163     9.0692     0.0222     2.5249    79.7550   -54.3290   -44.1391     5.8553     5.9064     5.9478
 2831.5000     0.2108     9.0664     0.0253     2.5280    80.6821   -54.3103   -37.9621     5.5843     5.5176     5.8725
 2832.0000     0.2104     9.0635     0.0453     2.5311    82.0576   -54.2915   -39.6968     5.4363     5.4082     5.6010
 2832.5000     0.2170     9.0606     0.0542     2.5327    83.4332   -54.4225   -41.0842     5.3693     5.3417     5.2323
 2833.0000     0.2262     9.0577     0.0185     2.5310    85.0330   -54.4037   -42.4715     5.3000     5.2755     4.9863
 2833.5000     0.2274     9.0548    -0.0008     2.5128    85.5117   -54.3847   -28.3836     5.1268     5.1017     4.9272
 2834.0000     0.2285     9.0511    -0.0066     2.4972    85.7668   -54.3615   -22.2066     4.7748     4.7659     5.0027
 2834.5000     0.2371     9.0466    -0.0124     2.4898    85.8040   -54.3428   -16.3391     4.0046     4.1833     5.0430
 2835.0000     0.2578     9.0421    -0.0197     2.4854    85.8343   -54.1743    -9.9522     3.5143     3.5471     5.0486
 2835.5000     0.2819     9.0376    -0.0240     2.4840    88.3309   -54.0058    -4.0231     2.8181     3.1670     5.0193
 2836.0000     0.2946     9.0330    -0.0282     2.4812    99.7961   -53.9871     2.1531     2.4390     2.4813     4.8840
 2836.5000     0.3110     9.0285    -0.0235     2.4663   115.2973   -53.8186    -7.1451     2.2006     2.1630     3.7911
 2837.0000     0.3457     9.0240    -0.0054     2.4193   143.5786   -53.6348    -8.5325     1.9993     2.0066     2.2887
 2837.5000     0.3514     9.0194     0.0292     2.3222   155.4648   -53.0279   -25.0491     1.9469     1.9266     1.9140
 2838.0000     0.3280     9.0149     0.0877     2.2961   154.4286   -52.5601   -26.4364     2.0185     2.0111     2.0392
 2838.5000     0.2884     9.0104     0.0999     2.3089   146.2525   -52.6957   -35.4007     2.2116     2.2490     2.3608
 2839.0000     0.2491     9.0059     0.0881     2.3577   121.5125   -52.9763   -37.1228     2.6702     2.5975     2.8489
 2839.5000     0.2359     9.0011     0.0449     2.4273    91.2737   -53.5517   -30.9458     3.1139     3.3217     4.4893
 2840.0000     0.2172     9.0030    -0.0012     2.4955    75.3847   -53.8323   -17.2046     3.9194     4.0085     7.1668
 2840.5000     0.2075     8.9947    -0.0220     2.5241    71.8275   -54.1130    -3.4633     4.8020     4.9730     6.9326
 2841.0000     0.2016     8.9919    -0.0293     2.5227    70.7292   -54.2439     3.0603     5.5056     5.4471     6.6121
 2841.5000     0.1988     8.9928    -0.0246     2.5205    71.4396   -54.5246    -6.2387     6.0480     6.2194     6.3064
 2842.0000     0.2060     8.9932    -0.0020     2.5177    72.3959   -54.6555   -15.2043     6.2688     5.5737     5.9733
 2842.5000     0.2122     8.9936     0.0221     2.5125    73.9741   -54.6321   -24.4893     6.3638     5.4652     5.6188
 2843.0000     0.2176     8.9940     0.0343     2.5014    75.1254   -54.6133   -25.8766     6.2400     5.3603     5.4272
 2843.5000     0.2229     8.9945     0.0256     2.4881    76.0526   -54.5943   -19.3530     6.1187     5.2197     5.1482
 2844.0000     0.2268     8.9949     0.0063     2.4776    76.9797   -54.5711   -21.0870     5.8719     5.0828     5.0132
 2844.5000     0.2292     8.9953    -0.0145     2.4756    77.9068   -54.5523   -22.4751     5.3033     4.9495     5.0187
 2845.0000     0.2288     8.9957    -0.0277     2.4794    77.9372   -54.5336   -23.8624     4.8518     4.7864     4.9538
 2845.5000     0.2252     8.9961    -0.0246     2.4818    78.1928   -54.5148   -25.2645     4.2578     4.5647     4.8587
 2846.0000     0.2224     8.9965    -0.0154     2.4827    79.7989   -54.4961   -19.0728     3.8683     4.2756     4.7313
 2846.5000     0.2248     8.9969    -0.0152     2.4760    83.6409   -54.4773   -20.8075     3.5145     3.6421     4.5991
 2847.0000     0.2346     8.9973    -0.0224     2.4657    88.8281   -54.6083   -14.2838     3.0629     3.2191     4.3954
 2847.5000     0.2481     8.9977    -0.0208     2.4546   100.2933   -54.5848    -8.4535     2.6796     2.5120     4.1632
 2848.0000     0.2652     8.9981    -0.0191     2.4416   109.0680   -54.5661    -9.8409     2.2633     2.1153     3.8623
 2848.5000     0.2985     8.9985    -0.0219     2.4286   120.7055   -54.3976   -11.2289     2.0279     2.0036     3.5340
 2849.0000     0.3249     8.9989    -0.0232     2.4011   141.1989   -54.3788   -12.6324     1.9742     1.9782     2.7769
 2849.5000     0.3273     8.9993    -0.0095     2.3563   150.4144   -54.0607   -21.9145     1.9771     1.9947     2.1356
 2850.0000     0.3090     8.9997     0.0011     2.3370   141.9320   -53.7425   -23.3026     2.0923     2.1252     1.9690
 2850.5000     0.2771     9.0001     0.0043     2.3333   131.8726   -53.5741   -32.2542     2.3244     2.3603     2.3604
 2851.0000     0.2457     8.9997    -0.0095     2.3611    98.9432   -53.8500   -33.6415     2.7613     2.6763     3.0737
 2851.5000     0.2366     8.9960    -0.0281     2.4414    89.1080   -54.2804   -35.0289     3.2287     3.0983     5.2064
 2852.0000     0.2330     8.9923    -0.0204     2.4945    82.3499   -54.5610   -36.4169     3.7653     4.0068     5.5856
 2852.5000     0.2414     8.9886    -0.0052     2.4984    81.3210   -54.6966   -45.3861     4.3306     4.6131     5.5148
 2853.0000     0.2422     8.9849    -0.0231     2.4970    82.9284   -54.8234   -39.5382     4.8110     5.1175     5.4075
 2853.5000     0.2350     8.9812    -0.0212     2.4919    85.4250   -54.8039   -40.9263     5.1269     5.3035     5.3406
 2854.0000     0.2313     8.9775    -0.0045     2.4957    87.6974   -54.7807   -42.3136     5.2773     5.3447     5.3464
 2854.5000     0.2338     8.9738     0.0032     2.4951    89.2972   -54.7619   -35.7900     5.2838     5.3137     5.3140
 2855.0000     0.2380     8.9701     0.0049     2.4885    89.7759   -54.8976   -22.3954     5.2912     5.3211     5.3582
 2855.5000     0.2417     8.9664     0.0035     2.4810    90.0609   -54.8741   -16.2191     5.2966     5.3269     5.3641
 2856.0000     0.2450     8.9627    -0.0022     2.4775    90.2924   -54.8554   -17.6247     5.3036     5.2927     5.4073
 2856.5000     0.2473     8.9624    -0.0095     2.4776    90.7711   -54.6869   -19.3405     5.3098     5.2290     5.4510
 2857.0000     0.2494     8.9615    -0.0122     2.4778    91.2498   -54.6677   -20.7285     5.3161     5.2001     5.5344
 2857.5000     0.2508     8.9518    -0.0030     2.4786    91.5043   -54.4950   -22.1158     5.3224     5.2058     5.5405
 2858.0000     0.2493     8.9534    -0.0057     2.4817    91.9830   -54.3265   -23.5032     5.2567     5.1742     5.5069
 2858.5000     0.2466     8.9544    -0.0160     2.4826    93.3737   -54.3078   -24.8905     5.2249     5.1811     5.4749
 2859.0000     0.2453     8.9554    -0.0337     2.4812    95.7085   -54.2890   -26.2779     5.1949     5.2045     5.4444
 2859.5000     0.2507     8.9564    -0.0440     2.4821    97.9110   -54.2703   -27.6855     5.2025     5.2290     5.3757
 2860.0000     0.2614     8.9573    -0.0453     2.4800    97.7095   -54.2515   -29.3999     5.3181     5.3458     5.3869
 2860.5000     0.2629     8.9583    -0.0374     2.4786    97.0671   -54.2320   -30.7872     5.4362     5.4263     5.5403
 2861.0000     0.2535     8.9593    -0.0223     2.4787    96.4323   -54.2093   -39.7395     5.5225     5.5080     5.7021
