~VERSION INFORMATION
 VERS.                2.0:   CWLS LOG ASCII STANDARD - VERSION 2.0
 WRAP.                 NO:   ONE LINE PER DEPTH STEP
~WELL INFORMATION
#MNEM.UNIT      DATA TYPE    INFORMATION
#----------   ------------   ------------------------------
 STRT.F           50.0000:   START DEPTH
 STOP.F         3270.0000:   STOP DEPTH
 STEP.F            0.5000:   STEP LENGTH
 NULL.          -999.2500:   NO VALUE
 COMP.   LAWRENCE ALLISON:   COMPANY
 WELL. LAWRENCE NPR 3 "AX" #12-11:   WELL
 FLD .                NPR:   FIELD
 LOC .      S11 T38N R78W:   LOCATION
 CNTY.            NATRONA:   COUNTY
 STAT.            WYOMING:   STATE
 CTRY. UNITED STATES OF AMERICA:   COUNTRY
 SRVC.      DRESSER ATLAS:   SERVICE COMPANY
 DATE.        18-JUL-1985:   LOGDATE
 API .     49025110460000:   API NUMBER
~CURVE INFORMATION
#MNEM.UNIT       API CODE    CURVE DESCRIPTION
#----------   ------------   ------------------------------
 DEPT.F                  :   
 TEND.LBS    45 635 01 00:   TENSION FROM DENSITY LOG
 RHOB.G/C3   45 350 01 00:   BULK DENSITY
 CORR.G/C3   45 356 01 00:   DENSITY CORRECTION
 NPHI.DEC    42 890 03 00:   NEUTRON POROSITY SANDSTONE
 TENR.LBS    07 635 01 00:   TENSION
 GRR .GAPI   07 310 01 00:   GAMMA RAY FROM RESISTIVITY
 RFOC.OHMM   07 220 01 00:   RESISTIVITY FOCUSED LOG RES.
 RILD.OHMM   07 120 46 00:   INDUCTION LOG DEEP RESISTIVITY
 RILM.OHMM   07 120 44 00:   INDUCTION LOG MEDIUM RESISTIVITY
 SN  .OHMM   01 040 00 00:   SHORT NORMAL
 ILD .OHMM   07 120 46 00:   INDUCTION LOG DEEP RESISTIVITY
 TENS.LBS    60 635 01 00:   TENSION FROM SONIC LOG
 DT  .US/F   60 520 00 00:   DELTA TIME
 SPR .MV     07 010 01 00:   SPONTANEOUS POTENTIAL
~PARAMETER INFORMATION
#MNEM.UNIT          VALUE    DESCRIPTION
#----------   ------------   ------------------------------
 EKB .F         5152.0000:   Kelly bushing
 EGL .F         5140.0000:   Ground level
 EDF .F            0.0000:   Drilling floor
 TD  .F         3271.0000:   Total depth
 DATE.        18-JUL-1985:   Date logged
 CLNT.            A2DTECH:   Client Code
 SL  . 1050' FNL & 150' FWL:   Surface Location
 PD  .                 GL:   Permanent Datum
 EPD .F              5140:   Elevation Permanent Datum
 LMF .                 KB:   Log Measured From
 DMF .                 KB:   Drilling Measured From
 DAPD.F                12:   Feet Above Permanent Datum
 DD  .F              3271:   Depth driller
 DL  .F              3262:   Depth logger
 BLI .F              3259:   Bottom log interval
 CS1 .IN            8.625:   Casing size
 CBD1.      8.625" @ 560':   Casing driller 1
 CBL1.F               560:   Casing logger 1
 BS1 .IN            7.875:   Bit size
 BSD1.F              3271:   Depth drilled with bit1
 DFT .            GEL/KCL:   Type fluid in hole
 DFD .                8.8:   Density
 DFV .                 40:   Viscosity
 DFPH.                  8:   pH
 DFL .                  8:   Fluid loss
 MSS .           MUD/TANK:   Source of sample
 RMS .OHMM            .31:   Rm
 MST .F                82:   Rm Meas. temp.
 RMF .OHMM            .25:   Rmf
 MFST.F                82:   Rmf Meas. temp.
 RMC .OHMM            .39:   Rmc
 MCST.F                82:   Rmc Meas. temp.
 MFSS.               MEAS:   Source Rmf.
 MCSS.               CALC:   Source Rmc.
 RMB .OHMM           .198:   Rm. at BHT
 BHT .F               128:   BHT.
 TCS .HRS               3:   Time Circ. stopped
 MRT .F               128:   Maximum recorded temp.
 LUN .            HL-6274:   Logging unit number
 LUL .           GILLETTE:   Logging unit location
 ENGI.             RAUTIO:   Recorded By
 WITN.             STRONG:   Witnessed by
 ORIG.           5" PRINT:   Origin of data
 UWI .     49025110460000:   Unique Well ID
 DICO. A2D TECHNOLOGIES, INC.:   Digitizing Company
~OTHER INFORMATION
~A   DEPT     TEND       RHOB       CORR       NPHI       TENR        GRR       RFOC       RILD       RILM           SN        ILD     TENS         DT         SPR  
# ...
 3161.5000   -27.2840     2.4590    -0.0070     0.2540    99.1310   111.0990     5.3340     3.8690     3.9770  -999.2500  -999.2500    72.9110    81.4840    63.5120
 3162.0000   -27.5990     2.4480    -0.0010     0.2650   100.2960   114.6620     5.0020     3.6160     3.7170  -999.2500  -999.2500    74.0900    81.9820    63.3840
 3162.5000   -27.9140     2.4450     0.0060     0.2760   101.4610   117.3720     4.6690     3.3640     3.4580  -999.2500  -999.2500    75.2690    84.3080    63.2530
 3163.0000   -28.2290     2.4430     0.0140     0.2780   102.6260   118.7170     4.3370     3.2460     3.3370  -999.2500  -999.2500    76.4480    86.8010    63.1210
 3163.5000   -28.5440     2.4410     0.0170     0.2750   103.7900   120.0110     4.0040     3.2190     3.2970  -999.2500  -999.2500    77.6270    88.6090    63.0330
 3164.0000   -28.8590     2.4390     0.0170     0.2680   104.9550   120.0420     3.7600     3.1930     3.2760  -999.2500  -999.2500    78.8060    89.7510    63.6060
 3164.5000   -29.1740     2.4410     0.0120     0.2550   106.1200   119.5210     3.5260     3.1580     3.3370  -999.2500  -999.2500    79.9850    90.1490    64.2950
 3165.0000   -29.4890     2.4490     0.0050     0.2450   107.2850   116.7970     3.7160     3.2610     3.4780  -999.2500  -999.2500    81.1640    89.3130    64.9720
 3165.5000   -29.8040     2.4620    -0.0030     0.2340   108.4500   112.5840     3.9730     3.4130     3.6400  -999.2500  -999.2500    82.3430    87.5410    65.3790
 3166.0000   -30.1180     2.4760    -0.0080     0.2230   109.6150   108.1780     4.5030     3.6330     3.9690  -999.2500  -999.2500    83.5220    85.6290    64.9720
 3166.5000   -30.4330     2.4870    -0.0110     0.2200   110.7800   103.1480     4.9910     3.8830     4.3550  -999.2500  -999.2500    84.7010    83.7160    64.3330
 3167.0000   -30.7480     2.4880    -0.0150     0.2220   111.9440   101.1380     5.4790     4.1320     4.5960  -999.2500  -999.2500    85.8800    81.8030    63.6750
 3167.5000   -31.0630     2.4810    -0.0120     0.2310   113.1090   103.2610     5.7160     4.3810     4.6670  -999.2500  -999.2500    87.0590    80.5350    63.7850
 3168.0000   -31.3780     2.4730    -0.0080     0.2390   112.3330   105.3420     5.8970     4.6020     4.7310  -999.2500  -999.2500    88.2380    79.8590    63.6110
 3168.5000   -31.6930     2.4630    -0.0040     0.2410   107.3180   107.1540     5.6350     4.6440     4.7740  -999.2500  -999.2500    89.4170    79.9640    63.1780
 3169.0000   -32.0080     2.4640    -0.0050     0.2400   105.3010   107.8580     5.3500     4.6170     4.7460  -999.2500  -999.2500    90.5960    80.6570    62.7690
 3169.5000   -32.3230     2.4710    -0.0060     0.2400   109.4800   108.4850     5.0640     4.5930     4.7210  -999.2500  -999.2500    91.7750    81.8960    62.9250
 3170.0000   -32.6370     2.4780    -0.0030     0.2450   113.9080   107.4970     4.8180     4.5680     4.6960  -999.2500  -999.2500    92.9540    82.9470    63.6240
 3170.5000   -32.9520     2.4840    -0.0010     0.2470   114.4830   105.0110     4.9420     4.5440     4.6710  -999.2500  -999.2500    93.7950    83.3580    64.3320
 3171.0000   -33.2670     2.4880     0.0050     0.2440   115.5430   102.1640     5.0890     4.5180     4.6440  -999.2500  -999.2500    94.1880    82.9360    64.9380
 3171.5000   -33.5820     2.4900     0.0120     0.2380   116.6020   102.9240     5.2360     4.3970     4.5200  -999.2500  -999.2500    94.5810    82.5300    64.1540
 3172.0000   -33.8970     2.4780     0.0130     0.2380   117.6620   104.9570     5.3790     4.2700     4.3890  -999.2500  -999.2500    94.9740    82.1250    63.3660
 3172.5000   -34.2120     2.4680     0.0100     0.2390   118.7210   105.7470     5.2500     4.1430     4.2590  -999.2500  -999.2500    95.3670    82.5350    62.7230
 3173.0000   -34.5270     2.4620     0.0110     0.2390   119.7810   106.5560     5.0810     4.0160     4.1280  -999.2500  -999.2500    95.7600    83.0420    62.5950
 3173.5000   -34.8420     2.4620     0.0120     0.2580   120.8400   107.4410     4.9120     3.8690     3.9730  -999.2500  -999.2500    96.1530    83.6330    62.4680
 3174.0000   -35.1560     2.4620     0.0080     0.2750   121.9000   109.8930     4.7740     3.6900     3.7710  -999.2500  -999.2500    96.5460    84.7260    62.4140
 3174.5000   -35.4710     2.4610     0.0020     0.2830   122.9590   112.3290     4.5520     3.5120     3.5680  -999.2500  -999.2500    96.9390    85.8190    62.4620
 3175.0000   -35.7860     2.4580    -0.0030     0.2870   124.0190   112.9610     4.3260     3.3340     3.3660  -999.2500  -999.2500    97.3320    86.9120    62.5100
 3175.5000   -36.0700     2.4500     0.0000     0.2890   125.0780   113.6940     4.1600     3.1560     3.1640  -999.2500  -999.2500    97.7250    88.0060    62.5570
 3176.0000   -31.8600     2.4360     0.0030     0.2880   126.1380   115.9830     3.9560     2.9780     2.9960  -999.2500  -999.2500    98.1180    89.0990    62.5880
 3176.5000   -28.0330     2.4180    -0.0100     0.2790   127.1970   118.6580     3.7040     2.8030     2.8810  -999.2500  -999.2500    98.5110    90.1920    62.4930
 3177.0000   -24.2060     2.4140    -0.0110     0.2680   128.2570   120.0820     3.4510     2.8710     2.9510  -999.2500  -999.2500    98.9040    92.0130    62.3960
 3177.5000   -20.3790     2.4220    -0.0080     0.2570   129.3160   117.6330     3.2760     2.9370     3.0190  -999.2500  -999.2500    99.2970    93.0380    62.3000
 3178.0000   -16.5520     2.4390    -0.0060     0.2460   130.3760   114.3630     3.3070     3.0950     3.2720  -999.2500  -999.2500    99.6900    92.4930    62.2030
 3178.5000   -12.7250     2.4560    -0.0020     0.2340   131.4350   112.0680     3.7580     3.3060     3.6320  -999.2500  -999.2500   100.0830    90.3640    62.1060
 3179.0000    -8.8980     2.4740     0.0030     0.2310   132.4950   112.0870     4.2370     3.5180     3.9930  -999.2500  -999.2500   100.4760    88.3990    62.0180
 3179.5000   -11.1940     2.4910     0.0000     0.2270   133.5540   111.4750     4.7810     3.8780     4.3530  -999.2500  -999.2500   100.8690    85.1780    61.6350
 3180.0000   -15.8410     2.5000    -0.0020     0.2140   134.6140   109.2690     5.3770     4.3180     4.7160  -999.2500  -999.2500   101.2620    81.9570    61.1290
 3180.5000   -15.3710     2.5010    -0.0020     0.2160   135.6730   107.1250     5.9720     4.7580     5.0590  -999.2500  -999.2500   101.6550    78.7370    60.9090
 3181.0000   -14.9020     2.4960    -0.0020     0.2200   136.7330   104.8160     6.2880     5.1980     5.4010  -999.2500  -999.2500   102.0480    77.4880    60.7150
 3181.5000   -14.4330     2.4950    -0.0010     0.2210   137.7920   101.6640     6.2310     5.4670     5.6200  -999.2500  -999.2500   102.4410    77.2010    60.5250
 3182.0000   -13.9630     2.4970     0.0050     0.2200   138.8520   100.6110     6.1590     5.5470     5.7020  -999.2500  -999.2500   102.8340    77.5040    60.3340
 3182.5000   -13.4940     2.4940     0.0090     0.2180   139.9110   100.7030     6.0920     5.6280     5.7850  -999.2500  -999.2500   103.2270    77.8660    60.1420
 3183.0000   -13.0250     2.4840     0.0130     0.2160   140.9710   103.8030     6.0250     5.6840     5.8430  -999.2500  -999.2500   103.5860    78.2290    60.0170
 3183.5000   -12.5550     2.4760     0.0180     0.2120   142.0300   106.3900     5.9510     5.5720     5.7280  -999.2500  -999.2500   105.2060    78.5910    59.9460
 3184.0000   -12.0860     2.4760     0.0200     0.2190   143.0900   106.8840     5.9510     5.4700     5.6230  -999.2500  -999.2500   106.6970    78.6400    59.8290
 3184.5000   -11.6160     2.4810     0.0220     0.2250   143.8190   104.7500     5.9510     5.3300     5.4790  -999.2500  -999.2500   108.1880    78.5620    60.0100
 3185.0000   -11.1470     2.4800     0.0000     0.2240   145.4740   104.6090     5.9510     5.3260     5.4420  -999.2500  -999.2500   109.6790    78.6110    60.2320
 3185.5000   -10.6780     2.4760    -0.0020     0.2180   147.2850   106.0210     5.9510     5.3190     5.3810  -999.2500  -999.2500   111.1700    79.3390    61.1040
