~VERSION INFORMATION
 VERS.                2.0:   CWLS LOG ASCII STANDARD - VERSION 2.0
 WRAP.                 NO:   ONE LINE PER DEPTH STEP
~WELL INFORMATION
#MNEM.UNIT      DATA TYPE    INFORMATION
#----------   ------------   ------------------------------
 STRT.F          200.5000:   START DEPTH
 STOP.F         3164.0000:   STOP DEPTH
 STEP.F            0.5000:   STEP LENGTH
 NULL.          -999.2500:   NO VALUE
 COMP. FENIX & SCISSON U.S NAVY:   COMPANY
 WELL. FENIX & SCISSON "A" #83-4:   WELL
 FLD .              NPR-3:   FIELD
 LOC .       S4 T38N R78W:   LOCATION
 CNTY.            NATRONA:   COUNTY
 STAT.            WYOMING:   STATE
 CTRY. UNITED STATES OF AMERICA:   COUNTRY
 SRVC.       SCHLUMBERGER:   SERVICE COMPANY
 DATE.        25-MAY-1977:   LOGDATE
 API .     49025103660000:   API NUMBER
~CURVE INFORMATION
#MNEM.UNIT       API CODE    CURVE DESCRIPTION
#----------   ------------   ------------------------------
 DEPT.F                  :   
 CALD.IN     45 280 60 00:   CALIPER FROM DENSITY LOG
 GRD .GAPI   45 310 01 00:   GAMMA RAY FROM DENSITY LOG
 RHOB.G/C3   45 350 01 00:   BULK DENSITY
 CORR.G/C3   45 356 01 00:   DENSITY CORRECTION
 SPR .MV     07 010 01 00:   SPONTANEOUS POTENTIAL
 SFLU.OHMM   07 220 01 00:   SPHERICALLY FOCUSED LOG UNAVERAGED RESISTIVITY
 ILD .OHMM   07 120 46 00:   DEEP INDUCTION RESISTIVITY
 ILM .OHMM   07 120 44 00:   INDUCTION LOG MEDIUM RESISTIVITY
~PARAMETER INFORMATION
#MNEM.UNIT          VALUE    DESCRIPTION
#----------   ------------   ------------------------------
 EKB .F         5163.0000:   Kelly bushing
 EGL .F         5149.0000:   Ground level
 EDF .F            0.0000:   Drilling floor
 EPD .F            0.0000:   Permanent datum
 TD  .F         3173.0000:   Total depth
 DATE.        25-MAY-1977:   Date logged
 CLNT.            A2DTECH:   Client Code
 SL  . 1650' FNL & 330 ' FEL:   Surface Location
 PD  .                 GL:   Permanent Datum
 DAPD.F                14:   Feet Above Permanent Datum
 DD  .F              3173:   Depth driller
 DL  .F              3157:   Depth logger
 BLI .F              3165:   Bottom log interval
 TLI .F               200:   Top log interval
 CS1 .IN            8.625:   Casing size
 CBD1.      8.625" @ 204':   Casing driller 1
 CBL1.F               220:   Casing logger 1
 BS1 .IN            7.875:   Bit size
 BSD1.F              3173:   Depth drilled with bit1
 DFT .            KCL MUD:   Type fluid in hole
 DFD .                8.8:   Density
 DFV .                 37:   Viscosity
 DFPH.                7.5:   pH
 DFL .                4.4:   Fluid loss
 MSS .           FLOWLINE:   Source of sample
 RMS .OHMM            .39:   Rm
 MST .F                79:   Rm Meas. temp.
 RMF .OHMM            .31:   Rmf
 MFST.F                79:   Rmf Meas. temp.
 RMC .OHMM            .63:   Rmc
 MCST.F                79:   Rmc Meas. temp.
 MFSS.           FANN KIT:   Source Rmf.
 MCSS.           FANN KIT:   Source Rmc.
 RMB .OHMM            .27:   Rm. at BHT
 BHT .F               112:   BHT.
 TCS .HRS             2.5:   Time Circ. stopped
 MRT .F               112:   Maximum recorded temp.
 LUN .               8611:   Logging unit number
 LUL .             CASPER:   Logging unit location
 ENGI.            C. DOAK:   Recorded By
 WITN.      B. HARRINGTON:   Witnessed by
 ORIG.       2.5"5" PRINT:   Origin of data
 UWI .     49025103660000:   Unique Well ID
 DICO. A2D TECHNOLOGIES, INC.:   Digitizing Company
~OTHER INFORMATION
~A   DEPT     CALD        GRD         RHOB     CORR        SPR       SFLU        ILD        ILM   
# ...
  403.0000     9.2081   112.5344     2.4080     0.0260   -25.2832     9.5150     3.9092     4.9479
  403.5000     9.2123   111.7658     2.4238     0.0260   -25.2851     7.6442     4.1268     5.0378
  404.0000     9.2164   109.4450     2.4492     0.0065   -24.9004     7.7843     4.3569     5.1290
  404.5000     9.2206   111.7900     2.4257     0.0026   -24.9023     7.7838     4.7697     5.3174
  405.0000     9.2248   112.5830     2.4258     0.0027   -24.5176     9.3369     5.1275     5.4140
  405.5000     9.2290   112.5927     2.4376    -0.0129   -24.5196     9.5067     5.6129     5.4134
  406.0000     9.2332   111.8288     2.4572    -0.0011   -24.1348     9.5054     5.7149     5.7149
  406.5000     9.2374   111.0599     2.4612     0.0029   -24.1367     9.5035     6.1435     5.8183
  407.0000     9.2415   109.5172     2.4867     0.0069   -24.1396     9.8549     6.4860     6.0323
  407.5000     9.2457   109.5268     2.5103     0.0227   -24.1416    10.2185     6.8471     6.3683
  408.0000     9.2499   109.5412     2.5182     0.0306   -23.7567    10.2171     7.0990     6.4839
  408.5000     9.2541   109.5509     2.5202     0.0306   -23.7587    10.4028     7.2275     6.6013
  409.0000     9.2583   110.3440     2.5163     0.0307   -23.7616    10.4014     7.4933     6.6004
  409.5000     9.2625   110.3536     2.5084     0.0308   -23.7635    10.3993     7.6289     6.8428
  410.0000     9.2666   110.3681     2.5026     0.0269   -23.3787    10.2102     7.6279     6.8419
  410.5000     9.2708   110.3777     2.5065     0.0270   -23.3806    10.0239     7.7335     6.9657
  411.0000     9.2750   109.6182     2.4850     0.0153   -23.3835     9.8416     7.7649     7.0922
  411.5000     9.2805   109.6230     2.4752     0.0154   -23.3854     9.8396     7.7639     7.0908
  412.0000     9.2807   107.3007     2.4772     0.0155   -23.3883     9.8383     7.9043     7.0899
  412.5000     9.2435   108.0892     2.4772     0.0155   -23.3902    10.0171     7.9028     7.2181
  413.0000     9.2828   106.5457     2.4812     0.0156   -23.0053    10.1999     7.9017     7.2172
  413.5000     9.2834   106.5552     2.4832     0.0156   -23.0072    10.1978     8.0447     7.2158
  414.0000     9.2839   105.7904     2.4812     0.0157   -22.6223     9.8317     8.0436     7.2149
  414.5000     9.2845   105.8000     2.4695     0.0197   -22.6242    10.1944     8.0420     7.2135
  415.0000     9.2849   108.1514     2.4695     0.0198   -22.6271    10.1930     8.0410     7.2126
  415.5000     9.2855   108.1611     2.4656     0.0198   -22.6290    10.1910     8.0394     7.2112
  416.0000     9.3638   108.1755     2.4500     0.0160   -22.2440    10.1896     7.8940     7.2102
  416.5000     9.3645   108.1850     2.4402     0.0161   -22.2459    10.1875     7.7507     7.2088
  417.0000     9.3649   108.1994     2.4324     0.0200   -21.8610    10.1862     7.6106     7.2079
  417.5000     9.4045   108.9882     2.4128     0.0201   -21.8629    10.3712     7.4725     7.2065
  418.0000     9.4438   110.5611     2.4089     0.0281   -21.4778    10.3698     7.3373     7.2056
  418.5000     9.4445   110.5708     2.3971     0.0399   -21.4797    10.5583     7.0748     6.5802
  419.0000     9.4449   109.8060     2.4187     0.0517   -21.0947    10.7494     6.9469     6.1194
  419.5000     9.4845   109.0362     2.4148     0.0518   -20.7087    10.7486     6.8213     5.7946
  420.0000     9.5239   109.0507     2.3540     0.0558   -20.3236    10.3628     6.9447     5.4874
  420.5000     9.5245   109.8397     2.3246     0.0559   -20.3255     6.8771     6.9433     5.2911
  421.0000     9.5249   110.6336     2.2893     0.0559   -20.3283     4.5639     6.9424     5.2904
  421.5000     9.5645   109.0843     2.2324     0.0560   -20.3302     3.5375     7.0685     5.2895
  422.0000     9.5649   105.9807     2.2168    -0.0028   -20.3330    11.3429     7.1963     5.2888
  422.5000     9.6043   105.2107     2.2521    -0.0106   -19.9470    11.5489     7.5967     5.7891
  423.0000     9.6829   102.1067     2.4288     0.0052   -19.9498    11.7595     7.7346     5.8942
  423.5000     9.6836   102.1161     2.4759     0.0170   -19.5637    11.9731     8.0184     6.4518
  424.0000     9.6450   102.9098     2.4583     0.0132   -19.1785    11.9714     8.1639     7.1912
  424.5000     9.6456   105.2582     2.4504     0.0132   -19.1804    11.9690     8.4634     7.8719
  425.0000     9.6461   107.9960     2.4387     0.0055   -19.1832    11.9673     8.7745     8.2084
  425.5000     9.6857   106.4414     2.4191     0.0055   -18.7971    11.9649     8.9332     8.5593
  426.0000     9.6861   105.6760     2.3995     0.0017   -18.0239    11.9632     9.2615     8.9252
  426.5000     9.7257   104.1259     2.3995     0.0017   -17.6377    11.9608     9.4289     9.4283
  427.0000     9.7262    97.7219     2.3956     0.0057   -17.2525    11.9583     9.9541     9.4276
  427.5000     9.7658    96.1715     2.3957     0.0058   -17.2543    11.9567    10.3192     9.9521
  428.0000     9.8052    88.3866     2.3839     0.0059   -16.4810    12.3983    10.8939     9.9514
  428.5000     9.8449    82.1564     2.3761     0.0138   -16.0948    13.8262    11.9241    10.3171
  429.0000     9.9627    79.0455     2.3584     0.0178   -15.7095    17.4357    12.3622    10.6663
  429.5000     9.9629    76.7187     2.3506     0.0179   -15.7113    14.3338    13.5312    11.0274
  430.0000    10.0012    72.0474     2.3310     0.0101   -15.3260    15.4142    13.7765    11.2881
  430.5000    10.0030    71.2801     2.3271     0.0062   -14.9397    16.5748    15.3536    11.9159
  431.0000    10.0425    72.0685     2.3389     0.0062   -14.9424    16.2735    15.0770    11.7005
  431.5000    10.0431    73.0414     2.3488     0.0299   -14.9442    15.1276    14.5376    11.6981
  432.0000    10.0435    74.6101     2.3566     0.0339   -14.5597    14.8527    14.2747    11.2804
  432.5000    10.0442    76.1832     2.3625     0.0379   -14.1725    16.2643    14.0156    11.4842
  433.0000    10.0444    77.7522     2.3724     0.0380   -14.1752    15.1202    14.0136    11.4827
  433.5000    10.0453    79.3255     2.3744     0.0380   -14.1770    14.5766    14.0107    11.4803
  434.0000    10.0455    79.3343     2.3685     0.0342   -13.4034    14.5746    13.7574    11.9021
  434.5000    10.0462    77.7868     2.3685     0.0303   -13.4052    15.3892    14.5223    12.3385
  435.0000    10.0468    77.0152     2.3745     0.0304   -13.4079    17.3983    15.6110    12.5622
  435.5000    10.0085    75.4676     2.3804     0.0305   -13.4097    19.3907    19.1044    13.0228
  436.0000    10.0089    74.6958     2.3942     0.0344   -13.4123    19.1368    23.6649    13.0210
  436.5000     9.9705    73.1479     2.4099     0.0384   -13.4141    19.8389    22.0084    13.7450
  437.0000     9.9711    72.3760     2.4217     0.0503   -13.4167    18.7836    17.3889    14.2498
  437.5000     9.9714    72.3887     2.4295     0.0504   -13.0304    17.4612    17.0745    14.7722
  438.0000     9.9328    72.3972     2.4100     0.0505   -13.0330    16.8347    24.0777    14.5031
  438.5000     9.9335    75.5320     2.4257     0.0505   -13.0348    18.7727    24.9637    14.5020
  439.0000     9.9341    75.5406     2.4356     0.0585   -12.6492    21.3196    24.9618    13.9844
  439.5000     9.9343    73.2118     2.4415     0.0585   -12.6510    21.7063    20.7199    13.4843
  440.0000     9.9350    73.2203     2.4375     0.0625   -12.2654    15.9280    17.1989    12.7697
  440.5000     9.9354    74.7943     2.3885     0.0586   -12.2672    13.0371    13.2339    12.3131
  441.0000     9.9751    76.3642     2.3610     0.0548   -11.8816    12.5695    13.2329    11.8736
  441.5000     9.9360    75.4158     2.3493     0.0470   -11.8834    14.8016    12.9929    11.4491
  442.0000     9.9364    76.9858     2.3454     0.0471   -11.4978    15.0723    13.9666    11.0405
  442.5000     9.9756    76.9987     2.3434     0.0471   -11.4995    14.5297    13.2256    10.4548
  443.0000     9.9762    77.0073     2.3337     0.0433   -11.1139    14.7954    11.6501    10.0817
