~VERSION INFORMATION
 VERS.                2.0:   CWLS LOG ASCII STANDARD - VERSION 2.0
 WRAP.                 NO:   ONE LINE PER DEPTH STEP
~WELL INFORMATION
#MNEM.UNIT      DATA TYPE    INFORMATION
#----------   ------------   ------------------------------
 STRT.F          200.0000:   START DEPTH
 STOP.F         3060.0000:   STOP DEPTH
 STEP.F            0.5000:   STEP LENGTH
 NULL.          -999.2500:   NO VALUE
 COMP.    FENIX & SCISSON:   COMPANY
 WELL. FENIX NPR 3 "AX" #58-21:   WELL
 FLD .      NPR - WILDCAT:   FIELD
 LOC .      S21 T39N R78W:   LOCATION
 CNTY.            NATRONA:   COUNTY
 STAT.            WYOMING:   STATE
 CTRY. UNITED STATES OF AMERICA:   COUNTRY
 SRVC.              WELEX:   SERVICE COMPANY
 DATE.        12-JUN-1977:   LOGDATE
 API .     49025103790000:   API NUMBER
~CURVE INFORMATION
#MNEM.UNIT       API CODE    CURVE DESCRIPTION
#----------   ------------   ------------------------------
 DEPT.F                  :   
 CALD.IN     45 280 60 00:   CALIPER FROM DENSITY LOG
 GRD .GAPI   45 310 01 00:   GAMMA RAY FROM DENSITY LOG
 CORR.G/C3   45 356 01 00:   DENSITY CORRECTION
 RHOB.G/C3   45 350 01 00:   BULK DENSITY
 SPR .MV     07 010 01 00:   SPONTANEOUS POTENTIAL
 ILD .OHMM   07 120 46 00:   DEEP INDUCTION RESISTIVITY
 GURD.OHMM   07 220 05 00:   GUARD LOG RESISTIVITY
 ILM .OHMM   07 120 44 00:   INDUCTION LOG MEDIUM RESISTIVITY
 DT  .US/F   60 520 00 00:   DELTA TIME
 SPHI.DEC    60 890 00 00:   SONIC POROSITY
~PARAMETER INFORMATION
#MNEM.UNIT          VALUE    DESCRIPTION
#----------   ------------   ------------------------------
 EKB .F         5016.0000:   Kelly bushing
 EGL .F         5006.0000:   Ground level
 EDF .F            0.0000:   Drilling floor
 EPD .F            0.0000:   Permanent datum
 TD  .F         3062.0000:   Total depth
 DATE.        12-JUN-1977:   Date logged
 CLNT.            A2DTECH:   Client Code
 SL  . 280' FSL & 2160' FEL:   Surface Location
 PD  .                 GL:   Permanent Datum
 DD  .F              3060:   Depth driller
 DL  .F              3062:   Depth logger
 BLI .F              3060:   Bottom log interval
 TLI .F              2450:   Top log interval
 CS1 .IN            8.625:   Casing size
 CBD1.      8.625" @ 200':   Casing driller 1
 CBL1.F               218:   Casing logger 1
 BS1 .IN            7.875:   Bit size
 BSD1.F              3060:   Depth drilled with bit1
 DFT .            KCL/MUD:   Type fluid in hole
 DFD .                8.7:   Density
 DFV .                 33:   Viscosity
 DFPH.                7.5:   pH
 DFL .                 36:   Fluid loss
 MSS .           FLOWLINE:   Source of sample
 TCS .HRS             4.5:   Time Circ. stopped
 MRT .F               110:   Maximum recorded temp.
 LUN .               8611:   Logging unit number
 LUL .           GILLETTE:   Logging unit location
 ENGI.            C. DOAK:   Recorded By
 WITN.            RHOADES:   Witnessed by
 ORIG.           5" PRINT:   Origin of data
 UWI .     49025103790000:   Unique Well ID
 DICO. A2D TECHNOLOGIES, INC.:   Digitizing Company
 DAPD.                 10:   Feet Above Permanent Datum
 RMS .OHMM            1.3:   Rm
 MST .F                84:   Rm Meas. temp.
 RMF .OHMM            .52:   Rmf
 MFST.F                84:   Rmf Meas. temp.
 MFSS.               FANN:   Source Rmf.
 RMC .OHMM           1.43:   Rmc
 MCST.F                84:   Rmc Meas. temp.
 MCSS.                KIT:   Source Rmc.
 RMB .OHMM            .99:   Rm. at BHT
 BHT .F               110:   BHT.
~OTHER INFORMATION
~A   DEPT     CALD         GRD      CORR       RHOB        SPR        ILD       GURD        ILM         DT       SPHI   
# ...
 3014.0000     8.0610   131.0140     0.0140     2.4290   -62.3650     2.5020     4.0650     2.6330    87.1400     0.2500
 3014.5000     8.0600   135.0790     0.0120     2.4200   -62.3240     2.4790     3.4830     2.5920    86.7130     0.2450
 3015.0000     8.0590   138.8360     0.0090     2.4090   -62.2830     2.4560     3.0060     2.5500    87.9080     0.2480
 3015.5000     8.0580   142.5610     0.0070     2.3980   -62.2500     2.4320     3.1990     2.5090    89.9000     0.2670
 3016.0000     8.0570   142.0240     0.0060     2.3880   -62.2890     2.4090     3.0110     2.4680    91.8920     0.2820
 3016.5000     8.0570   139.0900     0.0070     2.3770   -62.3750     2.3860     2.7100     2.4270    93.8840     0.2980
 3017.0000     8.0560   133.8350     0.0100     2.3770   -62.4560     2.3630     2.7610     2.5360    93.8840     0.2990
 3017.5000     8.0550   128.6450     0.0120     2.3910   -62.5380     2.3390     3.0730     2.6440    93.2870     0.2990
 3018.0000     8.0540   123.6820     0.0140     2.4050   -62.6200     2.4270     3.4780     2.7520    91.4370     0.2980
 3018.5000     8.0530   118.4350     0.0170     2.4200   -62.7020     2.4800     4.0650     2.8640    89.5870     0.2610
 3019.0000     8.0520   118.1800     0.0180     2.4280   -62.7840     2.6270     3.9810     2.9720    88.1080     0.2600
 3019.5000     8.0510   116.7250     0.0120     2.4190   -62.8630     2.7740     3.8290     3.0830    87.7660     0.2560
 3020.0000     8.0500   118.7920     0.0060     2.4110   -62.9520     2.9210     3.6770     3.2470    87.4820     0.2530
 3020.5000     8.0490   121.1540     0.0000     2.4030   -63.0310     3.0680     3.5730     3.4120    87.1120     0.2500
 3021.0000     8.0490   120.8680    -0.0060     2.3980   -63.0080     3.2140     3.8270     3.5770    86.2150     0.2450
 3021.5000     8.0480   119.8770    -0.0120     2.4070   -62.4790     3.3810     4.1400     3.7420    84.9040     0.2390
 3022.0000     8.0470   118.9770    -0.0120     2.4180   -61.9490     3.4440     5.0200     3.9070    82.8700     0.2250
 3022.5000     8.0460   119.2380    -0.0050     2.4280   -61.3980     3.6530     6.5620     4.0720    80.8370     0.2060
 3023.0000     8.0450   120.4580     0.0010     2.4390   -60.8650     3.8480     6.3400     4.2960    78.8030     0.1870
 3023.5000     8.0440   122.0590     0.0020     2.4370   -60.3130     3.9180     5.7680     4.1710    76.7700     0.1690
 3024.0000     8.0430   124.4060    -0.0050     2.4290   -59.7910     3.7040     6.0680     3.9780    75.7570     0.1610
 3024.5000     8.0420   133.2880     0.0000     2.4210   -59.2280     3.5360     6.7660     3.7840    78.5060     0.1880
 3025.0000     8.0410   146.8840     0.0060     2.4130   -58.6630     3.3680     7.4650     3.5910    80.3390     0.2010
 3025.5000     8.0400   159.7510     0.0150     2.4050   -58.3520     3.1990     4.7380     3.3970    80.7370     0.2060
 3026.0000     8.0400   172.2280     0.0150     2.3970   -59.5260     3.0270     1.9450     3.1990    87.2110     0.2450
 3026.5000     8.0390   182.6560     0.0090     2.3900   -60.4630     3.0270     3.8050     3.1990    96.2750     0.2830
 3027.0000     8.0380   166.8090     0.0040     2.4040   -61.4450     3.1970     5.7110     3.5160    93.4860     0.2990
 3027.5000     8.0370   144.1910     0.0020     2.4280   -61.4400     3.5180     7.6170     3.8550    88.3070     0.2760
 3028.0000     8.0360   120.0570     0.0050     2.4510   -61.4470     3.8380     9.6610     4.1930    82.3310     0.2200
 3028.5000     8.0350   110.6480     0.0120     2.4760   -61.4210     4.1580     6.0960     4.5310    75.7570     0.1650
 3029.0000     8.0330   114.0220     0.0090     2.4880   -61.4100     4.4780     6.2090     4.8700    76.2950     0.1690
 3029.5000     8.0320   115.4760    -0.0030     2.4790   -61.3960     4.7990     6.2090     5.2080    77.1910     0.1760
 3030.0000     8.0310   111.3720    -0.0130     2.4730   -61.3800     5.1190     6.9710     5.5470    77.7490     0.1790
 3030.5000     8.0290   107.9950    -0.0120     2.4660   -61.3660     5.4390     7.6690     5.8850    76.6390     0.1710
 3031.0000     8.0280   109.9280    -0.0030     2.4590   -61.3510     5.7590     8.1850     6.2240    75.7140     0.1640
 3031.5000     8.0270   111.7890    -0.0130     2.4540   -61.3360     6.0800     7.8240     6.5620    75.1590     0.1590
 3032.0000     8.0250   108.5650    -0.0150     2.4590   -61.3220     6.3250     7.3290     6.6840    75.5330     0.1620
 3032.5000     8.0240   105.5240    -0.0070     2.4660   -61.3070     6.3250     7.6180     6.6840    76.1550     0.1670
 3033.0000     8.0220   105.1340     0.0000     2.4730   -61.2920     6.3250     7.9770     6.5820    76.1550     0.1690
 3033.5000     8.0210   107.1160     0.0060     2.4810   -61.2780     6.2650     8.3370     6.4820    75.3590     0.1630
 3034.0000     8.0200   109.0540     0.0140     2.4850   -61.2630     6.1160     7.6220     6.3820    74.8610     0.1580
 3034.5000     8.0180   111.0150     0.0190     2.4840   -61.2480     5.9660     7.3280     6.2820    75.3590     0.1580
 3035.0000     8.0170   112.9520     0.0120     2.4730   -61.2340     5.8170     7.1530     6.1830    76.7700     0.1660
 3035.5000     8.0160   114.9230     0.0040     2.4610   -61.2190     5.6680     6.9770     6.0830    78.1810     0.1750
 3036.0000     8.0140   116.7260    -0.0050     2.4570   -61.2040     5.5190     6.8020     5.9830    78.8940     0.1840
 3036.5000     8.0130   116.8590     0.0010     2.4600   -61.1890     5.3580     6.5620     5.8750    79.1430     0.1890
 3037.0000     8.0110   114.7870     0.0080     2.4670   -61.1750     5.3580     6.5620     5.8750    79.0600     0.1900
 3037.5000     8.0100   114.1030     0.0160     2.4730   -61.1600     5.2530     6.8480     5.8750    78.9770     0.1890
 3038.0000     8.0090   115.5630     0.0240     2.4800   -61.1450     5.2430     7.2530     5.8750    78.6120     0.1830
 3038.5000     8.0070   118.6350     0.0260     2.4830   -61.1310     5.2330     7.6580     5.8750    78.0590     0.1770
 3039.0000     8.0060   121.4590     0.0200     2.4790   -61.1160     5.2220     8.0360     5.8750    77.5060     0.1730
 3039.5000     8.0050   120.6800     0.0140     2.4760   -61.1010     5.2120     7.5450     5.8750    76.9520     0.1720
 3040.0000     8.0030   114.6980     0.0080     2.4710   -61.0870     5.2020     7.0850     5.8750    77.7490     0.1780
 3040.5000     8.0020   108.9310     0.0060     2.4710   -61.0720     5.1910     6.6240     5.8750    78.5460     0.1870
 3041.0000     8.0000   103.4740     0.0150     2.4770   -61.0670     5.1810     6.1640     5.7970    79.3430     0.1940
 3041.5000     7.9990   101.0630     0.0240     2.4820   -61.0670     5.1710     5.9850     5.7020    80.1390     0.1940
 3042.0000     7.9980  -999.2500     0.0340     2.4870   -61.0690     5.1650     5.9850     5.6070    79.6410     0.1930
 3042.5000     7.9960  -999.2500     0.0290     2.4910   -61.0650     5.0700     6.0960     5.5120    79.3430     0.1910
 3043.0000     7.9960  -999.2500     0.0200     2.4890   -61.0680     4.9550     6.2900     5.4170    79.7410     0.1880
 3043.5000     7.9960  -999.2500     0.0120     2.4800   -61.0740     4.8060     6.5620     5.3220    79.1040     0.1860
 3044.0000     7.9960  -999.2500     0.0040     2.4720   -61.0430     4.6570     6.4380     5.2140    78.4120     0.1830
 3044.5000     7.9960  -999.2500    -0.0040     2.4640   -61.1170     4.5080     6.0820     5.0800    78.8520     0.1810
 3045.0000     7.9960  -999.2500    -0.0030     2.4550   -60.7430     4.3590     5.7270     4.9450    79.7330     0.1870
 3045.5000     7.9960  -999.2500     0.0080     2.4500   -60.6080     4.2110     5.3710     4.8110    80.6140     0.1970
 3046.0000     7.9960  -999.2500     0.0150     2.4530   -59.7500     4.0620     4.9780     4.6770    81.4960     0.2070
 3046.5000     7.9960  -999.2500     0.0150     2.4640   -58.9130     3.9130     5.1920     4.5420    82.3770     0.2140
 3047.0000     7.9960  -999.2500     0.0060     2.4770   -57.9600     3.7640     5.5590     4.4080    82.7290     0.2160
