~VERSION INFORMATION
 VERS.                2.0:   CWLS LOG ASCII STANDARD - VERSION 2.0
 WRAP.                 NO:   ONE LINE PER DEPTH STEP
~WELL INFORMATION
#MNEM.UNIT      DATA TYPE    INFORMATION
#----------   ------------   ------------------------------
 STRT.F            5.0000:   START DEPTH
 STOP.F         5604.0000:   STOP DEPTH
 STEP.F            0.5000:   STEP LENGTH
 NULL.          -999.2500:   NO VALUE
 COMP.   LAWRENCE ALLISON:   COMPANY
 WELL. LAWRENCE 62 TPX #10-10:   WELL
 FLD .           NPR NO 3:   FIELD
 LOC .      S10 T38N R78W:   LOCATION
 CNTY.            NATRONA:   COUNTY
 STAT.            WYOMING:   STATE
 CTRY. UNITED STATES OF AMERICA:   COUNTRY
 SRVC.      DRESSER ATLAS:   SERVICE COMPANY
 DATE.        08-NOV-1985:   LOGDATE
 API .     49025110490000:   API NUMBER
~CURVE INFORMATION
#MNEM.UNIT       API CODE    CURVE DESCRIPTION
#----------   ------------   ------------------------------
 DEPT.F                  :   
 TEND.LBS    45 635 01 00:   TENSION FORM DENSITY LOG
 CNC .DEC    42 890 03 00:   NEUTRON POROSITY SANDSTONE
 CORR.G/C3   45 356 01 00:   DENSITY CORRECTION
 RHOB.G/C3   45 350 01 00:   BULK DENSITY
 TENR.LBS    11 635 01 00:   TENSION FROM RESISTIVITY
 GRR .GAPI   11 310 01 00:   GAMMA RAY FROM RESISTIVITY
 SPR .MV     11 010 01 00:   SPONTANEOUS POTENTIAL FROM RES.
 CALR.IN     11 280 01 00:   CALIPER FROM RESISTIVITY
 RD  .OHMM   11 220 10 00:   RESISTIVITY DEEP
 RS  .OHMM   11 220 09 00:   RESISTIVITY SHALLOW
 RMLL.OHMM   11 270 04 00:   MICRO LATEROLOG
 TENS.LBS    60 635 01 00:   TENSION FROM SONIC
 DT  .US/F   60 520 00 00:   DELTA TIME
~PARAMETER INFORMATION
#MNEM.UNIT          VALUE    DESCRIPTION
#----------   ------------   ------------------------------
 EKB .F         5167.0000:   Kelly bushing
 EGL .F         5155.0000:   Ground level
 EDF .F            0.0000:   Drilling floor
 TD  .F         5600.0000:   Total depth
 CLNT.            A2DTECH:   Client Code
 PD  .                 GL:   Permanent Datum
 EPD .F              5155:   Elevation Permanent Datum
 LMF .                 KB:   Log Measured From
 DMF .                 KB:   Drilling Measured From
 DAPD.F                12:   Feet Above Permanent Datum
 DATE.        08-NOV-1985:   Date Logged [DD-MMM-YYYY]
 DD  .F              5600:   Depth driller
 DL  .F              5600:   Depth logger
 BLI .F              5597:   Bottom log interval
 TLI .F               467:   Top log interval
 CS1 .IN            9.625:   Casing size
 CBD1.      9.625" @ 467':   Casing driller 1
 CBL1.F               465:   Casing logger 1
 BS1 .IN             8.75:   Bit size
 BSD1.F              5600:   Depth drilled with bit1
 DFT .        KCL POLYMER:   Type fluid in hole
 DFD .                9.2:   Density
 DFV .                 38:   Viscosity
 DFPH.                8.5:   pH
 DFL .                8.6:   Fluid loss
 MSS .           FLOWLINE:   Source of sample
 RMS .OHMM           0.28:   Rm
 MST .F                75:   Rm Meas. temp.
 RMF .OHMM           0.21:   Rmf
 MFST.F                75:   Rmf Meas. temp.
 MFSS.               CALC:   Source Rmf.
 RMC .OHMM           0.35:   Rmc
 MCST.F                75:   Rmc Meas. temp.
 MCSS.               CALC:   Source Rmc.
 RMB .OHMM           0.13:   Rm. at BHT
 BHT .F               168:   BHT.
 TCS .HRS               7:   Time Circ. stopped
 MRT .F               168:   Maximum recorded temp.
 LUN .               6274:   Logging unit number
 LUL .               GLTE:   Logging unit location
 ENGI.               MACK:   Recorded By
 WITN.             STRONG:   Witnessed by
 ORIG.      2.5" 5" PRINT:   Origin of data
 UWI .     49025110490000:   Unique Well ID
 DICO. A2D TECHNOLOGIES, INC.:   Digitizing Company
~OTHER INFORMATION
~A  DEPTH     TEND        CNC       CORR       RHOB       TENR        GRR        SPR       CALR         RD         RS       RMLL       TENS         DT
# ...
 1149.0000  -999.2500  -999.2500  -999.2500  -999.2500   -55.6591    83.7606   -73.3449    12.3073     9.7037     6.0754     6.9379  -999.2500  -999.2500
 1149.5000  -999.2500  -999.2500  -999.2500  -999.2500   -48.8137    79.9043   -73.3284    12.3096    10.1955     6.2939     7.3406  -999.2500  -999.2500
 1150.0000  -999.2500  -999.2500  -999.2500  -999.2500   -49.9932    79.9401   -73.3120    12.3118    10.4932     6.5367     7.7660  -999.2500  -999.2500
 1150.5000  -999.2500  -999.2500  -999.2500  -999.2500   -50.9365    77.8797   -73.7423    12.2991    10.5773     6.9665     8.6941  -999.2500  -999.2500
 1151.0000  -999.2500  -999.2500  -999.2500  -999.2500   -44.0912    76.7066   -74.0288    12.3013    10.7322     7.3706     9.1230  -999.2500  -999.2500
 1151.5000  -999.2500  -999.2500  -999.2500  -999.2500   -37.7177    76.1487   -74.1609    12.2886    10.4479     7.4258     8.4373  -999.2500  -999.2500
 1152.0000  -999.2500  -999.2500  -999.2500  -999.2500   -38.6611    76.7802   -74.2929    12.2751    10.3850     7.2740     7.7378  -999.2500  -999.2500
 1152.5000  -999.2500  -999.2500  -999.2500  -999.2500   -39.6047    77.7111   -74.2706    12.2471    10.4689     7.1288     7.7445  -999.2500  -999.2500
 1153.0000  -999.2500  -999.2500  -999.2500  -999.2500   -40.5481    78.6420   -74.4027    12.2054    10.4783     7.0418     7.6455  -999.2500  -999.2500
 1153.5000  -999.2500  -999.2500  -999.2500  -999.2500   -41.4914    80.7705   -74.3849    12.1776    10.4876     6.9989     7.5465  -999.2500  -999.2500
 1154.0000  -999.2500  -999.2500  -999.2500  -999.2500   -49.9879    82.8990   -74.3670    12.1499    10.4221     7.0049     7.3973  -999.2500  -999.2500
 1154.5000  -999.2500  -999.2500  -999.2500  -999.2500   -50.9313    87.1233   -74.4991    12.1371    10.4338     7.0608     7.2510  -999.2500  -999.2500
 1155.0000  -999.2500  -999.2500  -999.2500  -999.2500   -59.4275    86.2578   -74.4813    12.1244    10.4431     7.1159     7.1077  -999.2500  -999.2500
 1155.5000  -999.2500  -999.2500  -999.2500  -999.2500   -60.3711    83.8952   -74.4634    12.1116    10.4525     7.1218     7.1630  -999.2500  -999.2500
 1156.0000  -999.2500  -999.2500  -999.2500  -999.2500   -61.3145    80.0041   -74.5955    12.0989    10.4618     7.1277     7.3196  -999.2500  -999.2500
 1156.5000  -999.2500  -999.2500  -999.2500  -999.2500   -62.2581    78.2720   -74.7276    12.1012    10.3983     7.1336     7.5315  -999.2500  -999.2500
 1157.0000  -999.2500  -999.2500  -999.2500  -999.2500   -55.4127    79.8543   -74.7097    12.1034    10.3358     7.0886     7.8578  -999.2500  -999.2500
 1157.5000  -999.2500  -999.2500  -999.2500  -999.2500   -56.4577    83.5334   -74.8426    12.1211    10.2029     6.9016     7.7544  -999.2500  -999.2500
 1158.0000  -999.2500  -999.2500  -999.2500  -999.2500   -57.5355    86.7545   -74.8240    12.1384    10.0711     6.7180     7.6540  -999.2500  -999.2500
 1158.5000  -999.2500  -999.2500  -999.2500  -999.2500   -58.3459    85.1843   -74.8062    12.1556     9.8727     6.5393     7.4524  -999.2500  -999.2500
 1159.0000  -999.2500  -999.2500  -999.2500  -999.2500   -59.2901    83.2340   -74.7883    12.1728     9.5448     6.3214     7.3051  -999.2500  -999.2500
 1159.5000  -999.2500  -999.2500  -999.2500  -999.2500   -60.3659    83.8655   -74.7705    12.1901     9.3547     6.1949     7.1112  -999.2500  -999.2500
 1160.0000  -999.2500  -999.2500  -999.2500  -999.2500   -61.3092    85.6946   -74.6027    12.2073     9.2961     6.0721     6.7332  -999.2500  -999.2500
 1160.5000  -999.2500  -999.2500  -999.2500  -999.2500   -62.2528    86.0267   -74.5847    12.2095     9.1169     5.9946     5.8261  -999.2500  -999.2500
 1161.0000  -999.2500  -999.2500  -999.2500  -999.2500   -63.1962    85.4524   -74.4168    12.2268     9.2618     5.9995     5.3645  -999.2500  -999.2500
 1161.5000  -999.2500  -999.2500  -999.2500  -999.2500   -64.0106    86.9903   -74.3837    12.2440     9.3256     6.0885     5.6761  -999.2500  -999.2500
 1162.0000  -999.2500  -999.2500  -999.2500  -999.2500   -65.0831    87.0230   -74.2309    12.2463     9.4006     6.2652     6.6165  -999.2500  -999.2500
 1162.5000  -999.2500  -999.2500  -999.2500  -999.2500   -58.2378    86.1493   -74.2129    12.2329     9.4090     6.5828     7.1465  -999.2500  -999.2500
 1163.0000  -999.2500  -999.2500  -999.2500  -999.2500   -59.4172    85.2919   -74.1913    12.2058     9.3502     6.6805     7.2522  -999.2500  -999.2500
 1163.5000  -999.2500  -999.2500  -999.2500  -999.2500   -60.3606    84.1189   -74.1735    12.1872     9.3607     6.6383     7.2631  -999.2500  -999.2500
 1164.0000  -999.2500  -999.2500  -999.2500  -999.2500   -61.3040    83.5609   -74.3056    12.1735     9.3690     6.5082     7.0168  -999.2500  -999.2500
 1164.5000  -999.2500  -999.2500  -999.2500  -999.2500   -69.8004    81.7972   -74.4421    12.1598     9.3774     6.2912     6.9259  -999.2500  -999.2500
 1165.0000  -999.2500  -999.2500  -999.2500  -999.2500   -70.7438    81.2229   -74.7241    12.1461     9.3209     6.1239     6.9316  -999.2500  -999.2500
 1165.5000  -999.2500  -999.2500  -999.2500  -999.2500   -63.8985    84.2578   -75.0061    12.1324     9.2648     6.0444     6.8894  -999.2500  -999.2500
 1166.0000  -999.2500  -999.2500  -999.2500  -999.2500   -65.0779    86.0869   -75.2881    12.1187     9.2730     6.0063     6.9432  -999.2500  -999.2500
 1166.5000  -999.2500  -999.2500  -999.2500  -999.2500   -66.0213    86.1196   -75.4202    12.1050     9.1535     6.0967     6.9489  -999.2500  -999.2500
 1167.0000  -999.2500  -999.2500  -999.2500  -999.2500   -59.4120    86.1523   -75.7022    12.0913     9.1617     6.1017     7.0649  -999.2500  -999.2500
 1167.5000  -999.2500  -999.2500  -999.2500  -999.2500   -60.3554    85.5861   -75.6799    12.0776     9.2979     6.2354     7.3745  -999.2500  -999.2500
 1168.0000  -999.2500  -999.2500  -999.2500  -999.2500   -53.7459    84.7206   -75.2123    12.0639     9.4362     6.3719     7.7307  -999.2500  -999.2500
 1168.5000  -999.2500  -999.2500  -999.2500  -999.2500   -56.4254    84.1545   -74.8946    12.0502     9.5104     6.5115     7.8996  -999.2500  -999.2500
 1169.0000  -999.2500  -999.2500  -999.2500  -999.2500   -63.0665    82.9896   -74.5769    12.0365     9.5851     6.6541     8.1849  -999.2500  -999.2500
 1169.5000  -999.2500  -999.2500  -999.2500  -999.2500   -64.1291    80.9265   -74.5591    12.0223     9.7277     6.6596     8.0231  -999.2500  -999.2500
 1170.0000  -999.2500  -999.2500  -999.2500  -999.2500   -64.9546    80.3593   -74.5412    12.0240     9.7364     6.6652     7.7563  -999.2500  -999.2500
 1170.5000  -999.2500  -999.2500  -999.2500  -999.2500   -66.0160    80.6925   -74.5234    12.0258     9.9500     6.7172     7.6029  -999.2500  -999.2500
 1171.0000  -999.2500  -999.2500  -999.2500  -999.2500   -66.9596    81.6233   -74.5056    12.0426     9.9589     6.8168     7.4012  -999.2500  -999.2500
 1171.5000  -999.2500  -999.2500  -999.2500  -999.2500   -67.9030    82.5542   -74.4877    12.0744     9.8989     6.8700     7.4588  -999.2500  -999.2500
 1172.0000  -999.2500  -999.2500  -999.2500  -999.2500   -68.8463    84.0839   -74.4699    12.1212     9.9077     6.8757     7.7819  -999.2500  -999.2500
 1172.5000  -999.2500  -999.2500  -999.2500  -999.2500   -62.2371    85.9182   -74.3021    12.1530     9.8481     6.8338     7.9519  -999.2500  -999.2500
 1173.0000  -999.2500  -999.2500  -999.2500  -999.2500   -63.1804    86.5449   -74.1343    12.2147     9.8569     6.7921     7.9585  -999.2500  -999.2500
 1173.5000  -999.2500  -999.2500  -999.2500  -999.2500   -56.3351    85.9784   -74.2664    12.2465     9.9345     6.7507     7.9084  -999.2500  -999.2500
 1174.0000  -999.2500  -999.2500  -999.2500  -999.2500   -57.4018    85.3811   -74.3985    12.2783    10.0126     6.7041     7.9166  -999.2500  -999.2500
 1174.5000  -999.2500  -999.2500  -999.2500  -999.2500   -58.4579    84.8462   -74.5307    12.2801    10.0217     6.6224     7.9782  -999.2500  -999.2500
