~VERSION INFORMATION
 VERS.                2.0:   CWLS LOG ASCII STANDARD - VERSION 2.0
 WRAP.                 NO:   ONE LINE PER DEPTH STEP
~WELL INFORMATION
#MNEM.UNIT      DATA TYPE    INFORMATION
#----------   ------------   ------------------------------
 STRT.F          602.0000:   START DEPTH
 STOP.F         5553.0000:   STOP DEPTH
 STEP.F            0.5000:   STEP LENGTH
 NULL.          -999.2500:   NO VALUE
 COMP.         U. S. NAVY:   COMPANY
 WELL. U. S. 1-TP-33 NPR #3-33:   WELL
 FLD . TEAPOT NAVAL RESERVE:   FIELD
 LOC .      S33 T39N R78W:   LOCATION
 CNTY.            NATRONA:   COUNTY
 STAT.            WYOMING:   STATE
 CTRY. UNITED STATES OF AMERICA:   COUNTRY
 SRVC.       SCHLUMBERGER:   SERVICE COMPANY
 DATE.        24-JUN-1952:   LOGDATE
 API .     49025065260000:   API NUMBER
~CURVE INFORMATION
#MNEM.UNIT       API CODE    CURVE DESCRIPTION
#----------   ------------   ------------------------------
 DEPT.F                  :   
 SPR .MV     01 010 01 00:   SPONTANEOUS POTENTIAL FROM RES.
 ASN .OHMM   01 041 16 00:   AMPLIFIED SHORT NORMAL 16"
 LAT .OHMM   01 070 08 00:   LATERAL 8'
 LN  .OHMM   01 060 64 00:   LONG NORMAL 64"
~PARAMETER INFORMATION
#MNEM.UNIT          VALUE    DESCRIPTION
#----------   ------------   ------------------------------
 EKB .F         5160.0000:   Kelly bushing
 EGL .F         5147.0000:   Ground level
 TD  .F         5553.0000:   Total depth
 CLNT.            A2DTECH:   Client Code
 DATE.        24-JUN-1952:   Date Logged [DD-MMM-YYYY]
 DD  .F              5549:   Depth driller
 DL  .F              5553:   Depth logger
 BLI .F              5553:   Bottom log interval
 TLI .F               602:   Top log interval
 CBL1.F               602:   Casing logger 1
 BSD1.F              5549:   Depth drilled with bit1
 DFT .           GYP BASE:   Type fluid in hole
 DFD .                9.8:   Density
 DFV .                 44:   Viscosity
 MSS .           FLOWLINE:   Source of sample
 RMS .OHMM            1.4:   Rm
 MST .F                60:   Rm Meas. temp.
 RMB .OHMM           0.48:   Rm. at BHT
 BHT .F               175:   BHT.
 TCS .HRS             1.5:   Time Circ. stopped
 MRT .F               175:   Maximum recorded temp.
 LUN .                563:   Logging unit number
 ENGI.             SANDER:   Recorded By
 WITN.            GRIBBIN:   Witnessed by
 ORIG.      1" 2.5" PRINT:   Origin of data
 UWI .     49025065260000:   Unique Well ID
 DICO. A2D TECHNOLOGIES, INC.:   Digitizing Company
~OTHER INFORMATION
~A  DEPTH      SPR        ASN        LAT         LN
# ...
 2573.0000   -57.9230     6.4116     9.3376     7.3035
 2573.5000   -57.9189     6.3810     9.0477     7.3020
 2574.0000   -58.0674     6.3291     8.7137     7.3006
 2574.5000   -58.1867     6.3335     8.4676     7.2991
 2575.0000   -58.1825     6.3897     8.1777     7.2977
 2575.5000   -58.4544     6.4458     7.9375     7.2960
 2576.0000   -58.4495     6.5296     7.8851     7.2945
 2576.5000   -58.4454     6.5521     7.5951     7.2931
 2577.0000   -58.4420     6.5524     7.3606     7.5807
 2577.5000   -58.4372     6.5457     7.3024     7.8683
 2578.0000   -58.4331     6.5252     7.0124     8.0113
 2578.5000   -58.4290     6.5610     6.9274     8.1546
 2579.0000   -58.4249     6.6892     6.8636     8.4422
 2579.5000   -58.4207     6.9638     6.7823     8.5853
 2580.0000   -58.4166     7.7360     6.7816     8.8726
 2580.5000   -58.4125     8.3120     6.7809     9.0159
 2581.0000   -58.4084     8.7964     6.9239     9.1590
 2581.5000   -58.4043     9.2689     6.9959     9.4464
 2582.0000   -58.4006     9.9346     7.0661     9.5896
 2582.5000   -58.3961     9.5748     7.0654     9.8770
 2583.0000   -58.3920     9.7136     7.0647    10.0201
 2583.5000   -58.3879     9.7139     6.9834    10.1632
 2584.0000   -58.3837     9.7141     6.9195    10.1617
 2584.5000   -58.4998     9.7144     6.8345    10.1603
 2585.0000   -58.6518     9.7147     6.7743    10.1589
 2585.5000   -58.6475     9.7150     6.7736    10.1574
 2586.0000   -58.6434     9.7152     6.7729    10.1560
 2586.5000   -58.6393     9.7155     6.7721    10.1546
 2587.0000   -58.6352     9.7158     6.9152    10.1531
 2587.5000   -58.9072     9.7161     7.0582    10.1517
 2588.0000   -58.9030     9.7163     7.0574    10.0058
 2588.5000   -58.8989     9.7166     7.2004    10.0043
 2589.0000   -58.8948     9.1629     7.3434     9.8584
 2589.5000   -58.8881     9.1632     7.3426     9.8569
 2590.0000   -58.6104     9.1080     7.3419     9.7110
 2590.5000   -58.3302     9.0247     7.4848     9.7024
 2591.0000   -58.3261     8.9692     7.4842     9.5636
 2591.5000   -58.3219     8.9136     7.6272     9.5621
 2592.0000   -58.0417     8.8839     7.8353     9.4162
 2592.5000   -58.0077     8.8024     7.9131     9.2702
 2593.0000   -57.7574     8.7191     7.9124     9.1243
 2593.5000   -57.7532     8.6603     8.0553     9.1228
 2594.0000   -57.4730     8.5452     8.1274     8.9769
 2594.5000   -57.4689     8.3779     8.1976     8.9754
 2595.0000   -57.4142     8.2152     8.3405     8.8295
 2595.5000   -57.1845     8.1088     8.4835     8.6549
 2596.0000   -57.1804     8.0532     8.4828     8.5067
 2596.5000   -57.4528     7.9976     8.4820     8.3586
 2597.0000   -57.4482     7.9143     8.6250     8.1012
 2597.5000   -57.7206     7.8241     8.7680     7.9552
 2598.0000   -57.7160     7.6276     8.9108     7.8092
 2598.5000   -57.7118     7.3284     9.0537     7.8918
 2599.0000   -57.7077     7.0771     9.0530     7.8460
 2599.5000   -57.7035     6.7703     9.0523     7.7479
 2600.0000   -57.6987     6.5651     8.6111     7.7465
 2600.5000   -57.6906     6.5926     8.4708     7.7451
 2601.0000   -57.6824     6.6011     8.2862     7.7437
 2601.5000   -57.6742     6.6197     8.0078     7.7423
 2602.0000   -57.6661     6.6194     7.8685     7.7408
 2602.5000   -57.6579     6.6108     7.6319     7.7394
 2603.0000   -57.6487     6.5911     7.4917     7.8791
 2603.5000   -57.6404     6.5909     7.4903     8.0751
 2604.0000   -57.6322     6.6261     7.4499     8.2161
 2604.5000   -57.6240     6.7238     7.3486     8.4380
 2605.0000   -57.3397     6.9317     7.3472     8.5775
 2605.5000   -57.3314     7.2423     7.3098     8.6384
 2606.0000   -57.3232     7.5317     7.2056     8.7793
 2606.5000   -57.3150     7.7799     7.0311     8.9202
 2607.0000   -57.3068     7.9662     6.8917     8.9944
 2607.5000   -57.2985     8.2812     6.7847     9.1338
 2608.0000   -57.5669     8.6785     6.7833     9.2732
 2608.5000   -57.5582     8.7886     6.8125     9.4127
 2609.0000   -57.5499     8.8652     6.9196     9.4836
 2609.5000   -57.5417     8.8867     7.0856     9.5507
 2610.0000   -57.5335     8.8255     7.3335     9.6901
 2610.5000   -57.5252     8.8030     7.4710     9.6887
 2611.0000   -57.5170     8.8634     7.4694     9.8282
 2611.5000   -57.5088     8.9233     7.6071     9.8268
 2612.0000   -57.5006     9.0382     7.6056     9.7445
 2612.5000   -57.4923     9.1483     7.6042     9.6831
 2613.0000   -57.2080     9.2493     7.6028     9.6817
 2613.5000   -56.9236     9.3042     7.6014     9.6800
 2614.0000   -56.9153     9.2599     7.6000     9.6786
 2614.5000   -56.9071     9.0824     7.5986     9.6772
 2615.0000   -56.8988     8.7710     7.6157     9.8169
 2615.5000   -56.8905     8.4055     7.7348     9.8152
 2616.0000   -56.6061     8.3568     7.7500     9.8138
 2616.5000   -56.5979     8.3873     7.8709     9.6716
 2617.0000   -56.5896     8.5036     8.0084     9.5293
 2617.5000   -56.3052     8.7050     8.0209     9.3871
 2618.0000   -56.3374     9.0257     8.2834     9.2449
 2618.5000   -56.5654     9.1033     8.4209     9.2435
 2619.0000   -56.8332     9.1308     8.5584     9.1012
 2619.5000   -56.8242     9.1325     8.7061     9.0998
 2620.0000   -56.8160     9.1893     8.9723     9.0984
 2620.5000   -56.8077     9.3565     9.1098     9.0970
 2621.0000   -56.7994     9.8775     9.1083     9.3773
 2621.5000   -56.7911     9.4064     9.2459     9.3759
 2622.0000   -56.7828     9.5964     9.2444     9.5155
 2622.5000   -56.7745     9.8720     9.2385     9.5139
 2623.0000   -56.7663     9.9596     9.0991     9.6535
 2623.5000   -56.4819     9.9593     8.8209     9.7928
 2624.0000   -56.3889     9.9590     8.5427     9.9324
 2624.5000   -56.1893     9.8202     8.4032    10.0718
 2625.0000   -56.1810     9.6814     8.1250    10.0703
 2625.5000   -56.1727     9.4517     7.9847    10.2098
 2626.0000   -56.1644     9.1557     7.8444    10.2083
 2626.5000   -56.1561     9.0348     7.7042    10.2069
 2627.0000   -56.1479     9.0155     7.5639    10.2055
 2627.5000   -56.1396     9.0152     7.5625    10.2041
 2628.0000   -56.1313     9.1388     7.5611    10.2027
 2628.5000   -56.3991     9.9011     7.5597    10.2013
 2629.0000   -56.3908     9.5407     7.5583    10.4816
 2629.5000   -56.3825     9.6789     7.5569    10.4802
 2630.0000   -56.5032     9.9003     7.5555    10.6197
 2630.5000   -56.6420     9.9554     7.5541    10.7592
 2631.0000   -56.6337    10.0936     7.5527    10.8986
 2631.5000   -56.6255    10.0934     7.5513    11.1788
 2632.0000   -56.6172    10.2316     7.6888    11.4591
 2632.5000   -56.6089    10.3097     7.6874    11.7394
 2633.0000   -56.6006    10.4471     7.8249    11.8789
 2633.5000   -56.5923    10.5844     7.9624    12.1592
 2634.0000   -56.5840    10.7216     8.0999    12.1577
 2634.5000   -56.5758    10.8590     8.3763    12.1530
 2635.0000   -56.5658    11.1348     8.6527    12.0141
 2635.5000   -56.5576    11.3377     9.0680    11.8718
 2636.0000   -56.5494    11.5479     9.4832    11.7296
 2636.5000   -56.2651    11.7526     9.7596    11.5873
 2637.0000   -56.2569    11.8909    10.1749    11.4347
 2637.5000   -56.2486    12.0291    10.7291    11.3028
 2638.0000   -56.5165    11.9604    11.2832    11.1606
 2638.5000   -56.5082    11.7515    11.6985    11.0037
 2639.0000   -56.5000    11.5462    12.2526    10.7192
 2639.5000   -56.4918    11.2698    12.5290    10.5756
 2640.0000   -56.4836    10.9935    12.9443    10.1690
 2640.5000   -56.4753    10.7809    13.2208    10.0066
 2641.0000   -56.4671    10.5167    12.9415     9.5813
 2641.5000   -56.4589    10.1645    12.6623     9.2968
 2642.0000   -56.4507    10.0266    12.3832     8.8714
 2642.5000   -56.4424     9.9488    12.3818     8.4201
 2643.0000   -56.4342     9.8473    12.3804     8.0207
 2643.5000   -56.4260     9.4461    12.3790     7.5667
 2644.0000   -56.4177     8.7325    12.3776     6.9992
 2644.5000   -56.1334     8.2140    12.2373     6.5722
 2645.0000   -56.1252     7.8291    12.2359     6.1455
 2645.5000   -56.1170     7.4423    12.2345     5.6122
