~VERSION INFORMATION
 VERS.                2.0:   CWLS LOG ASCII STANDARD - VERSION 2.0
 WRAP.                 NO:   ONE LINE PER DEPTH STEP
~WELL INFORMATION
#MNEM.UNIT      DATA TYPE    INFORMATION
#----------   ------------   ------------------------------
 STRT.F            0.0000:   START DEPTH
 STOP.F         3964.0000:   STOP DEPTH
 STEP.F            0.5000:   STEP LENGTH
 NULL.          -999.2500:   NO VALUE
 COMP. LAWRENCE ALLISON & ASSOCIATES:   COMPANY
 WELL. LAWRENCE NPR 3 "X" #43-10:   WELL
 FLD .              N P R:   FIELD
 LOC .      S10 T38N R78W:   LOCATION
 CNTY.            NATRONA:   COUNTY
 STAT.            WYOMING:   STATE
 CTRY. UNITED STATES OF AMERICA:   COUNTRY
 SRVC.      DRESSER ATLAS:   SERVICE COMPANY
 DATE.        07-AUG-1985:   LOGDATE
 API .     49025111390000:   API NUMBER
~CURVE INFORMATION
#MNEM.UNIT       API CODE    CURVE DESCRIPTION
#----------   ------------   ------------------------------
 DEPT.F                  :   
 CNC .DEC    42 890 03 00:   NEUTRON PORISITY SANDSTONE
 RHOB.G/C3   45 350 01 00:   BULK DENSITY
 CORR.G/C3   45 356 01 00:   DENSITY CORRECTION
 TEND.LBS    45 635 01 00:   TENSION FROM DENSITY LOG
 GRR .GAPI   07 310 01 00:   GAMMA RAY FROM RESISTIVITY
 CALR.IN     07 280 01 00:   CALIPER FROM RESISTIVITY
 SPR .MV     07 010 01 00:   SPONTANEOUS POTENTIAL
 TENR.LBS    07 635 01 00:   TENSION FROM RESISTIVITY
 RILD.OHMM   07 120 46 00:   DEEP INDUCTION RESISTIVITY
 RILM.OHMM   07 120 44 00:   INDUCTION LOG MEDIUM RESISTIVITY
 RFOC.OHMM   07 220 04 00:   RESISTIVITY FOCUSED LOG RES.
 DT  .US/F   60 520 00 00:   DELTA TIME
 TENS.LBS    60 635 01 00:   TENSION FROM SONIC
~PARAMETER INFORMATION
#MNEM.UNIT          VALUE    DESCRIPTION
#----------   ------------   ------------------------------
 EKB .F         5223.0000:   Kelly bushing
 EGL .F         5211.0000:   Ground level
 EDF .F            0.0000:   Drilling floor
 EPD .F         5211.0000:   Permanent datum
 TD  .F         3950.0000:   Total depth
 DATE.        07-AUG-1985:   Date logged
 CLNT.            A2DTECH:   Client Code
 SL  . 2016' FNL & 2230' FWL:   Surface Location
 PD  .                 GL:   Permanent Datum
 DD  .F              3950:   Depth driller
 DL  .F              3950:   Depth logger
 BLI .F              3948:   Bottom log interval
 CS1 .IN            8.625:   Casing size
 CBD1.      8.625" @ 518':   Casing driller 1
 CBL1.F               520:   Casing logger 1
 BS1 .IN            7.875:   Bit size
 DFT .            KCL-GEL:   Type fluid in hole
 DFD .                8.9:   Density
 DFV .                 40:   Viscosity
 DFPH.                  9:   pH
 DFL .                 12:   Fluid loss
 MSS .           FLOWLINE:   Source of sample
 RMS .OHMM           .318:   Rm
 MST .F                82:   Rm Meas. temp.
 RMF .OHMM            .24:   Rmf
 MFST.F                82:   Rmf Meas. temp.
 RMC .OHMM            .40:   Rmc
 MCST.F                82:   Rmc Meas. temp.
 MFSS.               CALC:   Source Rmf.
 RMB .OHMM            .19:   Rm. at BHT
 BHT .F               140:   BHT.
 TCS .HRS               4:   Time Circ. stopped
 MRT .F               140:   Maximum recorded temp.
 LUN .               6264:   Logging unit number
 LUL .               GLTE:   Logging unit location
 ENGI.           FAHLSING:   Recorded By
 WITN.             STRONG:   Witnessed by
 ORIG.           5" PRINT:   Origin of data
 UWI .     49025111390000:   Unique Well ID
 DICO. A2D TECHNOLOGIES, INC.:   Digitizing Company
 DAPD.                 12:   Feet Above Permanent Datum
 BSD1.               3950:   Depth drilled with bit1
 MCSS.               CALC:   Source Rmc.
~OTHER INFORMATION
~A    DEPT     CNC       RHOB       CORR       TEND         GRR      CALR        SPR       TENR       RILD       RILM       RFOC         DT       TENS   
# ...
 1430.0000  -999.2500  -999.2500  -999.2500  -999.2500    85.8960    10.3530   -80.0590   -56.1630     7.2100     7.0870     7.5790  -999.2500  -999.2500
 1430.5000  -999.2500  -999.2500  -999.2500  -999.2500    88.7200    10.3480   -80.0590   -56.1630     7.2540     7.1730     7.6830  -999.2500  -999.2500
 1431.0000  -999.2500  -999.2500  -999.2500  -999.2500    92.0770    10.3440   -80.0740   -56.1630     7.2970     7.2060     7.7640  -999.2500  -999.2500
 1431.5000  -999.2500  -999.2500  -999.2500  -999.2500    96.7210    10.3390   -80.1190   -56.1630     7.3390     6.9910     7.8250  -999.2500  -999.2500
 1432.0000  -999.2500  -999.2500  -999.2500  -999.2500   101.4140    10.3350   -80.1640   -56.1630     7.2350     6.8210     7.7840  -999.2500  -999.2500
 1432.5000  -999.2500  -999.2500  -999.2500  -999.2500   103.9330    10.3340   -80.2080   -56.1630     7.1330     6.7700     7.6840  -999.2500  -999.2500
 1433.0000  -999.2500  -999.2500  -999.2500  -999.2500   102.8220    10.3390   -80.2600   -56.1630     7.0300     6.7090     7.3790  -999.2500  -999.2500
 1433.5000  -999.2500  -999.2500  -999.2500  -999.2500    99.6170    10.3440   -80.5340   -56.1630     6.9250     6.6480     7.1210  -999.2500  -999.2500
 1434.0000  -999.2500  -999.2500  -999.2500  -999.2500    96.0070    10.3490   -80.8240   -56.1630     6.8200     6.5870     7.0110  -999.2500  -999.2500
 1434.5000  -999.2500  -999.2500  -999.2500  -999.2500    92.6610    10.3540   -81.1170   -56.1630     6.7160     6.5250     7.0910  -999.2500  -999.2500
 1435.0000  -999.2500  -999.2500  -999.2500  -999.2500    92.5150    10.3580   -81.1670   -56.1630     6.6300     6.4610     7.1560  -999.2500  -999.2500
 1435.5000  -999.2500  -999.2500  -999.2500  -999.2500    92.5510    10.3630   -81.0510   -56.1630     6.6050     6.3960     7.2060  -999.2500  -999.2500
 1436.0000  -999.2500  -999.2500  -999.2500  -999.2500    91.2320    10.3680   -80.9330   -56.1630     6.5800     6.3300     7.0710  -999.2500  -999.2500
 1436.5000  -999.2500  -999.2500  -999.2500  -999.2500    91.0680    10.3710   -80.8140   -56.1630     6.5550     6.2810     6.9260  -999.2500  -999.2500
 1437.0000  -999.2500  -999.2500  -999.2500  -999.2500    95.7580    10.3720   -80.6950   -56.1630     6.5290     6.3110     6.7350  -999.2500  -999.2500
 1437.5000  -999.2500  -999.2500  -999.2500  -999.2500   100.6320    10.3520   -80.6340   -56.1630     6.5160     6.3350     6.5160  -999.2500  -999.2500
 1438.0000  -999.2500  -999.2500  -999.2500  -999.2500   100.2270    10.3260   -80.6090   -56.1630     6.7050     6.3840     6.6580  -999.2500  -999.2500
 1438.5000  -999.2500  -999.2500  -999.2500  -999.2500    96.8950    10.3120   -80.5840   -56.1630     6.8350     6.4540     6.8260  -999.2500  -999.2500
 1439.0000  -999.2500  -999.2500  -999.2500  -999.2500    93.6450    10.2980   -80.5600   -56.1630     6.9650     6.5240     6.8840  -999.2500  -999.2500
 1439.5000  -999.2500  -999.2500  -999.2500  -999.2500    91.3090    10.2970   -80.5350   -56.1630     7.0960     6.6160     6.6360  -999.2500  -999.2500
 1440.0000  -999.2500  -999.2500  -999.2500  -999.2500    91.7670    10.3030   -80.5100   -56.1630     7.1490     6.7710     6.8260  -999.2500  -999.2500
 1440.5000  -999.2500  -999.2500  -999.2500  -999.2500    93.9680    10.3100   -80.4860   -55.9720     7.1610     6.9270     7.0470  -999.2500  -999.2500
 1441.0000  -999.2500  -999.2500  -999.2500  -999.2500    96.1240    10.3020   -80.4610   -55.5560     7.1740     7.0110     7.2680  -999.2500  -999.2500
 1441.5000  -999.2500  -999.2500  -999.2500  -999.2500    95.9430    10.2860   -80.4660   -55.1410     7.1870     6.9560     7.4750  -999.2500  -999.2500
 1442.0000  -999.2500  -999.2500  -999.2500  -999.2500    93.3080    10.2720   -80.4970   -54.7260     7.2060     6.8930     7.6400  -999.2500  -999.2500
 1442.5000  -999.2500  -999.2500  -999.2500  -999.2500    92.8110    10.2700   -80.5290   -54.3100     7.1700     6.8300     7.7540  -999.2500  -999.2500
 1443.0000  -999.2500  -999.2500  -999.2500  -999.2500    97.0960    10.2680   -80.5610   -53.8950     7.0950     6.7670     7.4750  -999.2500  -999.2500
 1443.5000  -999.2500  -999.2500  -999.2500  -999.2500    99.5760    10.2650   -80.5920   -53.4800     7.0200     6.7110     7.2550  -999.2500  -999.2500
 1444.0000  -999.2500  -999.2500  -999.2500  -999.2500   100.0450    10.2630   -80.6250   -53.0640     6.9340     6.6100     7.0580  -999.2500  -999.2500
 1444.5000  -999.2500  -999.2500  -999.2500  -999.2500    98.0790    10.2600   -80.6970   -52.6490     6.8470     6.5100     6.8840  -999.2500  -999.2500
 1445.0000  -999.2500  -999.2500  -999.2500  -999.2500    98.0520    10.2580   -80.9230   -52.2340     6.7600     6.3970     6.7590  -999.2500  -999.2500
 1445.5000  -999.2500  -999.2500  -999.2500  -999.2500    98.6390    10.2550   -81.0420   -51.8180     6.6870     6.4200     6.7840  -999.2500  -999.2500
 1446.0000  -999.2500  -999.2500  -999.2500  -999.2500    98.5830    10.2530   -81.0410   -51.4030     6.6530     6.4530     6.8030  -999.2500  -999.2500
 1446.5000  -999.2500  -999.2500  -999.2500  -999.2500    91.7620    10.2500   -81.0410   -50.9880     6.6360     6.4860     6.8210  -999.2500  -999.2500
 1447.0000  -999.2500  -999.2500  -999.2500  -999.2500    91.1820    10.2460   -81.0430   -50.5720     6.7520     6.5160     6.9190  -999.2500  -999.2500
 1447.5000  -999.2500  -999.2500  -999.2500  -999.2500    91.4090    10.2430   -80.9370   -50.1570     6.8300     6.6390     7.0790  -999.2500  -999.2500
 1448.0000  -999.2500  -999.2500  -999.2500  -999.2500    92.0850    10.2400   -80.7870   -49.7420     6.9090     6.6970     7.2710  -999.2500  -999.2500
 1448.5000  -999.2500  -999.2500  -999.2500  -999.2500    90.7520    10.2370   -80.6350   -49.3260     7.0110     6.6640     7.4070  -999.2500  -999.2500
 1449.0000  -999.2500  -999.2500  -999.2500  -999.2500    88.8140    10.2330   -80.4830   -48.9110     6.9590     6.6360     7.2980  -999.2500  -999.2500
 1449.5000  -999.2500  -999.2500  -999.2500  -999.2500    89.0510    10.2690   -80.3310   -48.4960     6.8850     6.5700     7.2140  -999.2500  -999.2500
 1450.0000  -999.2500  -999.2500  -999.2500  -999.2500    92.2190    10.3090   -80.2240   -48.0800     6.8100     6.5100     7.1090  -999.2500  -999.2500
 1450.5000  -999.2500  -999.2500  -999.2500  -999.2500    95.3280    10.3500   -80.1620   -47.6650     6.7530     6.3970     7.0020  -999.2500  -999.2500
 1451.0000  -999.2500  -999.2500  -999.2500  -999.2500    96.0670    10.3520   -80.1030   -47.2500     6.7330     6.3730     6.8940  -999.2500  -999.2500
 1451.5000  -999.2500  -999.2500  -999.2500  -999.2500    95.2260    10.3520   -80.1170   -46.8340     6.7140     6.3470     6.7260  -999.2500  -999.2500
 1452.0000  -999.2500  -999.2500  -999.2500  -999.2500    93.5290    10.3460   -80.3180   -46.4190     6.6950     6.3200     6.4280  -999.2500  -999.2500
 1452.5000  -999.2500  -999.2500  -999.2500  -999.2500    91.8500    10.3280   -80.5140   -46.4440     6.6760     6.2810     6.1670  -999.2500  -999.2500
 1453.0000  -999.2500  -999.2500  -999.2500  -999.2500    93.3790    10.3120   -80.7090   -46.8640     6.6560     6.2990     6.1840  -999.2500  -999.2500
 1453.5000  -999.2500  -999.2500  -999.2500  -999.2500    95.2620    10.3120   -80.8770   -47.2840     6.6360     6.3310     6.3110  -999.2500  -999.2500
 1454.0000  -999.2500  -999.2500  -999.2500  -999.2500    93.9180    10.3120   -81.1100   -47.7050     6.6160     6.3640     6.4370  -999.2500  -999.2500
 1454.5000  -999.2500  -999.2500  -999.2500  -999.2500    90.6450    10.3120   -81.3480   -48.1250     6.5950     6.3960     6.5640  -999.2500  -999.2500
 1455.0000  -999.2500  -999.2500  -999.2500  -999.2500    87.7350    10.3120   -81.5860   -48.5450     6.5750     6.4290     6.6900  -999.2500  -999.2500
 1455.5000  -999.2500  -999.2500  -999.2500  -999.2500    87.7410    10.3120   -81.8230   -48.9650     6.5540     6.4560     6.8210  -999.2500  -999.2500
