~VERSION INFORMATION
 VERS.                2.0:   CWLS LOG ASCII STANDARD - VERSION 2.0
 WRAP.                 NO:   ONE LINE PER DEPTH STEP
~WELL INFORMATION
#MNEM.UNIT      DATA TYPE    INFORMATION
#----------   ------------   ------------------------------
 STRT.F          748.0000:   START DEPTH
 STOP.F         2734.0000:   STOP DEPTH
 STEP.F            0.5000:   STEP LENGTH
 NULL.          -999.2500:   NO VALUE
 COMP.    FENIX & SCISSON:   COMPANY
 WELL. FENIX NPR 3 "SHX" #84-4:   WELL
 FLD .             TEAPOT:   FIELD
 LOC .       S4 T38N R78W:   LOCATION
 CNTY.            NATRONA:   COUNTY
 STAT.            WYOMING:   STATE
 CTRY. UNITED STATES OF AMERICA:   COUNTRY
 SRVC.              WELEX:   SERVICE COMPANY
 DATE.        08-MAY-1980:   LOGDATE
 API .     49025108050000:   API NUMBER
~CURVE INFORMATION
#MNEM.UNIT       API CODE    CURVE DESCRIPTION
#----------   ------------   ------------------------------
 DEPT.F                  :   
 CALD.IN     45 280 60 00:   CALIPER FROM DENSITY LOG
 GRD .GAPI   45 310 01 00:   GAMMA RAY FROM DENSITY LOG
 RHOB.G/C3   45 350 01 00:   BULK DENSITY
 CORR.G/C3   45 356 01 00:   DENSITY CORRECTION
~PARAMETER INFORMATION
#MNEM.UNIT          VALUE    DESCRIPTION
#----------   ------------   ------------------------------
 EKB .F         5244.0000:   Kelly bushing
 EGL .F         5234.0000:   Ground level
 EDF .F            0.0000:   Drilling floor
 TD  .F         2733.0000:   Total depth
 DATE.        08-MAY-1980:   Date logged
 CLNT.            A2DTECH:   Client Code
 SL  . 7461' FNL & 383' FEL:   Surface Location
 PD  .                 GL:   Permanent Datum
 EPD .F              5234:   Elevation Permanent Datum
 LMF .                 KB:   Log Measured From
 DMF .                 KB:   Drilling Measured From
 DAPD.F                10:   Feet Above Permanent Datum
 DD  .F              2700:   Depth driller
 DL  .F              2733:   Depth logger
 BLI .F              2731:   Bottom log interval
 TLI .F               752:   Top log interval
 CS1 .IN            9.625:   Casing size
 CBD1.      9.625" @ 260':   Casing driller 1
 BS1 .IN              8.5:   Bit size
 BSD1.F              2700:   Depth drilled with bit1
 DFT .                AIR:   Type fluid in hole
 MRT .F               118:   Maximum recorded temp.
 LUN .                  2:   Logging unit number
 ENGI.           TORTILLE:   Recorded By
 WITN.              AMEND:   Witnessed by
 ORIG.           5" PRINT:   Origin of data
 UWI .     49025108050000:   Unique Well ID
 DICO. A2D TECHNOLOGIES, INC.:   Digitizing Company
~OTHER INFORMATION
~A   DEPT       CALD       GRD        RHOB       CORR 
# ...
 2500.0000     8.9480    96.3170     2.4570     0.0230
 2500.5000     8.9490    97.9030     2.4680     0.0430
 2501.0000     8.9500    99.3920     2.4790     0.0710
 2501.5000     8.9520   101.0220     2.4790     0.0820
 2502.0000     8.9530   102.5490     2.4830     0.0810
 2502.5000     8.9540   106.1090     2.4900     0.0780
 2503.0000     8.9550   109.3010     2.4890     0.0710
 2503.5000     8.9570   112.5990     2.4770     0.0630
 2504.0000     8.9580   115.3800     2.4810     0.0540
 2504.5000     8.9590   115.3560     2.4810     0.0490
 2505.0000     8.9600   115.0080     2.4720     0.0460
 2505.5000     8.9610   115.0060     2.4750     0.0460
 2506.0000     8.9630   115.1270     2.4670     0.0460
 2506.5000     8.9640   120.6130     2.4600     0.0470
 2507.0000     8.9650   121.9370     2.4570     0.0480
 2507.5000     8.9660   123.2840     2.4550     0.0490
 2508.0000     8.9680   124.3550     2.4720     0.0500
 2508.5000     8.9690   125.5820     2.4810     0.0610
 2509.0000     8.9700   126.8860     2.4770     0.0720
 2509.5000     8.9710   126.3730     2.4860     0.0840
 2510.0000     8.9730   125.2960     2.5070     0.0960
 2510.5000     8.9740   123.8820     2.4970     0.1000
 2511.0000     8.9750   122.5830     2.4740     0.0830
 2511.5000     8.9760   121.2150     2.4560     0.0670
 2512.0000     8.9770   118.6370     2.4550     0.0560
 2512.5000     8.9790   113.6330     2.4650     0.0590
 2513.0000     8.9800   108.3750     2.4750     0.0610
 2513.5000     8.9770   105.1470     2.4680     0.0580
 2514.0000     8.9730   104.1940     2.4710     0.0520
 2514.5000     8.9700   102.9810     2.4740     0.0480
 2515.0000     8.9660   101.6930     2.4790     0.0530
 2515.5000     8.9630   101.0170     2.4830     0.0620
 2516.0000     8.9590   100.4130     2.4860     0.0690
 2516.5000     8.9550    99.7440     2.4920     0.0760
 2517.0000     8.9520    99.0580     2.4960     0.0610
 2517.5000     8.9480    98.3760     2.4660     0.0470
 2518.0000     8.9450    98.0980     2.4550     0.0420
 2518.5000     8.9410    98.3790     2.4540     0.0400
 2519.0000     8.9380    98.5900     2.4550     0.0380
 2519.5000     8.9340    98.8310     2.4700     0.0520
 2520.0000     8.9300    99.0370     2.4690     0.0570
 2520.5000     8.9270    99.3070     2.4620     0.0540
 2521.0000     8.9230    99.0420     2.4550     0.0490
 2521.5000     8.9200    98.3450     2.4480     0.0450
 2522.0000     8.9160    98.4790     2.4410     0.0400
 2522.5000     8.9130    99.4910     2.4430     0.0370
 2523.0000     8.9090   100.4000     2.4490     0.0450
 2523.5000     8.9050   101.0980     2.4570     0.0460
 2524.0000     8.9020   101.0800     2.4520     0.0430
 2524.5000     8.8980   101.1020     2.4460     0.0380
 2525.0000     8.8950   101.2110     2.4540     0.0470
 2525.5000     8.8910   101.7540     2.4660     0.0610
 2526.0000     8.8880   101.3660     2.4740     0.0730
 2526.5000     8.8840   101.0040     2.4700     0.0690
 2527.0000     8.8800   100.5980     2.4450     0.0530
 2527.5000     8.8770   100.2020     2.4610     0.0730
 2528.0000     8.8730    99.8180     2.4910     0.0950
 2528.5000     8.8700    99.4000     2.4780     0.0850
 2529.0000     8.8660    99.4910     2.4630     0.0810
 2529.5000     8.8620   100.1580     2.4710     0.0910
 2530.0000     8.8600   100.7900     2.4800     0.0970
 2530.5000     8.8600   101.4520     2.4890     0.1000
 2531.0000     8.8600   102.0860     2.4990     0.1030
 2531.5000     8.8600   102.7320     2.5070     0.1080
 2532.0000     8.8600   103.5480     2.5240     0.1150
 2532.5000     8.8600   104.0910     2.5410     0.1290
 2533.0000     8.8600   103.0720     2.5560     0.1340
 2533.5000     8.8600   102.0970     2.5630     0.1420
 2534.0000     8.8600   101.6660     2.5710     0.1460
 2534.5000     8.8610   101.8720     2.5780     0.1460
 2535.0000     8.8620   102.0750     2.5760     0.1400
 2535.5000     8.8640   102.2860     2.5580     0.1300
 2536.0000     8.8650   102.2540     2.5450     0.1200
 2536.5000     8.8660   102.1460     2.5520     0.1100
 2537.0000     8.8680   102.0460     2.5470     0.1000
 2537.5000     8.8690   101.9660     2.5280     0.0900
 2538.0000     8.8710   101.8160     2.5400     0.0800
 2538.5000     8.8720   101.8140     2.5340     0.0700
 2539.0000     8.8730   101.2750     2.5310     0.0620
 2539.5000     8.8750   101.9870     2.5190     0.0570
 2540.0000     8.8760   102.7670     2.4980     0.0490
 2540.5000     8.8770   103.6850     2.4820     0.0420
 2541.0000     8.8790   104.1270     2.4810     0.0350
 2541.5000     8.8800   103.9930     2.4580     0.0290
 2542.0000     8.8810   103.9160     2.4450     0.0290
 2542.5000     8.8830   103.8210     2.4500     0.0290
 2543.0000     8.8840   103.7260     2.4590     0.0360
 2543.5000     8.8850   103.6360     2.4670     0.0440
 2544.0000     8.8870   103.5420     2.4750     0.0530
 2544.5000     8.8880   103.4980     2.4830     0.0570
 2545.0000     8.8890   103.6590     2.4900     0.0570
 2545.5000     8.8910   103.8850     2.4990     0.0500
 2546.0000     8.8920   104.1070     2.4850     0.0430
 2546.5000     8.8940   104.3290     2.4820     0.0350
 2547.0000     8.8950   104.5480     2.4910     0.0330
 2547.5000     8.8960   104.7760     2.4860     0.0330
 2548.0000     8.8980   104.9910     2.4840     0.0350
 2548.5000     8.8990   105.2100     2.4930     0.0410
 2549.0000     8.9000   105.3440     2.5050     0.0480
 2549.5000     8.9000   104.8340     2.5080     0.0530
 2550.0000     8.9000   103.6130     2.4980     0.0470
 2550.5000     8.9000   102.4600     2.4880     0.0330
 2551.0000     8.9000   101.2600     2.4860     0.0300
 2551.5000     8.9000   100.1110     2.4850     0.0340
 2552.0000     8.9000    98.7800     2.4990     0.0350
 2552.5000     8.9000    97.5890     2.5220     0.0580
 2553.0000     8.9000    96.1610     2.5140     0.0650
 2553.5000     8.9000    94.7870     2.5050     0.0650
 2554.0000     8.9000    93.4090     2.5110     0.0630
 2554.5000     8.9000    91.9840     2.5050     0.0620
 2555.0000     8.9000    91.4730     2.4960     0.0610
 2555.5000     8.9000    91.7190     2.4990     0.0640
 2556.0000     8.9000    91.9520     2.5020     0.0700
 2556.5000     8.9000    92.1820     2.5010     0.0770
 2557.0000     8.9000    91.3940     2.4990     0.0770
 2557.5000     8.9000    90.0940     2.5150     0.0750
 2558.0000     8.9000    88.9220     2.5270     0.0740
 2558.5000     8.9000    87.6540     2.5230     0.0720
 2559.0000     8.9000    87.8570     2.5150     0.0710
 2559.5000     8.9000    90.0060     2.5090     0.0690
 2560.0000     8.9000    92.0630     2.5350     0.0680
 2560.5000     8.9000    94.2700     2.5310     0.0660
 2561.0000     8.9000    95.6300     2.5220     0.0650
 2561.5000     8.9000    96.1610     2.5310     0.0640
 2562.0000     8.9000    96.3270     2.5400     0.0620
 2562.5000     8.9000    96.1750     2.5400     0.0640
 2563.0000     8.9000    95.5790     2.5380     0.0650
 2563.5000     8.9000    94.6220     2.5110     0.0490
 2564.0000     8.9000    93.3370     2.4880     0.0290
 2564.5000     8.9000    92.1420     2.4650     0.0100
 2565.0000     8.9000    90.8530     2.4610     0.0090
 2565.5000     8.9000    90.1340     2.4760     0.0200
 2566.0000     8.9000    89.6570     2.4990     0.0350
 2566.5000     8.9000    89.7210     2.5100     0.0490
 2567.0000     8.9000    89.7950     2.4930     0.0560
 2567.5000     8.9000    90.1380     2.4770     0.0390
 2568.0000     8.9000    90.4550     2.4760     0.0190
 2568.5000     8.9000    90.7750     2.4810     0.0170
 2569.0000     8.9000    91.1000     2.4880     0.0180
 2569.5000     8.9000    91.4210     2.4940     0.0280
 2570.0000     8.9000    91.7440     2.5010     0.0370
 2570.5000     8.9000    92.0670     2.5080     0.0460
 2571.0000     8.9000    92.3900     2.5140     0.0530
 2571.5000     8.9000    92.7120     2.5210     0.0610
 2572.0000     8.9000    93.0350     2.5270     0.0690
 2572.5000     8.9000    93.3590     2.5330     0.0720
