~VERSION INFORMATION
 VERS.                2.0:   CWLS LOG ASCII STANDARD - VERSION 2.0
 WRAP.                 NO:   ONE LINE PER DEPTH STEP
~WELL INFORMATION
#MNEM.UNIT      DATA TYPE    INFORMATION
#----------   ------------   ------------------------------
 STRT.F          700.5000:   START DEPTH
 STOP.F         3060.0000:   STOP DEPTH
 STEP.F            0.5000:   STEP LENGTH
 NULL.          -999.2500:   NO VALUE
 COMP.    FENIX & SCISSON:   COMPANY
 WELL.   FENIX "A" #23-34:   WELL
 FLD .           N P R #3:   FIELD
 LOC .      S34 T39N R78W:   LOCATION
 CNTY.            NATRONA:   COUNTY
 STAT.            WYOMING:   STATE
 CTRY. UNITED STATES OF AMERICA:   COUNTRY
 SRVC.       SCHLUMBERGER:   SERVICE COMPANY
 DATE.        23-APR-1977:   LOGDATE
 API .     49025103590000:   API NUMBER
~CURVE INFORMATION
#MNEM.UNIT       API CODE    CURVE DESCRIPTION
#----------   ------------   ------------------------------
 DEPT.F                  :   
 ILD .OHMM   07 120 46 00:   DEEP INDUCTION RESISTIVITY
 ILM .OHMM   07 120 44 00:   INDUCTION LOG MEDIUM RESISTIVITY
 LL8 .OHMM   07 220 08 00:   LATEROLOG-8 RES.
 SPR .MV     07 010 01 00:   SPONTANEOUS POTENTIAL
 GRD .GAPI   45 310 01 00:   GAMMA RAY FROM DENSITY LOG
 CALD.IN     45 280 60 00:   CALIPER FROM DENSITY LOG
 RHOB.G/C3   45 350 01 00:   BULK DENSITY
 CORR.G/C3   45 356 01 00:   DENSITY CORRECTION
~PARAMETER INFORMATION
#MNEM.UNIT          VALUE    DESCRIPTION
#----------   ------------   ------------------------------
 EKB .F         5094.0000:   Kelly bushing
 EGL .F         5082.0000:   Ground level
 EDF .F            0.0000:   Drilling floor
 EPD .F            0.0000:   Permanent datum
 TD  .F         3051.0000:   Total depth
 DATE.        23-APR-1977:   Date logged
 CLNT.            A2DTECH:   Client Code
 SL  . 990' FWL & 1650' FNL:   Surface Location
 PD  .                 GL:   Permanent Datum
 DD  .F              3050:   Depth driller
 DL  .F              3051:   Depth logger
 BLI .F              3045:   Bottom log interval
 CS1 .IN            8.625:   Casing size
 CBD1.      8.625" @ 718':   Casing driller 1
 CBL1.F               717:   Casing logger 1
 BS1 .IN            7.875:   Bit size
 DFT .                FGM:   Type fluid in hole
 DFD .                8.8:   Density
 DFV .                 34:   Viscosity
 DFPH.                8.5:   pH
 DFL .                8.2:   Fluid loss
 MSS .           FLOWLINE:   Source of sample
 RMS .OHMM           .155:   Rm
 MST .F                66:   Rm Meas. temp.
 RMF .OHMM           .152:   Rmf
 MFST.F                66:   Rmf Meas. temp.
 MFSS.               MEAS:   Source Rmf.
 RMB .OHMM           .085:   Rm. at BHT
 BHT .F               120:   BHT.
 TCS .HRS            0230:   Time Circ. stopped
 MRT .F               120:   Maximum recorded temp.
 LUN .               5642:   Logging unit number
 LUL .               CSPR:   Logging unit location
 ENGI.             TAYLOR:   Recorded By
 WITN.         HARRINGTON:   Witnessed by
 ORIG.           5" PRINT:   Origin of data
 UWI .     49025103590000:   Unique Well ID
 DICO. A2D TECHNOLOGIES, INC.:   Digitizing Company
 DAPD.                 12:   Feet Above Permanent Datum
 BSD1.               3050:   Depth drilled with bit1
 TLI .                717:   Top log interval
 TLAB.               0530:   Time logger at bottom
~OTHER INFORMATION
~A   DEPT      ILD        ILM        LL8        SPR         GRD      CALD       RHOB       CORR   
  700.5000  -999.2500  -999.2500  -999.2500  -999.2500    77.7780  -999.2500  -999.2500  -999.2500
  701.0000  -999.2500  -999.2500  -999.2500  -999.2500    79.4980  -999.2500  -999.2500  -999.2500
  701.5000  -999.2500  -999.2500  -999.2500  -999.2500    81.4450  -999.2500  -999.2500  -999.2500
  702.0000  -999.2500  -999.2500  -999.2500  -999.2500    82.9770  -999.2500  -999.2500  -999.2500
  702.5000  -999.2500  -999.2500  -999.2500  -999.2500    84.9210  -999.2500  -999.2500  -999.2500
  703.0000  -999.2500  -999.2500  -999.2500  -999.2500    85.9330  -999.2500  -999.2500  -999.2500
  703.5000  -999.2500  -999.2500  -999.2500  -999.2500    86.7770  -999.2500  -999.2500  -999.2500
  704.0000  -999.2500  -999.2500  -999.2500  -999.2500    87.3750  -999.2500  -999.2500  -999.2500
  704.5000  -999.2500  -999.2500  -999.2500  -999.2500    87.5490  -999.2500  -999.2500  -999.2500
  705.0000  -999.2500  -999.2500  -999.2500  -999.2500    86.7590  -999.2500  -999.2500  -999.2500
  705.5000  -999.2500  -999.2500  -999.2500  -999.2500    85.9840  -999.2500  -999.2500  -999.2500
  706.0000  -999.2500  -999.2500  -999.2500  -999.2500    84.8740  -999.2500  -999.2500  -999.2500
  706.5000  -999.2500  -999.2500  -999.2500  -999.2500    84.1230  -999.2500  -999.2500  -999.2500
  707.0000  -999.2500  -999.2500  -999.2500  -999.2500    83.6490  -999.2500  -999.2500  -999.2500
  707.5000  -999.2500  -999.2500  -999.2500  -999.2500    83.1860  -999.2500  -999.2500  -999.2500
  708.0000  -999.2500  -999.2500  -999.2500  -999.2500    82.2140  -999.2500  -999.2500  -999.2500
  708.5000  -999.2500  -999.2500  -999.2500  -999.2500    81.5170  -999.2500  -999.2500  -999.2500
  709.0000  -999.2500  -999.2500  -999.2500  -999.2500    82.4200  -999.2500  -999.2500  -999.2500
  709.5000  -999.2500  -999.2500  -999.2500  -999.2500    84.3600  -999.2500  -999.2500  -999.2500
  710.0000  -999.2500  -999.2500  -999.2500  -999.2500    83.5920  -999.2500  -999.2500  -999.2500
  710.5000  -999.2500  -999.2500  -999.2500  -999.2500    83.0150  -999.2500  -999.2500  -999.2500
  711.0000  -999.2500  -999.2500  -999.2500  -999.2500    83.5180  -999.2500  -999.2500  -999.2500
  711.5000  -999.2500  -999.2500  -999.2500  -999.2500    84.1930  -999.2500  -999.2500  -999.2500
  712.0000  -999.2500  -999.2500  -999.2500  -999.2500    85.1240  -999.2500  -999.2500  -999.2500
  712.5000  -999.2500  -999.2500  -999.2500  -999.2500    86.0590  -999.2500  -999.2500  -999.2500
  713.0000  -999.2500  -999.2500  -999.2500  -999.2500    85.9520  -999.2500  -999.2500  -999.2500
  713.5000  -999.2500  -999.2500  -999.2500  -999.2500    85.0850  -999.2500     2.0130  -999.2500
  714.0000  -999.2500  -999.2500  -999.2500  -999.2500    84.2270  -999.2500     2.0440  -999.2500
  714.5000  -999.2500  -999.2500  -999.2500  -999.2500    83.7060  -999.2500     2.0740  -999.2500
  715.0000  -999.2500  -999.2500  -999.2500  -999.2500    85.1550  -999.2500     2.1050  -999.2500
  715.5000  -999.2500  -999.2500     7.2040  -999.2500    86.6240  -999.2500     2.1270  -999.2500
  716.0000  -999.2500  -999.2500     3.8920    -5.5720    85.7890  -999.2500     2.1580  -999.2500
  716.5000  -999.2500  -999.2500     1.0480   -11.1940    84.5910  -999.2500     2.1890  -999.2500
  717.0000  -999.2500  -999.2500     3.9590   -18.0200    84.4100  -999.2500     2.2160  -999.2500
  717.5000  -999.2500  -999.2500     7.9290   -23.4440    83.4840  -999.2500     2.2360    -0.1460
  718.0000  -999.2500    19.7360    14.8100   -30.7940    86.5020     8.5030     2.3520    -0.0300
  718.5000    14.4160    13.7800    12.3970   -35.9510    91.3670     8.6970     2.5250     0.1590
  719.0000     4.8610     7.8240     8.0550   -40.4520    96.2350     9.0380     2.6740     0.1370
  719.5000     2.3390     2.6620     8.1820   -45.2370    98.7470    10.6900     2.4400     0.1060
  720.0000     4.8980     2.9240     8.3550   -48.4180    99.2180    12.1340     2.4580     0.0740
  720.5000     8.2950     3.4480     8.5290   -51.5570    99.7030    12.1990     2.4520     0.0560
  721.0000    11.7990     3.7980     8.7030   -54.5550   100.3330    12.2590     2.4740     0.0420
  721.5000    15.6530     4.4420     8.8760   -57.0970   102.5630    12.3050     2.4630     0.0410
  722.0000    12.6260     5.8100     8.9980   -58.8770   105.0180    12.3550     2.4760     0.0540
  722.5000     9.6430     6.2210     8.8370   -60.5540   106.4630    12.4050     2.5200     0.0640
  723.0000     9.6870     5.7890     8.6570   -62.2280   106.4990    12.4230     2.5050     0.0530
  723.5000     9.5190     4.9850     8.4780   -63.9010   106.4930    12.4060     2.4580     0.0340
  724.0000     9.3650     5.1730     8.2810   -65.5730   108.0690    12.3900     2.4840     0.0420
  724.5000     9.2120     6.6380     8.2810   -67.2410   110.9880    12.3730     2.4780     0.0530
  725.0000     9.1660     8.2810     8.7500   -68.7700   111.0510    12.3560     2.4910     0.0620
  725.5000     9.2350     7.7410     9.1660   -69.5670   109.7380    12.3400     2.5030     0.0600
  726.0000     9.3360     6.6610     8.9050   -70.3200   108.4590    12.3230     2.4800     0.0490
  726.5000     8.8330     6.2200     8.3580   -71.0930   107.1620    12.3060     2.4660     0.0520
  727.0000     8.0900     5.9880     8.4320   -70.8810   107.0720    12.2900     2.4780     0.0530
  727.5000     7.4130     5.7780     8.5390   -70.5930   110.5060    12.2970     2.4580     0.0250
  728.0000     7.2100     5.7250     8.5920   -70.3430   114.0950    12.3440     2.4930     0.0450
  728.5000     7.5890     5.9410     8.3270   -70.4040   116.6190    12.3920     2.4660     0.0410
  729.0000     8.1300     7.4560     7.9480   -70.4710   116.9560    12.4400     2.4610     0.0360
  729.5000     8.6710     8.8740     7.8350   -70.5420   115.4330    12.4090     2.4890     0.0540
  730.0000     9.0960     9.0810     8.7370   -70.2650   115.5210    12.3680     2.4570     0.0710
  730.5000     9.4710     9.1830     9.4310   -68.6380   115.6530    12.3240     2.4680     0.0940
  731.0000     9.8470     9.2950    10.3340   -67.0640   113.9620    12.2840     2.4530     0.0860
  731.5000    10.9140     9.4070    10.3000   -65.6410   111.4940    12.2570     2.4080     0.0260
  732.0000    12.2770     9.5200    10.2330   -64.4850   109.7160    11.3500     2.4430     0.0290
  732.5000    13.5670     9.6790    10.1650   -63.3070   110.0560    11.0090     2.4730     0.0290
  733.0000    13.8840     9.9490    10.1450   -62.9010   110.0510    10.9770     2.4540     0.0230
  733.5000    13.0110    10.2190    10.3140   -62.7420   109.1590    10.9570     2.4660     0.0290
  734.0000    12.0240    10.4890    10.3980   -62.5940   107.0640    10.9230     2.4920     0.0380
  734.5000    11.1770    10.6240    10.4820   -62.4360   104.8670    10.8640     2.4800     0.0300
  735.0000    10.9510    10.5100    10.5650   -62.6370   104.0350    10.8100     2.4580     0.0320
  735.5000    10.8050    10.1330    10.6240   -62.9850   103.9950    10.7840     2.4820     0.0210
  736.0000    10.6600     9.7550    10.2200   -63.6820   103.6950    10.7580     2.4620     0.0260
  736.5000    10.5150     9.3770     9.8530   -64.4440   103.5570    10.7320     2.4650     0.0320
  737.0000    10.3700     8.9990     9.4850   -65.9010   104.5230    10.7060     2.4620     0.0240
  737.5000    10.2250     8.6210     9.0810   -67.3010   106.9070    10.6800     2.4530     0.0140
  738.0000    10.0790     8.2430     9.0810   -68.6910   109.2750    10.6540     2.4460     0.0110
  738.5000     9.9340     8.0020     9.0810   -70.0790   109.9770    10.6280     2.4520     0.0150
  739.0000     9.7890     7.8210     9.0810   -71.4690   110.4570    10.6020     2.4610     0.0230
  739.5000     9.6870     7.6210     9.0360   -72.8570   111.0440    10.5760     2.4690     0.0280
  740.0000     9.6360     7.6330     8.9440   -74.2400   108.4330    10.5510     2.4750     0.0280
  740.5000     9.5900     7.6560     8.8530   -75.5300   105.0770    10.5350     2.4700     0.0220
