~VERSION INFORMATION
 VERS.                2.0:   CWLS LOG ASCII STANDARD - VERSION 2.0
 WRAP.                 NO:   ONE LINE PER DEPTH STEP
~WELL INFORMATION
#MNEM.UNIT      DATA TYPE    INFORMATION
#----------   ------------   ------------------------------
 STRT.F           11.0000:   START DEPTH
 STOP.F         4154.0000:   STOP DEPTH
 STEP.F            0.5000:   STEP LENGTH
 NULL.          -999.2500:   NO VALUE
 COMP.   LAWRENCE ALLISON:   COMPANY
 WELL. ALLISON NPR 3 "LX" #14-22:   WELL
 FLD .                NPR:   FIELD
 LOC .      S22 T38N R78W:   LOCATION
 CNTY.            NATRONA:   COUNTY
 STAT.            WYOMING:   STATE
 CTRY. UNITED STATES OF AMERICA:   COUNTRY
 SRVC.       DRESER ATLAS:   SERVICE COMPANY
 DATE.        14-APR-1985:   LOGDATE
 API .     49025110230000:   API NUMBER
~CURVE INFORMATION
#MNEM.UNIT       API CODE    CURVE DESCRIPTION
#----------   ------------   ------------------------------
 DEPT.F                  :   
 TEND.LBS    45 635 01 00:   TENSION FROM DENSITY LOG
 RHOB.G/C3   45 350 01 00:   BULK DENSITY
 DRHO.G/C3   45 356 01 00:   DENSITY CORRECTION
 CALD.IN     45 280 60 00:   CALIPER FROM DENSITY LOG
 NPHI.DEC    42 890 03 00:   NEUTRON POROSITY SANDSTONE
 TENR.LBS    07 635 01 00:   TENSION FROM RESISTIVITY
 SPR .MV     07 010 01 00:   SPONTANEOUS POTENTIAL
 GRR .GAPI   07 310 01 00:   GAMMA RAY FROM RESISTIVITY
 RFOC.OHMM   07 220 01 00:   RESISTIVITY FOCUSED LOG RES.
 RILD.OHMM   07 120 46 00:   DEEP INDUCTION RESISTIVITY
 RILM.OHMM   07 120 44 00:   INDUCTION LOG MEDIUM RESISTIVITY
~PARAMETER INFORMATION
#MNEM.UNIT          VALUE    DESCRIPTION
#----------   ------------   ------------------------------
 EKB .F         5230.4000:   Kelly bushing
 EGL .F         5220.4000:   Ground level
 EDF .F            0.0000:   Drilling floor
 TD  .F         4150.0000:   Total depth
 DATE.        14-APR-1985:   Date logged
 CLNT.            A2DTECH:   Client Code
 SL  . 905' FNL & 824' FWL:   Surface Location
 PD  .                 GL:   Permanent Datum
 EPD .F            5220.4:   Elevation Permanent Datum
 LMF .                 KB:   Log Measured From
 DMF .                 KB:   Drilling Measured From
 DAPD.F                10:   Feet Above Permanent Datum
 DD  .F              4150:   Depth driller
 DL  .F              4140:   Depth logger
 BLI .F              4138:   Bottom log interval
 CS1 .IN            8.625:   Casing size
 CBD1.      8.625" @ 738':   Casing driller 1
 CBL1.F               738:   Casing logger 1
 BS1 .IN            7.875:   Bit size
 BSD1.F              4150:   Depth drilled with bit1
 DFT .            KCL/GEL:   Type fluid in hole
 DFD .                9.1:   Density
 DFV .                 48:   Viscosity
 DFPH.                8.5:   pH
 DFL .                 10:   Fluid loss
 MSS .           FLOWLINE:   Source of sample
 RMS .OHMM            .35:   Rm
 MST .F                62:   Rm Meas. temp.
 RMF .OHMM            .26:   Rmf
 MFST.F                62:   Rmf Meas. temp.
 RMC .OHMM            .43:   Rmc
 MCST.F                62:   Rmc Meas. temp.
 MFSS.               CALC:   Source Rmf.
 MCSS.               CALC:   Source Rmc.
 RMB .OHMM            .16:   Rm. at BHT
 BHT .F               140:   BHT.
 TCS .HRS               6:   Time Circ. stopped
 MRT .F               140:   Maximum recorded temp.
 LUN .               6274:   Logging unit number
 LUL .               GLTE:   Logging unit location
 ENGI.               MACK:   Recorded By
 WITN.             STRONG:   Witnessed by
 ORIG.           5" PRINT:   Origin of data
 UWI .     49025110230000:   Unique Well ID
 DICO. A2D TECHNOLOGIES, INC.:   Digitizing Company
~OTHER INFORMATION
~A   DEPT     TEND       RHOB       DRHO       CALD       NPHI       TENR        SPR        GRR       RFOC       RILD       RILM   
# ...
  956.5000  -999.2500  -999.2500  -999.2500  -999.2500  -999.2500   -90.2610   -62.8620    87.2430     7.7380     9.5560     9.1290
  957.0000  -999.2500  -999.2500  -999.2500  -999.2500  -999.2500   -91.4580   -63.2410    87.8610     7.8960     9.6140     9.1590
  957.5000  -999.2500  -999.2500  -999.2500  -999.2500  -999.2500   -92.6540   -63.6200    88.8540     8.0400     9.6720     9.1880
  958.0000  -999.2500  -999.2500  -999.2500  -999.2500  -999.2500   -93.8510   -64.0020    89.7450     8.1830     9.7300     9.2190
  958.5000  -999.2500  -999.2500  -999.2500  -999.2500  -999.2500   -94.8450   -64.3820    87.5610     8.3300     9.8220     9.2670
  959.0000  -999.2500  -999.2500  -999.2500  -999.2500  -999.2500   -94.8450   -64.2540    85.1730     8.3300     9.9250     9.3980
  959.5000  -999.2500  -999.2500  -999.2500  -999.2500  -999.2500   -94.8450   -63.8350    85.5640     8.3090    10.0280     9.5280
  960.0000  -999.2500  -999.2500  -999.2500  -999.2500  -999.2500   -94.8450   -63.4170    86.8130     8.2870    10.1310     9.6590
  960.5000  -999.2500  -999.2500  -999.2500  -999.2500  -999.2500   -94.8450   -63.0250    90.0930     8.2660    10.2340     9.7900
  961.0000  -999.2500  -999.2500  -999.2500  -999.2500  -999.2500   -94.8450   -62.8200    89.2500     8.2540    10.3370     9.9210
  961.5000  -999.2500  -999.2500  -999.2500  -999.2500  -999.2500   -94.8450   -62.6170    87.7420     8.2800    10.3930    10.0170
  962.0000  -999.2500  -999.2500  -999.2500  -999.2500  -999.2500   -94.8450   -62.4160    86.2690     8.3050    10.3760     9.9350
  962.5000  -999.2500  -999.2500  -999.2500  -999.2500  -999.2500   -94.8450   -62.2410    85.0770     8.3300    10.3610     9.8420
  963.0000  -999.2500  -999.2500  -999.2500  -999.2500  -999.2500   -94.8450   -62.0670    86.1530     8.3560    10.3450     9.7480
  963.5000  -999.2500  -999.2500  -999.2500  -999.2500  -999.2500   -94.8450   -61.8820    89.8320     8.3810    10.3300     9.6550
  964.0000  -999.2500  -999.2500  -999.2500  -999.2500  -999.2500   -94.8450   -61.9260    93.4490     8.4070    10.3140     9.5610
  964.5000  -999.2500  -999.2500  -999.2500  -999.2500  -999.2500   -94.8450   -62.0660    95.1820     8.3250    10.2980     9.4680
  965.0000  -999.2500  -999.2500  -999.2500  -999.2500  -999.2500   -94.8450   -62.3560    94.2840     8.2150    10.1260     9.3730
  965.5000  -999.2500  -999.2500  -999.2500  -999.2500  -999.2500   -94.8450   -62.6430    93.4100     8.1050     9.9200     9.2700
  966.0000  -999.2500  -999.2500  -999.2500  -999.2500  -999.2500   -94.8450   -62.9280    92.5280     7.9960     9.7130     9.1670
  966.5000  -999.2500  -999.2500  -999.2500  -999.2500  -999.2500   -94.8450   -63.2110    91.6800     7.8860     9.5070     9.0650
  967.0000  -999.2500  -999.2500  -999.2500  -999.2500  -999.2500   -94.8450   -63.4620    89.5160     7.7760     9.3910     8.9620
  967.5000  -999.2500  -999.2500  -999.2500  -999.2500  -999.2500   -94.8450   -63.2110    87.1000     7.7280     9.3120     8.8590
  968.0000  -999.2500  -999.2500  -999.2500  -999.2500  -999.2500   -94.8450   -62.9150    86.1600     7.7050     9.2370     8.7570
  968.5000  -999.2500  -999.2500  -999.2500  -999.2500  -999.2500   -94.8450   -62.6180    85.8490     7.6830     9.1620     8.6540
  969.0000  -999.2500  -999.2500  -999.2500  -999.2500  -999.2500   -94.8450   -62.5240    87.2410     7.6670     9.0870     8.6430
  969.5000  -999.2500  -999.2500  -999.2500  -999.2500  -999.2500   -94.8450   -62.6840    89.6140     7.7200     9.0510     8.6430
  970.0000  -999.2500  -999.2500  -999.2500  -999.2500  -999.2500   -94.8450   -62.8430    91.1380     7.7790     9.0700     8.6430
  970.5000  -999.2500  -999.2500  -999.2500  -999.2500  -999.2500   -94.8450   -63.0070    89.4620     7.8370     9.0860     8.6550
  971.0000  -999.2500  -999.2500  -999.2500  -999.2500  -999.2500   -94.8450   -63.0090    88.6860     7.8960     9.1030     8.6870
  971.5000  -999.2500  -999.2500  -999.2500  -999.2500  -999.2500   -94.8450   -62.8780    88.3240     7.9550     9.1200     8.7210
  972.0000  -999.2500  -999.2500  -999.2500  -999.2500  -999.2500   -94.8450   -62.7520    90.2490     7.8730     9.1370     8.7540
  972.5000  -999.2500  -999.2500  -999.2500  -999.2500  -999.2500   -94.8450   -62.6690    92.8820     7.8500     9.1530     8.7870
  973.0000  -999.2500  -999.2500  -999.2500  -999.2500  -999.2500   -94.8450   -62.8010    90.6420     7.8270     9.1700     8.8200
  973.5000  -999.2500  -999.2500  -999.2500  -999.2500  -999.2500   -94.8450   -62.9300    87.4250     7.8090     9.1870     8.8530
  974.0000  -999.2500  -999.2500  -999.2500  -999.2500  -999.2500   -94.8450   -63.0440    85.1720     7.8360     9.2040     8.8860
  974.5000  -999.2500  -999.2500  -999.2500  -999.2500  -999.2500   -94.8450   -62.9760    90.3790     7.9370     9.2210     8.9180
  975.0000  -999.2500  -999.2500  -999.2500  -999.2500  -999.2500   -94.8450   -62.6770    92.9710     8.0280     9.2370     8.9680
  975.5000  -999.2500  -999.2500  -999.2500  -999.2500  -999.2500   -94.8450   -62.3850    93.2520     7.9370     9.2540     8.9630
  976.0000  -999.2500  -999.2500  -999.2500  -999.2500  -999.2500   -94.8450   -62.0990    93.0840     7.8090     9.2710     8.9540
  976.5000  -999.2500  -999.2500  -999.2500  -999.2500  -999.2500   -94.8450   -61.8910    95.0400     7.8510     9.2880     8.9450
  977.0000  -999.2500  -999.2500  -999.2500  -999.2500  -999.2500   -94.8450   -62.2040    94.8020     7.9080     9.3040     8.9370
  977.5000  -999.2500  -999.2500  -999.2500  -999.2500  -999.2500   -94.8450   -62.4540    93.5960     7.9650     9.3210     8.9280
  978.0000  -999.2500  -999.2500  -999.2500  -999.2500  -999.2500   -94.8450   -62.2660    92.6880     8.0210     9.3380     8.9190
  978.5000  -999.2500  -999.2500  -999.2500  -999.2500  -999.2500   -94.8450   -62.0740    93.1110     8.0780     9.3550     8.9100
  979.0000  -999.2500  -999.2500  -999.2500  -999.2500  -999.2500   -94.8450   -62.2200    92.9300     8.1350     9.3710     8.9010
  979.5000  -999.2500  -999.2500  -999.2500  -999.2500  -999.2500   -94.8450   -62.4160    90.6820     8.1780     9.3910     8.8920
  980.0000  -999.2500  -999.2500  -999.2500  -999.2500  -999.2500   -94.8450   -62.6150    88.4210     7.9990     9.3370     8.8750
  980.5000  -999.2500  -999.2500  -999.2500  -999.2500  -999.2500   -94.8450   -62.8140    88.0220     7.8550     9.2740     8.8300
  981.0000  -999.2500  -999.2500  -999.2500  -999.2500  -999.2500   -94.8450   -63.0120    88.2310     7.7380     9.2110     8.7860
  981.5000  -999.2500  -999.2500  -999.2500  -999.2500  -999.2500   -94.8450   -63.2100    88.4550     7.7380     9.1480     8.7420
  982.0000  -999.2500  -999.2500  -999.2500  -999.2500  -999.2500   -94.8450   -63.4090    88.5710     7.7880     9.0840     8.6980
  982.5000  -999.2500  -999.2500  -999.2500  -999.2500  -999.2500   -94.8450   -63.6150    91.4460     7.8260     9.0210     8.6540
  983.0000  -999.2500  -999.2500  -999.2500  -999.2500  -999.2500   -94.8450   -63.4690    94.7010     7.8820     8.9680     8.5450
  983.5000  -999.2500  -999.2500  -999.2500  -999.2500  -999.2500   -94.8450   -63.2540    96.2650     7.8090     8.8300     8.4140
  984.0000  -999.2500  -999.2500  -999.2500  -999.2500  -999.2500   -94.8450   -63.0350    96.2180     7.7930     8.6860     8.2830
  984.5000  -999.2500  -999.2500  -999.2500  -999.2500  -999.2500   -94.8450   -62.8170    94.8070     7.7650     8.5050     8.1780
  985.0000  -999.2500  -999.2500  -999.2500  -999.2500  -999.2500   -94.8450   -62.6000    92.1000     7.7380     8.6260     8.2210
  985.5000  -999.2500  -999.2500  -999.2500  -999.2500  -999.2500   -94.8450   -62.3820    89.1930     7.7100     8.8090     8.2650
  986.0000  -999.2500  -999.2500  -999.2500  -999.2500  -999.2500   -94.8450   -62.1610    88.2190     7.6820     8.8290     8.3080
  986.5000  -999.2500  -999.2500  -999.2500  -999.2500  -999.2500   -94.8450   -61.9440    91.4240     7.6670     8.8500     8.3510
