~VERSION INFORMATION
 VERS.                2.0:   CWLS LOG ASCII STANDARD - VERSION 2.0
 WRAP.                 NO:   ONE LINE PER DEPTH STEP
~WELL INFORMATION
#MNEM.UNIT      DATA TYPE    INFORMATION
#----------   ------------   ------------------------------
 STRT.F          197.0000:   START DEPTH
 STOP.F         3074.5000:   STOP DEPTH
 STEP.F            0.5000:   STEP LENGTH
 NULL.          -999.2500:   NO VALUE
 COMP.    FENIX & SCISSON:   COMPANY
 WELL.   FENIX "A" #36-21:   WELL
 FLD .             NPR #3:   FIELD
 LOC .      S21 T39N R78W:   LOCATION
 CNTY.            NATRONA:   COUNTY
 STAT.            WYOMING:   STATE
 CTRY. UNITED STATES OF AMERICA:   COUNTRY
 SRVC.              WELEX:   SERVICE COMPANY
 DATE.        06-JUL-1977:   LOGDATE
 API .     49025103920000:   API NUMBER
~CURVE INFORMATION
#MNEM.UNIT       API CODE    CURVE DESCRIPTION
#----------   ------------   ------------------------------
 DEPT.F                  :   
 CALD.IN     45 280 60 00:   CALIPER FROM DENSITY LOG
 GRD .GAPI   45 310 01 00:   GAMMA RAY FROM DENSITY LOG
 CORR.G/C3   45 356 01 00:   DENSITY CORRECTION
 RHOB.G/C3   45 350 01 00:   BULK DENSITY
 SPR .MV     11 010 01 00:   SPONTANEOUS POTENTIAL FROM RES.
 FORX.OHMM   11 000 00 00:   FORMATION FACTOR
 GURD.OHMM   11 220 05 00:   GUARD LOG RESISTIVITY
 NPHI.DEC    42 890 03 00:   NEUTRON POROSITY SANDSTONE
~PARAMETER INFORMATION
#MNEM.UNIT          VALUE    DESCRIPTION
#----------   ------------   ------------------------------
 EKB .F         4960.0000:   Kelly bushing
 EGL .F         4950.0000:   Ground level
 EDF .F            0.0000:   Drilling floor
 EPD .F         4950.0000:   Permanent datum
 TD  .F         3078.0000:   Total depth
 CLNT.            A2DTECH:   Client Code
 SL  . 1650' FSL & 1650' FWL:   Surface Location
 PD  .                 GL:   Permanent Datum
 DAPD.F                10:   Feet Above Permanent Datum
 DATE.        06-JUL-1977:   Date Logged [DD-MMM-YYYY]
 DD  .F              3066:   Depth driller
 DL  .F              3078:   Depth logger
 BLI .F              3076:   Bottom log interval
 TLI .F               200:   Top log interval
 CS1 .IN            8.625:   Casing size
 BS1 .IN            7.875:   Bit size
 BSD1.F              3066:   Depth drilled with bit1
 DFT .            KCL MUD:   Type fluid in hole
 DFD .                9.2:   Density
 DFV .                 35:   Viscosity
 DFPH.                7.5:   pH
 DFL .                 18:   Fluid loss
 MSS .           FLOWLINE:   Source of sample
 RMS .OHMM            0.9:   Rm
 MST .F                80:   Rm Meas. temp.
 RMF .OHMM           0.81:   Rmf
 MFST.F                80:   Rmf Meas. temp.
 MFSS.               FANN:   Source Rmf.
 RMC .OHMM           1.06:   Rmc
 MCST.F                80:   Rmc Meas. temp.
 MCSS.                KIT:   Source Rmc.
 RMB .OHMM           0.60:   Rm. at BHT
 BHT .F               119:   BHT.
 TCS .HRS               3:   Time Circ. stopped
 MRT .F               119:   Maximum recorded temp.
 LUN .               8611:   Logging unit number
 LUL .             CASPER:   Logging unit location
 ENGI.             C DOAK:   Recorded By
 WITN.         HARRINGTON:   Witnessed by
 ORIG.           5" PRINT:   Origin of data
 UWI .     49025103920000:   Unique Well ID
 DICO. A2D TECHNOLOGIES,INC.:   Digitizing Company
~OTHER INFORMATION
~A   DEPT     CALD         GRD      CORR       RHOB        SPR       FORX       GURD       NPHI   
# ...
 2829.5000     8.4569   119.9472     0.0363     2.4734   -63.9624     6.6456     4.5187     0.2234
 2830.0000     8.4587   118.2047     0.0377     2.4809   -64.2501     7.1209     4.3890     0.2257
 2830.5000     8.4456   117.3403     0.0408     2.4899   -64.2385     9.5790     4.2481     0.2284
 2831.0000     8.4326   117.6695     0.0409     2.5018   -64.2268     6.7873     4.3977     0.2317
 2831.5000     8.4343   119.1719     0.0395     2.5101   -64.3653     6.8824     4.6477     0.2331
 2832.0000     8.4360   120.6742     0.0382     2.4945   -64.5030     7.7928     4.8446     0.2327
 2832.5000     8.4230   120.7448     0.0383     2.4871   -64.4910    10.6287     4.2493     0.2280
 2833.0000     8.4400   118.9591     0.0369     2.4798   -64.4790    10.3410     4.1624     0.2268
 2833.5000     8.4414   117.7980     0.0356     2.4731   -64.4649     9.1803     4.2793     0.2282
 2834.0000     8.4434   117.2440     0.0342     2.4665   -64.4532     7.1546     4.0777     0.2270
 2834.5000     8.4452   118.4582     0.0328     2.4590   -64.4416     6.7937     4.1063     0.2237
 2835.0000     8.4469   120.5505     0.0329     2.4508   -64.4299     7.4319     4.6276     0.2153
 2835.5000     8.4487   122.0528     0.0316     2.4444   -64.4182     9.3317     4.7476     0.2101
 2836.0000     8.4504   122.6702     0.0302     2.4415   -64.5562    10.6388     4.3105     0.2044
 2836.5000     8.4522   122.1008     0.0288     2.4400   -64.3949     6.2579     3.7548     0.2050
 2837.0000     8.4539   122.4301     0.0290     2.4460   -64.3832     7.3341     4.1361     0.2062
 2837.5000     8.4556   123.9324     0.0291     2.4543   -64.3713    10.1420     4.2229     0.2079
 2838.0000     8.4574   125.4347     0.0292     2.4647   -64.3569     6.5699     4.0240     0.2187
 2838.5000     8.4592   125.7979     0.0293     2.4722   -64.3452     5.0564     3.9966     0.2298
 2839.0000     8.4609   122.8230     0.0294     2.4656   -64.3336     5.0224     3.8083     0.2372
 2839.5000     8.4630   120.6019     0.0310     2.4530   -64.3219     5.0967     3.8615     0.2387
 2840.0000     8.4648   118.4716     0.0326     2.4486   -64.4599     5.2361     3.9699     0.2369
 2840.5000     8.4365   116.4341     0.0328     2.4531   -64.6009     5.2368     3.9429     0.2332
 2841.0000     8.4387   114.1016     0.0344     2.4666   -64.5863     5.2375     4.1960     0.2275
 2841.5000     8.4104   112.0641     0.0360     2.4849   -64.8743     5.3477     4.9185     0.2197
 2842.0000     8.3826   111.1997     0.0361     2.4987   -64.8623     6.1391     5.0217     0.2140
 2842.5000     8.3695   111.5289     0.0362     2.4742   -64.8506     6.6236     5.0918     0.2095
 2843.0000     8.3717   115.9811     0.0348     2.4564   -65.1384     7.9250     4.1971     0.2073
 2843.5000     8.3734   121.6133     0.0335     2.4409   -65.4261     7.2967     3.8637     0.2046
 2844.0000     8.3821   123.7056     0.0306     2.4283   -65.5641     6.2277     4.0833     0.2007
 2844.5000     8.3917   124.0310     0.0263     2.4209   -65.3998     5.0300     3.8642     0.2033
 2845.0000     8.3935   125.2654     0.0249     2.4195   -65.3882     5.0690     3.5327     0.2117
 2845.5000     8.3953   127.0395     0.0235     2.4255   -65.3765     4.9626     3.6069     0.2156
 2846.0000     8.3974   122.6421     0.0221     2.4382   -65.3648     4.3540     2.7367     0.2168
 2846.5000     8.3991   119.1297     0.0223     2.4524   -65.3531     4.0364     3.0991     0.2152
 2847.0000     8.3856   116.2072     0.0224     2.4606   -65.3413     4.9305     4.1995     0.2143
 2847.5000     8.4026   114.4647     0.0225     2.4547   -65.3293     6.9129     4.5310     0.2188
 2848.0000     8.4043   115.0821     0.0226     2.4488   -65.0158     8.1578     4.0855     0.2247
 2848.5000     8.4061   116.8794     0.0228     2.4421   -64.8544     7.3068     3.8663     0.2310
 2849.0000     8.4078   115.4319     0.0229     2.4378   -64.5433     5.3218     3.7354     0.2343
 2849.5000     8.4095   115.4593     0.0230     2.4356   -64.3820     4.9339     3.4624     0.2355
 2850.0000     8.4113   120.2065     0.0231     2.4565   -64.2206     5.3233     3.3620     0.2339
 2850.5000     8.4131   119.2701     0.0247     2.4670   -63.9095     4.8777     3.1652     0.2334
 2851.0000     8.4148   115.0358     0.0278     2.4760   -63.7481     4.5754     3.0157     0.2336
 2851.5000     8.4166   109.3811     0.0309     2.4872   -63.7365     4.9708     3.9200     0.2344
 2852.0000     8.4183   104.9837     0.0355     2.5014   -63.5748     6.2847     3.7348     0.2383
 2852.5000     8.4201   101.7663     0.0402     2.5096   -63.5605     5.1112     3.3210     0.2379
 2853.0000     8.4222    97.3689     0.0477     2.5134   -63.7014     5.1829     3.7086     0.2352
 2853.5000     8.4239    92.3816     0.0493     2.5084   -63.6868     5.8281     4.2870     0.2292
 2854.0000     8.4257    89.4591     0.0464     2.4996   -63.8249     6.3316     4.7545     0.2214
 2854.5000     8.4272    88.8897     0.0421     2.4915   -63.8350     9.7767     8.7285     0.2166
 2855.0000     8.4292    90.9889     0.0377     2.4834   -63.9648    16.4145     7.8763     0.2082
 2855.5000     8.4309    93.6712     0.0333     2.4768   -64.0945    11.9164     5.9822     0.1952
 2856.0000     8.4327    96.4246     0.0305     2.4710   -64.2273     8.0437     7.0940     0.1904
 2856.5000     8.4344    99.1370     0.0306     2.4658   -64.2156     9.1058     6.9003     0.1877
 2857.0000     8.4361   101.4299     0.0307     2.4651   -64.3536    10.5966     5.5704     0.1862
 2857.5000     8.4379   102.3422     0.0338     2.4698   -64.3390     7.7162     4.8182     0.1840
 2858.0000     8.4396   101.1897     0.0374     2.4799   -64.3273     6.3612     4.4043     0.1846
 2858.5000     8.4414   100.9153     0.0346     2.4922   -64.3157     6.4491     4.7515     0.1861
 2859.0000     8.4432   103.0144     0.0347     2.4879   -64.3040     6.8615     5.0558     0.1876
 2859.5000     8.4453   107.1716     0.0334     2.4768   -64.2923     8.7333     4.6857     0.1899
 2860.0000     8.4470   111.3288     0.0335     2.4672   -64.4333     8.3789     4.0811     0.1914
 2860.5000     8.4335   114.0111     0.0352     2.4651   -64.4187     6.7146     3.7823     0.1934
 2861.0000     8.4357   116.9883     0.0353     2.4733   -64.4070     5.8026     3.9194     0.1955
 2861.5000     8.4222   115.4589     0.0357     2.4876   -64.5450     5.6942     4.1945     0.1979
 2862.0000     8.4244   112.2774     0.0371     2.5025   -64.6831     7.0992     4.1654     0.2015
 2862.5000     8.4262   111.7608     0.0388     2.5019   -64.5810     5.7725     4.4015     0.2035
 2863.0000     8.4279   113.2700     0.0389     2.4841   -64.5068     7.3979     4.6512     0.2041
 2863.5000     8.4296   113.0024     0.0391     2.4774   -64.6477     7.5002     3.8599     0.2080
 2864.0000     8.4314   110.3750     0.0377     2.4754   -64.7857     6.0984     3.6522     0.2133
 2864.5000     8.4331   109.2156     0.0363     2.4792   -64.8034     5.6919     3.7027     0.2173
 2865.0000     8.4349   111.0198     0.0335     2.4860   -64.8274     5.8505     4.2215     0.2200
 2865.5000     8.4367   113.4070     0.0307     2.4823   -64.8514     6.5324     4.3998     0.2207
 2866.0000     8.4388   115.7943     0.0294     2.4609   -64.8754     7.6073     4.3692     0.2222
 2866.5000     8.4402   117.5916     0.0279     2.4364   -64.8738     5.6903     4.0494     0.2243
 2867.0000     8.4420   119.1297     0.0267     2.4246   -64.8621     6.2664     3.7271     0.2254
 2867.5000     8.4588   120.8111     0.0253     2.4187   -64.8503     5.6349     3.3602     0.2227
 2868.0000     8.4604   122.6955     0.0240     2.4277   -64.8383     5.4585     3.5067     0.2179
 2868.5000     8.4623   124.7878     0.0242     2.4375   -64.9766     5.5340     3.6753     0.2151
 2869.0000     8.4640   120.9804     0.0258     2.4497   -65.1146     5.6104     3.5016     0.2145
 2869.5000     8.4659   118.6479     0.0274     2.4596   -65.1000     5.6879     3.5746     0.2151
