~VERSION INFORMATION
 VERS.                2.0:   CWLS LOG ASCII STANDARD - VERSION 2.0
 WRAP.                 NO:   ONE LINE PER DEPTH STEP
~WELL INFORMATION
#MNEM.UNIT      DATA TYPE    INFORMATION
#----------   ------------   ------------------------------
 STRT.F           70.0000:   START DEPTH
 STOP.F         2751.5000:   STOP DEPTH
 STEP.F            0.5000:   STEP LENGTH
 NULL.          -999.2500:   NO VALUE
 COMP.          INTEX OIL:   COMPANY
 WELL. INTEX N.P.R. "AX" #75-20:   WELL
 FLD .             TEAPOT:   FIELD
 LOC .      S20 T39N R78W:   LOCATION
 CNTY.            NATRONA:   COUNTY
 STAT.            WYOMING:   STATE
 CTRY. UNITED STATES OF AMERICA:   COUNTRY
 SRVC.       SCHLUMBERGER:   SERVICE COMPANY
 DATE.        06-MAY-1966:   LOGDATE
 API .     49025095120000:   API NUMBER
~CURVE INFORMATION
#MNEM.UNIT       API CODE    CURVE DESCRIPTION
#----------   ------------   ------------------------------
 DEPT.F                  :   
 CALD.IN     45 280 60 00:   CALIPER FROM DENSITY LOG
 GRD .GAPI   45 310 01 00:   GAMMA RAY FROM DENSITY LOG
 RHOB.G/C3   45 350 01 00:   BULK DENSITY
 CORR.G/C3   45 356 01 00:   DENSITY CORRECTION
 SPR .MV     05 010 01 00:   SPONTANEOUS POTENTIAL
 ILD .OHMM   05 120 46 00:   DEEP INDUCTION RESISTIVITY
 ASN .OHMM   05 041 16 00:   AMPLIFIED SHORT NORMAL 16"
~PARAMETER INFORMATION
#MNEM.UNIT          VALUE    DESCRIPTION
#----------   ------------   ------------------------------
 EKB .F         5016.3000:   Kelly bushing
 EGL .F         5006.0000:   Ground level
 EDF .F            0.0000:   Drilling floor
 TD  .F         2750.0000:   Total depth
 DATE.        06-MAY-1966:   Date logged
 CLNT.            A2DTECH:   Client Code
 PD  .                 GL:   Permanent Datum
 DD  .F              2750:   Depth driller
 DL  .F              2746:   Depth logger
 BLI .F              2745:   Bottom log interval
 CS1 .IN            10.75:   Casing size
 CBD1.       10.75" @ 30':   Casing driller 1
 BS1 .IN            7.875:   Bit size
 DFT .           OIL/EMUL:   Type fluid in hole
 DFD .                9.8:   Density
 DFV .                 43:   Viscosity
 DFPH.                  8:   pH
 DFL .               11.8:   Fluid loss
 MSS .         CIRCULATED:   Source of sample
 RMS .OHMM           1.84:   Rm
 MST .F                73:   Rm Meas. temp.
 RMF .OHMM           1.21:   Rmf
 MFST.F                74:   Rmf Meas. temp.
 MFSS.                 FP:   Source Rmf.
 RMB .OHMM           1.27:   Rm. at BHT
 BHT .F               106:   BHT.
 TCS .HRS             1.5:   Time Circ. stopped
 MRT .F               106:   Maximum recorded temp.
 LUN .               3527:   Logging unit number
 LUL .               CSPR:   Logging unit location
 ENGI.               HAUG:   Recorded By
 WITN.      TUTTLE/HUDSON:   Witnessed by
 ORIG.           5" PRINT:   Origin of data
 UWI .     49025095120000:   Unique Well ID
 DICO. A2D TECHNOLOGIES, INC.:   Digitizing Company
 DAPD.F              10.3:   Feet Above Permanent Datum
 BSD1.F              2750:   Depth drilled with bit1
 MCSS.                 FP:   Source Rmc.
 EPD .F              5006:   Elevation Permanent Datum
 LMF .                 KB:   Log Measured From
 DMF .                 KB:   Drilling Measured From
 TLI .F                88:   Top log interval
~OTHER INFORMATION
~A   DEPT     CALD        GRD       RHOB       CORR        SPR        ILD          ASN 
# ...
 2163.0000     9.2490   119.5690     2.5010     0.0070   -47.1730     6.4360     9.9310
 2163.5000     9.2500   121.0240     2.4950     0.0010   -47.5400     6.6910    10.2960
 2164.0000     9.2510   120.8280     2.4930    -0.0060   -47.9230     6.9460    10.6500
 2164.5000     9.2530   122.3950     2.4950    -0.0010   -47.8560     7.1810    10.8820
 2165.0000     9.2540   121.5270     2.4970     0.0030   -47.6180     7.0910    11.0270
 2165.5000     9.2550   119.5050     2.5030     0.0070   -47.3740     6.9510    11.0500
 2166.0000     9.2560   119.6260     2.5030     0.0070   -47.1230     6.8110    11.0290
 2166.5000     9.2580   119.4120     2.5090     0.0030   -47.2570     6.6710    10.9390
 2167.0000     9.2590   120.5100     2.5110    -0.0070   -47.5920     6.5300    10.7620
 2167.5000     9.2600   122.5420     2.5110    -0.0050   -47.2610     6.3900    10.5310
 2168.0000     9.2620   123.7340     2.5080    -0.0030   -46.8140     6.2500    10.1940
 2168.5000     9.2630   123.0280     2.5010    -0.0040   -46.9120     6.1110     9.9150
 2169.0000     9.2640   121.8060     2.4980    -0.0060   -47.3350     5.9940     9.7680
 2169.5000     9.2660   122.0610     2.4970    -0.0090   -47.4250     6.0220     9.8030
 2170.0000     9.2670   121.9750     2.4880    -0.0110   -47.0700     6.1670     9.8450
 2170.5000     9.2680   122.1050     2.4750    -0.0130   -46.7070     6.3110     9.7640
 2171.0000     9.2700   121.3500     2.4680    -0.0140   -47.1190     6.4550     9.6640
 2171.5000     9.2710   119.8840     2.4800    -0.0100   -47.6260     6.5990     9.6300
 2172.0000     9.2720   119.3280     2.4910    -0.0050   -47.4490     6.7430     9.9180
 2172.5000     9.2730   120.0820     2.5000    -0.0070   -47.2820     6.8870    10.4040
 2173.0000     9.2750   118.2920     2.4990    -0.0110   -46.9250     7.0310    10.7180
 2173.5000     9.2770   114.5780     2.5050    -0.0080   -47.3550     7.1770    10.9380
 2174.0000     9.2790   114.0700     2.5070    -0.0020   -48.0560     7.1750    11.0270
 2174.5000     9.2810   114.5890     2.5030     0.0030   -47.8630     7.1380    11.0420
 2175.0000     9.2830   116.6420     2.4950     0.0020   -47.3830     7.1010    11.1530
 2175.5000     9.2850   119.6330     2.4900    -0.0090   -46.9040     7.0650    11.1480
 2176.0000     9.2860   122.3530     2.4960    -0.0080   -47.0610     7.0290    11.1490
 2176.5000     9.2880   125.0580     2.5000     0.0010   -47.3030     6.9930    11.1500
 2177.0000     9.2900   128.1010     2.5180     0.0090   -47.2040     6.9570    11.1490
 2177.5000     9.2920   129.4280     2.5200     0.0130   -46.7130     6.9210    11.1450
 2178.0000     9.2940   126.6480     2.5080     0.0080   -46.2840     6.8850    11.0720
 2178.5000     9.2960   122.8470     2.5010     0.0020   -46.7190     6.8490    11.0320
 2179.0000     9.2980   123.0400     2.5140    -0.0010   -47.1700     6.8120    10.9650
 2179.5000     9.3000   124.8080     2.5250     0.0010   -47.0710     6.7760    10.8300
 2180.0000     9.3020   122.9770     2.5250     0.0020   -46.8800     6.7400    10.7550
 2180.5000     9.3040   119.8900     2.5200     0.0050   -46.6810     6.7030    10.6370
 2181.0000     9.3060   117.5510     2.5070     0.0050   -46.4690     6.6440    10.5190
 2181.5000     9.3080   115.9320     2.5070     0.0040   -46.8540     6.5300    10.4030
 2182.0000     9.3100   116.6360     2.5100     0.0030   -47.1750     6.4170    10.2740
 2182.5000     9.3110   118.6630     2.5170     0.0030   -47.1380     6.3030    10.1350
 2183.0000     9.3140   121.2530     2.5220     0.0080   -47.0190     6.1910    10.0170
 2183.5000     9.3140   124.4720     2.5200     0.0140   -46.8980     6.0920     9.8450
 2184.0000     9.3140   125.0680     2.5170     0.0200   -46.7760     6.1160     9.6750
 2184.5000     9.3140   124.7420     2.5120     0.0260   -46.6550     6.2410     9.5110
 2185.0000     9.3140   124.1360     2.5130     0.0240   -46.5380     6.3350     9.4870
 2185.5000     9.3140   123.0460     2.5130     0.0180   -46.5700     6.4270     9.6320
 2186.0000     9.3140   121.9580     2.5190     0.0120   -46.9970     6.5180     9.7880
 2186.5000     9.3140   121.9790     2.5250     0.0170   -47.4090     6.6080     9.9440
 2187.0000     9.3140   123.0770     2.5180     0.0160   -47.0520     6.6850    10.1010
 2187.5000     9.3140   125.0910     2.5070     0.0130   -46.6330     6.6560    10.2140
 2188.0000     9.3140   124.9380     2.4970     0.0090   -46.2790     6.6260    10.1670
 2188.5000     9.3140   122.6690     2.4880     0.0070   -46.6940     6.5960    10.1110
 2189.0000     9.3140   120.6600     2.4870     0.0070   -47.1230     6.5650    10.0590
 2189.5000     9.3140   119.1620     2.4900     0.0060   -46.9950     6.5350    10.0370
 2190.0000     9.3140   118.9330     2.5000     0.0090   -46.6520     6.5050    10.0160
 2190.5000     9.3140   116.2960     2.5090     0.0140   -46.3040     6.4750     9.9950
 2191.0000     9.3140   119.4120     2.5050     0.0160   -46.3100     6.4440     9.9570
 2191.5000     9.3140   124.9140     2.4980     0.0010   -46.3920     6.4140     9.8580
 2192.0000     9.3140   126.3370     2.5100     0.0050   -46.4750     6.3840     9.7600
 2192.5000     9.3140   126.4490     2.5240     0.0110   -46.5580     6.3540     9.6620
 2193.0000     9.3140   127.6100     2.5350     0.0190   -46.6410     6.3240     9.6050
 2193.5000     9.3140   126.7790     2.5240     0.0160   -46.7240     6.2960     9.5530
 2194.0000     9.3110   126.9740     2.5140     0.0090   -46.8100     6.2290     9.4920
 2194.5000     9.3060   129.0950     2.5140     0.0070   -46.6450     6.1500     9.4310
 2195.0000     9.3020   131.8860     2.5150     0.0090   -46.3110     6.0710     9.3200
 2195.5000     9.2970   133.5190     2.5070     0.0110   -46.5140     5.9920     9.1610
 2196.0000     9.2920   132.4860     2.5040     0.0060   -46.8250     5.9130     8.9940
 2196.5000     9.2880   132.3030     2.4980     0.0080   -46.6210     5.8330     8.8260
 2197.0000     9.2830   133.5700     2.5080     0.0150   -46.3870     5.7990     8.6590
 2197.5000     9.2780   135.7490     2.5130     0.0210   -46.1530     5.7710     8.4920
 2198.0000     9.2750   137.9200     2.5060     0.0150   -45.9180     5.7340     8.3250
 2198.5000     9.2740   133.9020     2.5000     0.0070   -45.7410     5.6980     8.1740
 2199.0000     9.2730   130.5260     2.4970     0.0070   -45.5760     5.6610     8.2430
 2199.5000     9.2710   127.4970     2.4900     0.0090   -45.4110     5.6250     8.4030
 2200.0000     9.2700   127.3010     2.4880     0.0110   -45.3090     5.5880     8.5630
 2200.5000     9.2690   127.4500     2.4880     0.0080   -46.0900     5.5510     8.7240
 2201.0000     9.2680   128.8020     2.4910     0.0030   -46.5750     5.5150     8.8680
 2201.5000     9.2670   130.2200     2.4980     0.0020   -46.2500     5.4780     8.8660
 2202.0000     9.2660   130.6620     2.5080     0.0080   -45.9410     5.4420     8.8370
 2202.5000     9.2650   130.9340     2.5110     0.0090   -45.6780     5.4060     8.8070
 2203.0000     9.2640   129.9290     2.5020     0.0040   -45.9240     5.4020     8.7780
 2203.5000     9.2630   128.7580     2.4970    -0.0010   -46.1720     5.4010     8.7470
 2204.0000     9.2620   129.6060     2.4880    -0.0040   -46.4150     5.4010     8.7130
 2204.5000     9.2600   130.1340     2.4910     0.0000   -46.3390     5.4010     8.6740
 2205.0000     9.2590   129.6490     2.4990     0.0030   -46.2140     5.4010     8.6350
 2205.5000     9.2580   130.4050     2.5060     0.0080   -46.0880     5.4020     8.5970
 2206.0000     9.2570   131.5250     2.5090     0.0100   -45.9630     5.4020     8.5600
 2206.5000     9.2560   130.5120     2.5070     0.0160   -45.8370     5.4040     8.5320
 2207.0000     9.2550   129.9880     2.5190     0.0260   -45.7110     5.4510     8.5940
 2207.5000     9.2540   131.0750     2.5410     0.0350   -45.5830     5.6530     8.6820
 2208.0000     9.2530   129.4400     2.5360     0.0280   -45.4790     5.8510     8.8340
