~VERSION INFORMATION
 VERS.                2.0:   CWLS LOG ASCII STANDARD - VERSION 2.0
 WRAP.                 NO:   ONE LINE PER DEPTH STEP
~WELL INFORMATION
#MNEM.UNIT      DATA TYPE    INFORMATION
#----------   ------------   ------------------------------
 STRT.F          150.0000:   START DEPTH
 STOP.F         2929.0000:   STOP DEPTH
 STEP.F            0.5000:   STEP LENGTH
 NULL.          -999.2500:   NO VALUE
 COMP.    FENIX & SCISSON:   COMPANY
 WELL.    FENIX AX #12-28:   WELL
 FLD .        TEAPOT DOME:   FIELD
 LOC .      S28 T39N R78W:   LOCATION
 CNTY.            NATRONA:   COUNTY
 STAT.            WYOMING:   STATE
 CTRY. UNITED STATES OF AMERICA:   COUNTRY
 SRVC.           BIRDWELL:   SERVICE COMPANY
 DATE.        06-JUN-1978:   LOGDATE
 API .     49025106420000:   API NUMBER
~CURVE INFORMATION
#MNEM.UNIT       API CODE    CURVE DESCRIPTION
#----------   ------------   ------------------------------
 DEPT.F                  :   
 SPR .MV     05 010 01 00:   SPONTANEOUS POTENTIAL
 SN  .OHMM   05 040 16 00:   SHORT NORMAL 16"
 ILD .OHMM   05 120 46 00:   INDUCTION LOG DEEP RESISTIVITY
 RHOB.G/C3   45 350 01 00:   BULK DENSITY
 CORR.G/C3   45 356 01 00:   DENSITY CORRECTION
 GRD .GAPI   45 310 01 00:   GAMMA RAY FROM DENSITY LOG
 CALD.IN     45 280 60 00:   CALIPER FROM DENSITY LOG
~PARAMETER INFORMATION
#MNEM.UNIT          VALUE    DESCRIPTION
#----------   ------------   ------------------------------
 EKB .F         5000.0000:   Kelly bushing
 EGL .F         4990.0000:   Ground level
 EDF .F            0.0000:   Drilling floor
 EPD .F         5005.0000:   Permanent datum
 TD  .F         2911.0000:   Total depth
 DATE.        06-JUN-1978:   Date logged
 CLNT.            A2DTECH:   Client Code
 SL  . 1250' FNL & 225' FWL:   Surface Location
 PD  .                 GL:   Permanent Datum
 LMF .                 KB:   Log Measured From
 DMF .                 KB:   Drilling Measured From
 DAPD.F                10:   Feet Above Permanent Datum
 DD  .F              2911:   Depth driller
 DL  .F              2912:   Depth logger
 BLI .F              2906:   Bottom log interval
 TLI .F               200:   Top log interval
 CS1 .IN            8.625:   Casing size
 CBD1.      8.625" @ 225':   Casing driller 1
 CBL1.F               225:   Casing logger 1
 BS1 .IN            7.875:   Bit size
 BSD1.F              2911:   Depth drilled with bit1
 DFT .       OIL BASE MUD:   Type fluid in hole
 DFD .                9.2:   Density
 DFV .                 35:   Viscosity
 DFPH.               10.5:   pH
 DFL .                  2:   Fluid loss
 TCS .HRS             3.5:   Time Circ. stopped
 LUN .               2958:   Logging unit number
 LUL .               CASP:   Logging unit location
 ENGI.            POINTER:   Recorded By
 WITN.           MCGINLEY:   Witnessed by
 ORIG.           5" PRINT:   Origin of data
 UWI .     49025106420000:   Unique Well ID
 DICO. A2D TECHNOLOGIES, INC.:   Digitizing Company
~OTHER INFORMATION
~A   DEPT      SPR         SN        ILD       RHOB       CORR         GRD      CALD   
# ...
 2197.5000   -26.4970     3.8310     3.3670     2.5470     0.0580   102.1300     9.5190
 2198.0000   -26.4330     4.0500     3.4990     2.5540     0.0530   100.0510     9.4970
 2198.5000   -24.9880     4.2690     3.6050     2.5510     0.0470    98.0060     9.5610
 2199.0000   -25.5330     4.3870     3.6870     2.5500     0.0410    96.4050     9.9030
 2199.5000   -26.0330     4.3870     3.7020     2.5490     0.0450    96.2430     9.6270
 2200.0000   -26.0060     4.3050     3.7180     2.5480     0.0510    96.0320     9.6310
 2200.5000   -25.9110     4.1520     3.7610     2.5470     0.0590    95.4360     9.6410
 2201.0000   -25.8140     4.2250     3.7790     2.5460     0.0670    95.5470     9.6510
 2201.5000   -25.7040     4.2910     3.8220     2.5440     0.0750    97.3710     9.6600
 2202.0000   -26.0790     4.4560     3.8140     2.5440     0.0830    98.3700     9.6700
 2202.5000   -26.5800     4.6520     3.7930     2.5510     0.0900    95.3070     9.6800
 2203.0000   -27.0910     4.8110     3.7730     2.5600     0.0880    92.3050     9.6450
 2203.5000   -27.2420     4.8040     3.7520     2.5600     0.0730    89.3080     9.6020
 2204.0000   -27.1830     4.7970     4.0390     2.5570     0.0580    86.6740     9.5600
 2204.5000   -27.1220     4.7910     4.0050     2.5550     0.0370    87.5210     9.6510
 2205.0000   -27.0610     4.7840     3.9520     2.5520     0.0330    90.0670     9.7240
 2205.5000   -27.0000     4.7780     3.8980     2.5500     0.0330    93.2810     9.7310
 2206.0000   -26.9410     4.7710     3.8450     2.5510     0.0340    93.7020     9.7390
 2206.5000   -26.8760     4.7170     3.7870     2.5510     0.0340    94.2650     9.7470
 2207.0000   -26.3140     4.5530     3.8350     2.5520     0.0340    96.1480     9.7560
 2207.5000   -25.7190     4.3470     3.8880     2.5520     0.0340    98.0020     9.7640
 2208.0000   -25.9220     4.4750     3.9650     2.5500     0.0340    98.5600     9.7720
 2208.5000   -26.1670     4.6470     3.9290     2.5480     0.0350    97.5860     9.7800
 2209.0000   -26.4100     4.8190     3.9740     2.5500     0.0350    96.0480     9.7880
 2209.5000   -26.6620     5.1760     4.0330     2.5520     0.0280    95.1800     9.7960
 2210.0000   -26.3660     5.5740     4.0920     2.5500     0.0160    94.4810     9.8040
 2210.5000   -25.9900     5.6100     4.2390     2.5450     0.0080    93.7780     9.8120
 2211.0000   -25.5890     5.6450     4.4400     2.5430     0.0110    93.8720     9.8200
 2211.5000   -25.8830     5.6810     4.5190     2.5450     0.0150    94.4270     9.8290
 2212.0000   -26.4200     5.7160     4.5390     2.5470     0.0190    94.9940     9.8370
 2212.5000   -26.8650     5.7520     4.5580     2.5500     0.0180    95.4530     9.8450
 2213.0000   -26.7220     5.7860     4.5780     2.5520     0.0170    94.7090     9.8530
 2213.5000   -26.5740     5.8130     4.5970     2.5540     0.0160    93.9570     9.8610
 2214.0000   -26.4260     5.8410     4.6170     2.5560     0.0150    92.8360     9.8690
 2214.5000   -26.3080     5.8680     4.6370     2.5590     0.0160    93.5450     9.8770
 2215.0000   -26.8010     5.8900     4.6450     2.5610     0.0170    94.4020     9.8850
 2215.5000   -27.3130     5.8900     4.6530     2.5630     0.0180    94.3850     9.8930
 2216.0000   -27.8150     5.8450     4.6610     2.5650     0.0190    93.1580     9.9020
 2216.5000   -27.6810     5.7880     4.6700     2.5670     0.0260    91.9550     9.9100
 2217.0000   -27.3420     5.7310     4.6800     2.5690     0.0270    90.7300     9.9180
 2217.5000   -26.3210     5.6770     4.5250     2.5680     0.0270    91.4030     9.9260
 2218.0000   -26.5130     5.6110     4.4070     2.5640     0.0260    93.7140     9.9340
 2218.5000   -26.7200     5.4710     4.3070     2.5610     0.0250    96.0350     9.9370
 2219.0000   -26.9200     5.3720     4.3160     2.5570     0.0230    98.3790     9.9380
 2219.5000   -27.0630     5.1780     4.3330     2.5570     0.0220    99.5110     9.9380
 2220.0000   -26.9430     5.2420     4.3500     2.5570     0.0240    99.9620     9.9380
 2220.5000   -26.2590     5.3300     4.3680     2.5600     0.0340   100.3850     9.9380
 2221.0000   -25.8410     5.4180     4.3870     2.5640     0.0400    99.7050     9.9370
 2221.5000   -26.1560     5.4650     4.3220     2.5690     0.0430    97.8830     9.9040
 2222.0000   -26.4640     5.3990     4.2380     2.5740     0.0440    96.6890     9.8680
 2222.5000   -26.6360     5.3460     4.2790     2.5760     0.0380   100.7520     9.8310
 2223.0000   -26.4230     5.2930     4.3600     2.5740     0.0370   101.0870     9.7950
 2223.5000   -26.2200     5.2260     4.4410     2.5710     0.0370   100.6490     9.7580
 2224.0000   -26.0190     5.2260     4.5240     2.5690     0.0370   102.5540     9.7220
 2224.5000   -25.8210     5.2740     4.5550     2.5630     0.0380   103.7020     9.6850
 2225.0000   -26.0360     5.6070     4.5850     2.5570     0.0380   101.9550     9.6810
 2225.5000   -26.9380     6.0180     4.7100     2.5580     0.0380    99.9740     9.6820
 2226.0000   -26.9510     6.4300     4.8750     2.5610     0.0390    96.6020     9.6300
 2226.5000   -26.7950     6.7000     5.0390     2.5640     0.0420    93.2610     9.5600
 2227.0000   -26.6310     6.6460     5.2740     2.5700     0.0470    93.2030     9.5020
 2227.5000   -26.5010     6.6060     5.2690     2.5780     0.0500    91.4370     9.4970
 2228.0000   -26.7980     6.5660     5.2590     2.5850     0.0450    91.4380     9.4890
 2228.5000   -27.0910     6.5180     5.2490     2.5840     0.0410    92.1950     9.4810
 2229.0000   -27.3850     6.5890     5.2390     2.5820     0.0370    93.3450     9.4730
 2229.5000   -27.6580     6.6060     5.2290     2.5770     0.0330    95.1050     9.4650
 2230.0000   -27.1180     6.6230     5.2190     2.5710     0.0300    94.3540     9.4570
 2230.5000   -26.5190     6.6390     5.2090     2.5660     0.0270    95.3640     9.4500
 2231.0000   -26.4080     6.7580     5.1990     2.5610     0.0270    95.4900     9.4420
 2231.5000   -26.5930     7.0160     5.1890     2.5600     0.0270    95.5010     9.4340
 2232.0000   -26.7790     6.9670     5.1780     2.5580     0.0270    95.4620     9.4260
 2232.5000   -26.7280     6.8710     5.1980     2.5560     0.0280    94.6380     9.4180
 2233.0000   -26.3910     6.7750     5.2190     2.5580     0.0330    93.8050     9.4100
 2233.5000   -26.0510     6.6790     5.2410     2.5620     0.0370    92.9070     9.4020
 2234.0000   -25.7140     6.6180     5.2620     2.5650     0.0380    94.1720     9.3940
 2234.5000   -26.2000     6.5820     5.2840     2.5630     0.0380    93.4330     9.3860
 2235.0000   -26.7680     6.5460     5.3050     2.5600     0.0390    94.1560     9.3780
 2235.5000   -26.7380     6.5180     5.3270     2.5610     0.0370    95.9790     9.3700
 2236.0000   -26.5530     6.5550     5.3480     2.5650     0.0350    95.8790     9.3630
 2236.5000   -26.3580     6.5920     5.3700     2.5700     0.0340    95.2680     9.3550
 2237.0000   -26.4760     6.6280     5.4070     2.5700     0.0320    96.1770     9.3470
 2237.5000   -26.7720     6.8010     5.4580     2.5700     0.0310    95.6850     9.3390
 2238.0000   -27.0670     7.1460     5.5090     2.5700     0.0290    95.6040     9.3310
 2238.5000   -27.2860     7.1220     5.5740     2.5700     0.0270    96.0650     9.3260
 2239.0000   -27.2790     7.0750     5.5640     2.5700     0.0250    92.5440     9.3260
 2239.5000   -26.9730     7.0290     5.5500     2.5710     0.0230    89.8310     9.3260
 2240.0000   -26.3910     6.9820     5.5370     2.5690     0.0210    91.8550     9.3260
 2240.5000   -25.8990     6.9350     5.5230     2.5670     0.0190    93.3410     9.3260
 2241.0000   -26.0770     6.8890     5.5090     2.5610     0.0170    94.8240     9.3260
 2241.5000   -26.2360     6.8300     5.4960     2.5550     0.0150    96.1590     9.3260
 2242.0000   -26.3910     6.9030     5.4820     2.5550     0.0160    92.3890     9.3260
 2242.5000   -26.2210     7.0260     5.4720     2.5570     0.0160    92.3220     9.3260
