~VERSION INFORMATION
 VERS.                2.0:   CWLS LOG ASCII STANDARD - VERSION 2.0
 WRAP.                 NO:   ONE LINE PER DEPTH STEP
~WELL INFORMATION
#MNEM.UNIT      DATA TYPE    INFORMATION
#----------   ------------   ------------------------------
 STRT.F           10.0000:   START DEPTH
 STOP.F         3180.0000:   STOP DEPTH
 STEP.F            0.5000:   STEP LENGTH
 NULL.          -999.2500:   NO VALUE
 COMP. LAWRENCE - ALLISON WEST:   COMPANY
 WELL. LAWRENCE ALLISON NPR 3 "AX" #17-2:   WELL
 FLD .                NPR:   FIELD
 LOC .       S2 T38N R78W:   LOCATION
 CNTY.            NATRONA:   COUNTY
 STAT.            WYOMING:   STATE
 CTRY. UNITED STATES OF AMERICA:   COUNTRY
 SRVC.      DRESSER ATLAS:   SERVICE COMPANY
 DATE.        16-FEB-1987:   LOGDATE
 API .     49025111210000:   API NUMBER
~CURVE INFORMATION
#MNEM.UNIT       API CODE    CURVE DESCRIPTION
#----------   ------------   ------------------------------
 DEPT.F                  :   
 DEN .LBS    45 350 01 00:   BULK DENSITY
 CORR.G/C3   45 356 01 00:   DENSITY CORRECTION
 TEND.LBS    45 635 01 00:   TENSION FROM DENSITY LOG
 CNC .DEC    42 890 01 00:   NEUTRON PORISITY LIMESTONE
 CALR.IN     07 280 01 00:   CALIPER FROM RESISTIVITY
 SPR .MV     07 010 01 00:   SPONTANEOUS POTENTIAL
 GRR .GAPI   07 310 01 00:   GAMMA RAY FROM RESISTIVITY
 RFOC.OHMM   07 220 04 00:   RESISTIVITY FOCUSED LOG RES.
 ILD .OHMM   07 120 46 00:   DEEP INDUCTION RESISTIVITY
 ILM .OHMM   07 120 44 00:   INDUCTION LOG MEDIUM RESISTIVITY
 TENR.LBS    07 635 01 00:   TENSION FROM RESISTIVITY
~PARAMETER INFORMATION
#MNEM.UNIT          VALUE    DESCRIPTION
#----------   ------------   ------------------------------
 EKB .F         5141.0000:   Kelly bushing
 EGL .F         5129.0000:   Ground level
 EDF .F            0.0000:   Drilling floor
 EPD .F            0.0000:   Permanent datum
 TD  .F         3161.0000:   Total depth
 DATE.        16-FEB-1987:   Date logged
 CLNT.            A2DTECH:   Client Code
 SL  . 1125' FSL & 220' FWL:   Surface Location
 PD  .                 GL:   Permanent Datum
 DAPD.F                12:   Feet Above Permanent Datum
 DD  .F              3161:   Depth driller
 DL  .F              3158:   Depth logger
 BLI .F              3156:   Bottom log interval
 TLI .F                12:   Top log interval
 CS1 .IN            8.625:   Casing size
 CBD1.      8.625" @ 626':   Casing driller 1
 CBL1.F               626:   Casing logger 1
 BS1 .IN            7.875:   Bit size
 BSD1.F              3161:   Depth drilled with bit1
 DFT .        KCL/POLYMER:   Type fluid in hole
 DFD .                8.8:   Density
 DFV .                 39:   Viscosity
 DFPH.                 10:   pH
 DFL .                8.4:   Fluid loss
 MSS .           FLOWLINE:   Source of sample
 RMS .OHMM           .292:   Rm
 MST .F                82:   Rm Meas. temp.
 RMF .OHMM           .231:   Rmf
 MFST.F                82:   Rmf Meas. temp.
 RMC .OHMM           .365:   Rmc
 MCST.F                82:   Rmc Meas. temp.
 MFSS.               MEAS:   Source Rmf.
 MCSS.               CALC:   Source Rmc.
 RMB .OHMM           .203:   Rm. at BHT
 BHT .F               118:   BHT.
 TCS .HRS               3:   Time Circ. stopped
 MRT .F               118:   Maximum recorded temp.
 LUN .            HL-6274:   Logging unit number
 LUL .           GALLETTE:   Logging unit location
 ENGI.            PANASUK:   Recorded By
 WITN.             STRONG:   Witnessed by
 ORIG.           5" PRINT:   Origin of data
 UWI .     49025111210000:   Unique Well ID
 DICO. A2D TECHNOLOGIES, INC.:   Digitizing Company
~OTHER INFORMATION
~A   DEPT      DEN       CORR       TEND        CNC       CALR        SPR          GRR     RFOC        ILD        ILM       TENR   
# ...
 2968.5000     2.5117    -0.0176   -17.7774     0.2188     8.0018   -13.7795   100.0756     6.7501     5.9696     6.3482   -15.2623
 2969.0000     2.5117    -0.0276   -17.8301     0.2208     8.0019   -13.2960   105.6442     6.4466     5.7538     5.9524   -15.4077
 2969.5000     2.5107    -0.0355   -17.8827     0.2216     8.0020   -13.1809   111.2140     6.3293     5.5972     5.7373   -15.5531
 2970.0000     2.5107    -0.0375   -17.9354     0.2232     7.9822   -12.5835   108.4315     6.0448     5.3454     5.2815   -15.6985
 2970.5000     2.5097     0.0024   -17.9881     0.2264     8.0022   -12.9801   106.8430     6.1010     5.2000     5.0908   -15.8439
 2971.0000     2.5097    -0.0016   -18.0408     0.2312     8.0023   -13.1779   106.8450     6.0453     4.8306     4.7734   -16.0184
 2971.5000     2.5127    -0.0016   -18.0934     0.2336     8.0024   -13.3757   108.8351     5.9353     4.2855     4.3538   -16.1638
 2972.0000     2.5137     0.0164   -18.1461     0.2478     8.0025   -13.5736   114.8013     5.7209     3.6981     4.0078   -16.3092
 2972.5000     2.5057     0.0184   -18.1988     0.2556     8.0225   -13.5724   120.3699     5.4136     3.3417     3.4273   -16.4546
 2973.0000     2.4937     0.0104   -18.2515     0.2956     8.0823   -13.7710   127.5290     5.1228     2.7538     2.9309   -16.6001
 2973.5000     2.4668    -0.0035   -18.3041     0.3181     8.0823   -13.1728   135.0857     4.7154     2.5347     2.5529   -16.8037
 2974.0000     2.4449    -0.0135   -18.3568     0.3365     8.1222   -12.9730   141.0519     4.1834     2.4885     2.2443   -16.8909
 2974.5000     2.3930     0.0185   -18.4095     0.3377     8.1421   -12.1768   163.3204     3.1155     2.2905     2.2444   -17.0364
 2975.0000     2.3900     0.0284   -18.4794     0.3269     8.1224   -11.5795   181.6127     2.6154     2.2695     2.2652   -17.1818
 2975.5000     2.3950     0.0364   -18.5285     0.2944     8.1026   -10.7831   195.1341     2.5209     2.3119     2.5299   -17.2401
 2976.0000     2.4379     0.0324   -18.5777     0.2539     8.1027   -10.7823   192.3519     2.7138     2.5119     2.8517    -7.4600
 2976.5000     2.5177    -0.0134   -18.6268     0.2404     8.0828   -10.9799   169.2925     4.4222     2.7293     3.5245    -7.6053
 2977.0000     2.5257    -0.0234   -18.6759     0.2364     7.9836   -11.7744   142.6542     6.2186     2.8581     3.7593    -7.7506
 2977.5000     2.5297    -0.0274   -18.7251     0.2340     8.0036   -12.3696   123.9682     7.0750     3.1055     4.3163    -7.8960
 2978.0000     2.5347    -0.0114   -18.7742     0.2340     8.0037   -12.5674   114.8254     7.0105     3.6324     4.9558     1.9722
 2978.5000     2.5337    -0.0054   -18.8234     0.2392     8.0038   -13.5605   109.2608     6.8829     4.7023     5.4844    -8.1866
 2979.0000     2.5317     0.0006   -18.8725     0.2396     8.0039   -13.7583   110.0580     6.8201     5.3998     5.6382    -8.3319
 2979.5000     2.5307     0.0046   -18.9216     0.2412     8.0040   -13.7573   112.4460     6.8205     5.8134     5.7963    -8.4773
 2980.0000     2.5317     0.0086   -18.9708     0.2396     7.9842   -13.9551   117.2190     6.6349     5.9218     5.8503    -8.6226
 2980.5000     2.5337     0.0066   -19.0199     0.2408     7.9843   -14.5506   118.8115     6.6967     5.7077     5.9593    -8.7680
 2981.0000     2.5357     0.0066   -19.0690     0.2404     8.0043   -14.7486   119.2111     6.6970     5.7609     5.9596     1.1010
 2981.5000     2.5397     0.0046   -19.1182     0.2396     8.0044   -14.4824   119.2130     6.6974     5.7612     5.9599     0.9558
 2982.0000     2.5447     0.0046   -19.1673     0.2396     8.0045   -14.1496   119.2150     6.7597     5.7615     5.9602     0.8106
 2982.5000     2.5437     0.0066   -19.2165     0.2396     8.0046   -14.5466   118.4218     7.0139     5.8151     5.9604     0.6654
 2983.0000     2.5427     0.0126   -19.2656     0.2392     8.0047   -14.3468   116.4357     7.0792     5.9236     5.9608    -9.4947
 2983.5000     2.5408     0.0206   -19.3147     0.2392     7.9849   -14.5447   116.4376     7.2780     5.9239     5.9611    -9.6401
 2984.0000     2.5408     0.0286   -19.3639     0.2388     7.9850   -14.7425   118.4277     7.1455     5.9242     5.9614    -9.7855
 2984.5000     2.5378     0.0326   -19.4130     0.2392     8.0050   -14.9403   121.2130     7.0803     5.9245     6.0168    -9.9309
 2985.0000     2.5338     0.0346   -19.4621     0.2392     8.0050   -15.1381   124.3959     7.0807     6.0351     6.1858    -0.0607
 2985.5000     2.5328     0.0287   -19.5310     0.2384     8.0251   -15.1375   124.7955     7.3469     6.0913     6.2433    -0.2352
 2986.0000     2.5358     0.0087   -19.5607     0.2372     8.0252   -15.5337   123.6046     7.6232     5.9803     6.3013    -0.3804
 2986.5000     2.5368    -0.0053   -19.6103     0.2420     8.0054   -15.3339   122.8114     7.9831     5.9806     6.3017    -0.5256
 2987.0000     2.5328    -0.0232   -19.6599     0.2468     7.9856   -15.3330   124.8014     7.9835     5.9260     6.1870    -0.6709
 2987.5000     2.5308    -0.0332   -19.7095     0.2520     7.9658   -15.3320   128.7796     7.9107     5.7646     6.1306    -0.8162
 2988.0000     2.5308    -0.0332   -19.7591     0.2520     7.9659   -15.3310   132.3601     7.3489     5.6595     6.0747    -0.9614
 2988.5000     2.5328    -0.0172   -19.8087     0.2592     8.0058   -14.7336   136.3386     6.9539     5.5565     6.0193    -1.1067
 2989.0000     2.5338     0.0048   -19.8286     0.2608     7.9661   -14.3350   132.7617     6.7026     5.4552     5.8556    -1.2520
 2989.5000     2.5358     0.0168   -19.8782     0.2632     7.9662   -14.3344   130.3779     6.6416     5.4054     5.8022    -1.3972
 2990.0000     2.5358     0.0208   -29.9376     0.2780     7.9862   -14.3330   130.3799     6.7034     5.3560     5.7492     8.4746
 2990.5000     2.5368     0.0228   -29.9872     0.2836     8.0658   -13.3380   129.5867     6.8285     5.3564     5.6968    -1.6878
 2991.0000     2.5398     0.0168   -30.0368     0.2832     8.0460   -13.3370   126.4077     6.8920     5.4562     5.6972    -1.8331
 2991.5000     2.5458     0.0168   -30.0864     0.2780     8.1058   -13.3360   123.2287     6.8292     5.5582     5.8034    -1.9784
 2992.0000     2.5508     0.0088   -30.1360     0.2644     8.1257   -13.5338   121.2426     6.7048     5.7143     5.9115    -2.1237
 2992.5000     2.5598     0.0028   -30.1856     0.2524     8.1258   -13.5326   120.4494     6.7672     5.9843     6.3057    -2.2690
 2993.0000     2.5578     0.0088   -30.2352     0.2364     8.1259   -13.7304   118.4633     7.0217     5.9846     6.6032    -2.4143
 2993.5000     2.5498     0.0009   -30.2848     0.2260     8.0267   -13.9282   118.4653     7.4214     6.3699     6.7886    -2.5596
 2994.0000     2.5439    -0.0111   -30.3344     0.2162     7.9671   -13.9273   118.4672     7.7002     6.7800     7.1089     7.3134
 2994.5000     2.5389    -0.0111   -30.3840     0.2084     7.9871   -13.9263   117.2764     9.4322     7.2165     7.4444    -2.8502
 2995.0000     2.5409    -0.0111   -30.4736     0.2076     7.9872   -13.9253   109.3264     9.8776     7.6811     7.7959    -2.9955
 2995.5000     2.5459    -0.0051   -30.5232     0.2076     8.0072   -14.1231   108.9308     9.9696     7.9673     8.0890    -3.1408
 2996.0000     2.5449     0.0189   -30.5728     0.2096     7.9874   -14.7185   113.3065     9.8787     7.9677     8.1641     6.7327
 2996.5000     2.5449     0.0329   -30.6224     0.2136     7.9875   -14.7175   115.6942     9.7887     7.8950     8.1646     6.5875
 2997.0000     2.5379     0.0109   -30.6720     0.2188     8.0075   -14.9154   118.4795     9.6994     7.7511     8.0903     6.4423
 2997.5000     2.5339    -0.0010   -30.6816     0.2212     8.0076   -15.1132   118.4815     9.4354     7.6804     7.9429     6.2971
 2998.0000     2.5319    -0.0090   -30.7014     0.2220     7.9878   -15.1124   114.5073     8.8463     7.6103     7.8706    16.1713
 2998.5000     2.5299     0.0010   -10.7811     0.2220     7.9680   -15.4660   112.1236     8.7656     7.5409     7.7988     6.0067
