~VERSION INFORMATION
 VERS.                2.0:   CWLS LOG ASCII STANDARD - VERSION 2.0
 WRAP.                 NO:   ONE LINE PER DEPTH STEP
~WELL INFORMATION
#MNEM.UNIT      DATA TYPE    INFORMATION
#----------   ------------   ------------------------------
 STRT.F            9.5000:   START DEPTH
 STOP.F         3154.0000:   STOP DEPTH
 STEP.F            0.5000:   STEP LENGTH
 NULL.          -999.2500:   NO VALUE
 COMP. LAWRENCE ALISON AND ASSOCIATES:   COMPANY
 WELL. LAWRENCE "X" #86-3:   WELL
 FLD .          N.P.R. #3:   FIELD
 LOC .       S3 T38N R78W:   LOCATION
 CNTY.            NATRONA:   COUNTY
 STAT.            WYOMING:   STATE
 CTRY. UNITED STATES OF AMERICA:   COUNTRY
 SRVC.       DRESSER ALAS:   SERVICE COMPANY
 DATE.        13-JUN-1986:   LOGDATE
 API .     49025110920000:   API NUMBER
~CURVE INFORMATION
#MNEM.UNIT       API CODE    CURVE DESCRIPTION
#----------   ------------   ------------------------------
 DEPT.F                  :   
 CALD.IN     45 280 60 00:   CALIPER FROM DENSITY LOG
 RHOB.G/C3   45 350 01 00:   BULK DENSITY
 CORR.G/C3   45 356 01 00:   DENSITY CORRECTION
 CNC .DEC    42 890 03 00:   NEUTRON PORISITY LIMESTONE
 SPR .MV     07 010 01 00:   SPONTANEOUS POTENTIAL
 GRR .GAPI   07 310 01 00:   GAMMA RAY FROM RESISTIVITY
 RFOC.OHMM   07 220 04 00:   RESISTIVITY FOCUSED LOG RES.
 ILD .OHMM   07 120 46 00:   DEEP INDUCTION RESISTIVITY
 ILM .OHMM   07 120 44 00:   INDUCTION LOG MEDIUM RESISTIVITY
 TENR.LBS    07 635 01 00:   TENSION FROM RESISTIVITY
~PARAMETER INFORMATION
#MNEM.UNIT          VALUE    DESCRIPTION
#----------   ------------   ------------------------------
 EKB .F         5153.0000:   Kelly bushing
 EGL .F         5142.0000:   Ground level
 EDF .F         5151.0000:   Drilling floor
 TD  .F         3151.0000:   Total depth
 DATE.        13-JUN-1986:   Date logged
 CLNT.            A2DTECH:   Client Code
 SL  . 1450' FSL & 144' FEL:   Surface Location
 PD  .                 GL:   Permanent Datum
 EPD .F              5142:   Elevation Permanent Datum
 LMF .                 KB:   Log Measured From
 DMF .                 KB:   Drilling Measured From
 DAPD.F                11:   Feet Above Permanent Datum
 DD  .F              3151:   Depth driller
 DL  .F              3151:   Depth logger
 BLI .F              3146:   Bottom log interval
 TLI .F                11:   Top log interval
 CS1 .IN            8.625:   Casing size
 CBD1.      8.625" @ 584':   Casing driller 1
 CBL1.F               592:   Casing logger 1
 BS1 .IN            7.875:   Bit size
 BSD1.F              3151:   Depth drilled with bit1
 DFT .            KCL-GEL:   Type fluid in hole
 DFD .                8.8:   Density
 DFV .                 35:   Viscosity
 DFPH.                8.5:   pH
 DFL .               15.5:   Fluid loss
 MSS .           FLOWLINE:   Source of sample
 RMS .OHMM           0.49:   Rm
 MST .F                80:   Rm Meas. temp.
 RMF .OHMM           0.38:   Rmf
 MFST.F                80:   Rmf Meas. temp.
 RMC .OHMM           0.61:   Rmc
 MCST.F                80:   Rmc Meas. temp.
 MFSS.               MEAS:   Source Rmf.
 MCSS.               CALC:   Source Rmc.
 RMB .OHMM           0.37:   Rm. at BHT
 BHT .F               112:   BHT.
 TCS .HRS            0.37:   Time Circ. stopped
 MRT .F               112:   Maximum recorded temp.
 LUN .            HL-6274:   Logging unit number
 LUL .           GILLETTE:   Logging unit location
 WITN.             STRONG:   Witnessed by
 ORIG.           5" PRINT:   Origin of data
 UWI .     49025110920000:   Unique Well ID
 DICO. A2D TECHNOLOGIES, INC.:   Digitizing Company
~OTHER INFORMATION
~A    DEPT    CALD       RHOB       CORR        CNC        SPR        GRR       RFOC        ILD        ILM       TENR   
# ...
 2924.0000     8.3208     2.4565     0.0318     0.3055   -57.0695   211.1187     2.7130     2.6467     2.6962   -21.1432
 2924.5000     8.3181     2.4545     0.0338     0.2775   -57.0711   194.7460     2.9753     2.7210     3.1560   -41.1313
 2925.0000     8.3154     2.4746     0.0339     0.2702   -57.2743   181.0045     3.6267     2.9576     3.2150   -40.9832
 2925.5000     8.3128     2.5339     0.0580     0.2661   -57.4783   144.2327     5.0634     3.3054     3.5598   -30.7376
 2926.0000     8.3101     2.5430     0.0621     0.2520   -58.0860   126.8533     5.8183     3.7284     4.0155   -30.5896
 2926.5000     8.3074     2.5440     0.0420     0.2476   -58.2912   121.5984     5.6779     4.0902     4.3645   -30.4416
 2927.0000     8.3047     2.5380     0.0340     0.2504   -58.6961   119.5742     5.6773     4.4047     4.7440   -30.2935
 2927.5000     8.3020     2.5310     0.0381     0.2520   -58.8993   119.5702     5.8361     4.8771     5.2042   -30.1455
 2928.0000     8.2993     2.5189     0.0482     0.2504   -58.9016   119.9702     5.7625     5.1080     5.4506   -29.9975
 2928.5000     8.2966     2.5149     0.0884     0.2419   -58.9039   119.5622     5.9438     5.2031     5.3994   -19.7818
 2929.0000     8.2940     2.5159     0.0884     0.2379   -58.9063   119.1542     6.1669     5.4496     5.3492   -19.6339
 2929.5000     8.2913     2.5340     0.0905     0.2375   -58.9086   117.1300     6.2234     5.5508     5.3489   -19.4859
 2930.0000     8.2886     2.5541     0.0764     0.2403   -58.9109   116.3163     6.1654     5.7068     5.3981   -39.4728
 2930.5000     8.2859     2.5672     0.0463     0.2492   -58.9132   116.7172     6.1082     5.8129     5.4984   -39.3247
 2931.0000     8.2832     2.5733     0.0403     0.2536   -58.7128   116.7132     5.9404     5.8122     5.4977   -39.1767
 2931.5000     8.2805     2.5713     0.0404     0.2528   -58.7148   116.3052     5.9951     5.7048     5.4464   -28.9614
 2932.0000     8.2791     2.5632     0.0525     0.2484   -58.7172   114.6850     6.0499     5.7042     5.3955   -28.8133
 2932.5000     8.2591     2.5582     0.0545     0.2439   -58.7192   114.6811     6.3352     5.7037     5.3452   -28.6653
 2933.0000     8.2598     2.5572     0.0827     0.2427   -58.7183   115.0811     6.4526     5.6503     5.3446   -28.5173
 2933.5000     8.2401     2.5573     0.0827     0.2448   -58.7211   115.8852     6.4519     5.5976     5.2947   -28.3397
 2934.0000     8.2807     2.5523     0.0606     0.2448   -58.7223   115.8812     6.2749     5.5971     5.2941   -28.1917
 2934.5000     8.2629     2.5452     0.0506     0.2452   -58.3231   119.5136     6.1028     5.5450     5.2935   -28.0437
 2935.0000     8.2413     2.5402     0.0545     0.2512   -57.7182   122.7420     5.8265     5.5440     5.4815   -27.8957
 2935.5000     8.2417     2.5372     0.0583     0.2533   -57.7186   126.3744     5.7193     5.5952     5.4924   -27.7477
 2936.0000     8.2420     2.5342     0.0487     0.2472   -57.7198   127.5825     5.8253     5.8058     5.5947   -27.5997
 2936.5000     8.2425     2.5272     0.0468     0.2383   -57.7230   120.3058     5.9333     5.9140     5.6985   -27.4517
 2937.0000     8.2429     2.5242     0.0368     0.2298   -57.7250   117.0695     6.3286     5.9133     5.8046   -17.2369
 2937.5000     8.2433     2.5252     0.0368     0.2193   -57.9286   114.6404     6.6887     5.9678     5.8580   -17.0889
 2938.0000     8.2437     2.5373     0.0469     0.2197   -57.9322   111.4041     7.0690     5.9670     5.8574   -16.9411
 2938.5000     8.2643     2.5534     0.0348     0.2222   -57.7329   108.9759     7.0687     5.9665     5.8567   -16.7931
 2939.0000     8.2647     2.5604     0.0128     0.2375   -57.3317   109.3759     7.0029     5.9658     5.8021   -16.6452
 2939.5000     8.2850     2.5534     0.0088     0.2395   -57.3333   112.6043     6.2671     5.9653     5.6949   -16.4973
 2940.0000     8.2856     2.5333     0.0189     0.2432   -57.3349   114.6205     6.1521     5.8008     5.3860   -16.3493
 2940.5000     8.2860     2.5183     0.0249     0.2476   -57.3369   117.8489     5.8196     5.2866     5.2378   -26.2677
 2941.0000     8.2461     2.5083     0.0310     0.2525   -57.3381   117.4409     5.5564     4.9081     4.9541   -36.1861
 2941.5000     8.2663     2.5032     0.0210     0.2549   -57.3413   117.0328     5.6594     4.3909     4.3909   -36.0381
 2942.0000     8.2673     2.4982     0.0009     0.2569   -57.3432   116.4288     5.7113     3.7157     3.8919   -35.8604
 2942.5000     8.2675     2.4922    -0.0031     0.2711   -57.3448   124.5049     5.3038     3.2630     3.3863   -35.7124
 2943.0000     8.2677     2.4772    -0.0050     0.2844   -56.5383   142.6062     4.6171     2.8654     2.6854   -35.5643
 2943.5000     8.2668     2.4490     0.0211     0.3139   -56.3371   164.2891     3.5976     2.5163     2.5397   -35.4163
 2944.0000     8.2659     2.4229     0.0332     0.3195   -55.9346   197.4150     2.7266     2.3363     2.4929   -35.2683
 2944.5000     8.2650     2.3807     0.0318     0.2905   -55.5330   198.6248     2.5794     2.2931     2.4018   -35.1203
 2945.0000     8.2641     2.3787     0.0212     0.2675   -54.7269   197.4095     2.5319     2.2928     2.4693   -34.9722
 2945.5000     8.2632     2.4280     0.0192     0.2529   -54.3252   167.6619     3.1892     2.4692     2.6104   -34.8242
 2946.0000     8.2623     2.4883     0.0334     0.2202   -54.5293   137.9144     4.0172     2.8684     3.1129   -34.6762
 2946.5000     8.2614     2.5155     0.0294     0.2036   -54.7333   114.5680     5.6532     3.3321     3.8660   -34.5282
 2947.0000     8.2605     2.5205     0.0274     0.2016   -54.9373   102.4427     6.6748     4.0344     4.6794   -24.3144
 2947.5000     8.2596     2.5225     0.0134     0.2016   -54.9393   100.8225     6.9897     4.9009     5.3274   -24.1665
 2948.0000     8.2587     2.5256     0.0174     0.2040   -54.9413   101.2226     6.9247     5.2779     5.7373   -24.0185
 2948.5000     8.2578     2.5256     0.0315     0.2077   -54.9421   104.4510     6.9239     5.9533     6.5315   -23.8705
 2949.0000     8.2569     2.5226     0.0456     0.2113   -55.1473   107.2753     6.7340     6.1205     6.4706   -13.6571
 2949.5000     8.2560     2.5176     0.0457     0.2182   -55.7573   108.8875     6.4890     6.1769     6.2925    -3.4437
 2950.0000     8.2552     2.5166     0.0457     0.2230   -55.7593   107.2673     6.6090     6.1765     5.6293    -3.2662
 2950.5000     8.2543     2.5106     0.0136     0.2246   -55.7613   107.2633     6.0254     5.9509     5.3737    -3.1184
 2951.0000     8.2534     2.5116     0.0116     0.2283   -56.3694   106.8553     6.0807     5.8951     5.2257    -2.9705
 2951.5000     8.2525     2.5096     0.0337     0.2331   -56.5734   106.4465     5.9140     5.7863     5.0819   -22.9532
 2952.0000     8.2516     2.5096     0.0358     0.2412   -56.5754   104.0182     5.7516     5.6269     5.0813   -22.8053
 2952.5000     8.2507     2.5136     0.0338     0.2457   -56.5778   110.0749     5.6983     5.4214     5.2241   -22.6573
 2953.0000     8.2498     2.5187     0.0158     0.2485   -55.9745   113.3033     5.5883     5.1277     5.0338   -22.5094
 2953.5000     8.2489     2.5217     0.0078     0.2501   -55.9757   116.1276     5.3401     4.7607     4.4837   -32.4264
 2954.0000     8.2480     2.5217     0.0158     0.2517   -55.9777   118.5478     5.1938     4.1038     3.7751   -32.2784
 2954.5000     8.2471     2.5117     0.0159     0.2574   -55.9797   123.7964     5.0513     3.4088     3.5051   -12.0005
 2955.0000     8.2462     2.4966     0.0159     0.2651   -55.9813   130.2571     4.6051     3.1945     3.1322   -11.8526
 2955.5000     8.2453     2.4816     0.0019     0.2853   -56.1857   142.3744     4.5627     2.8579     2.5570    -1.6399
 2956.0000     8.2444     2.4615     0.0079     0.2998   -56.1877   148.8351     3.7836     2.4637     2.3961    -1.4921
 2956.5000     8.2435     2.4424     0.0160     0.3334   -55.7856   178.3255     3.1376     2.2662     2.3302    -1.3442
 2957.0000     8.2426     2.3982     0.0462     0.3326   -55.3836   195.6954     2.6018     2.2244     2.2870    -1.1964
