~VERSION INFORMATION
 VERS.                2.0:   CWLS LOG ASCII STANDARD - VERSION 2.0
 WRAP.                 NO:   ONE LINE PER DEPTH STEP
~WELL INFORMATION
#MNEM.UNIT      DATA TYPE    INFORMATION
#----------   ------------   ------------------------------
 STRT.F           54.0000:   START DEPTH
 STOP.F         5201.0000:   STOP DEPTH
 STEP.F            0.5000:   STEP LENGTH
 NULL.          -999.2500:   NO VALUE
 COMP.   TESORO PETROLEUM:   COMPANY
 WELL. TESORO DX NPR-3 #51-26:   WELL
 FLD .        TEAPOT DOME:   FIELD
 LOC .      S26 T38N R78W:   LOCATION
 CNTY.            NATRONA:   COUNTY
 STAT.            WYOMING:   STATE
 CTRY. UNITED STATES OF AMERICA:   COUNTRY
 SRVC.      DRESSER ATLAS:   SERVICE COMPANY
 DATE.        27-AUG-1976:   LOGDATE
 API .     49025102680000:   API NUMBER
~CURVE INFORMATION
#MNEM.UNIT       API CODE    CURVE DESCRIPTION
#----------   ------------   ------------------------------
 DEPT.F                  :   
 GRD .GAPI   45 310 01 00:   GAMMA RAY FROM DENSITY LOG
 CALD.IN     45 280 60 00:   CALIPER FROM DENSITY LOG
 CORR.G/C3   45 356 01 00:   DENSITY CORRECTION
 RHOB.G/C3   45 350 01 00:   BULK DENSITY
 SPR .MV     07 010 01 00:   SPONTANEOUS POTENTIAL
 ILD .OHMM   07 120 46 00:   DEEP INDUCTION RESISTIVITY
 ILM .OHMM   07 120 44 00:   INDUCTION LOG MEDIUM RESISTIVITY
 RFOC.OHMM   07 220 04 00:   RESISTIVITY FOCUSED LOG RES.
 TEND.LBS    45 635 01 00:   TENSION FORM DENSITY LOG
 NPHI.DEC    42 890 03 00:   NEUTRON POROSITY SANDSTONE
~PARAMETER INFORMATION
#MNEM.UNIT          VALUE    DESCRIPTION
#----------   ------------   ------------------------------
 EKB .F         5453.5000:   Kelly bushing
 EGL .F         5442.0000:   Ground level
 EDF .F         5452.0000:   Drilling floor
 EPD .F            0.0000:   Permanent datum
 TD  .F         5193.0000:   Total depth
 CLNT.            A2DTECH:   Client Code
 SL  . 2000' FEL & 600' FNL:   Surface Location
 PD  .                 GL:   Permanent Datum
 DAPD.F              11.5:   Feet Above Permanent Datum
 DATE.        27-AUG-1976:   Date Logged [DD-MMM-YYYY]
 DD  .F              5193:   Depth driller
 DL  .F              5193:   Depth logger
 BLI .F              5191:   Bottom log interval
 TLI .F              1726:   Top log interval
 CS1 .IN            8.625:   Casing size
 CBD1.     8.625" @ 1724':   Casing driller 1
 CBL1.F              1726:   Casing logger 1
 BS1 .IN            7.875:   Bit size
 BSD1.F              5193:   Depth drilled with bit1
 DFT .           CHEM GEL:   Type fluid in hole
 DFD .                9.2:   Density
 DFV .                 65:   Viscosity
 DFPH.                 10:   pH
 DFL .                5.8:   Fluid loss
 MSS .           FLOWLINE:   Source of sample
 RMS .OHMM           1.70:   Rm
 MST .F                71:   Rm Meas. temp.
 RMF .OHMM              1:   Rmf
 MFST.F                68:   Rmf Meas. temp.
 MFSS.               MEAS:   Source Rmf.
 RMC .OHMM           1.30:   Rmc
 MCST.F                66:   Rmc Meas. temp.
 MCSS.               MEAS:   Source Rmc.
 RMB .OHMM           0.85:   Rm. at BHT
 BHT .F               142:   BHT.
 TCS .HRS               6:   Time Circ. stopped
 MRT .F               142:   Maximum recorded temp.
 LUN .               6145:   Logging unit number
 LUL .              GLTTE:   Logging unit location
 ENGI.        GOULD-HOYER:   Recorded By
 WITN.        WOLF-CARTER:   Witnessed by
 ORIG.           5" PRINT:   Origin of data
 UWI .     49025102680000:   Unique Well ID
 DICO. A2D TECHNOLOGIES, INC.:   Digitizing Company
~OTHER INFORMATION
~A   DEPT      GRD       CALD       CORR       RHOB        SPR         ILD        ILM      RFOC       TEND       NPHI   
# ...
 2432.5000    86.7065    12.0391     0.0565     2.4639   -40.1890     5.8069     5.9250     6.9916    84.3281     0.2720
 2433.0000    88.6567    12.0422     0.0566     2.4753   -40.1814     5.8113     5.9705     6.9967    83.2085     0.2720
 2433.5000    87.4100    12.0297     0.0583     2.4678   -40.1786     5.8561     6.0281     7.0019    81.8859     0.2755
 2434.0000    86.3483    12.0173     0.0690     2.4927   -40.1788     5.8614     6.0624     7.0071    80.8003     0.2896
 2434.5000    86.1393    12.0040     0.0493     2.4845   -40.1795     5.9064     6.0668     6.9640    87.4827     0.2887
 2435.0000    85.9403    11.9756     0.0374     2.4629   -40.1732     5.9931     6.0713     6.9213    93.8933     0.2884
 2435.5000    86.4677    11.9208     0.0333     2.4434   -40.0498     6.0392     6.1622     6.9276    85.0399     0.2895
 2436.0000    88.1791    11.8785     0.0485     2.4367   -39.9265     6.0856     6.2145     7.0404    83.9543     0.2808
 2436.5000    84.8756    11.8361     0.0547     2.4564   -39.8039     6.1749     6.3431     7.2311    82.8336     0.2669
 2437.0000    82.2886    11.8231     0.0578     2.4662   -39.6815     6.2224     6.3917     7.2865    81.5121     0.2590
 2437.5000    80.6567    11.8106     0.0580     2.4783   -39.5590     6.2702     6.4407     7.3424    88.1939     0.2581
 2438.0000    80.9551    11.8137     0.0521     2.4934   -39.4366     6.3184     6.4455     7.3478    86.8372     0.2647
 2438.5000    83.1564    11.8312     0.0402     2.5032   -39.3140     6.3671     6.4502     7.4555    85.7516     0.2616
 2439.0000    85.0746    11.8486     0.0373     2.5117   -39.1914     6.4171     6.4997     7.5648    84.6661     0.2544
 2439.5000    84.4080    11.8511     0.0375     2.5194   -39.0708     6.4664     6.5949     7.5715    76.0843     0.2474
 2440.0000    83.4925    11.8685     0.0226     2.5238   -39.0128     6.4713     6.5998     7.5771    73.9610     0.2555
 2440.5000    81.8607    11.8710     0.0167     2.5164   -39.0953     6.4761     6.6516     7.5827    73.6420     0.2624
 2441.0000    82.3781    11.8586     0.0169     2.5127   -39.1748     6.5258     6.7026     7.5883    72.5564     0.2665
 2441.5000    84.5572    11.8461     0.0261     2.5240   -39.2547     6.5307     6.7539     7.3872    78.9671     0.2737
 2442.0000    81.0249    11.8407     0.0352     2.5316   -39.3367     6.5806     6.7589     7.3417    77.8816     0.2697
 2442.5000    79.8607    11.8212     0.0384     2.5347   -39.5396     6.6775     6.8107     7.5009    76.7960     0.2676
 2443.0000    80.1493    11.7938     0.0386     2.5393   -39.9662     6.7288     6.8630     7.6151    75.7105     0.2658
 2443.5000    80.9055    11.7969     0.0387     2.5432   -40.3641     6.7806     7.0117     7.8309    67.0913     0.2705
 2444.0000    80.7065    11.8144     0.0389     2.5485   -40.4216     6.7858     7.0168     7.6762    73.5393     0.2636
 2444.5000    81.0148    11.8315     0.0375     2.5577   -40.3913     6.7919     6.8742     7.7886    72.1821     0.2611
 2445.0000    82.2289    11.8188     0.0332     2.5510   -40.1938     6.7036     6.6511     7.9573    71.0965     0.2647
 2445.5000    85.3632    11.8213     0.0272     2.5263   -40.1772     6.6164     6.6560     7.7465    70.0110     0.2691
 2446.0000    82.3085    11.8088     0.0199     2.5211   -39.9671     6.5292     6.8473     7.8058    68.9260     0.2670
 2446.5000    81.3831    11.8119     0.0110     2.5309   -40.0423     6.4902     6.8523     7.7579    67.8404     0.2664
 2447.0000    81.1627    11.7994     0.0096     2.5220   -39.9665     6.4950     6.7634     7.3467    66.7164     0.2645
 2447.5000    80.9672    11.8020     0.0129     2.5116   -39.7974     6.4999     6.7684     7.0447    73.1655     0.2587
 2448.0000    79.1011    11.8194     0.0220     2.5012   -39.4936     6.5498     6.8203     6.9625    79.5762     0.2563
 2448.5000    77.2454    11.8220     0.0252     2.4982   -39.3968     6.5547     6.8726     7.2635    78.2190     0.2596
 2449.0000    80.1549    11.8250     0.0283     2.5066   -39.1929     6.6052     6.7834     7.5239    77.1334     0.2619
 2449.5000    86.1688    11.8275     0.0315     2.4984   -39.1883     6.6112     6.8367     7.7938    76.0479     0.2736
 2450.0000    79.2763    11.8450     0.0351     2.4782   -39.1879     6.5705     6.8417     8.0178    74.9623     0.2715
 2450.5000    82.4355    11.8624     0.0394     2.4964   -39.1734     6.4404     6.6604     7.6983    73.8383     0.2702
 2451.0000    82.2400    11.8798     0.0396     2.5130   -39.3973     6.3555     6.5276     7.5460    72.5201     0.2669
 2451.5000    82.7630    11.8674     0.0398     2.5311   -39.3844     6.3617     6.5336     7.4998    71.4345     0.2632
 2452.0000    79.4734    11.8400     0.0219     2.5199   -39.4831     6.4550     6.5384     7.4478    70.3490     0.2758
 2452.5000    78.0844    11.8425     0.0069     2.5058   -39.8181     6.6409     6.5886     7.1089    71.5518     0.2881
 2453.0000    76.6953    11.8450     0.0087     2.5062   -40.0265     6.8322     6.6396     6.9684    73.7995     0.2836
 2453.5000    75.0675    11.8475     0.0135     2.5173   -40.1727     6.7900     6.6901     6.8307    76.0472     0.2751
 2454.0000    73.1899    11.8649     0.0212     2.5016   -40.1794     6.6526     6.6501     6.9307    78.2948     0.2782
 2454.5000    81.6029    11.9123     0.0289     2.5062   -40.1823     6.4342     6.4739     7.8529    80.5425     0.2811
 2455.0000    82.8407    11.8951     0.0381     2.5236   -40.2017     6.3067     6.3887     7.5370    82.7902     0.2705
 2455.5000    81.4626    11.8975     0.0399     2.5364   -40.0832     6.2679     6.3495     7.2335    85.0379     0.2633
 2456.0000    79.8238    11.8997     0.0295     2.5275   -39.9897     6.2736     6.3105     7.2897    87.2856     0.2581
 2456.5000    81.7890    11.9017     0.0236     2.5171   -39.9311     6.3218     6.4040     7.2444    89.5333     0.2638
 2457.0000    83.0269    11.9038     0.0389     2.5198   -39.7611     6.3704     6.4531     6.9553    90.2546     0.2719
 2457.5000    83.7761    11.9058     0.0481     2.5264   -39.6475     6.4638     6.5492     6.9599    89.2054     0.2722
 2458.0000    82.3981    11.9229     0.0333     2.5220   -39.3004     6.5649     6.6504     7.4177    87.9495     0.2720
 2458.5000    82.9452    11.9548     0.0274     2.5213   -39.1910     6.7488     6.8357     7.4682    86.9347     0.2643
 2459.0000    84.4071    11.9275     0.0276     2.5206   -39.1474     6.8006     6.9838     7.4732    85.9198     0.2573
 2459.5000    85.8837    11.8996     0.0278     2.5177   -39.1996     6.8529     6.9147     7.6875    84.9050     0.2591
 2460.0000    89.2598    11.8718     0.0311     2.5246   -39.0221     6.8579     6.8333     7.9626    83.8902     0.2627
 2460.5000    83.5832    11.8583     0.0328     2.5391   -39.1685     6.9106     6.7610     8.4769    82.8754     0.2549
 2461.0000    80.2838    11.8607     0.0360     2.5466   -39.3302     7.0120     6.9087     7.7029    81.8590     0.2512
 2461.5000    78.4171    11.8545     0.0392     2.5512   -39.4903     7.0659     7.0273     7.2875    80.8094     0.2525
 2462.0000    75.5953    11.8176     0.0424     2.5438   -39.7776     7.0723     7.1125     7.6087    79.5774     0.2593
 2462.5000    79.2321    11.8071     0.0441     2.5364   -40.2751     7.1266     7.2166     7.8256    78.5626     0.2653
 2463.0000    80.4699    11.8093     0.0442     2.5350   -40.5787     7.1814     7.2788     7.8321    77.5478     0.2694
 2463.5000    81.9356    11.7962     0.0414     2.5336   -40.5752     7.1867     7.2773     8.0566    76.5330     0.2631
 2464.0000    79.3635    11.7985     0.0386     2.5247   -40.5781     7.1424     7.2839     8.5785    68.0219     0.2546
 2464.5000    78.2133    11.8006     0.0328     2.5218   -40.4821     7.0982     7.1400     8.0119    59.5108     0.2579
 2465.0000    74.9138    11.8031     0.0285     2.5204   -40.3674     7.1036     7.0948     7.8530    58.4960     0.2609
 2465.5000    73.0471    11.7603     0.0241     2.5153   -40.2522     7.0112     6.9558     7.8043    72.4737     0.2586
