~VERSION INFORMATION
 VERS.                2.0:   CWLS LOG ASCII STANDARD - VERSION 2.0
 WRAP.                 NO:   ONE LINE PER DEPTH STEP
~WELL INFORMATION
#MNEM.UNIT      DATA TYPE    INFORMATION
#----------   ------------   ------------------------------
 STRT.F          200.0000:   START DEPTH
 STOP.F         3209.0000:   STOP DEPTH
 STEP.F            0.5000:   STEP LENGTH
 NULL.          -999.2500:   NO VALUE
 COMP.    FENIX & SCISSON:   COMPANY
 WELL. FENIX & SCISSON "AX" #88-3:   WELL
 FLD .             NPR #3:   FIELD
 LOC .       S3 T38N R78W:   LOCATION
 CNTY.            NATRONA:   COUNTY
 STAT.            WYOMING:   STATE
 CTRY. UNITED STATES OF AMERICA:   COUNTRY
 SRVC.              WELEX:   SERVICE COMPANY
 DATE.        27-JUL-1977:   LOGDATE
 API .     49025104060000:   API NUMBER
~CURVE INFORMATION
#MNEM.UNIT       API CODE    CURVE DESCRIPTION
#----------   ------------   ------------------------------
 DEPT.F                  :   
 CALD.IN     45 280 60 00:   CALIPER FROM DENSITY LOG
 GRD .GAPI   45 310 01 00:   GAMMA RAY FROM DENSITY LOG
 RHOB.G/C3   45 350 01 00:   BULK DENSITY
 CORR.G/C3   45 356 01 00:   DENSITY CORRECTION
 NPHI.DEC    42 890 03 00:   NEUTRON POROSITY SANDSTONE
 SPR .MV     07 010 01 00:   SPONTANEOUS POTENTIAL
 SGRD.OHMM   07 220 05 00:   GUARD LOG RESISTIVITY
 FORX.OHMM   07 000 00 00:   
~PARAMETER INFORMATION
#MNEM.UNIT          VALUE    DESCRIPTION
#----------   ------------   ------------------------------
 EKB .F         5134.0000:   Kelly bushing
 EGL .F         5124.0000:   Ground level
 EDF .F            0.0000:   Drilling floor
 TD  .F         3211.0000:   Total depth
 CLNT.            A2DTECH:   Client Code
 SL  . 230' FSL & 380' FEL:   Surface Location
 PD  .                 GL:   Permanent Datum
 EPD .F              5124:   Elevation Permanent Datum
 LMF .                 KB:   Log Measured From
 DMF .                 KB:   Drilling Measured From
 DAPD.F                10:   Feet Above Permanent Datum
 DATE.        27-JUL-1977:   Date Logged [DD-MMM-YYYY]
 DD  .F              3200:   Depth driller
 DL  .F              3211:   Depth logger
 BLI .F              3210:   Bottom log interval
 TLI .F               200:   Top log interval
 CS1 .IN            8.625:   Casing size
 CBD1.      8.625" @ 218':   Casing driller 1
 CBL1.F               218:   Casing logger 1
 BS1 .IN            7.875:   Bit size
 BSD1.F              3200:   Depth drilled with bit1
 DFT .            KCL MUD:   Type fluid in hole
 DFD .                9.2:   Density
 DFV .                 36:   Viscosity
 DFPH.                9.5:   pH
 DFL .                9.6:   Fluid loss
 MSS .           FLOWLINE:   Source of sample
 RMS .OHMM           0.61:   Rm
 MST .F                85:   Rm Meas. temp.
 RMF .OHMM           0.53:   Rmf
 MFST.F                85:   Rmf Meas. temp.
 MFSS.               FANN:   Source Rmf.
 RMC .OHMM           0.48:   Rmc
 MCST.F                85:   Rmc Meas. temp.
 MCSS.                KIT:   Source Rmc.
 RMB .OHMM           0.42:   Rm. at BHT
 BHT .F               122:   BHT.
 TCS .HRS             2.5:   Time Circ. stopped
 MRT .F               122:   Maximum recorded temp.
 LUN .               8611:   Logging unit number
 LUL .             CASPER:   Logging unit location
 ENGI.            C. DOAK:   Recorded By
 WITN.      E. HARRINGTON:   Witnessed by
 ORIG.      2.5" 5" PRINT:   Origin of data
 UWI .     49025104060000:   Unique Well ID
 DICO. A2D TECHNOLOGIES, INC.:   Digitizing Company
~OTHER INFORMATION
~A   DEPT       CALD       GRD        RHOB      CORR        NPHI       SPR      SGRD         FORX 
# ...
 1779.5000    10.2169   109.8694     2.5724     0.0878     0.2666   -83.6261     7.5573     8.8264
 1780.0000    10.2199   110.4156     2.5658     0.0881     0.2630   -83.6202     6.7749     8.1179
 1780.5000    10.2080   111.8752     2.5601     0.0898     0.2629   -83.3175     5.9096     7.6207
 1781.0000    10.2110   113.9264     2.5576     0.0884     0.2690   -83.3116     5.4448     7.3064
 1781.5000    10.2141   115.8828     2.5557     0.0880     0.2838   -83.1879     5.2989     7.2150
 1782.0000    10.2172   118.1424     2.5520     0.0873     0.2874   -82.9377     5.2999     7.2150
 1782.5000    10.2047   119.9115     2.5484     0.0861     0.2862   -82.7003     5.3010     7.3144
 1783.0000    10.1889   121.7667     2.5448     0.0828     0.2868   -82.6944     5.3021     7.4152
 1783.5000    10.1666   123.5621     2.5419     0.0816     0.2893   -82.3917     5.3813     7.7260
 1784.0000    10.1694   124.4922     2.5405     0.0796     0.2909   -82.3858     5.6193     7.8325
 1784.5000    10.1724   124.5321     2.5556     0.0780     0.2909   -82.0821     5.9310     8.0498
 1785.0000    10.1643   122.8749     2.5527     0.0767     0.2899   -81.7795     6.1684     7.9404
 1785.5000    10.1634   119.2707     2.5438     0.0784     0.2866   -81.4770     5.9852     7.9404
 1786.0000    10.1664   116.3165     2.5342     0.0816     0.2843   -81.4712     5.7225     7.7260
 1786.5000    10.1697   115.2062     2.5202     0.0833     0.2860   -81.1686     5.5098     7.6210
 1787.0000    10.1724   116.0988     2.5277     0.0850     0.2909   -81.1628     5.4580     7.5174
 1787.5000    10.1604   118.8469     2.5510     0.0897     0.2990   -81.1573     5.4875     7.5174
 1788.0000    10.1486   121.8542     2.5601     0.0910     0.3009   -81.1512     5.6119     7.5174
 1788.5000    10.1520   124.1460     2.5557     0.0948     0.3032   -81.4421     5.7259     7.5297
 1789.0000    10.1397   126.0890     2.5469     0.0963     0.3026   -81.4362     5.8090     7.6210
 1789.5000    10.1426   127.0284     2.5432     0.1010     0.3014   -81.7273     5.9314     7.6415
 1790.0000    10.1308   127.3590     2.5508     0.1027     0.3013   -81.7606     5.9326     7.8325
 1790.5000    10.1281   127.4006     2.5644     0.1050     0.3002   -82.0124     5.9340     7.8618
 1791.0000    10.1126   127.1481     2.5757     0.1076     0.2931   -82.0059     5.9352     7.9404
 1791.5000    10.0993   126.2978     2.5803     0.1093     0.2870   -82.2975     5.9364     7.7954
 1792.0000    10.0980   125.1354     2.5842     0.1140     0.2835   -82.2908     5.6988     7.5414
 1792.5000    10.1016   122.8268     2.5873     0.1161     0.2835   -81.9881     5.4707     7.1733
 1793.0000    10.0889   121.2265     2.5672     0.1209     0.2836   -81.9822     4.9719     6.9760
 1793.5000    10.0925   119.6425     2.5471     0.1249     0.2862   -81.9763     4.3966     6.7841
 1794.0000    10.0946   119.3828     2.5405     0.1268     0.2906   -81.9703     2.9167     6.6884
 1794.5000    10.0832   119.7224     2.5302     0.1166     0.2984   -81.9644     3.2549     6.6462
 1795.0000    10.0681   121.2493     2.5265     0.1048     0.3021   -81.9585     4.0525     6.6462
 1795.5000    10.0589   123.9665     2.5536     0.0946     0.3025   -81.9514     5.0455     6.7378
 1796.0000    10.0481   125.7922     2.5507     0.0888     0.2934   -81.9456     4.7742     6.8307
 1796.5000    10.0510   127.4221     2.5381     0.0860     0.2904   -82.2374     4.3234     6.6462
 1797.0000    10.0241   128.2405     2.5292     0.0832     0.2862   -82.2307     3.6103     4.2893
 1797.5000    10.0122   128.4384     2.5204     0.0834     0.2885   -82.2249     3.2588     6.6462
 1798.0000    10.0150   128.1701     2.5115     0.0821     0.2920   -82.2191     3.9446     7.8325
 1798.5000    10.0030   126.8866     2.5176     0.0824     0.2914   -82.2133     5.4095     7.2150
 1799.0000    10.0059   126.9451     2.5349     0.0841     0.2889   -82.2075     5.3184     6.4668
 1799.5000     9.9939   127.8566     2.5477     0.0872     0.2882   -82.2017     5.1029     5.9570
 1800.0000     9.9968   130.8639     2.5508     0.0889     0.2822   -82.1958     4.9412     5.7174
 1800.5000     9.9993   134.1679     2.5450     0.0894     0.2834   -82.1899     4.8280     5.7266
 1801.0000    10.0019   136.2849     2.5391     0.0909     0.2863   -82.4538     4.7875     6.2404
 1801.5000    10.0045   137.8101     2.5220     0.0912     0.2874   -82.9555     4.8181     6.7485
 1802.0000    10.0070   135.7813     2.5191     0.0928     0.2879   -83.4570     4.8880     6.8307
 1802.5000    10.0096   132.2603     2.5296     0.0944     0.2932   -83.9688     4.9912     6.8400
 1803.0000    10.0121   129.6063     2.5432     0.0960     0.2939   -83.9674     5.1331     7.0666
 1803.5000    10.0147   127.6089     2.5582     0.0976     0.2951   -83.9659     5.2770     7.2866
 1804.0000    10.0175   125.5794     2.5636     0.0992     0.2975   -83.9644     5.1358     6.8997
 1804.5000    10.0198   124.7230     2.5593     0.0998     0.2953   -83.9629     4.7322     6.4351
 1805.0000    10.0225   124.1840     2.5496     0.1015     0.2922   -83.9614     4.4204     6.2240
 1805.5000    10.0248   124.2218     2.5436     0.1017     0.2910   -83.6632     4.1861     6.1408
 1806.0000    10.0425   123.9763     2.5365     0.1034     0.2939   -83.6617     4.3034     6.0589
 1806.5000    10.0640   124.0296     2.5304     0.1036     0.3027   -83.6602     4.3638     6.0608
 1807.0000    10.0770   123.7761     2.5253     0.1032     0.3015   -83.5153     4.2997     6.0624
 1807.5000    10.0795   123.2115     2.5207     0.1025     0.3008   -83.3605     4.1727     5.9816
 1808.0000    10.0820   122.8271     2.5165     0.1028     0.3013   -83.2997     3.7759     5.6644
 1808.5000    10.0845   122.2510     2.5083     0.1030     0.3048   -83.0606     2.9963     3.8458
 1809.0000    10.0876   121.5578     2.4984     0.1009     0.3059   -82.7624     2.1102     2.8590
 1809.5000    10.0896   120.4387     2.4929     0.0989     0.3094   -82.4642     2.7662     4.9604
 1810.0000    10.0923   118.4048     2.5162     0.0991     0.3106   -82.4628     4.6107     7.3787
 1810.5000    10.0798   116.3709     2.5387     0.1023     0.3081   -82.4613     5.0861     7.5605
 1811.0000    10.0828   114.7366     2.5492     0.1040     0.3056   -82.1632     4.6751     6.1590
 1811.5000    10.0848   113.4771     2.5590     0.1064     0.3032   -82.1617     4.2579     6.0769
 1812.0000    10.0874   112.0078     2.5703     0.1107     0.3079   -82.1602     4.2010     5.9604
 1812.5000    10.0904   111.2063     2.5802     0.1151     0.3039   -82.1588     4.2602     5.9571
 1813.0000    10.0925   110.4636     2.5863     0.1185     0.3014   -82.1573     4.3200     6.3603
 1813.5000    10.1064   110.7307     2.5893     0.1230     0.2991   -82.1558     4.1474     6.6391
 1814.0000    10.1123   112.0874     2.5820     0.1263     0.2959   -82.1543     3.5687     4.6286
 1814.5000    10.1149   115.0763     2.5649     0.1294     0.2867   -81.9513     2.7523     3.1560
 1815.0000    10.1174   118.5514     2.5537     0.1251     0.2809   -81.8546     2.6064     3.6698
 1815.5000    10.1199   121.3562     2.5501     0.1224     0.2832   -81.8531     2.9673     5.5343
 1816.0000    10.1225   123.9791     2.5689     0.1192     0.2853   -82.0791     4.4156     6.6136
 1816.5000    10.1398   125.8028     2.5794     0.1168     0.2872   -82.1469     4.9055     6.7990
 1817.0000    10.1429   127.3297     2.5810     0.1155     0.2854   -82.1451     4.9643     6.7971
 1817.5000    10.1298   128.9318     2.5782     0.1142     0.2806   -82.1437     5.0013     6.8027
 1818.0000    10.1329   130.9879     2.5723     0.1144     0.2775   -82.4392     5.1269     6.9447
 1818.5000    10.1285   131.9543     2.5621     0.1146     0.2751   -82.7343     5.2477     7.6640
 1819.0000    10.1227   132.5580     2.5503     0.1149     0.2810   -83.0297     5.1077     7.4553
 1819.5000    10.1253   132.5964     2.5427     0.1166     0.2835   -83.3249     4.9069     6.0322
