~VERSION INFORMATION
 VERS.                2.0:   CWLS LOG ASCII STANDARD - VERSION 2.0
 WRAP.                 NO:   ONE LINE PER DEPTH STEP
~WELL INFORMATION
#MNEM.UNIT      DATA TYPE    INFORMATION
#----------   ------------   ------------------------------
 STRT.F          250.5000:   START DEPTH
 STOP.F         2849.5000:   STOP DEPTH
 STEP.F            0.5000:   STEP LENGTH
 NULL.          -999.2500:   NO VALUE
 COMP. FENIX & SCISSON U.S. NAVY:   COMPANY
 WELL.   FENIX "A" #25-21:   WELL
 FLD .           N P R #3:   FIELD
 LOC .      S21 T39N R78W:   LOCATION
 CNTY.            NATRONA:   COUNTY
 STAT.            WYOMING:   STATE
 CTRY. UNITED STATES OF AMERICA:   COUNTRY
 SRVC.       SCHLUMBERGER:   SERVICE COMPANY
 DATE.        14-MAR-1977:   LOGDATE
 API .     49025103140000:   API NUMBER
~CURVE INFORMATION
#MNEM.UNIT       API CODE    CURVE DESCRIPTION
#----------   ------------   ------------------------------
 DEPT.F                  :   
 CALD.IN     45 280 60 00:   CALIPER FROM DENSITY LOG
 GRD .GAPI   45 310 01 00:   GAMMA RAY FROM DENSITY LOG
 RHOB.G/C3   45 350 01 00:   BULK DENSITY
 CORR.G/C3   45 356 01 00:   DENSITY CORRECTION
 SPR .MV     07 010 01 00:   SPONTANEOUS POTENTIAL
 LL8 .OHMM   07 220 08 00:   LATEROLOG-8 RES.
 ILM .OHMM   07 120 44 00:   INDUCTION LOG MEDIUM RESISTIVITY
 ILD .OHMM   07 120 46 00:   DEEP INDUCTION RESISTIVITY
~PARAMETER INFORMATION
#MNEM.UNIT          VALUE    DESCRIPTION
#----------   ------------   ------------------------------
 EKB .F         4963.0000:   Kelly bushing
 EGL .F         4953.0000:   Ground level
 EDF .F            0.0000:   Drilling floor
 TD  .F         2848.0000:   Total depth
 DATE.        14-MAR-1977:   Date logged
 CLNT.            A2DTECH:   Client Code
 SL  . 990' FWL & 2310' FSL:   Surface Location
 PD  .                 GL:   Permanent Datum
 DD  .F              2847:   Depth driller
 DL  .F              2848:   Depth logger
 BLI .F              2842:   Bottom log interval
 CS1 .IN            8.625:   Casing size
 CBD1.      8.625" @ 259':   Casing driller 1
 CBL1.F               261:   Casing logger 1
 BS1 .IN            7.875:   Bit size
 DFT .                KCL:   Type fluid in hole
 DFD .                9.2:   Density
 DFV .                 37:   Viscosity
 DFPH.                8.5:   pH
 DFL .                8.6:   Fluid loss
 MSS .           FLOWLINE:   Source of sample
 RMS .OHMM          0.226:   Rm
 MST .F                72:   Rm Meas. temp.
 RMF .OHMM          0.190:   Rmf
 MFST.F                72:   Rmf Meas. temp.
 MFSS.               MEAS:   Source Rmf.
 RMB .OHMM           .139:   Rm. at BHT
 BHT .F               117:   BHT.
 TCS .HRS            1800:   Time Circ. stopped
 MRT .F               117:   Maximum recorded temp.
 LUN .               5642:   Logging unit number
 LUL .               CSPR:   Logging unit location
 ENGI.         JIM MARTIN:   Recorded By
 WITN.               JAPP:   Witnessed by
 ORIG.           5" PRINT:   Origin of data
 UWI .     49025103140000:   Unique Well ID
 DICO. A2D TECHNOLOGIES, INC.:   Digitizing Company
 DAPD.                 10:   Feet Above Permanent Datum
 BSD1.               2847:   Depth drilled with bit1
 EPD .               4953:   Elevation Permanent Datum
 LMF .                 KB:   Log Measured From
 DMF .                 KB:   Drilling Measured From
 TLI .                261:   Top log interval
 TLAB.               2400:   Time logger at bottom
~OTHER INFORMATION
~A   DEPT     CALD         GRD      RHOB       CORR        SPR        LL8        ILM        ILD   
# ...
 1951.5000     9.2610    95.5860     2.4700     0.0090   -60.3910     8.0040     5.9370     6.2740
 1952.0000     9.2600   100.3760     2.4860     0.0190   -60.4360     7.1590     5.8730     6.1650
 1952.5000     9.2580   106.4740     2.5030     0.0280   -60.4850     6.3140     5.8020     5.9920
 1953.0000     9.2580   112.5760     2.4830     0.0160   -60.3920     5.7220     5.7220     6.0660
 1953.5000     9.2600   118.4880     2.4730     0.0070   -60.2450     5.7220     5.8720     6.2180
 1954.0000     9.2620   115.8790     2.4680     0.0170   -60.0970     6.0830     6.0890     6.3690
 1954.5000     9.2640   110.3160     2.4760     0.0240   -59.9400     6.5090     6.3320     6.5210
 1955.0000     9.2660   104.7730     2.4890     0.0460   -60.0830     6.3590     6.2270     6.5690
 1955.5000     9.2680    99.2150     2.5040     0.0370   -60.3430     6.0460     5.9920     6.3320
 1956.0000     9.2700    93.6580     2.4820     0.0240   -60.6180     5.8820     6.1030     6.4090
 1956.5000     9.2720    88.6900     2.4850     0.0210   -60.6110     6.3160     6.3720     6.5690
 1957.0000     9.2750    88.3420     2.4890     0.0240   -60.4960     7.4950     6.6210     6.7300
 1957.5000     9.2760    89.6740     2.4890     0.0270   -60.3790     9.0650     6.7530     6.8780
 1958.0000     9.2870    95.7450     2.4940     0.0280   -60.2610     8.2250     6.5490     6.8030
 1958.5000     9.3000    99.4290     2.5140     0.0230   -60.1430     6.9700     6.3570     6.6420
 1959.0000     9.3130    96.9580     2.5080     0.0180   -60.0250     5.9960     6.2140     6.4800
 1959.5000     9.3270    94.9160     2.5010     0.0140   -59.9080     5.8010     6.0860     6.3190
 1960.0000     9.3400    95.1640     2.4970     0.0240   -59.7910     5.6180     5.9920     6.1030
 1960.5000     9.3530    97.6970     2.5110     0.0350   -59.6880     5.5910     5.9220     6.1660
 1961.0000     9.3670   101.4130     2.5010     0.0370   -59.6340     5.5670     5.8150     6.2610
 1961.5000     9.3800   106.0320     2.4790     0.0210   -59.5790     5.5160     5.7090     6.3320
 1962.0000     9.3930   111.2040     2.4600     0.0130   -59.5200     5.4480     5.6030     6.0800
 1962.5000     9.4060   132.5560     2.4620     0.0210   -59.6390     5.3430     5.4970     5.8790
 1963.0000     9.4100   144.3540     2.4630     0.0140   -59.8400     5.2390     5.3900     5.6780
 1963.5000     9.3840   149.6650     2.4730     0.0200   -60.0420     5.0770     5.2840     5.5150
 1964.0000     9.3600   153.4420     2.4840     0.0110   -60.2450     5.2130     5.2210     5.3990
 1964.5000     9.3360   158.5580     2.4650    -0.0010   -60.4480     5.5170     5.1500     5.2840
 1965.0000     9.3120   159.1950     2.4650     0.0050   -60.6500     5.8210     5.0780     5.1680
 1965.5000     9.2880   150.6220     2.4800     0.0180   -60.8540     6.0390     5.0060     5.0530
 1966.0000     9.2640   143.0260     2.4950     0.0350   -61.0620     5.6500     4.9340     4.9370
 1966.5000     9.2390   136.9700     2.4730     0.0430   -60.9450     5.0270     4.8490     4.8490
 1967.0000     9.2150   132.2690     2.4710     0.0340   -60.7760     4.6310     4.8050     4.8490
 1967.5000     9.1940   134.6880     2.4640     0.0230   -60.6040     5.1370     5.0800     5.0620
 1968.0000     9.1780   138.2890     2.4510     0.0160   -60.4330     5.7460     5.3580     5.3280
 1968.5000     9.1630   141.6630     2.4510     0.0080   -60.2620     6.3550     5.6350     5.5950
 1969.0000     9.1590   145.1920     2.4820     0.0250   -60.0910     7.0710     5.9130     5.8610
 1969.5000     9.1590   149.9630     2.5050     0.0420   -59.9200     7.0060     6.1910     6.1280
 1970.0000     9.1610   156.4270     2.4660     0.0260   -59.7490     6.8780     6.4690     6.3950
 1970.5000     9.1630   165.1840     2.4400     0.0130   -59.5790     7.4830     6.7530     6.6610
 1971.0000     9.1650   167.3050     2.4410     0.0200   -59.4100     8.4220     7.0870     6.9280
 1971.5000     9.1670   160.2570     2.4270     0.0130   -59.3430     8.2410     7.4150     7.1940
 1972.0000     9.1690   155.5980     2.4230     0.0030   -59.4280     7.8960     7.6110     7.4040
 1972.5000     9.1710   151.3970     2.4300     0.0010   -59.5120     8.0890     7.6520     7.3360
 1973.0000     9.1730   147.1310     2.4390     0.0120   -59.5960     8.3260     7.7020     7.3070
 1973.5000     9.1750   144.4320     2.4570     0.0230   -59.6810     8.6230     7.7520     7.2690
 1974.0000     9.1760   143.7510     2.4790     0.0170   -59.7650     8.3660     7.5900     7.1170
 1974.5000     9.1680   150.7110     2.4730     0.0200   -59.8490     7.8840     7.4280     6.9650
 1975.0000     9.1500   160.8230     2.4690     0.0250   -59.9000     7.4020     7.2670     6.8140
 1975.5000     9.1390   170.3140     2.4750     0.0290   -59.8730     6.9210     7.1050     6.6620
 1976.0000     9.1380   171.9470     2.4480     0.0180   -59.8460     6.5090     6.9440     6.4490
 1976.5000     9.1230   153.2450     2.4250     0.0090   -59.8190     6.7240     6.8780     6.5430
 1977.0000     9.1150   157.6910     2.4330     0.0180   -59.7910     6.9400     7.0380     6.7000
 1977.5000     9.1080   154.6390     2.4340     0.0110   -59.7640     7.4050     7.1720     6.8580
 1978.0000     9.1010   148.3850     2.4230     0.0040   -59.7360     8.2680     7.3050     7.0150
 1978.5000     9.0970   142.2960     2.4280     0.0100   -59.7090     8.7380     7.4390     7.1720
 1979.0000     9.0940   139.9010     2.4340     0.0060   -59.6810     8.7380     7.5720     7.2690
 1979.5000     9.0920   144.4930     2.4400     0.0030   -59.6540     8.8180     7.6810     7.1280
 1980.0000     9.0890   150.3340     2.4400     0.0100   -59.6270     8.7380     7.5410     7.0060
 1980.5000     9.0860   149.6340     2.4330     0.0170   -59.5990     7.7420     7.5990     7.1620
 1981.0000     9.0830   147.9710     2.4260     0.0070   -59.5720     7.2020     7.7510     7.4000
 1981.5000     9.0810   149.7900     2.4220    -0.0020   -59.5450     8.1160     7.9030     7.6390
 1982.0000     9.0390   147.1130     2.4310     0.0060   -59.5170     8.8920     8.0560     7.8780
 1982.5000     9.0570   151.4470     2.4400     0.0170   -59.5490     9.6690     8.2080     8.1170
 1983.0000     9.0710   153.5850     2.4280     0.0120   -59.6250     9.9390     8.3600     8.2680
 1983.5000     9.0850   157.1340     2.4220     0.0060   -59.7020    10.4070     8.5120     8.1930
 1984.0000     9.0980   159.4130     2.4320    -0.0040   -59.6340     9.7810     8.6580     7.9770
 1984.5000     9.1120   155.8580     2.4200    -0.0020   -59.5450     8.8410     8.8660     7.7930
 1985.0000     9.1250   149.0170     2.4460     0.0060   -59.4550     7.9010     9.2330     7.6090
 1985.5000     9.1390   154.6510     2.4370     0.0200   -59.3650     6.9610     8.5340     7.4250
 1986.0000     9.1520   148.4330     2.4340     0.0340   -59.2750     6.0210     7.2820     7.2410
 1986.5000     9.1660   148.9190     2.4820     0.0460   -59.1850     4.8490     5.7220     7.0570
 1987.0000     9.1790   148.8240     2.4460     0.0270   -59.0950     5.7240     5.9260     6.8730
 1987.5000     9.1490   146.3710     2.4290     0.0080   -59.0050     7.2250     6.2930     6.7530
 1988.0000     9.1570   143.9700     2.4480    -0.0020   -58.9160     8.7250     6.6600     6.7530
 1988.5000     9.1830   141.5890     2.4440     0.0020   -58.8260     9.4050     6.7530     6.7530
 1989.0000     9.2090   139.4830     2.4480     0.0060   -58.7300     9.1200     6.8380     6.8020
 1989.5000     9.2350   140.0600     2.4560     0.0030   -58.8800     8.7630     6.8780     6.8690
 1990.0000     9.2610   140.7480     2.4620     0.0150   -59.1000     8.3740     6.6000     6.6320
 1990.5000     9.2870   141.4260     2.4990     0.0330   -59.3230     8.0430     6.3080     6.4160
 1991.0000     9.3130   142.1080     2.5410     0.0520   -59.5450     7.0640     6.0170     6.2010
 1991.5000     9.3360   142.7690     2.5300     0.0620   -59.7670     5.2680     5.7260     5.9850
