~VERSION INFORMATION
 VERS.                2.0:   CWLS LOG ASCII STANDARD - VERSION 2.0
 WRAP.                 NO:   ONE LINE PER DEPTH STEP
~WELL INFORMATION
#MNEM.UNIT      DATA TYPE    INFORMATION
#----------   ------------   ------------------------------
 STRT.F            1.0000:   START DEPTH
 STOP.F         2854.0000:   STOP DEPTH
 STEP.F            0.5000:   STEP LENGTH
 NULL.          -999.2500:   NO VALUE
 COMP.          INTEX OIL:   COMPANY
 WELL. INTEX N.P.R. "AX" #42-29:   WELL
 FLD .             TEAPOT:   FIELD
 LOC .      S29 T39N R78W:   LOCATION
 CNTY.            NATRONA:   COUNTY
 STAT.            WYOMING:   STATE
 CTRY. UNITED STATES OF AMERICA:   COUNTRY
 SRVC.       SCHLUMBERGER:   SERVICE COMPANY
 DATE.        30-MAY-1986:   LOGDATE
 API .     49025095240000:   API NUMBER
~CURVE INFORMATION
#MNEM.UNIT       API CODE    CURVE DESCRIPTION
#----------   ------------   ------------------------------
 DEPT.F                  :   
 SPR .MV     05 010 01 00:   SPONTANEOUS POTENTIAL FROM RES.
 ASN .OHMM   05 041 16 00:   AMPLIFIED SHORT NORMAL 16"
 ILD .OHMM   05 120 46 00:   INDUCTION LOG DEEP
 GRD .GAPI   45 310 01 00:   GAMMA RAY FROM DENSITY LOG
 CALD.IN     45 280 60 00:   CALIPER FROM DENSITY LOG
 CORR.G/C3   45 356 01 00:   DENSITY CORRECTION
 RHOB.G/C3   45 350 01 00:   BULK DENSITY
 CALI.IN     30 280 01 00:   CALIPER FROM GAMMA RAY LOG
 GR  .GAPI   30 310 01 00:   GAMMA RAY
~PARAMETER INFORMATION
#MNEM.UNIT          VALUE    DESCRIPTION
#----------   ------------   ------------------------------
 EKB .F         5020.3000:   Kelly bushing
 EGL .F         5010.0000:   Ground level
 EDF .F            0.0000:   Drilling floor
 TD  .F         2860.0000:   Total depth
 CLNT.            A2DTECH:   Client Code
 DATE.        30-MAY-1986:   Date Logged [DD-MMM-YYYY]
 DD  .F              2860:   Depth driller
 DL  .F              2855:   Depth logger
 BLI .F              2854:   Bottom log interval
 TLI .F               164:   Top log interval
 CS1 .              8.625:   Casing size
 CBD1.      8.625" @ 167':   Casing driller 1
 CBL1.IN              164:   Casing logger 1
 BS1 .IN            7.875:   Bit size
 BSD1.F              2860:   Depth drilled with bit1
 DFT .  LIGND-SULFATE LCM:   Type fluid in hole
 DFD .                8.9:   Density
 DFV .                 33:   Viscosity
 DFPH.               11.0:   pH
 DFL .                9.2:   Fluid loss
 MSS .           FLOWLINE:   Source of sample
 RMS .OHMM           1.47:   Rm
 MST .F                55:   Rm Meas. temp.
 RMF .OHMM           1.13:   Rmf
 MFST.F                75:   Rmf Meas. temp.
 RMB .OHMM           0.78:   Rm. at BHT
 BHT .F               108:   BHT.
 TCS .HRS               3:   Time Circ. stopped
 MRT .F               108:   Maximum recorded temp.
 LUN .               3527:   Logging unit number
 LUL .               CSPR:   Logging unit location
 ENGI.            MANGOLO:   Recorded By
 WITN.             TUTTLE:   Witnessed by
 ORIG.      1" 2.5" PRINT:   Origin of data
 UWI .     49025095240000:   Unique Well ID
 DICO. A2D TECHNOLOGIES, INC.:   Digitizing Company
 PD  .                 GL:   Permanent Datum
 EPD .               5010:   Elevation Permanent Datum
 LMF .                 KB:   Log Measured From
 DMF .                 KB:   Drilling Measured From
 DAPD.              10.32:   Feet Above Permanent Datum
 MFSS.         MEAS PRESS:   Source Rmf.
~OTHER INFORMATION
~A    DEPT     SPR        ASN        ILD        GRD       CALD       CORR       RHOB        CALI        GR   
# ...
 2811.5000   -66.3717    36.5045    26.0583    62.4798     7.9836     0.0500     2.4040  -999.2500  -999.2500
 2812.0000   -66.0767    35.1824    25.8945    53.7444     8.0088     0.0355     2.3781  -999.2500  -999.2500
 2812.5000   -65.7817    33.7133    25.0792    49.3177     8.0388     0.0266     2.3674  -999.2500  -999.2500
 2813.0000   -65.4464    32.2442    23.7024    48.7351     8.0381     0.0194     2.3628  -999.2500  -999.2500
 2813.5000   -65.1356    30.6280    22.1588    51.1150     8.0374     0.0266     2.3597  -999.2500  -999.2500
 2814.0000   -64.5212    29.3059    20.9926    53.3450     8.0368     0.0476     2.3612  -999.2500  -999.2500
 2814.5000   -63.9070    27.9839    19.9720    55.1313     8.0450     0.0608     2.3809  -999.2500  -999.2500
 2815.0000   -63.2929    26.6618    19.1349    56.4737     8.0663     0.0642     2.3836  -999.2500  -999.2500
 2815.5000   -62.5154    25.4868    17.9693    57.3724     8.0655     0.0681     2.3814  -999.2500  -999.2500
 2816.0000   -61.4586    24.4588    17.1359    59.6024     8.0649     0.0536     2.3603  -999.2500  -999.2500
 2816.5000   -60.8442    23.3838    16.4113    60.5011     8.0642     0.0422     2.3631  -999.2500  -999.2500
 2817.0000   -60.2303    22.4001    15.6450    59.6246     8.0635     0.0532     2.3739  -999.2500  -999.2500
 2817.5000   -59.3131    21.4192    14.5835    57.8606     8.0629     0.0464     2.3666  -999.2500  -999.2500
 2818.0000   -58.8283    20.7764    13.6070    58.7592     8.0622     0.0376     2.3507  -999.2500  -999.2500
 2818.5000   -58.0847    19.8912    12.6896    63.2082     8.0616     0.0345     2.3515  -999.2500  -999.2500
 2819.0000   -57.5960    19.0060    11.7620    67.2134     8.0609     0.0391     2.3496  -999.2500  -999.2500
 2819.5000   -56.5536    18.2678    10.9896    69.8872     8.0602     0.0321     2.3449  -999.2500  -999.2500
 2820.0000   -55.5139    17.2647    10.3128    70.3421     8.0596     0.0264     2.3565  -999.2500  -999.2500
 2820.5000   -54.2958    15.5204     9.5882    70.4994     8.0896     0.0249     2.3750  -999.2500  -999.2500
 2821.0000   -53.0776    14.1412     9.0103    69.4767     8.0889     0.0238     2.4088  -999.2500  -999.2500
 2821.5000   -51.5564    13.2560     8.4322    69.4878     8.1063     0.0342     2.4210  -999.2500  -999.2500
 2822.0000   -50.0352    12.5823     8.0547    71.7178     8.1490     0.0414     2.4027  -999.2500  -999.2500
 2822.5000   -48.2110    11.9925     7.7712    75.2792     8.1790     0.0455     2.4116  -999.2500  -999.2500
 2823.0000   -46.3868    11.4029     7.3412    80.1720     8.1782     0.0466     2.4133  -999.2500  -999.2500
 2823.5000   -44.8656    10.9604     7.1469    83.2896     8.2084     0.0435     2.4177  -999.2500  -999.2500
 2824.0000   -43.3444    10.3706     6.7743    89.5137     8.2076     0.0435     2.4290  -999.2500  -999.2500
 2824.5000   -41.8232    10.0000     6.6374    94.8502     8.2070     0.0440     2.4406  -999.2500  -999.2500
 2825.0000   -40.3020     9.7059     6.3539    99.2992     8.2063     0.0470     2.4444  -999.2500  -999.2500
 2825.5000   -39.0839     9.4118     6.2170    96.6476     8.2057     0.0480     2.4568  -999.2500  -999.2500
 2826.0000   -37.8657     9.9589     5.9983    90.8894     8.2050     0.0434     2.4873  -999.2500  -999.2500
 2826.5000   -36.3445     9.6369     5.8627    89.5673     8.1737     0.0510     2.4844  -999.2500  -999.2500
 2827.0000   -34.8233     9.2266     5.7258    91.3554     8.1424     0.0469     2.4634  -999.2500  -999.2500
 2827.5000   -33.6052     8.9927     5.5902    93.5854     8.0804     0.0449     2.4733  -999.2500  -999.2500
 2828.0000   -32.3870     8.8765     5.4556    96.7030     8.0490     0.0578     2.5014  -999.2500  -999.2500
 2828.5000   -32.6840     8.8485     5.4666   100.7082     8.0177     0.0729     2.4984  -999.2500  -999.2500
 2829.0000   -32.9810     8.7618     5.3299   105.1572     8.0477     0.0738     2.4978  -999.2500  -999.2500
 2829.5000   -32.9749     8.6751     5.1943   107.3872     8.0778     0.0732     2.5059  -999.2500  -999.2500
 2830.0000   -32.6659     8.5295     5.0587   108.4615     8.1078     0.0680     2.5044  -999.2500  -999.2500
 2830.5000   -32.3568     8.2956     5.0705   109.4397     8.1378     0.0625     2.4831  -999.2500  -999.2500
 2831.0000   -31.7447     8.1206     4.9340   109.9123     8.1372     0.0557     2.4663  -999.2500  -999.2500
 2831.5000   -31.1326     7.9162     4.9458   110.4617     8.1360     0.0477     2.4374  -999.2500  -999.2500
 2832.0000   -31.1265     7.7412     4.9567   111.7802     8.0745     0.0330     2.4389  -999.2500  -999.2500
 2832.5000   -30.8175     7.5662     4.9677   112.8133     8.0739     0.0448     2.4587  -999.2500  -999.2500
 2833.0000   -31.1152     7.3618     4.9786   115.1429     8.0732     0.0574     2.4769  -999.2500  -999.2500
 2833.5000   -31.4115     7.1572     4.8424   117.0109     8.0726     0.0659     2.4663  -999.2500  -999.2500
 2834.0000   -31.7091     7.0114     4.8539   117.6923     8.0719     0.0640     2.4495  -999.2500  -999.2500
 2834.5000   -31.0963     6.9243     4.7182   112.6058     8.1019     0.0534     2.4571  -999.2500  -999.2500
 2835.0000   -30.1812     6.8657     4.7292   105.2303     8.1013     0.0410     2.4693  -999.2500  -999.2500
 2835.5000   -29.8721     6.8091     4.7401   103.2197     8.1063     0.0355     2.4694  -999.2500  -999.2500
 2836.0000   -29.8661     6.7529     4.6041   102.4615     8.1307     0.0348     2.4662  -999.2500  -999.2500
 2836.5000   -30.1636     6.7838     4.6154   103.1099     8.1299     0.0332     2.4783  -999.2500  -999.2500
 2837.0000   -30.1571     6.7874     4.6264   104.5056     8.1293     0.0377     2.4844  -999.2500  -999.2500
 2837.5000   -30.1510     6.8186     4.6373    99.7461     8.1286     0.0423     2.4661  -999.2500  -999.2500
 2838.0000   -30.1450     6.8498     4.6483    81.5154     8.1280     0.0339     2.4509  -999.2500  -999.2500
 2838.5000   -30.1389     6.8780     4.6592    60.2308     8.1176     0.0208     2.4494  -999.2500  -999.2500
 2839.0000   -29.8299     6.8761     4.6702    35.4527     8.0960     0.0140     2.4493  -999.2500  -999.2500
 2839.5000   -29.8238     6.7891     4.6811     6.2725     8.0953     0.0157     2.4478  -999.2500  -999.2500
 2840.0000   -29.8178     6.6687     4.5455     0.0000     8.0947     0.0265     2.4554  -999.2500  -999.2500
 2840.5000   -29.8117     6.5477     4.4098     0.0000     8.0940     0.0355     2.4646  -999.2500  -999.2500
 2841.0000   -29.8057     6.4306     4.2741     0.0000     8.0934     0.0423     2.4675  -999.2500  -999.2500
 2841.5000   -29.7997     6.3183     4.1384     0.0000     8.0927     0.0334     2.4546  -999.2500  -999.2500
 2842.0000   -29.1876     6.2309     4.1496     0.0000     8.0921     0.0245     2.4310  -999.2500  -999.2500
 2842.5000   -28.8785     6.1196     4.1605     0.4615     8.0607     0.0266     2.4456  -999.2500  -999.2500
 2843.0000   -29.1755     6.0620     4.1716     0.9231     8.0600     0.0403     2.4695  -999.2500  -999.2500
 2843.5000   -29.4725     6.0751     4.1911     0.9231     8.0594     0.0551     2.5027  -999.2500  -999.2500
 2844.0000   -29.4664     6.2365     4.3499     0.9231     8.0587     0.0562     2.4841  -999.2500  -999.2500
 2844.5000   -29.7636     6.4087     4.6555     0.9231     8.0581     0.0501     2.4735  -999.2500  -999.2500
 2845.0000   -29.7574     6.4921     4.9487     0.9231     8.0574     0.0626     2.4784  -999.2500  -999.2500
 2845.5000   -29.7513     6.5162     5.1197     0.9231     8.0566     0.0565     2.4796  -999.2500  -999.2500
 2846.0000   -29.7453     6.5177     5.2639     0.9231     8.0560     0.0367     2.4479  -999.2500  -999.2500
 2846.5000   -29.7393     6.4895     5.2749     0.9231     8.0553     0.0230     2.4039  -999.2500  -999.2500
 2847.0000   -29.7332     6.7506     5.2859     0.9231     8.0547     0.0184     2.3906  -999.2500  -999.2500
 2847.5000   -29.7272     6.9505     5.2981     0.4615     8.0540     0.0260     2.3821  -999.2500  -999.2500
