~VERSION INFORMATION
 VERS.                2.0:   CWLS LOG ASCII STANDARD - VERSION 2.0
 WRAP.                 NO:   ONE LINE PER DEPTH STEP
~WELL INFORMATION
#MNEM.UNIT      DATA TYPE    INFORMATION
#----------   ------------   ------------------------------
 STRT.F           10.0000:   START DEPTH
 STOP.F         3234.0000:   STOP DEPTH
 STEP.F            0.5000:   STEP LENGTH
 NULL.          -999.2500:   NO VALUE
 COMP. LAWRENCE ALLISON & ASSOSCIATES:   COMPANY
 WELL. 		  38-X-10:   WELL
 FLD .             NPR #3:   FIELD
 LOC .      S10 T38N R78W:   LOCATION
 CNTY.            NATRONA:   COUNTY
 STAT.            WYOMING:   STATE
 CTRY. UNITED STATES OF AMERICA:   COUNTRY
 SRVC.      DRESSER ATLAS:   SERVICE COMPANY
 DATE.        02-AUG-1986:   LOGDATE
 API .       490251120600:   API NUMBER
~CURVE INFORMATION
#MNEM.UNIT       API CODE    CURVE DESCRIPTION
#----------   ------------   ------------------------------
 DEPT.F                  :   
 GRR .GAPI   07 310 01 00:   GAMMA RAY FROM RESISTIVITY
 SPR .MV     07 010 01 00:   SPONTANEOUS POTENTIAL
 TENR.LBS    07 635 01 00:   TENSION FROM RESISTIVITY
 RILM.OHMM   07 120 44 00:   RESISTIVITY INDUCTION LOG MEDIUM
 CNC .DEC    42 890 03 00:   NEUTRON POROSITY SANDSTONE
 CALD.IN     45 280 60 00:   CALIPER FROM DENSITY LOG
 GRD .GAPI   45 310 01 00:   GAMMA RAY FROM DENSITY LOG
 RHOB.G/C3   45 350 01 00:   BULK DENSITY
 TEND.LBS    45 635 01 00:   TENSION FORM DENSITY LOG
 CORR.G/C3   45 356 01 00:   DENSITY CORRECTION
 RILD.OHMM   07 120 46 00:   RESISTIVITY INDUCTION LOG DEEP
 RFOC.OHMM   07 220 04 00:   RESISTIVITY FOCUSED
~PARAMETER INFORMATION
#MNEM.UNIT          VALUE    DESCRIPTION
#----------   ------------   ------------------------------
 EKB .F         5224.0000:   Kelly bushing
 EGL .F         5212.0000:   Ground level
 EDF .F            0.0000:   Drilling floor
 TD  .F         3231.0000:   Total depth
 CLNT.            A2DTECH:   Client Code
 SL  . 296' FSL & 1435' FWL:   Surface Location
 PD  .                 GL:   Permanent Datum
 EPD .F              5212:   Elevation Permanent Datum
 LMF .                 KB:   Log Measured From
 DMF .                 KB:   Drilling Measured From
 DAPD.F                12:   Feet Above Permanent Datum
 DATE.        02-AUG-1986:   Date Logged [DD-MMM-YYYY]
 DD  .F              3230:   Depth driller
 DL  .F              3231:   Depth logger
 BLI .F              3229:   Bottom log interval
 TLI .F                11:   Top log interval
 CS1 .IN            8.625:   Casing size
 CBD1.      8.625" @ 626':   Casing driller 1
 CBL1.F               626:   Casing logger 1
 BS1 .IN            7.875:   Bit size
 BSD1.F              3230:   Depth drilled with bit1
 DFT .            KCL-GEL:   Type fluid in hole
 DFD .                  9:   Density
 DFV .                 36:   Viscosity
 DFPH.               10.5:   pH
 DFL .                 12:   Fluid loss
 MSS .           FLOWLINE:   Source of sample
 RMS .OHMM          0.263:   Rm
 MST .F               100:   Rm Meas. temp.
 RMF .OHMM          0.197:   Rmf
 MFST.F               100:   Rmf Meas. temp.
 MFSS.               MEAS:   Source Rmf.
 RMC .OHMM          0.329:   Rmc
 MCST.F               100:   Rmc Meas. temp.
 MCSS.               CALC:   Source Rmc.
 RMB .OHMM          0.193:   Rm. at BHT
 BHT .F               136:   BHT.
 TCS .HRS               5:   Time Circ. stopped
 MRT .F               136:   Maximum recorded temp.
 LUN .            HL-6274:   Logging unit number
 LUL .           GILLETTE:   Logging unit location
 ENGI.            PANASUK:   Recorded By
 WITN.             STRONG:   Witnessed by
 ORIG.        2" 5" PRINT:   Origin of data
 UWI .       490251120600:   Unique Well ID
 DICO. A2D TECHNOLOGIES, INC.:   Digitizing Company
~OTHER INFORMATION
~A   DEPT       GRR       SPR       TENR       RILM        CNC       CALD        GRD       RHOB       TEND       CORR       RILD       RFOC   
# ...
 2782.0000   103.6592   -17.6729   -94.1088    11.9363     0.1769    10.8648   103.7212     2.4770   -59.0383    -0.0102    13.5219    17.9963
 2782.5000    92.7413   -16.6138  -101.5891    13.0660     0.1675    10.8644    93.8283     2.4831   -59.1115    -0.0041    15.1811    17.5002
 2783.0000    87.5811   -15.8577   -86.3928    13.3411     0.1648    10.8639    87.9767     2.4907   -59.2009    -0.0041    16.5495    18.5775
 2783.5000    82.4208   -15.1015   -86.3202    13.0643     0.1611    10.8635    81.9219     2.5020   -59.2731    -0.0131    17.6201    22.8056
 2784.0000    76.0485   -14.1779   -86.2477    12.6060     0.1636    10.8629    74.3520     2.5073   -59.3453    -0.0207    18.2439    25.4958
 2784.5000    72.7064   -13.2866   -86.1752    12.2690     0.1784    10.8625    72.2364     2.4708   -66.9477     0.0142    18.6283    20.2540
 2785.0000    76.9379   -12.3790   -86.1027    12.0986     0.1972    10.8621    75.8788     2.4287   -67.0199     0.0264    18.7574    15.6037
 2785.5000    79.6565   -11.7744   -77.2155    12.0978     0.2059    10.8616    80.1285     2.4098   -59.5620     0.0219    18.6255    14.0925
 2786.0000    80.8621   -11.1698   -55.7281    12.1817     0.1990    10.8612    79.5282     2.3939   -44.5740     0.0052    18.3664    13.6088
 2786.5000    79.0330   -10.5652   -40.5499    12.2658     0.1983    10.8608    76.8068     2.3901   -37.1161    -0.0038    17.8600    13.9927
 2787.0000    76.6000    -9.9606   -40.4773    12.4508     0.1977    10.8451    74.6914     2.3833   -37.2064     0.0038    17.2470    14.7944
 2787.5000    75.3770    -9.3563   -32.8520    12.6102     0.1965    10.7537    73.4851     2.3758   -29.7304     0.0232    17.1260    15.5333
 2788.0000    74.4592    -9.0548   -32.7794    12.7862     0.1962    10.7381    72.8848     2.3743   -29.8207     0.0402    17.3767    15.7504
 2788.5000    73.2405    -8.7532   -32.6888    13.0552     0.1998    10.6923    72.2846     2.3780   -29.8946     0.0281    17.8550    15.3159
 2789.0000    74.1409    -8.6028   -32.6163    13.3298     0.2059    10.6609    73.5040     2.3856   -22.4351     0.0130    18.1048    14.7902
 2789.5000    75.0390    -8.3016   -32.5438    13.7078     0.2107    10.6155    74.7219     2.3939   -14.9772     0.0024    18.4862    14.1833
 2790.0000    75.9394    -8.1515   -32.4713    14.1896     0.2056    10.5545    74.7278     2.3993   -15.0675     0.0130    18.8757    14.0840
 2790.5000    76.5367    -8.1533   -24.8459    14.0902     0.1986    10.5086    74.4305     2.4045   -15.1397     0.0328    18.3550    14.9949
 2791.0000    75.0128    -8.4578   -32.3263    13.7980     0.1968    10.4779    75.0424     2.4053   -22.7421     0.0404    17.9547    15.6411
 2791.5000    75.9132    -8.7623   -32.2357    13.4182     0.1986    10.4320    76.2604     2.4053   -30.3444     0.0389    17.4781    15.9638
 2792.0000    75.9023    -9.3698   -24.6103    13.0488     0.2007    10.3691    75.6616     2.4031   -15.3564     0.0298    17.8466    15.3085
 2792.5000    75.2875    -9.8258   -24.5378    12.9514     0.2004    10.3098    74.1522     2.4000    -7.8985     0.0268    18.0960    14.8864
 2793.0000    74.9758   -10.2818   -24.4653    13.1380     0.2010    10.3093    75.0667     2.3985    -7.9888     0.0329    18.0945    14.2756
 2793.5000    77.6921   -10.4351   -16.8399    13.5081     0.2055    10.2938    76.2851     2.4008    -8.0610     0.0299    18.2199    13.7856
 2794.0000    79.1985   -10.4366   -16.7674    13.8886     0.2073    10.2933    78.1091     2.4076   -15.6634     0.0254    18.2184    14.1822
 2794.5000    80.4019   -10.7411   -24.2478    14.1808     0.2001    10.2929    79.6808     2.4205   -24.2496     0.0292    18.2172    15.3031
 2795.0000    80.6984   -11.0985   -31.7100    14.4791     0.1916    10.2620    80.2434     2.4318   -23.3379     0.0482    18.0894    16.9891
 2795.5000    80.0815   -11.5016   -31.6465    14.4675     0.1867    10.2616    79.6417     2.4387   -15.8801     0.0588    17.9625    19.2595
 2796.0000    78.2545   -11.9616   -31.5650    13.9817     0.1864    10.2460    77.2247     2.4243   -15.9639     0.0634    17.9613    20.0809
 2796.5000    75.7202   -12.5654   -39.0483    13.8838     0.1906    10.2456    74.8063     2.4198   -16.0426     0.0574    18.0858    17.2242
 2797.0000    74.2970   -13.0214   -38.9728    13.7868     0.1997    10.2300    73.9030     2.4243   -23.6449     0.0453    18.2111    15.4007
 2797.5000    74.5920   -13.4774   -46.4532    13.9791     0.2058    10.2129    74.8182     2.4243   -19.1068     0.0392    18.3373    14.4668
 2798.0000    75.4924   -13.9334   -53.9154    14.1740     0.2079    10.1836    76.3404     2.4213   -27.0371     0.0393    18.0818    14.1664
 2798.5000    76.3927   -14.3895   -53.8429    14.4620     0.2103    10.1377    77.2553     2.4166   -43.0130     0.0439    17.3398    14.0670
 2799.0000    77.5939   -14.8455   -61.3233    14.4620     0.2115    10.1221    77.2611     2.4085   -50.4998     0.0469    16.5128    16.1709
 2799.5000    78.8470   -15.3018   -61.2507    14.4620     0.2068    10.0762    78.1760     2.4054   -50.7184     0.0272    16.3970    16.9786
 2800.0000    80.3014   -15.7582   -68.7796    14.5632     0.2012    10.0455    79.6970     2.4123   -50.9371     0.0234    17.0962    17.4579
 2800.5000    80.8977   -15.9170   -68.4157    14.7677     0.2030     9.9995    80.0073     2.4175   -51.1557     0.0613    17.9871    16.0526
 2801.0000    81.7971   -16.2273   -75.6773    15.0798     0.2054     9.9839    80.9222     2.4198   -51.3783     0.0446    18.9753    16.3886
 2801.5000    82.6965   -16.3864   -76.2644    15.6446     0.2024     9.9380    82.1401     2.4251   -51.6475     0.0415    19.9217    17.3252
 2802.0000    83.5960   -16.5467   -90.2006    16.3958     0.1984     9.8710    83.4812     2.4369   -51.8661     0.0461    20.6257    18.4435
 2802.5000    84.4952   -16.5539   -89.8367    16.6260     0.1948     9.8404    84.3578     2.4584   -52.0847     0.0416    21.5039    19.9652
 2803.0000    84.1800   -16.5612   -97.1711    16.6260     0.1929     9.8248    83.4356     2.4675   -75.2741     0.0250    21.9556    22.4095
 2803.5000    81.7461   -16.5685   -74.1486    16.5105     0.1899     9.8244    81.0034     2.4697   -74.8059    -0.0038    22.2608    24.3602
 2804.0000    76.5848   -16.4242   -51.1987    16.3958     0.1884     9.8238    75.2430     2.4508   -52.7404    -0.0287    22.1024    20.8918
 2804.5000    72.9387   -15.9770   -35.8006    16.1601     0.1868     9.8234    72.2057     2.4378   -37.6451    -0.0126    21.9459    17.6692
 2805.0000    70.2018   -15.6830   -35.4985    15.6148     0.1901     9.8229    70.9838     2.4183   -30.2068     0.0280    21.7905    16.0228
 2805.5000    70.8385   -15.8418   -42.6994    15.5063     0.1938     9.8074    73.9951     2.4160   -27.0157     0.0522    21.0411    16.0511
 2806.0000    76.5435   -16.0006   -57.5141    15.2916     0.2013     9.7918    77.6144     2.4168   -23.0417     0.0477    20.0362    17.4132
 2806.5000    82.2914   -16.4624   -64.7757    15.1853     0.2065     9.7460    81.8388     2.4175   -30.9719     0.0265    18.9467    18.1534
 2807.0000    85.9180   -16.9242   -64.4845    14.9750     0.2068     9.7152    86.3658     2.4191   -46.5044     0.0008    18.5519    18.2777
 2807.5000    88.9386   -17.2854   -64.1933    14.8710     0.2073     9.6996    88.7999     2.4274   -54.3800     0.0174    18.8100    17.4026
 2808.0000    91.0501   -17.8497   -63.8973    14.8710     0.2058     9.6992    90.5758     2.4380   -62.2555     0.0386    19.0715    16.9206
 2808.5000    91.3434   -18.1600   -55.9852    14.7677     0.2019     9.6837    89.3539     2.4523   -62.4808     0.0598    19.0683    17.6466
 2809.0000    88.8280   -18.4703   -55.6941    14.6403     0.2031     9.6832    86.0141     2.4607   -62.7473     0.0688    18.8018    18.1352
 2809.5000    82.8367   -18.6291   -63.0285    14.2617     0.2067     9.6817    83.2794     2.4652   -62.9659     0.0643    18.4101    18.2584
