~VERSION INFORMATION
 VERS.                2.0:   CWLS LOG ASCII STANDARD - VERSION 2.0
 WRAP.                 NO:   ONE LINE PER DEPTH STEP
~WELL INFORMATION
#MNEM.UNIT      DATA TYPE    INFORMATION
#----------   ------------   ------------------------------
 STRT.F           10.0000:   START DEPTH
 STOP.F         3234.0000:   STOP DEPTH
 STEP.F            0.5000:   STEP LENGTH
 NULL.          -999.2500:   NO VALUE
 COMP. LAWRENCE ALLISON & ASSOSCIATES:   COMPANY
 WELL. 		  38-X-10:   WELL
 FLD .             NPR #3:   FIELD
 LOC .      S10 T38N R78W:   LOCATION
 CNTY.            NATRONA:   COUNTY
 STAT.            WYOMING:   STATE
 CTRY. UNITED STATES OF AMERICA:   COUNTRY
 SRVC.      DRESSER ATLAS:   SERVICE COMPANY
 DATE.        02-AUG-1986:   LOGDATE
 API .       490251120600:   API NUMBER
~CURVE INFORMATION
#MNEM.UNIT       API CODE    CURVE DESCRIPTION
#----------   ------------   ------------------------------
 DEPT.F                  :   
 GRR .GAPI   07 310 01 00:   GAMMA RAY FROM RESISTIVITY
 SPR .MV     07 010 01 00:   SPONTANEOUS POTENTIAL
 TENR.LBS    07 635 01 00:   TENSION FROM RESISTIVITY
 RILM.OHMM   07 120 44 00:   RESISTIVITY INDUCTION LOG MEDIUM
 CNC .DEC    42 890 03 00:   NEUTRON POROSITY SANDSTONE
 CALD.IN     45 280 60 00:   CALIPER FROM DENSITY LOG
 GRD .GAPI   45 310 01 00:   GAMMA RAY FROM DENSITY LOG
 RHOB.G/C3   45 350 01 00:   BULK DENSITY
 TEND.LBS    45 635 01 00:   TENSION FORM DENSITY LOG
 CORR.G/C3   45 356 01 00:   DENSITY CORRECTION
 RILD.OHMM   07 120 46 00:   RESISTIVITY INDUCTION LOG DEEP
 RFOC.OHMM   07 220 04 00:   RESISTIVITY FOCUSED
~PARAMETER INFORMATION
#MNEM.UNIT          VALUE    DESCRIPTION
#----------   ------------   ------------------------------
 EKB .F         5224.0000:   Kelly bushing
 EGL .F         5212.0000:   Ground level
 EDF .F            0.0000:   Drilling floor
 TD  .F         3231.0000:   Total depth
 CLNT.            A2DTECH:   Client Code
 SL  . 296' FSL & 1435' FWL:   Surface Location
 PD  .                 GL:   Permanent Datum
 EPD .F              5212:   Elevation Permanent Datum
 LMF .                 KB:   Log Measured From
 DMF .                 KB:   Drilling Measured From
 DAPD.F                12:   Feet Above Permanent Datum
 DATE.        02-AUG-1986:   Date Logged [DD-MMM-YYYY]
 DD  .F              3230:   Depth driller
 DL  .F              3231:   Depth logger
 BLI .F              3229:   Bottom log interval
 TLI .F                11:   Top log interval
 CS1 .IN            8.625:   Casing size
 CBD1.      8.625" @ 626':   Casing driller 1
 CBL1.F               626:   Casing logger 1
 BS1 .IN            7.875:   Bit size
 BSD1.F              3230:   Depth drilled with bit1
 DFT .            KCL-GEL:   Type fluid in hole
 DFD .                  9:   Density
 DFV .                 36:   Viscosity
 DFPH.               10.5:   pH
 DFL .                 12:   Fluid loss
 MSS .           FLOWLINE:   Source of sample
 RMS .OHMM          0.263:   Rm
 MST .F               100:   Rm Meas. temp.
 RMF .OHMM          0.197:   Rmf
 MFST.F               100:   Rmf Meas. temp.
 MFSS.               MEAS:   Source Rmf.
 RMC .OHMM          0.329:   Rmc
 MCST.F               100:   Rmc Meas. temp.
 MCSS.               CALC:   Source Rmc.
 RMB .OHMM          0.193:   Rm. at BHT
 BHT .F               136:   BHT.
 TCS .HRS               5:   Time Circ. stopped
 MRT .F               136:   Maximum recorded temp.
 LUN .            HL-6274:   Logging unit number
 LUL .           GILLETTE:   Logging unit location
 ENGI.            PANASUK:   Recorded By
 WITN.             STRONG:   Witnessed by
 ORIG.        2" 5" PRINT:   Origin of data
 UWI .       490251120600:   Unique Well ID
 DICO. A2D TECHNOLOGIES, INC.:   Digitizing Company
~OTHER INFORMATION
~A   DEPT       GRR       SPR       TENR       RILM        CNC       CALD        GRD       RHOB       TEND       CORR       RILD       RFOC   
# ...
 3174.0000   130.7258   -20.9391    67.5173     4.0932     0.2408     8.0581   127.4816     2.5186    32.2385     0.0311     3.9227     4.7555
 3174.5000   131.9308   -21.0888    67.3716     4.1179     0.2383     8.0578   129.5968     2.5133    32.3105     0.0181     3.8184     4.6574
 3175.0000   131.0097   -21.3271    67.2205     3.8952     0.2408     8.0575   130.8071     2.5049    39.9126     0.0182     3.7133     4.7563
 3175.5000   129.1668   -21.6895    67.0449     3.7361     0.2435     8.0724   129.8916     2.4943    47.5151     0.0242     3.6112     4.8571
 3176.0000   129.1724   -21.9895    66.8995     3.6337     0.2441     8.0720   128.4010     2.4867    47.6048     0.0318     3.5119     4.7902
 3176.5000   129.4658   -22.2901    74.3434     3.5837     0.2417     8.0717   128.4055     2.4844    70.2671     0.0424     3.4380     4.5942
 3177.0000   129.1508   -22.4392    81.7509     3.5840     0.2435     8.0714   128.4091     2.4821    70.3391     0.0424     3.3916     4.5601
 3177.5000   129.1412   -22.5884    81.5692     3.6345     0.2544     8.0711   128.4128     2.4775    70.4111     0.0349     3.4392     4.5312
 3178.0000   129.4347   -22.7375    81.4200     3.7115     0.2610     8.0708   127.8131     2.4685    70.4831     0.0258     3.4875     4.5316
 3178.5000   130.0287   -23.0375    81.2421     3.7376     0.2598     8.0856   127.5150     2.4609    70.5572     0.0198     3.5861     4.5319
 3179.0000   131.5343   -23.1866    81.0967     3.8168     0.2547     8.0853   129.7758     2.4586    78.1753     0.0183     3.6619     4.5322
 3179.5000   132.7368   -23.3363    73.3985     3.9298     0.2453     8.0843  -999.2500     2.4593    78.2472     0.0113     3.7998     4.6302
 3180.0000   132.4242   -23.3333    65.7003     4.1212     0.2359     8.0696  -999.2500     2.4631    78.3193    -0.0150     3.9538     5.1390
 3180.5000  -999.2500   -23.4818    65.5549     4.2674     0.2310     8.0693  -999.2500     2.4676    85.9214    -0.0240     4.0093     5.2847
 3181.0000  -999.2500   -23.3279    65.4079     4.3578     0.2277     8.0690  -999.2500     2.4729    89.8822    -0.0195     4.0941     5.3967
 3181.5000  -999.2500   -23.3255    65.2278     4.4192     0.2313     8.0687  -999.2500     2.4804   101.1436    -0.0104     4.1516     5.4349
 3182.0000  -999.2500   -23.3231    87.7411     4.4503     0.2353     8.0684  -999.2500     2.4872   101.2156    -0.0028     4.2099     5.5501
 3182.5000  -999.2500   -23.3207   102.7014     4.4817     0.2313     8.0681  -999.2500     2.4955   101.2876    -0.0058     4.2393     5.9513
 3183.0000  -999.2500   -23.3177   110.1453     4.3590     0.2268     8.0611  -999.2500     2.4946   108.8898    -0.0103     4.2099     5.5898
 3183.5000  -999.2500   -23.3153   109.9636     4.1810     0.2265     8.0523  -999.2500     2.4781   108.9617    -0.0118     4.0656     5.3239
 3184.0000  -999.2500   -23.3129   102.2654     4.0382     0.2343     8.0520  -999.2500     2.4727   109.0361    -0.0043     3.9538     5.0354
 3184.5000  -999.2500   -23.3105   109.6729     3.9003     0.2404     8.0517  -999.2500     2.4818   109.1237     0.0124     3.8184     4.7958
 3185.0000  -999.2500   -23.3249   117.0441     3.7663     0.2433     8.0514  -999.2500     2.4825   101.6476     0.0306     3.6619     4.5656
 3185.5000  -999.2500   -23.4573   116.8987     3.6386  -999.2500     8.0511  -999.2500     2.4764   101.7376     0.0397     3.5612     4.3505
 3186.0000  -999.2500   -23.3027   116.7533     3.5884  -999.2500     8.0508  -999.2500     2.4742   109.3397     0.0487     3.4875     4.2905
 3186.5000  -999.2500   -23.1488   116.6079     3.5391  -999.2500     8.0505  -999.2500     2.4764   109.4127     0.0382     3.4153     4.2610
 3187.0000  -999.2500   -22.9949   108.9098     3.4903  -999.2500     8.0502  -999.2500     2.4771   109.5017     0.0321     3.3446     4.2316
 3187.5000  -999.2500   -22.6889   108.7613     3.4664  -999.2500     8.0499  -999.2500     2.4801   102.0436     0.0323     3.3214     4.2616
 3188.0000  -999.2500   -22.5350   108.5826     3.4689  -999.2500     8.0496  -999.2500     2.4877   102.1156     0.0367     3.3446     4.2917
 3188.5000  -999.2500   -22.3811   116.0265     3.5648  -999.2500     8.0493  -999.2500     2.4946   102.1877     0.0337     3.3680     4.3523
 3189.0000  -999.2500   -22.2272   123.3976     3.6914  -999.2500     8.0524  -999.2500     2.4952   109.7898     0.0246     3.4392     4.4446
 3189.5000  -999.2500   -22.2247   145.9109     3.7959  -999.2500     8.0639  -999.2500     2.4952   109.8645     0.0125     3.4875     4.5388
 3190.0000  -999.2500   -22.0702   168.4290     3.9033  -999.2500     8.0635  -999.2500     2.4944   117.4819     0.0095     3.5365     4.6675
 3190.5000  -999.2500   -22.0678   153.1722     3.9036  -999.2500     8.0632  -999.2500     2.4951   132.6141     0.0141     3.5861     4.8375
 3191.0000  -999.2500   -22.0654   145.4385     3.8191  -999.2500     8.0629  -999.2500     2.4974   132.6861     0.0202     3.6112     4.7669
 3191.5000  -999.2500   -21.9115   145.2931     3.7444  -999.2500     8.0626  -999.2500     2.4981   132.7581     0.0262     3.5861     4.6685
 3192.0000  -999.2500   -21.9040   145.1477     3.7447  -999.2500     8.0623  -999.2500     2.4989   132.8313     0.0308     3.5861     4.6363
 3192.5000  -999.2500   -21.7546   152.5916     3.7711  -999.2500     8.0620  -999.2500     2.4973   140.4502     0.0293     3.5612     4.6045
 3193.0000  -999.2500   -21.7522   167.5156     3.7713  -999.2500     8.0617  -999.2500     2.4943   155.5825     0.0244     3.5612     4.6048
 3193.5000  -999.2500   -21.9019   182.4760     3.7454  -999.2500     8.0614  -999.2500     2.4882   178.2448     0.0157     3.5365     4.5732
 3194.0000  -999.2500   -21.8989   197.4364     3.7197  -999.2500     8.0611  -999.2500     2.4891   200.9072     0.0081     3.5119     4.4788
 3194.5000  -999.2500   -21.8965   197.2547     3.6941  -999.2500     8.0608  -999.2500     2.4957   208.5093     0.0066     3.4633     4.4170
 3195.0000  -999.2500   -21.8935   189.5564     3.5930  -999.2500     8.0605  -999.2500     2.4972   208.5993     0.0127     3.4392     4.3866
 3195.5000  -999.2500   -22.0433   189.4111     3.5190  -999.2500     8.0602  -999.2500     2.4911   201.1232     0.0188     3.3916     4.4486
 3196.0000  -999.2500   -22.1924   196.8549     3.4948  -999.2500     8.0599  -999.2500     2.4881   208.7434     0.0294     3.3446     4.3873
 3196.5000  -999.2500   -22.3409   211.7790     3.4685  -999.2500     8.0596  -999.2500     2.4827   223.8756     0.0324     3.2754     4.2670
 3197.0000  -999.2500   -22.4900   212.0910     3.4230  -999.2500     8.0593  -999.2500     2.4790   231.4777     0.0218     3.2300     4.2082
 3197.5000  -999.2500   -22.4870   226.5940     3.3995  -999.2500     8.0590  -999.2500     2.4767   239.7114     0.0188     3.1853     4.1502
 3198.0000  -999.2500   -22.4846   234.0015     3.3916  -999.2500     8.0587  -999.2500     2.4668   254.2300     0.0128     3.1194     4.1216
 3198.5000  -999.2500   -22.4822   241.4090     3.2837  -999.2500     8.0584  -999.2500     2.4600   254.3021    -0.0311     3.0762     4.1219
 3199.0000  -999.2500   -22.4658   241.2273     3.2385  -999.2500     8.0581  -999.2500     2.4615   254.3741    -0.0598     3.0336     4.0935
 3199.5000  -999.2500   -22.4703   241.0819     3.1940  -999.2500     8.0578  -999.2500     2.4667   254.4461    -0.0341     2.9916     4.0372
 3200.0000  -999.2500   -22.4739   240.8962     3.1500  -999.2500     8.0575  -999.2500     2.4675   246.9879     0.0159     2.9707     3.9814
 3200.5000  -999.2500   -22.3267   241.1991     3.1066  -999.2500     8.0572  -999.2500     2.4606   246.9879     0.0509     2.9497     3.8977
 3201.0000  -999.2500   -22.3303   241.4415     3.0427  -999.2500     8.0569  -999.2500     2.4568   254.5181     0.0404     2.8884     3.8424
 3201.5000  -999.2500   -22.3348   241.6918     2.9775  -999.2500     8.0566  -999.2500     2.4538   262.0482     0.0300     2.8480     3.9220
