~VERSION INFORMATION
 VERS.                2.0:   CWLS LOG ASCII STANDARD - VERSION 2.0
 WRAP.                 NO:   ONE LINE PER DEPTH STEP
~WELL INFORMATION
#MNEM.UNIT      DATA TYPE    INFORMATION
#----------   ------------   ------------------------------
 STRT.F          484.0000:   START DEPTH
 STOP.F         4096.0000:   STOP DEPTH
 STEP.F            0.5000:   STEP LENGTH
 NULL.          -999.2500:   NO VALUE
 COMP.    FENIX & SCISSON:   COMPANY
 WELL. FENIX NPR "JX" #58-28:   WELL
 FLD .                NPR:   FIELD
 LOC .      S28 T39N R78W:   LOCATION
 CNTY.            NATRONA:   COUNTY
 STAT.            WYOMING:   STATE
 CTRY. UNITED STATES OF AMERICA:   COUNTRY
 SRVC.              WELEX:   SERVICE COMPANY
 DATE.        02-MAY-1978:   LOGDATE
 API .     49025107810000:   API NUMBER
~CURVE INFORMATION
#MNEM.UNIT       API CODE    CURVE DESCRIPTION
#----------   ------------   ------------------------------
 DEPT.F                  :   
 NPHI.DEC    42 890 03 00:   NEUTRON POROSITY SANDSTONE
 RHOB.G/C3   45 350 01 00:   BULK DENSITY
 CORR.G/C3   45 356 01 00:   DENSITY CORRECTION
 CALD.IN     45 280 60 00:   CALIPER FROM DENSITY LOG
 GRD .GAPI   45 310 01 00:   GAMMA RAY FROM DENSITY LOG
 SPR .MV     07 010 01 00:   SPONTANEOUS POTENTIAL
 ILD .OHMM   07 120 46 00:   DEEP INDUCTION RESISTIVITY
 SGRD.OHMM   07 220 05 00:   SHALLOW SHORT GUARD RESISTIVITY
 ILM .OHMM   07 120 44 00:   INDUCTION LOG MEDIUM RESISTIVITY
~PARAMETER INFORMATION
#MNEM.UNIT          VALUE    DESCRIPTION
#----------   ------------   ------------------------------
 EKB .F         5115.0000:   Kelly bushing
 EGL .F         5101.0000:   Ground level
 EDF .F            0.0000:   Drilling floor
 EPD .F         5101.0000:   Permanent datum
 TD  .F         4100.0000:   Total depth
 DATE.        02-MAY-1978:   Date logged
 CLNT.            A2DTECH:   Client Code
 SL  . 525' FSL & 2406' FEL:   Surface Location
 PD  .                 GL:   Permanent Datum
 DAPD.F                14:   Feet Above Permanent Datum
 DD  .F              4100:   Depth driller
 DL  .F              4098:   Depth logger
 BLI .F              4096:   Bottom log interval
 CS1 .IN            8.625:   Casing size
 CBD1.      8.625" @ 501':   Casing driller 1
 CBL1.F               500:   Casing logger 1
 BS1 .IN            7.875:   Bit size
 BSD1.F              4100:   Depth drilled with bit1
 DFT .            CHM GEL:   Type fluid in hole
 DFD .                9.4:   Density
 DFV .                 48:   Viscosity
 DFPH.                9.3:   pH
 DFL .                8.5:   Fluid loss
 MSS .           FLOWLINE:   Source of sample
 RMS .OHMM           1.24:   Rm
 MST .F                70:   Rm Meas. temp.
 RMF .OHMM            .57:   Rmf
 MFST.F                70:   Rmf Meas. temp.
 RMC .OHMM           1.48:   Rmc
 MCST.F                70:   Rmc Meas. temp.
 MFSS.               MEAS:   Source Rmf.
 MCSS.               MEAS:   Source Rmc.
 RMB .OHMM            .87:   Rm. at BHT
 BHT .F               123:   BHT.
 TCS .HRS               4:   Time Circ. stopped
 MRT .F               123:   Maximum recorded temp.
 LUN .               1892:   Logging unit number
 LUL .             CASPER:   Logging unit location
 ENGI.               REIN:   Recorded By
 WITN.           DINSMORE:   Witnessed by
 ORIG.         2.5" PRINT:   Origin of data
 UWI .     49025107810000:   Unique Well ID
 DICO. A2D TECHNOLOGIES, INC.:   Digitizing Company
 TLI .                500:   Top log interval
~OTHER INFORMATION
~A   DEPT       NPHI     RHOB       CORR       CALD         GRD       SPR        ILD       SGRD        ILM   
# ...
  958.5000     0.2680     2.6030     0.0980    11.0160    72.4090   -15.2170     7.0440     8.0990     7.4460
  959.0000     0.2670     2.5930     0.0950    11.0300    72.5160   -14.8120     7.0480     8.1080     7.4500
  959.5000     0.2680     2.5900     0.0910    11.0440    72.6250   -14.1270     7.0510     8.1180     7.4530
  960.0000     0.2670     2.5860     0.0880    11.0580    72.5670   -14.0780     7.0540     8.1270     7.4560
  960.5000     0.2660     2.5850     0.0840    11.0730    74.2760   -14.2870     7.0570     8.1370     7.4600
  961.0000     0.2660     2.5760     0.0870    11.0870    76.1810   -14.2000     7.0600     8.1460     7.4630
  961.5000     0.2680     2.5730     0.0890    11.1000    76.2010   -13.6010     7.0630     8.1550     7.4660
  962.0000     0.2690     2.5800     0.0920    11.0990    76.2340   -13.7900     7.0670     8.1560     7.4700
  962.5000     0.2700     2.5950     0.0950    11.0970    76.2130   -14.0310     7.0700     8.1560     7.4730
  963.0000     0.2710     2.6000     0.0980    11.0940    76.1820   -14.3060     7.0730     8.1560     7.4760
  963.5000     0.2720     2.6010     0.1010    11.0910    75.0330   -14.3070     7.0760     8.1560     7.4800
  964.0000     0.2730     2.5970     0.1040    11.0880    74.4230   -14.2080     7.0790     8.1560     7.4830
  964.5000     0.2740     2.5910     0.1060    11.0860    74.6750   -14.1150     7.0820     8.1560     7.4870
  965.0000     0.2760     2.5860     0.1090    11.0830    74.8830   -14.0070     7.0860     8.1560     7.4900
  965.5000     0.2760     2.5970     0.1120    11.0800    74.8450   -14.0600     7.0890     8.1560     7.4930
  966.0000     0.2760     2.6170     0.1150    11.0780    73.2070   -14.3120     7.0920     8.1560     7.4970
  966.5000     0.2770     2.6370     0.1180    11.0750    70.7390   -14.5300     7.0950     8.1560     7.5000
  967.0000     0.2770     2.6430     0.1210    11.0720    68.8750   -14.7550     7.0980     8.1560     7.5030
  967.5000     0.2770     2.6320     0.1240    11.0690    69.8460   -14.6070     7.1010     8.1560     7.5070
  968.0000     0.2770     2.6190     0.1230    11.0670    71.2940   -14.4430     7.1050     8.1560     7.5100
  968.5000     0.2780     2.6020     0.1190    11.0650    70.9000   -14.2640     7.1080     8.1560     7.5130
  969.0000     0.2770     2.5840     0.1160    11.0580    70.8410   -14.0820     7.1110     8.1560     7.5170
  969.5000     0.2750     2.5740     0.1040    11.0930    73.2270   -14.0090     7.1140     8.1520     7.5200
  970.0000     0.2720     2.5800     0.0970    11.1550    75.1130   -14.1690     7.1170     8.1460     7.5230
  970.5000     0.2700     2.5900     0.1000    11.2170    74.7820   -14.2720     7.1200     8.1410     7.5270
  971.0000     0.2700     2.5960     0.1020    11.2160    74.6490   -14.7940     7.1240     8.1350     7.5300
  971.5000     0.2710     2.5950     0.1040    11.1520    74.5510   -15.6940     7.1270     8.1300     7.5330
  972.0000     0.2710     2.5950     0.1070    11.0900    74.3790   -16.0230     7.1300     8.1250     7.5370
  972.5000     0.2710     2.5950     0.1090    11.0260    74.2520   -15.9840     7.1330     8.1190     7.5400
  973.0000     0.2720     2.5950     0.1110    10.9800    74.1110   -15.9840     7.1360     8.1140     7.5430
  973.5000     0.2750     2.5920     0.1100    10.9790    73.9660   -15.7020     7.1390     8.1090     7.5470
  974.0000     0.2760     2.5890     0.1010    10.9600    73.8280   -15.3680     7.1430     8.1030     7.5500
  974.5000     0.2760     2.5860     0.0920    10.9430    73.6830   -15.0340     7.1460     8.0980     7.5540
  975.0000     0.2740     2.5990     0.0870    10.9250    73.5530   -14.7050     7.1490     8.0930     7.5570
  975.5000     0.2720     2.6070     0.0850    10.9080    73.4160   -14.3650     7.1510     8.0870     7.5590
  976.0000     0.2730     2.6080     0.0830    10.8900    73.2340   -14.0430     7.1560     8.0820     7.5640
  976.5000     0.2750     2.6100     0.0810    10.8730    73.6760   -13.7100     7.1620     8.0770     7.5710
  977.0000     0.2790     2.6070     0.0800    10.8550    75.4980   -13.3300     7.1560     8.0710     7.5640
  977.5000     0.2830     2.6040     0.0780    10.8370    77.1270   -13.4660     7.1770     8.0660     7.5860
  978.0000     0.2820     2.6060     0.0760    10.8200    79.0680   -14.5570     7.0210     8.0600     7.4210
  978.5000     0.2810     2.6130     0.0740    10.8020    78.4740   -15.5900     7.0390     8.0550     7.4410
  979.0000     0.2810     2.6270     0.0720    10.7850    77.5410   -16.4190     7.0300     8.0500     7.4320
  979.5000     0.2820     2.6310     0.0700    10.7670    77.4300   -16.5870     7.0370     8.0440     7.4380
  980.0000     0.2840     2.6340     0.0680    10.7490    78.5510   -16.7560     7.0350     8.0390     7.4370
  980.5000     0.2860     2.6370     0.0660    10.7320    80.1530   -16.9170     7.0340     8.0340     7.4350
  981.0000     0.2870     2.6330     0.0640    10.7140    81.7470   -17.0750     7.0330     8.0290     7.4340
  981.5000     0.2880     2.6240     0.0620    10.6960    83.2990   -17.2000     7.0110     8.0230     7.4110
  982.0000     0.2880     2.6180     0.0600    10.6790    84.6310   -17.1070     6.9910     8.0180     7.3900
  982.5000     0.2890     2.6120     0.0590    10.6610    84.3130   -17.0240     6.9720     8.0120     7.3700
  983.0000     0.2890     2.6070     0.0570    10.6440    84.0310   -16.9290     6.9530     8.0060     7.3490
  983.5000     0.2890     2.6060     0.0560    10.6260    83.5020   -16.8650     6.9330     7.8820     7.3290
  984.0000     0.2890     2.6070     0.0580    10.6080    85.0240   -16.5380     6.9140     7.7470     7.3080
  984.5000     0.2880     2.6090     0.0600    10.5910    87.6720   -15.9320     6.8800     7.6110     7.2730
  985.0000     0.2880     2.6100     0.0610    10.5730    87.0240   -15.3610     6.8360     7.4760     7.2260
  985.5000     0.2870     2.6110     0.0630    10.5550    86.6160   -14.8060     6.7920     7.3400     7.1800
  986.0000     0.2870     2.6130     0.0650    10.5380    86.2150   -14.8040     6.7480     7.2040     7.1330
  986.5000     0.2880     2.6170     0.0660    10.5200    88.7610   -14.7010     6.7040     7.1630     7.0870
  987.0000     0.2890     2.6220     0.0680    10.5020    87.7120   -15.3790     6.6600     7.1600     7.0400
  987.5000     0.2870     2.6240     0.0690    10.4850    86.9010   -16.5850     6.6160     7.1560     6.9940
  988.0000     0.2850     2.6250     0.0710    10.4670    85.8950   -17.2040     6.5730     7.1530     6.9480
  988.5000     0.2860     2.6270     0.0730    10.4490    84.9250   -16.8710     6.5290     7.1490     6.9010
  989.0000     0.2840     2.6280     0.0740    10.4320    83.9830   -16.6820     6.4850     7.1450     6.8550
  989.5000     0.2810     2.6330     0.0760    10.4180    83.0300   -16.4280     6.4410     7.1420     6.8080
  990.0000     0.2810     2.6390     0.0770    10.4480    82.0490   -16.5910     6.4130     7.1390     6.7790
  990.5000     0.2800     2.6450     0.0790    10.4770    81.1150   -16.8320     6.4130     7.1350     6.7790
  991.0000     0.2790     2.6440     0.0810    10.5090    80.2010   -17.0810     6.4130     7.1320     6.7790
  991.5000     0.2790     2.6370     0.0820    10.5390    79.0100   -17.3080     6.4130     7.1280     6.7790
  992.0000     0.2790     2.6270     0.0840    10.5700    80.1400   -17.5510     6.4130     7.1250     6.7790
  992.5000     0.2800     2.6180     0.0850    10.6030    84.6480   -17.3890     6.4130     7.1210     6.7790
  993.0000     0.2790     2.6130     0.0870    10.6080    86.5280   -17.0770     6.4130     7.1180     6.7790
  993.5000     0.2760     2.6130     0.0890    10.5820    85.7850   -16.7670     6.4130     7.1140     6.7790
  994.0000     0.2750     2.6120     0.0900    10.5600    85.3380   -16.4590     6.4130     7.1110     6.7790
  994.5000     0.2740     2.6110     0.0920    10.5380    85.0870   -16.1600     6.4130     7.1070     6.7790
