~VERSION INFORMATION
 VERS.                2.0:   CWLS LOG ASCII STANDARD - VERSION 2.0
 WRAP.                 NO:   ONE LINE PER DEPTH STEP
~WELL INFORMATION
#MNEM.UNIT      DATA TYPE    INFORMATION
#----------   ------------   ------------------------------
 STRT.F            3.5000:   START DEPTH
 STOP.F         5648.0000:   STOP DEPTH
 STEP.F            0.5000:   STEP LENGTH
 NULL.          -999.2500:   NO VALUE
 COMP.       FLUOR DANIEL:   COMPANY
 WELL.   FLUOR "X" #46-10:   WELL
 FLD .          N.P.R. #3:   FIELD
 LOC .      S10 T38N R78W:   LOCATION
 CNTY.            NATRONA:   COUNTY
 STAT.            WYOMING:   STATE
 CTRY. UNITED STATES OF AMERICA:   COUNTRY
 SRVC.      WESTERN ATLAS:   SERVICE COMPANY
 DATE.        25-MAR-1996:   LOGDATE
 API .     49025227700000:   API NUMBER
~CURVE INFORMATION
#MNEM.UNIT       API CODE    CURVE DESCRIPTION
#----------   ------------   ------------------------------
 DEPT.F                  :   
 CALD.IN     45 280 60 00:   CALIPER FROM DENSITY LOG
 ZDEN.G/C3   45 350 01 00:   BULK DENSITY
 ZCOR.G/C3   45 356 01 00:   DENSITY CORRECTION
 TEND.LBS    45 635 01 00:   TENSION FORM DENSITY LOG
 GRD .GAPI   45 310 01 00:   GAMMA RAY FROM DENSITY LOG
 CNC .DEC    42 890 01 00:   NEUTRON POROSITY LIMESTONE
 SPR .MV     07 010 01 00:   SPONTANEOUS POTENTIAL
 RD  .OHMM   07 220 10 00:   RESISTIVITY DEEP
 RS  .OHMM   07 220 09 00:   RESISTIVITY SHALLOW
~PARAMETER INFORMATION
#MNEM.UNIT          VALUE    DESCRIPTION
#----------   ------------   ------------------------------
 EKB .F         5216.0000:   Kelly bushing
 EGL .F         5206.0000:   Ground level
 EDF .F         5215.0000:   Drilling floor
 TD  .F         5650.0000:   Total depth
 CLNT.            A2DTECH:   Client Code
 SL  . 1493' FSL & 2330' FWL:   Surface Location
 PD  .                 GL:   Permanent Datum
 EPD .F              5206:   Elevation Permanent Datum
 LMF .                 KB:   Log Measured From
 DMF .                 KB:   Drilling Measured From
 DAPD.F                10:   Feet Above Permanent Datum
 DATE.        25-MAR-1996:   Date Logged [DD-MMM-YYYY]
 DD  .F              5650:   Depth driller
 DL  .F              5648:   Depth logger
 BLI .F              5636:   Bottom log interval
 TLI .F                 0:   Top log interval
 CS1 .IN            9.625:   Casing size
 CBD1.      9.625" @ 498':   Casing driller 1
 CBL1.F               496:   Casing logger 1
 BS1 .IN             8.75:   Bit size
 BSD1.F              5650:   Depth drilled with bit1
 DFT .           CHEM GEL:   Type fluid in hole
 DFD .                9.6:   Density
 DFV .                 54:   Viscosity
 DFPH.                9.5:   pH
 DFL .                8.4:   Fluid loss
 MSS .           FLOWLINE:   Source of sample
 RMS .OHMM          0.635:   Rm
 MST .F                68:   Rm Meas. temp.
 RMF .OHMM          0.483:   Rmf
 MFST.F                68:   Rmf Meas. temp.
 MFSS.               MEAS:   Source Rmf.
 RMC .OHMM          0.789:   Rmc
 MCST.F                68:   Rmc Meas. temp.
 MCSS.               MEAS:   Source Rmc.
 RMB .OHMM           0.26:   Rm. at BHT
 BHT .F               166:   BHT.
 TCS .HRS               6:   Time Circ. stopped
 MRT .F               166:   Maximum recorded temp.
 LUN .            HL-6530:   Logging unit number
 LUL .             CASPER:   Logging unit location
 ENGI.        VERN RAUTIO:   Recorded By
 WITN. LORRAINE LAFRENIERE:   Witnessed by
 ORIG.           5" PRINT:   Origin of data
 UWI .     49025227700000:   Unique Well ID
 DICO. A2D TECHNOLOGIES, INC.:   Digitizing Company
~OTHER INFORMATION
~A  DEPTH     CALD       ZDEN       ZCOR       TEND        GRD        CNC        SPR         RD         RS
# ...
  806.5000     9.6204     2.4926     0.0517   -11.3646    82.4699     0.2920   -79.3363    13.0206     8.4511
  807.0000     9.6208     2.4941     0.0533    -3.9850    83.3856     0.3010   -78.2805    12.8383     8.4494
  807.5000     9.6213     2.5024     0.0533     3.3870    84.2991     0.3040   -77.9789    12.6578     8.3316
  808.0000     9.6217     2.5114     0.0533   -11.8293    85.5184     0.3061   -78.2805    12.4807     8.2150
  808.5000     9.6222     2.5227     0.0533   -19.4911    87.0333     0.3046   -79.4872    12.3060     8.1005
  809.0000     9.6075     2.5287     0.0518   -27.1529    86.7381     0.3012   -80.5019    12.3020     8.0989
  809.5000     9.6080     2.5232     0.0503   -19.7744    87.3521     0.2938   -82.0081    12.2989     8.2103
  810.0000     9.6235     2.5174     0.0579   -19.9248    89.1706     0.2844   -82.4590    12.4679     8.3232
  810.5000     9.6089     2.5175     0.0594   -35.1364    89.4808     0.2787   -81.5325    12.4638     8.3212
  811.0000     9.5943     2.5175     0.0444   -42.7982    88.5844     0.2766   -80.4929    12.2887     8.0920
  811.5000     9.5948     2.5175     0.0368   -50.4599    90.4050     0.2778   -79.8875    12.1167     7.9791
  812.0000     9.5801     2.5152     0.0459   -35.5653    92.2235     0.2802   -80.4887    11.9317     7.8679
  812.5000     9.5806     2.5107     0.0504    -5.6331    92.5338     0.2802   -81.3910    11.6979     7.8660
  813.0000     9.5810     2.5047     0.0534     1.7427    91.0362     0.2783   -82.2939    11.6142     7.8645
  813.5000     9.5816     2.5010     0.0535     1.5639    89.8381     0.2777   -82.8951    11.6112     7.7548
  814.0000     9.5820     2.4987     0.0535    -6.0978    88.2048     0.2789   -83.1947    11.9333     7.8615
  814.5000     9.5824     2.5002     0.0518    -6.2408    87.3047     0.2808   -82.4379    12.0131     7.8596
  815.0000     9.5828     2.5062     0.0475   -13.9384    87.3083     0.2816   -81.3800    12.2619     7.9677
  815.5000     9.5833     2.5100     0.0445   -44.1565    88.5148     0.2789   -80.7745    12.4288     8.1330
  816.0000     9.5838     2.5115     0.0430   -51.8183    90.6229     0.2762   -81.8277    12.4257     8.1883
  816.5000     9.5842     2.5085     0.0385   -51.9613    91.8287     0.2752   -84.3897    12.2517     8.1863
  817.0000     9.5846     2.5078     0.0353   -36.8669    91.2120     0.2821   -84.0859    12.2478     8.1844
  817.5000     9.5851     2.5085     0.0310   -14.6533    88.8275     0.2854   -83.0275    12.3297     8.1829
  818.0000     9.5855     2.5123     0.0295   -22.3508    87.6274     0.2873   -83.4779    12.4121     8.1812
  818.5000     9.5860     2.5183     0.0265   -22.4938    86.4272     0.2851   -84.3807    12.4082     8.1793
  819.0000     9.5864     2.5198     0.0235   -30.1556    85.5017     0.2788   -84.0644    12.5383     8.2345
  819.5000     9.5869     2.5176     0.0250   -30.3008    85.2298     0.2752   -82.5660    12.6159     8.3478
  820.0000     9.5873     2.5161     0.0296   -30.4773    85.8349     0.2727   -81.0556    12.7466     8.5214
  820.5000     9.5878     2.5116     0.0341   -30.6203    86.4392     0.2745   -80.1485    12.9209     8.5790
  821.0000     9.5883     2.5048     0.0356   -30.7519    87.0436     0.2784   -79.3918    13.0065     8.5177
  821.5000     9.5887     2.5003     0.0357   -30.9301    87.0471     0.2799   -79.2388    13.0935     8.5157
  822.0000     9.5892     2.4981     0.0387   -31.0731    87.3506     0.2805   -79.2367    12.9094     8.3969
  822.5000     9.5896     2.4973     0.0387   -38.7349    88.5565     0.2829   -79.2533    12.5537     8.2799
  823.0000     9.5901     2.4966     0.0372   -31.3234    88.5173     0.2868   -79.3833    12.2071     8.1077
  823.5000     9.5905     2.4973     0.0297   -31.5038    87.3598     0.2865   -79.3807    12.2040     8.0502
  824.0000     9.5910     2.5019     0.0220   -31.6808    86.4604     0.2871   -79.5294    12.1175     8.0486
  824.5000     9.5914     2.5079     0.0177   -24.3050    85.8617     0.2877   -79.3765    12.1977     8.1593
  825.0000     9.5919     2.5109     0.0177   -24.4480    87.3690     0.2895   -79.5252    12.3646     8.2715
  825.5000     9.5923     2.5124     0.0147   -17.0677    89.7779     0.2910   -79.8243    12.5337     8.4431
  826.0000     9.5928     2.5132     0.0162   -17.2180    91.2844     0.2885   -80.1238    12.5288     8.6187
  826.5000     9.5933     2.5192     0.0241   -17.3939    90.0843     0.2861   -79.2162    12.5256     8.3234
  827.0000     9.5937     2.5237     0.0358   -17.5369    89.7863     0.2846   -78.3091    12.1806     8.1507
  827.5000     9.5942     2.5260     0.0403   -17.6799    89.7899     0.2834   -78.9290    11.9176     8.0367
  828.0000     9.5946     2.5267     0.0419   -17.8229    89.7927     0.2831   -80.4159    11.8412     7.9614
  828.5000     9.5950     2.5275     0.0419   -10.4471    88.5925     0.2831   -81.6210    11.8382     7.9231
  829.0000     9.5955     2.5275     0.0419   -10.6258    85.8893     0.2828   -81.0150    11.8351     8.0321
  829.5000     9.5959     2.5245     0.0434   -10.7688    85.8921     0.2834   -81.0124    11.8314     8.0301
  830.0000     9.5964     2.5200     0.0449   -18.4306    86.1957     0.2863   -80.4070    11.8283     8.0844
  830.5000     9.5968     2.5080     0.0555   -18.5736    87.4015     0.2891   -78.8966    11.8206     8.0824
  831.0000     9.5973     2.4990     0.0676   -18.7218    87.4050     0.2911   -78.1403    11.5786     8.0251
  831.5000     9.5977     2.5012     0.1097   -18.8953    87.4079     0.2917   -78.5907    11.4958     7.9132
  832.0000     9.5982     2.5110     0.1112   -19.0383    87.4107     0.2941   -79.4930    11.3328     7.8025
  832.5000     9.5986     2.5218     0.0977   -19.1813    87.7143     0.2965   -79.9434    11.1756     7.6937
  833.0000     9.5991     2.5366     0.0631   -19.3243    87.4164     0.2899   -78.8850    11.1727     7.6922
  833.5000     9.5996     2.5373     0.0418   -19.5030    87.4199     0.2821   -78.5812    11.1698     7.5846
  834.0000     9.6001     2.5374     0.0526   -19.6460    88.0242     0.2799   -78.8808    11.1663     7.5832
  834.5000     9.6005     2.5366     0.0676   -19.7890    90.1453     0.2904   -79.6516    11.1634     7.6874
  835.0000     9.6009     2.5366     0.0812   -19.9320    88.6321     0.2928   -80.3843    11.1606     7.6918
  835.5000     9.6164     2.5479     0.0872   -20.0752    88.0327     0.2934   -80.3822    11.3125     7.7913
  836.0000     9.6471     2.5532     0.0805   -20.2537    87.4347     0.2892   -80.3801    11.3096     7.7898
  836.5000     9.6475     2.5532     0.0557   -27.9155    84.3668     0.2721   -81.2824    11.6240     7.8965
  837.0000     9.6630     2.5539     0.0451   -28.0585    80.2230     0.2684   -81.8836    11.8648     7.8950
  837.5000     9.6634     2.5509     0.0406   -35.7202    79.0229     0.2669   -81.7307    11.6980     7.8935
  838.0000     9.6639     2.5487     0.0512   -35.8647    80.5294     0.2678   -80.3706    11.4547     7.6760
  838.5000     9.6644     2.5472     0.0542   -36.0420    84.5293     0.2759   -79.7652    11.2936     7.5690
  839.0000     9.6799     2.5449     0.0527   -36.1850    88.3553     0.2804   -79.1597    11.2908     7.6201
  839.5000     9.6803     2.5372     0.0527   -36.3279    89.8619     0.2804   -78.8560    11.1327     7.6716
  840.0000     9.6807     2.5232     0.0558   -28.9474    89.5640     0.2798   -78.5517    10.9762     7.6698
  840.5000     9.6812     2.5096     0.0663   -21.5763    88.0261     0.2801   -78.3987    10.8226     7.5106
  841.0000     9.6817     2.4773     0.1355    -6.6817    87.7651     0.2834   -78.5475    10.5975     7.1535
  841.5000     9.6821     2.4675     0.1596    -6.8605    88.3702     0.2927   -78.8465    10.5217     6.9568
  842.0000     9.6826     2.4826     0.1416   -22.0410    87.4708     0.2975   -79.1466    10.6649     7.2505
  842.5000     9.6981     2.5142     0.0754   -37.2216    87.1728     0.2936   -79.5970    10.8859     7.5567
