~VERSION INFORMATION
 VERS.                2.0:   CWLS LOG ASCII STANDARD - VERSION 2.0
 WRAP.                 NO:   ONE LINE PER DEPTH STEP
~WELL INFORMATION
#MNEM.UNIT      DATA TYPE    INFORMATION
#----------   ------------   ------------------------------
 STRT.F           12.0000:   START DEPTH
 STOP.F          900.0000:   STOP DEPTH
 STEP.F            0.5000:   STEP LENGTH
 NULL.          -999.2500:   NO VALUE
 COMP. FLUOR DANIEL - NPSOR:   COMPANY
 WELL. FLUOR NPR "X" #82-34:   WELL
 FLD .              NPR 3:   FIELD
 LOC .      S34 T39N R78W:   LOCATION
 CNTY.            NATRONA:   COUNTY
 STAT.            WYOMING:   STATE
 CTRY. UNITED STATES OF AMERICA:   COUNTRY
 SRVC.      WESTERN ATLAS:   SERVICE COMPANY
 DATE.        06-SEP-1994:   LOGDATE
 API .     49025226350000:   API NUMBER
~CURVE INFORMATION
#MNEM.UNIT       API CODE    CURVE DESCRIPTION
#----------   ------------   ------------------------------
 DEPT.F                  :   
 RILD.OHMM   07 120 46 00:   INDUCTION LOG DEEP RESISTIVITY
 TENR.LBS    07 635 01 00:   TENSION
 RILM.OHMM   07 120 44 00:   INDUCTION LOG MEDIUM RESISTIVITY
 GRR .GAPI   07 310 01 00:   GAMMA RAY FROM RESISTIVITY
~PARAMETER INFORMATION
#MNEM.UNIT          VALUE    DESCRIPTION
#----------   ------------   ------------------------------
 EKB .F         5084.0000:   Kelly bushing
 EGL .F         5074.0000:   Ground level
 EDF .F         5083.0000:   Drilling floor
 EPD .F            0.0000:   Permanent datum
 TD  .F          918.0000:   Total depth
 DATE.        06-SEP-1994:   Date logged
 CLNT.            A2DTECH:   Client Code
 SL  . 990' FNL & 330' FEL:   Surface Location
 PD  .                 GL:   Permanent Datum
 DAPD.F                10:   Feet Above Permanent Datum
 DD  .F               918:   Depth driller
 DL  .F               807:   Depth logger
 BLI .F               889:   Bottom log interval
 CS1 .IN            9.625:   Casing size
 CBD1.       9.625" @ 54':   Casing driller 1
 CBL1.F                54:   Casing logger 1
 BS1 .IN             8.75:   Bit size
 BSD1.F               918:   Depth drilled with bit1
 DFT .                AIR:   Type fluid in hole
 LUN .            HL-6321:   Logging unit number
 LUL .       ROCK SPRINGS:   Logging unit location
 ENGI.           VERCIMAK:   Recorded By
 WITN.          G. STRONG:   Witnessed by
 ORIG.           5" PRINT:   Origin of data
 UWI .     49025226350000:   Unique Well ID
 DICO. A2D TECHNOLOGIES, INC.:   Digitizing Company
~OTHER INFORMATION
~A   DEPT     RILD       TENR       RILM         GRR  
# ...
  304.0000     6.8280   -82.2830     7.4030    93.4500
  304.5000     6.0370   -82.4000     6.6010    96.7600
  305.0000     5.2470   -82.5180     5.7990   101.1200
  305.5000     4.7530   -82.6350     5.3860   108.7400
  306.0000     4.7530   -82.7520     5.2910   117.3930
  306.5000     4.9690   -82.8690     5.5960   125.9430
  307.0000     5.4010   -82.9860     5.9370   128.3990
  307.5000     5.8320   -83.1030     6.2780   120.2940
  308.0000     6.2630   -83.2200     6.6190   111.3360
  308.5000     6.6950   -83.3370     6.9600   103.4600
  309.0000     7.1260   -83.4540     7.3010   101.8910
  309.5000     7.5580   -83.5710     7.6410   101.9450
  310.0000     7.8860   -83.6880     7.9820   101.9420
  310.5000     8.0280   -83.8050     8.2660   101.9390
  311.0000     8.1690   -83.9220     8.5770   102.0200
  311.5000     8.3110   -84.0390     8.8440   104.0140
  312.0000     8.4530   -84.1560     9.1100   105.0800
  312.5000     8.6290   -84.2730     9.3770   104.7840
  313.0000     8.9410   -84.3900     9.6430   104.5420
  313.5000     9.2530   -84.5070     9.9100   104.2800
  314.0000     9.5650   -84.6240    10.1760   101.9990
  314.5000     9.8780   -84.7410    10.4420    99.1450
  315.0000    10.1900   -84.8580    10.7090    96.2430
  315.5000    10.4430   -84.9750    10.8360    93.7410
  316.0000    10.5150   -85.0920    10.8850    92.0580
  316.5000    10.5870   -85.2090    10.9350    90.1980
  317.0000    10.6600   -85.2710    10.9840    90.1030
  317.5000    10.7320   -85.2710    11.0340    91.9410
  318.0000    10.8040   -85.2710    11.0830    93.6650
  318.5000    10.8770   -85.2710    11.1330    93.7470
  319.0000    10.9490   -85.2710    11.1820    93.4200
  319.5000    11.2930   -85.2710    11.9690    94.2150
  320.0000    12.2460   -85.2710    13.8130    94.8960
  320.5000    13.1980   -85.2710    15.6570    92.3700
  321.0000    14.1500   -85.2710    17.5010    88.7230
  321.5000    15.1020   -85.2710    20.1790    85.0260
  322.0000    16.0540   -85.2710    19.6920    81.5520
  322.5000    16.8810   -85.2710    18.8020    77.8550
  323.0000    16.6690   -85.2710    17.9120    78.7660
  323.5000    15.9290   -85.2710    17.0230    82.9610
  324.0000    15.0810   -85.2710    16.1330    87.6640
  324.5000    14.2330   -85.2710    15.2430    92.3720
  325.0000    13.3840   -85.2710    14.3530    92.1380
  325.5000    12.5360   -85.2710    13.4630    91.1350
  326.0000    11.6880   -85.2710    12.5730    93.2170
  326.5000    10.9990   -85.2710    11.6840    97.2800
  327.0000    10.4250   -85.2710    10.9910   101.6490
  327.5000    10.4250   -85.2710    10.9570   101.2640
  328.0000    10.4250   -85.2710    10.9240   100.6310
  328.5000    10.4250   -85.2710    10.8900    99.7810
  329.0000    10.4250   -85.2710    10.8570    99.1240
  329.5000    10.4250   -85.2710    10.8230    98.0870
  330.0000    10.4250   -85.2710    10.7900   100.1980
  330.5000    10.4250   -85.2710    10.7560   104.1740
  331.0000    10.4250   -85.2710    10.7230   106.7670
  331.5000    10.4250   -85.2710    10.6890   105.5380
  332.0000    10.2410   -85.1700    10.6560   103.2730
  332.5000    10.0600   -85.0260    10.6220   100.9990
  333.0000     9.8110   -84.8820    10.1810   100.3780
  333.5000     9.4140   -84.7390     9.5830   100.2520
  334.0000     8.8640   -84.5950     8.9850   101.1420
  334.5000     8.3140   -84.4510     8.3860   103.0060
  335.0000     7.7630   -84.3080     7.7880   108.1870
  335.5000     7.2130   -84.1640     7.1900   112.6740
  336.0000     6.6630   -84.0200     6.5920   117.4040
  336.5000     6.2130   -83.8760     6.1030   122.0340
  337.0000     5.8890   -83.7330     5.8890   125.0850
  337.5000     5.7850   -83.5890     5.6820   127.6950
  338.0000     5.5820   -83.4450     5.5820   130.1070
  338.5000     5.4830   -83.3020     5.5820   133.0920
  339.0000     5.4830   -83.1580     5.5970   132.2960
  339.5000     5.3860   -83.0140     5.6170   130.0450
  340.0000     5.4050   -82.8700     5.6360   127.7560
  340.5000     5.4270   -82.7270     5.6550   125.4820
  341.0000     5.4490   -82.5830     5.6750   123.3110
  341.5000     5.4720   -82.4390     5.6940   120.7910
  342.0000     5.4940   -82.2960     5.7130   119.6270
  342.5000     5.5160   -82.1520     5.7320   122.0880
  343.0000     5.5380   -82.0080     5.7520   126.0880
  343.5000     5.5610   -81.8650     5.7710   127.8940
  344.0000     5.5830   -81.7210     5.7900   125.5500
  344.5000     5.6050   -81.5770     5.8100   123.2410
  345.0000     5.6280   -81.4330     5.8290   122.9710
  345.5000     5.6500   -81.2900     5.8480   124.8370
  346.0000     5.6720   -81.1460     5.8670   126.6620
  346.5000     5.6950   -81.0020     5.8870   127.8770
  347.0000     5.7170   -80.8590     5.9060   127.1790
  347.5000     5.7390   -80.7150     5.9250   126.0650
  348.0000     5.7620   -80.5710     5.9450   124.9970
  348.5000     5.7840   -80.4270     5.9640   123.9270
  349.0000     5.7660   -80.2840     5.9830   123.0780
  349.5000     5.7350   -80.1400     5.9950   123.5640
  350.0000     5.7030   -79.9960     5.9450   124.2130
  350.5000     5.6710   -79.8530     5.8960   124.9020
  351.0000     5.6390   -79.7090     5.8460   125.0970
  351.5000     5.6070   -79.5650     5.7960   123.8170
  352.0000     5.5760   -79.4210     5.7460   122.6600
  352.5000     5.5440   -79.2780     5.6970   121.6100
  353.0000     5.5120   -79.1340     5.6470   122.9710
  353.5000     5.4830   -78.9900     5.5820   124.1850
  354.0000     5.5020   -78.8470     5.6340   125.5580
  354.5000     5.5680   -78.7030     5.7110   127.0360
  355.0000     5.6350   -78.5590     5.7880   126.7670
  355.5000     5.7010   -78.4160     5.8640   123.7090
  356.0000     5.7670   -78.2720     5.9410   120.6520
  356.5000     5.8330   -78.1280     6.0180   120.5560
  357.0000     5.8990   -77.9840     6.0940   122.1270
  357.5000     5.9650   -77.8410     6.1710   123.1490
  358.0000     6.0310   -77.6970     6.2480   126.8550
  358.5000     6.0970   -77.5530     6.3240   131.8320
  359.0000     6.1630   -77.4100     6.4010   133.3760
  359.5000     6.2300   -77.2660     6.4780   130.9550
  360.0000     6.2960   -77.1220     6.5540   129.0690
  360.5000     6.3620   -76.9780     6.6310   125.2490
  361.0000     6.4280   -76.8350     6.7080   121.6800
  361.5000     6.4940   -76.6910     6.7840   121.4810
  362.0000     6.5540   -76.5470     6.8990   122.7170
  362.5000     6.4380   -76.4040     6.8960   120.6810
  363.0000     6.4380   -76.2600     6.8310   117.4750
  363.5000     6.4380   -76.1160     6.7660   114.4050
  364.0000     6.4380   -75.9720     6.7010   112.2090
  364.5000     6.3250   -75.8290     6.6360   115.2210
  365.0000     6.2930   -75.6850     6.5710   118.8430
  365.5000     6.2600   -75.5410     6.5060   122.5790
  366.0000     6.2260   -75.3980     6.4410   126.1730
  366.5000     6.1930   -75.2540     6.3760   129.8610
  367.0000     6.1590   -75.1100     6.3160   130.2190
  367.5000     6.1260   -74.9660     6.2760   129.1890
  368.0000     6.0930   -74.8230     6.2130   128.0490
  368.5000     6.0590   -74.6790     6.2440   128.4370
  369.0000     6.0260   -74.5350     6.3250   129.8060
  369.5000     5.9950   -74.3920     6.3250   129.3010
  370.0000     6.0290   -74.2480     6.3320   127.8650
  370.5000     6.0600   -74.1040     6.3390   128.5630
  371.0000     6.0910   -73.9610     6.3440   129.1130
  371.5000     6.1230   -73.8170     6.3500   127.1560
  372.0000     6.1540   -73.6730     6.3550   125.2460
  372.5000     6.1860   -73.5290     6.3610   125.3270
  373.0000     6.2170   -73.3860     6.3670   126.5890
  373.5000     6.2490   -73.2420     6.3720   124.1550
  374.0000     6.2800   -73.0980     6.3780   120.0780
  374.5000     6.3120   -72.9550     6.3840   120.0820
  375.0000     6.3430   -72.8110     6.3890   121.4800
  375.5000     6.3740   -72.6670     6.3950   122.7730
  376.0000     6.4060   -72.5230     6.4010   124.6820
  376.5000     6.4370   -72.3800     6.4060   128.2830
