~VERSION INFORMATION
 VERS.                2.0:   CWLS LOG ASCII STANDARD - VERSION 2.0
 WRAP.                 NO:   ONE LINE PER DEPTH STEP
~WELL INFORMATION
#MNEM.UNIT      DATA TYPE    INFORMATION
#----------   ------------   ------------------------------
 STRT.F           50.5000:   START DEPTH
 STOP.F         5694.0000:   STOP DEPTH
 STEP.F            0.5000:   STEP LENGTH
 NULL.          -999.2500:   NO VALUE
 COMP. LAWRENCE ALLISON AND ASSOCIATES WEST:   COMPANY
 WELL. LAWRENCE "TX" #57-28:   WELL
 FLD .        TEAPOT DOME:   FIELD
 LOC .      S28 T39N R78W:   LOCATION
 CNTY.            NATRONA:   COUNTY
 STAT.            WYOMING:   STATE
 CTRY. UNITED STATES OF AMERICA:   COUNTRY
 SRVC.       SCHLUMBERGER:   SERVICE COMPANY
 DATE.        26-FEB-1982:   LOGDATE
 API .     49025108850000:   API NUMBER
~CURVE INFORMATION
#MNEM.UNIT       API CODE    CURVE DESCRIPTION
#----------   ------------   ------------------------------
 DEPT.F                  :   
 GRR .GAPI   11 310 01 00:   GAMMA RAY FROM RES.
 CALD.IN     45 280 60 00:   CALIPER FROM DENSITY LOG
 TEND.LBS    45 635 01 00:   TENSION FORM DENSITY LOG
 CORR.G/C3   45 356 01 00:   DENSITY CORRECTION
 RHOB.G/C3   45 350 01 00:   BULK DENSITY
 NPHI.DEC    42 890 03 00:   NEUTRON POROSITY SANDSTONE
 TENR.LBS    06 635 01 00:   TENSION FROM RESISTIVITY
 SPR .MV     11 010 01 00:   SPONTANEOUS POTENTIAL FROM RES.
 LLS .OHMM   11 220 09 00:   LATEROLOG LOG SHALLOW
 LLD .OHMM   11 220 10 00:   LATEROLOG DEEP
 MSFL.OHMM   11 270 04 00:   MICRO SPHERICALLY FOCUSED
~PARAMETER INFORMATION
#MNEM.UNIT          VALUE    DESCRIPTION
#----------   ------------   ------------------------------
 EKB .F         5101.0000:   Kelly bushing
 EGL .F         5091.0000:   Ground level
 EDF .F            0.0000:   Drilling floor
 TD  .F         3248.0000:   Total depth
 CLNT.            A2DTECH:   Client Code
 SL  . 950' FSL & 2100' FEL:   Surface Location
 PD  .                 GL:   Permanent Datum
 EPD .F              5091:   Elevation Permanent Datum
 LMF .                 KB:   Log Measured From
 DMF .                 KB:   Drilling Measured From
 DAPD.F                10:   Feet Above Permanent Datum
 DATE.        26-FEB-1982:   Date Logged [DD-MMM-YYYY]
 DD  .F              3243:   Depth driller
 DL  .F              3248:   Depth logger
 BLI .F              3216:   Bottom log interval
 TLI .F                 0:   Top log interval
 CS1 .IN            9.625:   Casing size
 CBD1.      9.625" @ 401':   Casing driller 1
 CBL1.F               401:   Casing logger 1
 BS1 .IN            7.875:   Bit size
 BSD1.F              3243:   Depth drilled with bit1
 DFT .           CHEM GEL:   Type fluid in hole
 DFD .                8.9:   Density
 DFV .                 55:   Viscosity
 DFPH.                9.5:   pH
 DFL .                 10:   Fluid loss
 MSS .            MUD PIT:   Source of sample
 RMS .OHMM           1.82:   Rm
 MST .F                76:   Rm Meas. temp.
 RMF .OHMM           1.64:   Rmf
 MFST.F                75:   Rmf Meas. temp.
 MFSS.               MEAS:   Source Rmf.
 RMB .OHMM           1.15:   Rm. at BHT
 BHT .F               120:   BHT.
 TCS .HRS            1330:   Time Circ. stopped
 TLAB.HRS            1715:   Time logger at bottom
 MRT .F               120:   Maximum recorded temp.
 LUN .               8043:   Logging unit number
 LUL .               CSPR:   Logging unit location
 ENGI.             TAYLOR:   Recorded By
 WITN.       FIVAS/STRONG:   Witnessed by
 ORIG.      1" 2.5" PRINT:   Origin of data
 UWI .     49025108850000:   Unique Well ID
 DICO. A2D TECHNOLOGIES, INC.:   Digitizing Company
~OTHER INFORMATION
~A   DEPT       GRR      CALD       TEND       CORR       RHOB       NPHI       TENR        SPR        LLS        LLD       MSFL   
# ...
 4259.5000    42.4087    10.6410  1614.2203    -0.0051     2.5308     0.1078  1562.3223   -65.8027    18.7729    18.9111    28.2682
 4260.0000    47.6921    10.6400  1614.7661    -0.0012     2.5307     0.0962  1562.0151   -66.3609    18.0175    18.6396    28.6944
 4260.5000    58.0998    10.6082  1615.2021     0.0084     2.5352     0.0961  1561.7081   -66.6820    16.0306    16.1295    21.4892
 4261.0000    71.8620    10.6380  1615.6377     0.0143     2.5547     0.1005  1561.4010   -66.8656    12.7132    10.0685    13.8896
 4261.5000    79.9416    10.6677  1616.0737     0.0203     2.5811     0.1108  1561.0939   -67.0208    11.3734     8.6429    10.2185
 4262.0000    80.5399    10.6665  1616.5138     0.0234     2.5938     0.1376  1560.7869   -67.0353     9.6256     7.7338     9.3952
 4262.5000    77.4525    10.6962  1616.9727     0.0186     2.5933     0.1731  1560.4797   -67.0498     8.2602     7.4166     9.6568
 4263.0000    71.9135    10.6949  1617.4313     0.0156     2.5922     0.1856  1560.1726   -67.3701     7.6862     7.7597    10.2092
 4263.5000    68.1946    10.6939  1617.8898     0.0173     2.5989     0.1823  1559.8656   -67.7189     7.7854     8.1938    10.6561
 4264.0000    69.0550    10.6929  1618.3488     0.0238     2.6102     0.1728  1559.5585   -68.0122     8.6009     8.2775    10.8167
 4264.5000    73.6591    10.6918  1618.8074     0.0330     2.6267     0.1699  1559.2513   -68.3333     8.2811     7.8403    11.0830
 4265.0000    76.5431    10.6908  1619.3422     0.0349     2.6327     0.1674  1558.9443   -68.4760     7.8096     7.3477    10.7087
 4265.5000    76.1981    10.6897  1619.7782     0.0331     2.6281     0.1664  1558.6372   -68.9755     7.3184     7.0995    10.2511
 4266.0000    73.3166    10.6886  1620.2142     0.0287     2.6175     0.1705  1558.3301   -69.2993     6.9728     7.3983    10.1800
 4266.5000    73.0090    10.6875  1620.6498     0.0211     2.6051     0.1723  1558.0231   -69.6196     7.2662     7.9262    10.6103
 4267.0000    73.6074    10.6865  1621.1010     0.0180     2.5923     0.1657  1557.7159   -69.6341     7.8937     8.3749    11.3714
 4267.5000    72.9740    10.6852  1621.5598     0.0134     2.5804     0.1595  1557.4088   -69.6486     8.5754     9.2318    11.5265
 4268.0000    69.8890    10.6842  1622.0182     0.0073     2.5752     0.1564  1557.1018   -69.6636     9.4569     9.7683    11.8561
 4268.5000    68.6445    10.6832  1622.4771     0.0039     2.5758     0.1544  1556.7947   -69.6789    10.1204    10.1569    12.6046
 4269.0000    70.0165    10.6821  1622.9359     0.0012     2.5798     0.1527  1556.4875   -69.6942     9.9123    10.0023    13.5178
 4269.5000    75.4589    10.6811  1623.4827     0.0011     2.5841     0.1506  1556.1805   -69.7095     9.3058     8.0894    13.7933
 4270.0000    79.6348    10.6800  1623.9187     0.0017     2.5901     0.1509  1555.8734   -69.7248     8.4069     7.7376    11.9105
 4270.5000    78.2026    10.6789  1624.3542     0.0047     2.5930     0.1609  1555.5664   -69.7429     7.8602     7.4780     9.8455
 4271.0000    73.9932    10.6778  1624.7903     0.0061     2.5990     0.1706  1555.2593   -69.7574     7.4425     7.6856     9.8150
 4271.5000    67.9170    10.6768  1625.2294     0.0039     2.6035     0.1730  1554.9521   -69.7706     7.6489     8.3488    10.5661
 4272.0000    67.5743    10.6755  1625.6882     0.0038     2.6034     0.1694  1554.6451   -69.7859     8.6625     9.1957    13.9563
 4272.5000    73.4035    10.6745  1626.1466     0.0052     2.6019     0.1627  1554.3380   -69.8012     9.5420     9.7163    13.7577
 4273.0000    77.0669    10.7042  1626.6055     0.0157     2.6018     0.1565  1554.0309   -69.8165     9.6714     9.1450    12.8109
 4273.5000    76.3953    10.7032  1627.0643     0.0202     2.5991     0.1592  1553.7239   -69.8318     9.3871     9.0602    12.9978
 4274.0000    69.8736    10.7022  1627.5228     0.0134     2.5855     0.1621  1553.4167   -69.7351     9.1418     9.4104    14.1297
 4274.5000    66.5828    10.7011  1628.0592     0.0057     2.5791     0.1590  1553.1096   -69.5566     9.2621     9.7027    13.8509
 4275.0000    67.3820    10.7000  1628.4948     0.0004     2.5806     0.1555  1552.8026   -69.5719    10.0430     9.6987    13.7291
 4275.5000    73.3108    10.6989  1628.9308     0.0003     2.5835     0.1537  1552.4955   -69.5894    10.5642     9.4306    13.9159
 4276.0000    79.1251    10.6978  1629.3667     0.0048     2.5940     0.1531  1552.1884   -69.6025    10.4837     9.1700    13.7168
 4276.5000    77.5489    10.6968  1629.8165     0.0122     2.6045     0.1543  1551.8813   -69.5250    10.1928     9.1670    13.3345
 4277.0000    70.1694    10.6955  1630.2754     0.0121     2.5961     0.1585  1551.5742   -69.3271    11.0730    10.2377    12.4322
 4277.5000    49.2930    10.6945  1630.7339     0.0091     2.5875     0.1659  1551.2671   -69.3440    14.8115    13.7257    14.7370
 4278.0000    47.3941    10.6935  1631.1927     0.0075     2.5863     0.1658  1550.9601   -69.0503    18.2349    17.3152    20.0398
 4278.5000    48.0508    10.6925  1631.6515     0.0150     2.5858     0.1600  1550.6530   -69.0673    19.5316    18.8120    26.7214
 4279.0000    49.3211    10.6914  1632.1997     0.0209     2.5756     0.1381  1550.3458   -68.9448    19.1473    18.0928    22.3933
 4279.5000    51.2047    10.6903  1632.6353     0.0125     2.5621     0.1060  1550.0388   -68.7921    18.3095    17.0633    21.6623
 4280.0000    52.4749    10.7202  1633.0712     0.0057     2.5545     0.0909  1549.7317   -68.8098    17.2667    16.3600    21.6533
 4280.5000    53.7443    10.7189  1633.5068     0.0087     2.5530     0.0947  1549.4246   -68.8243    16.6244    16.5827    21.0478
 4281.0000    55.6275    10.7178  1633.9449     0.0079     2.5529     0.1045  1549.1176   -68.8388    16.5007    17.0429    20.4612
 4281.5000    56.1207    10.7474  1634.4038     0.0047     2.5529     0.1076  1548.8104   -68.8533    17.4351    17.7601    20.1701
 4282.0000    49.1265    10.7463  1634.8623    -0.0006     2.5511     0.1076  1548.5033   -68.5620    18.4225    18.0018    24.1659
 4282.5000    49.7225    10.7453  1635.3212    -0.0052     2.5494     0.1064  1548.1963   -68.5780    18.4436    17.2118    26.6312
 4283.0000    51.5454    10.7751  1635.7800    -0.0007     2.5502     0.1039  1547.8892   -68.5933    17.4144    16.7857    25.2655
 4283.5000    53.3684    10.7740  1636.2384     0.0098     2.5533     0.0987  1547.5820   -68.6086    16.4680    17.0769    19.9950
 4284.0000    48.5649    10.7729  1636.6974     0.0112     2.5572     0.0948  1547.2750   -68.6239    18.4891    18.0803    19.5768
 4284.5000    42.4719    10.7718  1637.2117     0.0113     2.5577     0.0991  1546.9679   -68.6417    19.4350    18.0921    21.0767
 4285.0000    39.4078    10.7708  1637.6472     0.0126     2.5510     0.1097  1546.6608   -68.6562    18.9574    17.7162    24.0103
 4285.5000    37.6913    10.7697  1638.0833     0.0145     2.5495     0.1146  1546.3538   -68.9766    18.3697    17.7104    24.4337
 4286.0000    39.2059    10.7684  1638.5322     0.0214     2.5630     0.1064  1546.0466   -68.9911    18.1091    17.7045    23.0984
 4286.5000    40.9877    10.7674  1638.9907     0.0379     2.5690     0.0949  1545.7395   -69.3119    19.9461    18.7069    18.4751
 4287.0000    40.9670    10.7664  1608.8098     0.0478     2.5671     0.0943  1545.4325   -69.5081    21.0757    20.0608    19.5263
 4287.5000    41.5630    10.7654  1609.3274     0.0469     2.5607     0.0943  1545.1254   -69.9541    21.6600    20.8851    23.4165
 4288.0000    46.4534    10.7664  1609.7858     0.0348     2.5583     0.0961  1544.8184   -70.2752    21.3531    19.5694    37.0374
 4288.5000    55.2060    10.7941  1610.3351     0.0076     2.5685     0.0909  1544.5112   -70.2905    20.7196    17.7723    33.9423
 4289.0000    65.8844    10.8238  1580.1224     0.0043     2.5930     0.0834  1544.2041   -70.6144    16.9629    14.4869    19.5660
 4289.5000    80.3473    10.8226  1580.6256     0.0159     2.6305     0.0867  1543.8971   -71.2405     8.1615     9.7112    12.9866
