~VERSION INFORMATION
 VERS.                2.0:   CWLS LOG ASCII STANDARD - VERSION 2.0
 WRAP.                 NO:   ONE LINE PER DEPTH STEP
~WELL INFORMATION
#MNEM.UNIT      DATA TYPE    INFORMATION
#----------   ------------   ------------------------------
 STRT.F            0.0000:   START DEPTH
 STOP.F         5576.0000:   STOP DEPTH
 STEP.F            0.5000:   STEP LENGTH
 NULL.          -999.2500:   NO VALUE
 COMP.      FLUCOR DANIEL:   COMPANY
 WELL.  FLUCOR "X" #76-10:   WELL
 FLD .          N.P.R. #3:   FIELD
 LOC .      S10 T38N R78W:   LOCATION
 CNTY.            NATRONA:   COUNTY
 STAT.            WYOMING:   STATE
 CTRY. UNITED STATES OF AMERICA:   COUNTRY
 SRVC. ATLAS WIRELINE SERVICES:   SERVICE COMPANY
 DATE.        16-MAR-1995:   LOGDATE
 API .     49025226860000:   API NUMBER
~CURVE INFORMATION
#MNEM.UNIT       API CODE    CURVE DESCRIPTION
#----------   ------------   ------------------------------
 DEPT.F                  :   
 CNC .DEC    42 890 01 00:   NEUTRON POROSITY LIMESTONE
 CALD.IN     45 280 60 00:   CALIPER FROM DENSITY LOG
 ZDEN.G/C3   45 350 01 00:   BULK DENSITY
 ZCOR.G/C3   45 356 01 00:   DENSITY CORRECTION
 RILD.OHMM   07 120 46 00:   INDUCTION LOG DEEP RESISTIVITY
 RILM.OHMM   07 120 44 00:   INDUCTION LOG MEDIUM RESISTIVITY
 RS  .OHMM   11 220 10 00:   RESISTIVITY SHALLOW
 RD  .OHMM   11 220 09 00:   RESISTIVITY DEEP
 GRR .GAPI   07 310 01 00:   GAMMA RAY
 TENR.LBS    07 635 01 00:   TENSION FROM RESISTIVITY
~PARAMETER INFORMATION
#MNEM.UNIT          VALUE    DESCRIPTION
#----------   ------------   ------------------------------
 EKB .F         5191.0000:   Kelly bushing
 EGL .F         5101.0000:   Ground level
 EDF .F         5190.0000:   Drilling floor
 TD  .F         5582.0000:   Total depth
 CLNT.            A2DTECH:   Client Code
 SL  . 1896' FSL & 832' FEL:   Surface Location
 PD  .                 GL:   Permanent Datum
 EPD .F              5181:   Elevation Permanent Datum
 LMF .                 KB:   Log Measured From
 DMF .                 KB:   Drilling Measured From
 DAPD.F                10:   Feet Above Permanent Datum
 DATE.        16-MAR-1995:   Date Logged [DD-MMM-YYYY]
 DD  .F              5582:   Depth driller
 DL  .F              5578:   Depth logger
 BLI .F              5566:   Bottom log interval
 TLI .F               518:   Top log interval
 CS1 .IN            8.625:   Casing size
 CBD1.      8.625" @ 519':   Casing driller 1
 CBL1.F               518:   Casing logger 1
 BS1 .IN             8.75:   Bit size
 BSD1.F              5582:   Depth drilled with bit1
 DFT .               LSND:   Type fluid in hole
 DFD .               10.1:   Density
 DFV .                 52:   Viscosity
 DFPH.                9.5:   pH
 DFL .                7.2:   Fluid loss
 MSS .           FLOWLINE:   Source of sample
 RMS .OHMM          0.536:   Rm
 MST .F                70:   Rm Meas. temp.
 RMF .OHMM          0.415:   Rmf
 MFST.F                70:   Rmf Meas. temp.
 MFSS.               MEAS:   Source Rmf.
 RMC .OHMM          0.646:   Rmc
 MCST.F                70:   Rmc Meas. temp.
 MCSS.               MEAS:   Source Rmc.
 RMB .OHMM          0.228:   Rm. at BHT
 BHT .F               165:   BHT.
 TCS .HRS             6.5:   Time Circ. stopped
 MRT .F               165:   Maximum recorded temp.
 LUN .            HL-6530:   Logging unit number
 LUL .             CASPER:   Logging unit location
 ENGI.      PAT RASMUSSEN:   Recorded By
 WITN.        GARY STRONG:   Witnessed by
 ORIG.           5" PRINT:   Origin of data
 UWI .     49025226860000:   Unique Well ID
 DICO. A2D TECHNOLOGIES, INC.:   Digitizing Company
~OTHER INFORMATION
~A  DEPTH      CNC       CALD       ZDEN       ZCOR       RILD       RILM         RS         RD        GRR       TENR
# ...
 2177.5000     0.2750    10.5794     2.4936     0.0178  -999.2500  -999.2500     9.4217    11.6088    70.9091   -40.5409
 2178.0000     0.2805    10.5783     2.4951     0.0178  -999.2500  -999.2500     8.3106    11.3653    70.9091   -40.0401
 2178.5000     0.2817    10.5775     2.4951     0.0117  -999.2500  -999.2500     7.7471    10.2365    73.3433   -39.5392
 2179.0000     0.2817    10.5615     2.4951     0.0071  -999.2500  -999.2500     7.6406     9.2192    77.8788   -39.0225
 2179.5000     0.2841    10.5606     2.4928     0.0055  -999.2500  -999.2500     7.9642     9.2811    79.3939   -38.4123
 2180.0000     0.2890    10.5598     2.4890     0.0071  -999.2500  -999.2500     8.7765     9.6742    79.3939   -37.9115
 2180.5000     0.2932    10.5740     2.4625     0.0144  -999.2500  -999.2500     9.4241    10.7368    79.3939   -37.4107
 2181.0000     0.2944    10.5729     2.4550     0.0189  -999.2500  -999.2500    10.2219    12.9494    79.3939   -36.9098
 2181.5000     0.2963    10.5721     2.4587     0.0219  -999.2500  -999.2500    10.2913    12.5034    77.2727   -12.7539
 2182.0000     0.2969    10.5561     2.4837     0.0233  -999.2500  -999.2500     9.5300    11.5793    74.5455    -5.7077
 2182.5000     0.2945    10.5552     2.4921     0.0248  -999.2500  -999.2500     8.8867    10.5753    73.9394    -5.2069
 2183.0000     0.2927    10.5541     2.4898     0.0232  -999.2500  -999.2500     9.1351    10.7949    75.1515   -34.7813
 2183.5000     0.2933    10.5534     2.4746     0.0231  -999.2500  -999.2500     9.1327    10.7921    76.0606   -34.2802
 2184.0000     0.2999    10.5524     2.4671     0.0216  -999.2500  -999.2500     8.8715     9.9252    76.3636   -33.6543
 2184.5000     0.3069    10.5515     2.4671     0.0200  -999.2500  -999.2500     7.4082     8.5139    76.9697   -33.1533
 2185.0000     0.3116    10.5658     2.4686     0.0199  -999.2500  -999.2500     7.0053     8.2782    78.7879   -32.6524
 2185.5000     0.3133    10.5647     2.4678     0.0199  -999.2500  -999.2500     7.0035     8.3919    84.6054   -32.1516
 2186.0000     0.3121    10.5639     2.4671     0.0198  -999.2500  -999.2500     7.5286     8.8717    89.6970   -31.6508
 2186.5000     0.3103    10.5630     2.4777     0.0152  -999.2500  -999.2500     8.8056     9.7740    89.0909   -31.0247
 2187.0000     0.3085    10.5621     2.4822     0.0137  -999.2500  -999.2500     8.8653    10.3314    88.7879   -30.5239
 2187.5000     0.3121    10.5461     2.4822     0.0151  -999.2500  -999.2500     8.8624     9.7689    88.4848   -30.0230
 2188.0000     0.3230    10.5451     2.4762     0.0181  -999.2500  -999.2500     8.1500     8.9579    89.1314   -29.5222
 2188.5000     0.3291    10.5442     2.4590     0.0210  -999.2500  -999.2500     6.8950     7.6003    93.0303   -29.0214
 2189.0000     0.3315    10.5433     2.4421     0.0210  -999.2500  -999.2500     6.0820     6.7980    99.0909   -28.3953
 2189.5000     0.3382    10.5425     2.4322     0.0239  -999.2500  -999.2500     5.6718     5.9548   105.1515   -27.9699
 2190.0000     0.3425    10.4962     2.4269     0.0329  -999.2500  -999.2500     5.3630     5.7493   108.4848   -27.3936
 2190.5000     0.3394    10.4044     2.4277     0.0374  -999.2500  -999.2500     5.6684     5.9928   106.9697   -26.8926
 2191.0000     0.3316    10.3127     2.4454     0.0328  -999.2500  -999.2500     6.3342     6.4677   105.1515   -26.3910
 2191.5000     0.3170    10.2211     2.4557     0.0222  -999.2500  -999.2500     7.8444     7.5993   104.2424   -25.7656
 2192.0000     0.3018    10.1902     2.4481     0.0191  -999.2500  -999.2500    10.7409    11.3556   104.2424   -25.2648
 2192.5000     0.2964    10.2194     2.4444     0.0220  -999.2500  -999.2500    12.5139    13.8902   104.8996   -24.7640
 2193.0000     0.2910    10.2183     2.4421     0.0250  -999.2500  -999.2500    12.5107    13.7904   109.6970   -24.2632
 2193.5000     0.2886    10.2023     2.4309     0.0340  -999.2500  -999.2500    11.9953    12.4591   115.7576   -23.7595
 2194.0000     0.2922    10.1560     2.3982     0.0521  -999.2500  -999.2500    10.4346    10.5074   120.0000   -23.2331
 2194.5000     0.3007    10.1249     2.3747     0.0626  -999.2500  -999.2500     8.0086     8.4083   126.9697   -22.6354
 2195.0000     0.3092    10.0938     2.3679     0.0625  -999.2500  -999.2500     7.2132     8.1187   135.1515   -22.1346
 2195.5000     0.3095    10.1081     2.3762     0.0549  -999.2500  -999.2500     7.0619     8.1161   138.7879   -21.6338
 2196.0000     0.3098    10.1524     2.3885     0.0413  -999.2500  -999.2500     6.8664     7.7823   139.3939   -21.1278
 2196.5000     0.3220    10.2271     2.3800     0.0337  -999.2500  -999.2500     6.4033     7.3081   138.1818   -20.5068
 2197.0000     0.3480    10.4532     2.3217     0.0465  -999.2500  -999.2500     5.0869     5.8845   136.9597   -20.0060
 2197.5000     0.3638    10.8154     2.2725     0.1075  -999.2500  -999.2500     4.3347     4.9130   130.6061   -19.5049
 2198.0000     0.3620    11.1623     2.2203     0.1181  -999.2500  -999.2500     3.4930     4.0424   114.8485   -19.0041
 2198.5000     0.3571    11.3732     2.1834     0.0908  -999.2500  -999.2500     3.3030     3.9858   100.3030   -18.4963
 2199.0000     0.3553    11.6598     2.1128     0.0651  -999.2500  -999.2500     3.4014     4.1612    94.5455   -17.8772
 2199.5000     0.3787    12.4456     2.0136     0.0527  -999.2500  -999.2500     3.6135     4.3299    88.7879   -17.3764
 2200.0000     0.3960    13.1710  -999.2500     0.0431  -999.2500  -999.2500     3.7148     4.3897    85.4545   -16.8755
 2200.5000     0.4008    13.7599  -999.2500     0.0385  -999.2500  -999.2500     3.6868     4.3428    84.5455   -27.0124
 2201.0000     0.3943    13.9708  -999.2500     0.0414  -999.2500  -999.2500     3.7360     4.3242    86.6667   -44.0854
 2201.5000     0.3814    14.2574  -999.2500     0.0595  -999.2500  -999.2500     3.9203     4.5687    86.9697   -53.1578
 2202.0000     0.3651    14.5894  -999.2500     0.0776  -999.2500  -999.2500     4.0853     4.8276    86.3636   -60.2370
 2202.5000     0.3487    14.6793  -999.2500     0.0911  -999.2500  -999.2500     4.1404     5.1012    85.1515   -67.2179
 2203.0000     0.3493    14.7085  -999.2500     0.0880  -999.2500  -999.2500     4.1671     5.2783    85.1031   -74.3064
 2203.5000     0.3594    14.7076  -999.2500     0.0895  -999.2500  -999.2500     4.1355     5.3131    85.4545   -73.8761
 2204.0000     0.3760    14.6311  -999.2500     0.0940  -999.2500  -999.2500     4.1333     5.2728    85.4545   -65.9270
 2204.5000     0.3897    13.8587  -999.2500     0.0591  -999.2500  -999.2500     4.0741     5.2335    85.4545   -65.4888
 2205.0000     0.3918    13.6006  -999.2500     0.0121  -999.2500  -999.2500     3.9597     5.0866    85.4545   -64.9588
 2205.5000     0.3900    13.5844  -999.2500    -0.0016  -999.2500  -999.2500     3.7959     4.9444    84.2040   -72.1547
 2206.0000     0.3831    13.3566  -999.2500     0.0029  -999.2500  -999.2500     3.7160     4.9763    83.6364   -79.2432
 2206.5000     0.3706    12.2514  -999.2500     0.0920  -999.2500  -999.2500     3.9537     5.4137    84.2424   -78.7052
 2207.0000     0.3518    11.4033     2.2000     0.1313  -999.2500  -999.2500     4.3551     6.1667    90.3030   -70.7519
 2207.5000     0.3282    10.5993     2.3210     0.1358  -999.2500  -999.2500     4.7648     6.7001    91.8182   -55.1806
 2208.0000     0.3185    10.6284     2.3922     0.1372  -999.2500  -999.2500     4.8296     6.8387    93.0873   -54.7503
 2208.5000     0.3213    10.8855     2.4103     0.1447  -999.2500  -999.2500     4.5299     6.5928    96.0606   -54.3200
 2209.0000     0.3446    11.6288     2.3883     0.1537  -999.2500  -999.2500     3.9148     5.9842   100.3030   -61.5161
 2209.5000     0.3585    12.2801     2.3352     0.1612  -999.2500  -999.2500     3.5251     5.3511   101.8182   -60.9775
 2210.0000     0.3743    13.0089     2.2845     0.1672  -999.2500  -999.2500     3.3792     5.0588   100.0000   -60.5263
 2210.5000     0.3849    13.1292     2.1716     0.1459  -999.2500  -999.2500     3.2847     4.9862    94.0940   -67.6364
