~VERSION INFORMATION
 VERS.                2.0:   CWLS LOG ASCII STANDARD - VERSION 2.0
 WRAP.                 NO:   ONE LINE PER DEPTH STEP
~WELL INFORMATION
#MNEM.UNIT      DATA TYPE    INFORMATION
#----------   ------------   ------------------------------
 STRT.F          545.0000:   START DEPTH
 STOP.F         3193.0000:   STOP DEPTH
 STEP.F            0.5000:   STEP LENGTH
 NULL.          -999.2500:   NO VALUE
 COMP. FENIX & SCISSON-U.S. NAVY:   COMPANY
 WELL.   FENIX "A" #47-34:   WELL
 FLD .          N.P.R. #3:   FIELD
 LOC .      S34 T39N R78W:   LOCATION
 CNTY.            NATRONA:   COUNTY
 STAT.            WYOMING:   STATE
 CTRY. UNITED STATES OF AMERICA:   COUNTRY
 SRVC.       SCHLUMBERGER:   SERVICE COMPANY
 DATE.        26-MAR-1977:   LOGDATE
 API .     49025103260000:   API NUMBER
~CURVE INFORMATION
#MNEM.UNIT       API CODE    CURVE DESCRIPTION
#----------   ------------   ------------------------------
 DEPT.F                  :   
 SPR .MV     07 010 01 00:   SPONTANEOUS POTENTIAL FROM RES.
 ILM .OHMM   07 120 44 00:   INDUCTION LOG MEDIUM RESISTIVITY
 ILD .OHMM   07 120 46 00:   DEEP INDUCTION RESISTIVITY
 LL8 .OHMM   07 220 08 00:   LATEROLOG-8 RES.
 CALD.IN     45 280 60 00:   CALIPER FROM DENSITY LOG
 GRD .GAPI   45 310 01 00:   GAMMA RAY FROM DENSITY LOG
 RHOB.G/C3   45 350 01 00:   BULK DENSITY
 CORR.G/C3   45 356 01 00:   DENSITY CORRECTION
~PARAMETER INFORMATION
#MNEM.UNIT          VALUE    DESCRIPTION
#----------   ------------   ------------------------------
 EKB .F         5144.0000:   Kelly bushing
 EGL .F         5132.0000:   Ground level
 TD  .F         3194.0000:   Total depth
 CLNT.            A2DTECH:   Client Code
 SL  . 2310' FWL & 990' FSL:   Surface Location
 PD  .                 GL:   Permanent Datum
 EPD .F              5132:   Elevation Permanent Datum
 LMF .                 KB:   Log Measured From
 DMF .                 KB:   Drilling Measured From
 DAPD.F                12:   Feet Above Permanent Datum
 DATE.        26-MAR-1977:   Date Logged [DD-MMM-YYYY]
 DD  .F              3188:   Depth driller
 DL  .F              3194:   Depth logger
 BLI .F              3188:   Bottom log interval
 TLI .F               564:   Top log interval
 CS1 .IN            8.625:   Casing size
 CBD1.      8.625" @ 570':   Casing driller 1
 CBL1.F               564:   Casing logger 1
 BS1 .IN            7.875:   Bit size
 BSD1.F              3188:   Depth drilled with bit1
 DFT .                KCL:   Type fluid in hole
 DFD .                9.2:   Density
 DFV .                 30:   Viscosity
 DFL .                9.2:   Fluid loss
 MSS .                PIT:   Source of sample
 RMS .OHMM          0.354:   Rm
 MST .F                70:   Rm Meas. temp.
 RMF .OHMM          0.326:   Rmf
 MFST.F                70:   Rmf Meas. temp.
 MFSS.               MEAS:   Source Rmf.
 RMC .OHMM          0.531:   Rmc
 MCST.F                70:   Rmc Meas. temp.
 MCSS.               CALC:   Source Rmc.
 RMB .OHMM          0.205:   Rm. at BHT
 BHT .F               121:   BHT.
 TLAB.HRS            1900:   Time logger at bottom
 MRT .F               121:   Maximum recorded temp.
 LUN .               5642:   Logging unit number
 LUL .               CSPR:   Logging unit location
 ENGI.             MARTIN:   Recorded By
 WITN.         PETTINGILL:   Witnessed by
 ORIG.           5" PRINT:   Origin of data
 UWI .     49025103260000:   Unique Well ID
 DICO. A2D TECHNOLOGIES, INC.:   Digitizing Company
~OTHER INFORMATION
~A   DEPT      SPR        ILM        ILD        LL8       CALD         GRD      RHOB       CORR   
# ...
 2448.5000   -60.6145     3.9383     3.7165     6.3452     8.1838   143.5253     2.5137     0.0296
 2449.0000   -60.6098     3.9117     3.5941     5.6331     8.1832   142.9547     2.5135     0.0235
 2449.5000   -60.6541     3.8631     3.4998     5.4204     8.1826   142.0809     2.5041     0.0174
 2450.0000   -59.9808     3.8393     3.3845     6.4021     8.1820   142.1013     2.5401     0.0283
 2450.5000   -60.0251     3.7893     3.2478     6.1886     8.1814   146.3620     2.5424     0.0424
 2451.0000   -60.0198     3.6638     3.1012     6.0227     8.1808   147.6563     2.5096     0.0323
 2451.5000   -60.0213     3.5174     2.9784     5.7827     8.1802   146.4896     2.4992     0.0122
 2452.0000   -60.0286     3.2847     2.8803     5.5514     8.1796   147.8512     2.4850     0.0061
 2452.5000   -60.6158     2.9426     2.7472     5.2563     8.1790   155.2259     2.4739     0.0240
 2453.0000   -60.6941     2.6887     2.6204     4.9086     8.1784   164.8926     2.4527     0.0263
 2453.5000   -61.2413     2.6748     2.5340     4.1223     8.1777   164.1690     2.4629     0.0171
 2454.0000   -61.2136     2.7146     2.4673     2.7517     8.1771   158.6764     2.4764     0.0133
 2454.5000   -61.2105     2.7355     2.4028     4.0537     8.1765   153.1838     2.4840     0.0203
 2455.0000   -61.2116     2.7560     2.3397     5.1294     8.1759   148.5872     2.4751     0.0173
 2455.5000   -61.2010     2.7328     2.3774     5.0621     8.1753   144.8831     2.4932     0.0150
 2456.0000   -60.9281     2.7352     2.4226     4.8596     8.1747   147.7362     2.5035     0.0252
 2456.5000   -60.4193     2.7188     2.4760     4.9301     8.1741   151.4872     2.4904     0.0268
 2457.0000   -60.4111     2.7217     2.5126     4.6040     8.1735   151.3597     2.4868     0.0191
 2457.5000   -60.4171     2.7241     2.5498     3.7970     8.1729   149.8910     2.5071     0.0246
 2458.0000   -60.3931     2.7454     2.5879     3.5214     8.1723   143.0518     2.5252     0.0332
 2458.5000   -60.1697     2.7860     2.6262     5.3690     8.1716   143.8239     2.5200     0.0407
 2459.0000   -59.9433     2.7885     2.6467     4.4286     8.1710   143.6964     2.5156     0.0504
 2459.5000   -59.7175     2.7909     2.6677     3.9947     8.1704   142.2196     2.5149     0.0543
 2460.0000   -59.4890     2.8127     2.6941     4.6215     8.1698   141.2115     2.5203     0.0381
 2460.5000   -59.4232     2.8356     2.7091     4.9548     8.1692   140.7860     2.5129     0.0250
 2461.0000   -59.4185     2.8569     2.7115     4.8562     8.1686   140.8075     2.5029     0.0196
 2461.5000   -59.5445     2.8599     2.7138     4.5664     8.1680   142.1704     2.4921     0.0158
 2462.0000   -60.1045     2.8823     2.7163     4.4447     8.1674   145.6197     2.4870     0.0127
 2462.5000   -60.4502     2.8643     2.7192     4.4473     8.1668   148.7710     2.5028     0.0097
 2463.0000   -60.8051     2.8477     2.7212     4.7035     8.1661   151.8187     2.4962     0.0059
 2463.5000   -60.8139     2.8502     2.7239     5.0769     8.1655   154.4827     2.4858     0.0036
 2464.0000   -60.8162     2.8329     2.7263     4.1588     8.1649   154.7969     2.4776     0.0006
 2464.5000   -60.7996     2.8355     2.7287     4.0201     8.1643   152.2904     2.4912     0.0006
 2465.0000   -60.4088     2.8380     2.7310     4.0504     8.1641   150.3746     2.5020     0.0054
 2465.5000   -60.2449     2.8411     2.7334     5.0549     8.1659   147.8572     2.5057     0.0101
 2466.0000   -60.0544     2.8436     2.7560     5.7966     8.1678   149.0764     2.5013     0.0109
 2466.5000   -59.8634     2.9057     2.8154     4.4696     8.1698   147.7103     2.4976     0.0141
 2467.0000   -59.6725     3.0104     2.8179     3.8327     8.1717   141.3754     2.5157     0.0211
 2467.5000   -59.4792     3.1843     2.8595     5.3557     8.1737   136.4789     2.5323     0.0305
 2468.0000   -59.4252     3.3682     2.8620     6.8711     8.1756   137.9908     2.5294     0.0243
 2468.5000   -59.4243     3.4181     2.8246     7.0667     8.1776   143.6756     2.5174     0.0182
 2469.0000   -59.4245     3.2821     2.7698     5.9100     8.1795   147.8700     2.5021     0.0152
 2469.5000   -59.4245     3.0833     2.7341     5.1865     8.1815   150.1271     2.4885     0.0137
 2470.0000   -59.4246     2.9241     2.6805     4.2480     8.1834   152.4542     2.4788     0.0169
 2470.5000   -59.4245     2.8078     2.6279     3.5277     8.1854   153.2999     2.4744     0.0246
 2471.0000   -59.5190     2.7526     2.5769     3.0745     8.1874   152.1346     2.4813     0.0262
 2471.5000   -59.7082     2.7166     2.5263     4.3302     8.1893   150.9640     2.4918     0.0155
 2472.0000   -59.8972     2.6455     2.4597     4.9748     8.1913   152.1778     2.5137     0.0372
 2472.5000   -60.0854     2.5935     2.4109     4.1741     8.1932   154.4348     2.5129     0.0450
 2473.0000   -60.2208     2.5757     2.4470     3.3487     8.1952   154.9254     2.5009     0.0311
 2473.5000   -60.2186     2.6708     2.4661     2.9797     8.1971   152.6592     2.5065     0.0258
 2474.0000   -60.2189     2.8057     2.5026     4.4498     8.1991   153.7598     2.5095     0.0227
 2474.5000   -60.2172     2.8281     2.5572     5.1829     8.2010   153.3343     2.5007     0.0205
 2475.0000   -60.1180     2.8928     2.6160     5.0100     8.2030   151.1204     2.4970     0.0174
 2475.5000   -59.7628     2.9530     2.7833     4.7765     8.2049   149.3140     2.5061     0.0136
 2476.0000   -59.4124     3.0384     2.9236     5.3010     8.2069   147.2888     2.5362     0.0245
 2476.5000   -59.0778     3.1918     3.0709     4.7995     8.2088   144.4788     2.5603     0.0393
 2477.0000   -58.8253     3.3995     3.2035     4.5288     8.2108   138.8975     2.5569     0.0495
 2477.5000   -58.8154     3.6208     3.2960     5.8910     8.2127   133.9461     2.5469     0.0247
 2478.0000   -58.6728     3.8572     3.4146     7.9870     8.2147   133.5152     2.5381     0.0115
 2478.5000   -58.5407     4.0512     3.5132     8.6808     8.2166   136.0757     2.5284     0.0148
 2479.0000   -58.5266     4.0555     3.5677     7.6721     8.2186   141.4624     2.5173     0.0164
 2479.5000   -58.0390     4.0311     3.5937     6.9129     8.2206   146.7001     2.5114     0.0149
 2480.0000   -58.5126     3.9510     3.6218     7.0707     8.2224   152.8356     2.5175     0.0351
 2480.5000   -58.6260     3.9002     3.6753     6.1811     8.2150   152.4100     2.5333     0.0406
 2481.0000   -58.6318     3.9588     3.7040     4.8455     8.1926   144.3421     2.5371     0.0290
 2481.5000   -58.6347     4.0733     3.7414     4.6810     8.1705   131.8310     2.5560     0.0244
 2482.0000   -58.4450     4.2789     3.8142     9.3436     8.1480   119.9896     2.5800     0.0326
 2482.5000   -58.1816     4.4970     3.8440    16.5827     8.1442   121.5014     2.5779     0.0463
 2483.0000   -57.9168     4.5300     3.9008    15.1683     8.1440   132.4023     2.5622     0.0510
 2483.5000   -57.6521     4.3809     3.9314    10.3106     8.1448   139.4284     2.5466     0.0541
 2484.0000   -57.3854     4.3236     3.9628     6.7708     8.1718   139.8916     2.5370     0.0403
 2484.5000   -57.1237     4.3886     4.0213     6.3464     8.2191   137.5341     2.5424     0.0287
 2485.0000   -56.8462     4.4535     4.0527     7.1691     8.2857   138.0132     2.5357     0.0210
 2485.5000   -56.6419     4.4883     4.0787     7.6962     8.3045   139.9672     2.5260     0.0156
 2486.0000   -56.6042     4.5234     4.1444     7.9552     8.3094   142.0752     2.5179     0.0185
 2486.5000   -56.5539     4.5274     4.1769     6.8393     8.3150   143.7361     2.5390     0.0344
 2487.0000   -56.5042     4.5001     4.2681     6.2993     8.3206   143.1616     2.5540     0.0391
 2487.5000   -56.4325     4.6092     4.3040     6.6153     8.3262   139.6064     2.5646     0.0314
 2488.0000   -55.7589     4.8315     4.3963     9.8113     8.3318   135.4551     2.5632     0.0252
 2488.5000   -56.4261     5.0057     4.4920    10.3747     8.3374   130.0738     2.5558     0.0385
