~VERSION INFORMATION
 VERS.                2.0:   CWLS LOG ASCII STANDARD - VERSION 2.0
 WRAP.                 NO:   ONE LINE PER DEPTH STEP
~WELL INFORMATION
#MNEM.UNIT      DATA TYPE    INFORMATION
#----------   ------------   ------------------------------
 STRT.F          748.0000:   START DEPTH
 STOP.F         2734.0000:   STOP DEPTH
 STEP.F            0.5000:   STEP LENGTH
 NULL.          -999.2500:   NO VALUE
 COMP.    FENIX & SCISSON:   COMPANY
 WELL. FENIX NPR 3 "SHX" #84-4:   WELL
 FLD .             TEAPOT:   FIELD
 LOC .       S4 T38N R78W:   LOCATION
 CNTY.            NATRONA:   COUNTY
 STAT.            WYOMING:   STATE
 CTRY. UNITED STATES OF AMERICA:   COUNTRY
 SRVC.              WELEX:   SERVICE COMPANY
 DATE.        08-MAY-1980:   LOGDATE
 API .     49025108050000:   API NUMBER
~CURVE INFORMATION
#MNEM.UNIT       API CODE    CURVE DESCRIPTION
#----------   ------------   ------------------------------
 DEPT.F                  :   
 CALD.IN     45 280 60 00:   CALIPER FROM DENSITY LOG
 GRD .GAPI   45 310 01 00:   GAMMA RAY FROM DENSITY LOG
 RHOB.G/C3   45 350 01 00:   BULK DENSITY
 CORR.G/C3   45 356 01 00:   DENSITY CORRECTION
~PARAMETER INFORMATION
#MNEM.UNIT          VALUE    DESCRIPTION
#----------   ------------   ------------------------------
 EKB .F         5244.0000:   Kelly bushing
 EGL .F         5234.0000:   Ground level
 EDF .F            0.0000:   Drilling floor
 TD  .F         2733.0000:   Total depth
 DATE.        08-MAY-1980:   Date logged
 CLNT.            A2DTECH:   Client Code
 SL  . 7461' FNL & 383' FEL:   Surface Location
 PD  .                 GL:   Permanent Datum
 EPD .F              5234:   Elevation Permanent Datum
 LMF .                 KB:   Log Measured From
 DMF .                 KB:   Drilling Measured From
 DAPD.F                10:   Feet Above Permanent Datum
 DD  .F              2700:   Depth driller
 DL  .F              2733:   Depth logger
 BLI .F              2731:   Bottom log interval
 TLI .F               752:   Top log interval
 CS1 .IN            9.625:   Casing size
 CBD1.      9.625" @ 260':   Casing driller 1
 BS1 .IN              8.5:   Bit size
 BSD1.F              2700:   Depth drilled with bit1
 DFT .                AIR:   Type fluid in hole
 MRT .F               118:   Maximum recorded temp.
 LUN .                  2:   Logging unit number
 ENGI.           TORTILLE:   Recorded By
 WITN.              AMEND:   Witnessed by
 ORIG.           5" PRINT:   Origin of data
 UWI .     49025108050000:   Unique Well ID
 DICO. A2D TECHNOLOGIES, INC.:   Digitizing Company
~OTHER INFORMATION
~A   DEPT       CALD       GRD        RHOB       CORR 
# ...
 2427.0000     8.8600    99.9530     2.4490     0.0360
 2427.5000     8.8600    99.3100     2.4630     0.0440
 2428.0000     8.8600    97.9060     2.4680     0.0500
 2428.5000     8.8600    96.8090     2.4690     0.0570
 2429.0000     8.8600    95.6400     2.4690     0.0570
 2429.5000     8.8600    94.4960     2.4690     0.0570
 2430.0000     8.8600    93.3890     2.4700     0.0540
 2430.5000     8.8600    93.3870     2.4500     0.0510
 2431.0000     8.8600    94.4030     2.4460     0.0470
 2431.5000     8.8600    95.2930     2.4460     0.0450
 2432.0000     8.8600    96.2450     2.4460     0.0450
 2432.5000     8.8600    96.2730     2.4510     0.0490
 2433.0000     8.8600    96.1170     2.4640     0.0560
 2433.5000     8.8600    95.9620     2.4660     0.0610
 2434.0000     8.8600    95.7150     2.4620     0.0460
 2434.5000     8.8600    96.3510     2.4700     0.0450
 2435.0000     8.8600    97.8060     2.4760     0.0480
 2435.5000     8.8600    99.1690     2.4770     0.0530
 2436.0000     8.8600   100.5070     2.4650     0.0520
 2436.5000     8.8600   101.9010     2.4340     0.0370
 2437.0000     8.8600   102.3400     2.4180     0.0210
 2437.5000     8.8600   102.2500     2.4290     0.0300
 2438.0000     8.8600   102.7060     2.4430     0.0470
 2438.5000     8.8600   103.3790     2.4500     0.0630
 2439.0000     8.8600   104.0520     2.4670     0.0790
 2439.5000     8.8600   104.1120     2.4810     0.0950
 2440.0000     8.8600   104.3640     2.4910     0.1110
 2440.5000     8.8600   104.6590     2.4570     0.0940
 2441.0000     8.8600   104.1960     2.4170     0.0620
 2441.5000     8.8600   103.2610     2.4180     0.0360
 2442.0000     8.8600   102.4070     2.4130     0.0290
 2442.5000     8.8600   101.5720     2.4100     0.0300
 2443.0000     8.8600   100.7190     2.4100     0.0330
 2443.5000     8.8600    99.8140     2.4100     0.0360
 2444.0000     8.8600    99.2550     2.4180     0.0390
 2444.5000     8.8600    99.3740     2.4240     0.0420
 2445.0000     8.8600   100.0680     2.4320     0.0450
 2445.5000     8.8600   100.8420     2.4400     0.0460
 2446.0000     8.8600   101.1160     2.4510     0.0500
 2446.5000     8.8600   101.0040     2.4580     0.0480
 2447.0000     8.8600    99.7100     2.4520     0.0450
 2447.5000     8.8600    98.3760     2.4370     0.0420
 2448.0000     8.8600    97.0300     2.4230     0.0390
 2448.5000     8.8600    95.7840     2.4070     0.0370
 2449.0000     8.8600    95.6880     2.4000     0.0340
 2449.5000     8.8600    96.0040     2.4010     0.0320
 2450.0000     8.8600    96.8690     2.4210     0.0320
 2450.5000     8.8610    97.6810     2.4410     0.0730
 2451.0000     8.8620    98.4910     2.4620     0.0850
 2451.5000     8.8620    99.2580     2.4530     0.0700
 2452.0000     8.8630    99.3000     2.4310     0.0510
 2452.5000     8.8640    99.1600     2.4160     0.0390
 2453.0000     8.8650    98.7510     2.4240     0.0530
 2453.5000     8.8660    98.3530     2.4470     0.0730
 2454.0000     8.8670    98.4820     2.4530     0.0660
 2454.5000     8.8670    99.9080     2.4450     0.0530
 2455.0000     8.8680   101.3010     2.4450     0.0450
 2455.5000     8.8690   102.7150     2.4550     0.0600
 2456.0000     8.8700   104.1600     2.4660     0.0730
 2456.5000     8.8710   105.5350     2.4660     0.0700
 2457.0000     8.8720   106.9790     2.4630     0.0650
 2457.5000     8.8720   107.0840     2.4750     0.0660
 2458.0000     8.8730   106.3080     2.4750     0.0710
 2458.5000     8.8740   105.1400     2.4650     0.0760
 2459.0000     8.8750   104.0170     2.4510     0.0650
 2459.5000     8.8760   102.8410     2.4370     0.0410
 2460.0000     8.8770   100.7310     2.4350     0.0340
 2460.5000     8.8770    98.7110     2.4550     0.0520
 2461.0000     8.8780    96.6520     2.4750     0.0680
 2461.5000     8.8790    94.5950     2.4920     0.0690
 2462.0000     8.8800    92.5270     2.4850     0.0600
 2462.5000     8.8810    90.9490     2.4800     0.0650
 2463.0000     8.8820    91.0540     2.4870     0.0730
 2463.5000     8.8830    91.1020     2.4750     0.0660
 2464.0000     8.8830    91.2440     2.4630     0.0560
 2464.5000     8.8840    91.3280     2.4540     0.0640
 2465.0000     8.8850    91.3790     2.4650     0.0790
 2465.5000     8.8860    92.3630     2.4760     0.0950
 2466.0000     8.8870    95.7790     2.4860     0.1010
 2466.5000     8.8880    99.1280     2.4860     0.0890
 2467.0000     8.8880   102.5090     2.4860     0.0790
 2467.5000     8.8890   106.0630     2.4840     0.0690
 2468.0000     8.8900   107.9320     2.4730     0.0590
 2468.5000     8.8910   106.7180     2.4640     0.0490
 2469.0000     8.8920   105.1830     2.4580     0.0370
 2469.5000     8.8930   104.1890     2.4520     0.0330
 2470.0000     8.8930   104.1000     2.4430     0.0300
 2470.5000     8.8940   104.0890     2.4400     0.0310
 2471.0000     8.8950   104.1080     2.4420     0.0400
 2471.5000     8.8960   104.0970     2.4570     0.0540
 2472.0000     8.8970   104.1010     2.4730     0.0660
 2472.5000     8.8980   104.0990     2.4840     0.0770
 2473.0000     8.8980   104.1040     2.4760     0.0850
 2473.5000     8.8990   104.0910     2.4590     0.0770
 2474.0000     8.9000   104.0940     2.4420     0.0600
 2474.5000     8.8990   103.5920     2.4320     0.0490
 2475.0000     8.8980   102.9470     2.4250     0.0490
 2475.5000     8.8970   102.3380     2.4250     0.0510
 2476.0000     8.8960   102.2350     2.4290     0.0530
 2476.5000     8.8950   102.0630     2.4330     0.0530
 2477.0000     8.8940   101.9430     2.4390     0.0470
 2477.5000     8.8930   101.8260     2.4130     0.0400
 2478.0000     8.8920   101.2320     2.4040     0.0350
 2478.5000     8.8910    99.3740     2.4150     0.0590
 2479.0000     8.8900    97.5590     2.4180     0.0690
 2479.5000     8.8890    95.7450     2.4110     0.0590
 2480.0000     8.8880    94.4520     2.4030     0.0430
 2480.5000     8.8870    93.4090     2.3920     0.0250
 2481.0000     8.8860    92.4070     2.3830     0.0120
 2481.5000     8.8850    91.3940     2.3750     0.0150
 2482.0000     8.8840    90.3940     2.3860     0.0350
 2482.5000     8.8830    89.3910     2.4080     0.0530
 2483.0000     8.8820    89.0690     2.4180     0.0650
 2483.5000     8.8810    89.1050     2.4140     0.0680
 2484.0000     8.8800    89.1400     2.4120     0.0720
 2484.5000     8.8790    88.4270     2.4170     0.0760
 2485.0000     8.8780    85.9130     2.4250     0.0750
 2485.5000     8.8770    83.7830     2.4240     0.0650
 2486.0000     8.8760    81.6020     2.4100     0.0540
 2486.5000     8.8750    79.2870     2.4130     0.0530
 2487.0000     8.8740    78.1010     2.4100     0.0560
 2487.5000     8.8730    77.6670     2.4030     0.0580
 2488.0000     8.8720    77.7140     2.3960     0.0620
 2488.5000     8.8710    77.7320     2.4040     0.0620
 2489.0000     8.8700    77.3360     2.3960     0.0510
 2489.5000     8.8690    76.3880     2.3750     0.0450
 2490.0000     8.8680    75.4550     2.3820     0.0380
 2490.5000     8.8670    74.7680     2.4070     0.0550
 2491.0000     8.8660    75.4720     2.4310     0.0740
 2491.5000     8.8650    77.4680     2.4550     0.0900
 2492.0000     8.8640    79.3660     2.4820     0.1020
 2492.5000     8.8630    80.6950     2.4780     0.0940
 2493.0000     8.8620    80.7340     2.4740     0.0740
 2493.5000     8.8610    81.5580     2.4810     0.0700
 2494.0000     8.8610    82.2440     2.4800     0.0650
 2494.5000     8.8760    83.0550     2.4750     0.0600
 2495.0000     8.8900    83.1280     2.4860     0.0710
 2495.5000     8.9050    83.6960     2.4980     0.0870
 2496.0000     8.9190    84.1620     2.5040     0.0840
 2496.5000     8.9340    85.4360     2.4930     0.0700
 2497.0000     8.9410    87.0020     2.4910     0.0690
 2497.5000     8.9420    88.5580     2.4960     0.0800
 2498.0000     8.9430    90.1070     2.5010     0.0690
 2498.5000     8.9440    91.6630     2.4850     0.0530
 2499.0000     8.9460    93.2180     2.4660     0.0360
 2499.5000     8.9470    94.7710     2.4500     0.0290
