~VERSION INFORMATION
 VERS.                2.0:   CWLS LOG ASCII STANDARD - VERSION 2.0
 WRAP.                 NO:   ONE LINE PER DEPTH STEP
~WELL INFORMATION
#MNEM.UNIT      DATA TYPE    INFORMATION
#----------   ------------   ------------------------------
 STRT.F          197.0000:   START DEPTH
 STOP.F         3238.5000:   STOP DEPTH
 STEP.F            0.5000:   STEP LENGTH
 NULL.          -999.2500:   NO VALUE
 COMP.    FENIX & SCISSON:   COMPANY
 WELL. FENIX 28 "A" #28-11:   WELL
 FLD .              NPR-3:   FIELD
 LOC .      S11 T38N R78W:   LOCATION
 CNTY.            NATRONA:   COUNTY
 STAT.            WYOMING:   STATE
 CTRY. UNITED STATES OF AMERICA:   COUNTRY
 SRVC.              WELEX:   SERVICE COMPANY
 DATE.        25-OCT-1977:   LOGDATE
 API .     49025104350000:   API NUMBER
~CURVE INFORMATION
#MNEM.UNIT       API CODE    CURVE DESCRIPTION
#----------   ------------   ------------------------------
 DEPT.F                  :   
 SPR .MV     07 010 01 00:   SPONTANEOUS POTENTIAL
 TENR.LBS    07 635 01 00:   TENSION FROM RESISTIVITY
 ILM .OHMM   07 120 44 00:   INDUCTION LOG MEDIUM RESISTIVITY
 SGRD.OHMM   07 220 05 00:   SHALLOW SHORT GUARD RESISTIVITY
 ILD .OHMM   07 120 46 00:   INDUCTION LOG DEEP RESISTIVITY
 GRD .GAPI   45 310 01 00:   GAMMA RAY FROM DENSITY LOG
 CALD.IN     45 280 60 00:   CALIPER FROM DENSITY LOG
 CORR.G/C3   45 356 01 00:   DENSITY CORRECTION
 RHOB.G/C3   45 350 01 00:   BULK DENSITY
~PARAMETER INFORMATION
#MNEM.UNIT          VALUE    DESCRIPTION
#----------   ------------   ------------------------------
 EKB .F         5211.0000:   Kelly bushing
 EGL .F         5201.0000:   Ground level
 EDF .F            0.0000:   Drilling floor
 EPD .F         5201.0000:   Permanent datum
 TD  .F         3235.0000:   Total depth
 CLNT.            A2DTECH:   Client Code
 SL  . 330' FSL & 990' FWL:   Surface Location
 PD  .                 GL:   Permanent Datum
 DAPD.F                10:   Feet Above Permanent Datum
 DATE.        25-OCT-1977:   Date Logged [DD-MMM-YYYY]
 DD  .F              3235:   Depth driller
 DL  .F              3231:   Depth logger
 BLI .F              3229:   Bottom log interval
 TLI .F               200:   Top log interval
 CS1 .IN            8.625:   Casing size
 CBD1.      8.625" @ 217':   Casing driller 1
 CBL1.F               217:   Casing logger 1
 BS1 .              7.875:   Bit size
 BSD1.IN             3235:   Depth drilled with bit1
 DFT .            KCL MUD:   Type fluid in hole
 DFD .                8.9:   Density
 DFV .                 35:   Viscosity
 DFPH.               11.5:   pH
 DFL .               16.4:   Fluid loss
 MSS .           FLOWLINE:   Source of sample
 RMS .OHMM           1.18:   Rm
 MST .F                74:   Rm Meas. temp.
 RMF .OHMM           1.74:   Rmf
 MFST.F                74:   Rmf Meas. temp.
 MFSS.               MEAS:   Source Rmf.
 MCSS.               MEAS:   Source Rmc.
 RMB .OHMM           1.15:   Rm. at BHT
 BHT .F               116:   BHT.
 TCS .HRS               3:   Time Circ. stopped
 MRT .F               116:   Maximum recorded temp.
 LUN .               8611:   Logging unit number
 LUL .             CASPER:   Logging unit location
 ENGI.            C. DOAK:   Recorded By
 WITN.      W. PETTINGILL:   Witnessed by
 ORIG.           5" PRINT:   Origin of data
 UWI .     49025104350000:   Unique Well ID
 DICO. A2D TECHNOLOGIES, INC.:   Digitizing Company
~OTHER INFORMATION
~A   DEPT      SPR       TENR        ILM       SGRD        ILD         GRD      CALD       CORR       RHOB   
# ...
  781.0000   -80.2693   923.8568     6.5824     9.2264     6.2942   108.0701    10.6487    -0.0019     2.4856
  781.5000   -80.2829   924.0027     6.4441     9.2220     6.2899   109.7784    10.6577    -0.0020     2.4826
  782.0000   -80.2988   924.1486     6.3531     9.2183     6.2857   113.5179    10.6857    -0.0021     2.4781
  782.5000   -80.3120   924.2946     6.2633     9.2786     6.2820   116.7886    10.7001    -0.0022     2.4788
  783.0000   -80.3251   924.4404     6.3042     9.2749     6.2781   118.1844    10.6986    -0.0023     2.4827
  783.5000   -80.3383   924.5877     6.4344     9.2711     6.2742   116.1942    10.7131    -0.0008     2.5020
  784.0000   -80.3515   909.7398     6.5660     9.2902     6.2264   114.8795    10.7119     0.0115     2.5215
  784.5000   -80.2133   909.9222     6.5633     9.3280     6.1797   115.1815    10.7104     0.0223     2.5304
  785.0000   -80.0752   910.0681     6.5606     9.3234     6.1760   116.2647    10.6936     0.0284     2.5379
  785.5000   -80.0917   910.2140     6.5574     9.2553     6.1723   117.5042    10.6924     0.0298     2.5403
  786.0000   -80.1048   925.3524     6.5548     9.2516     6.1260   117.4938    10.6912     0.0280     2.5241
  786.5000   -80.2692   925.4983     6.5983     9.2479     6.1224   113.7306    10.6900     0.0188     2.5116
  787.0000   -80.1311   925.6442     6.6868     9.2441     6.1186   111.2201    10.7044     0.0156     2.5056
  787.5000   -80.1443   910.7946     6.7312     9.3693     6.1148   107.3034    10.7188     0.0108     2.5041
  788.0000   -80.0061   910.9445     6.7745     9.7993     6.1110   102.7616    10.7173     0.0046     2.5086
  788.5000   -80.0197   911.0945     6.7717    10.6035     6.1067   105.2511    10.7161     0.0060     2.5123
  789.0000   -80.0357   911.2719     6.7689    10.2385     6.1457   107.7406    10.6837     0.0044     2.5138
  789.5000   -80.0489   911.4178     6.7656     9.6828     6.1844   109.6827    10.6662    -0.0004     2.5048
  790.0000   -79.9075   911.5637     6.7629     9.5458     6.1806   112.8733    10.6813    -0.0020     2.4838
  790.5000   -79.9239   911.7096     6.7136     9.4761     6.2198   113.8029    10.6798    -0.0021     2.4785
  791.0000   -79.7825   896.8265     6.6647     9.4723     6.2151   112.0710    10.6942    -0.0038     2.4778
  791.5000   -79.7989   881.9800     6.5705     9.4684     6.2120   108.7793    10.7089    -0.0038     2.4778
  792.0000   -79.8124   882.1624     6.4330     9.4637     6.2076   110.8000    10.7387    -0.0040     2.4785
  792.5000   -79.8550   882.3089     6.2962     9.4599     6.2039   112.6619    10.7375    -0.0040     2.4792
  793.0000   -79.9223   867.4616     6.1660     9.0087     6.1150   114.5264    10.7519    -0.0041     2.4792
  793.5000   -79.9896   867.6440     6.0370     8.7590     6.0691   115.7659    10.7504    -0.0042     2.4792
  794.0000   -80.4721   852.7610     5.9930     8.6351     5.9821   117.6304    10.7492    -0.0040     2.4807
  794.5000   -80.6365   852.9434     6.0321     8.0468     5.9784   118.8725    10.7480    -0.0038     2.4867
  795.0000   -80.1958   868.0817     6.2851     8.3924     5.9740   119.0156    10.7469    -0.0035     2.4942
  795.5000   -80.0577   868.2277     6.4589     8.5730     5.9704   118.2213    10.7456    -0.0032     2.5024
  796.0000   -80.0741   868.3736     6.1511     8.6811     5.9257   116.9607    10.7442     0.0015     2.5061
  796.5000   -80.2385   883.5120     5.9397     8.6768     5.8813   116.7966    10.7430     0.0076     2.5076
  797.0000   -80.4030   883.6582     5.8552     8.6733     5.7969   119.1273    10.7418     0.0106     2.5076
  797.5000   -80.5674   883.8082     5.8529     8.6698     5.7935   120.0547    10.7406     0.0137     2.5068
  798.0000   -80.7322   883.9863     5.8917     8.4295     5.7499   120.2000    10.7394     0.0151     2.5061
  798.5000   -80.7483   884.1321     5.9302     8.0832     5.7061   118.7307    10.7225     0.0135     2.5045
  799.0000   -80.7615   884.2781     5.8458     8.0241     5.6633   118.4603    10.7210     0.0071     2.5008
  799.5000   -80.7746   899.4165     5.8032     7.9648     5.6209   121.4159    10.7198     0.0009     2.4925
  800.0000   -80.9391   899.5624     5.8009     7.9616     5.6180   123.4360    10.7032    -0.0063     2.4715
  800.5000   -81.2548   899.7083     5.7187     7.9035     5.6155   125.6127    10.6550    -0.0117     2.4625
  801.0000   -81.4192   899.8542     5.6379     7.7379     5.6131   123.8834    10.6535    -0.0134     2.4587
  801.5000   -81.4327   914.9926     5.5968     7.6814     5.4911   121.8416    10.6523    -0.0150     2.4613
  802.0000   -81.4488   915.1425     5.5555     7.4685     5.3800   122.2998    10.6355    -0.0151     2.4715
  802.5000   -81.4620   900.2919     5.5150     7.2616     5.3039   124.1848    10.6499    -0.0152     2.4767
  803.0000   -81.4752   885.4454     5.5128     7.1587     5.2289   123.0573    10.6488    -0.0122     2.4753
  803.5000   -81.3337   885.6277     5.5106     7.3594     5.1550   121.1718    10.6475    -0.0076     2.4594
  804.0000   -81.0476   870.7811     5.4704     7.4563     5.1529   119.5987    10.6462    -0.0108     2.4526
  804.5000   -80.9092   871.9822     5.4682     7.3501     5.1508   118.3382    10.6450    -0.0191     2.4496
  805.0000   -80.7713   874.7809     5.4660     7.2461     5.1547   118.6401    10.6436    -0.0250     2.4645
  805.5000   -80.6332   877.5797     5.3511     7.1436     5.2185   119.2547    10.6424    -0.0282     2.4638
  806.0000   -80.6464   880.3785     5.3490     7.1407     5.2526   117.9938    10.6413    -0.0283     2.4465
  806.5000   -80.5488   883.1772     5.3845     7.2374     5.2870   118.2933    10.6559    -0.0346     2.4450
  807.0000   -80.5000   885.9760     5.3818     7.3408     5.2843   119.3765    10.6544    -0.0408     2.4517
  807.5000   -80.3631   888.7747     5.3796     7.6428     5.3189   120.6160    10.6531    -0.0394     2.4629
  808.0000   -80.3853   891.5735     5.3775     7.6397     5.3167   121.7018    10.6516    -0.0347     2.4749
  808.5000   -80.6921   894.3723     5.3753     7.6366     5.3515   120.4386    10.6536    -0.0254     2.4854
  809.0000   -80.8551   897.1710     5.4474     7.5809     5.3865   118.7093    10.6652    -0.0133     2.4913
  809.5000   -81.0181   898.9135     5.4836     7.4736     5.3838   117.2172    10.6702    -0.0072     2.4966
  810.0000   -81.0297   929.6193     5.5572     7.4191     5.3817   115.2481    10.6784    -0.0104     2.5003
  810.5000   -81.0414   930.3401     5.5940     7.2134     5.3795   117.7375    10.6884    -0.0136     2.5003
  811.0000   -80.9017   931.0609     5.5912     7.0624     5.4147   118.5108    10.7069    -0.0137     2.4988
  811.5000   -80.6780   931.7841     5.5122     7.3075     5.4125   115.0602    10.7054    -0.0138     2.4972
  812.0000   -80.6225   932.6827     5.5100     7.5619     5.4852   112.3934    10.7097    -0.0123     2.4950
  812.5000   -80.4829   918.4109     5.4693     7.8252     5.5594   111.1328    10.7227    -0.0145     2.4904
  813.0000   -80.6488   904.1393     5.5438     8.0418     5.5572   109.8260    10.7643    -0.0203     2.4874
  813.5000   -80.6604   904.8600     5.6572     8.2643     5.6721   106.7341    10.7631    -0.0204     2.4851
  814.0000   -80.6721   905.5809     5.7735     8.4345     5.7483   104.8485    10.7619    -0.0204     2.4835
  814.5000   -80.6838   906.3016     5.8921     8.4897     5.8665   105.9317    10.7606    -0.0174     2.4814
  815.0000   -80.6959   907.0465     6.0549     8.6038     5.9527   106.8587    10.7751    -0.0160     2.4798
  815.5000   -80.7100   907.9234     6.1840     8.6601     6.0445   107.6294    10.7736    -0.0161     2.4783
  816.0000   -80.5704   908.6442     6.3057     8.6569     6.1079   108.4042    10.7723    -0.0162     2.4760
  816.5000   -80.5821   909.3650     6.3910     8.6531     6.1474   109.0411    10.7711    -0.0194     2.4715
  817.0000   -80.5937   894.9131     6.3007     8.6497     6.1447   109.6290    10.7699    -0.0195     2.4678
