~VERSION INFORMATION
 VERS.                2.0:   CWLS LOG ASCII STANDARD - VERSION 2.0
 WRAP.                 NO:   ONE LINE PER DEPTH STEP
~WELL INFORMATION
#MNEM.UNIT      DATA TYPE    INFORMATION
#----------   ------------   ------------------------------
 STRT.F            5.0000:   START DEPTH
 STOP.F         5604.0000:   STOP DEPTH
 STEP.F            0.5000:   STEP LENGTH
 NULL.          -999.2500:   NO VALUE
 COMP.   LAWRENCE ALLISON:   COMPANY
 WELL. LAWRENCE 62 TPX #10-10:   WELL
 FLD .           NPR NO 3:   FIELD
 LOC .      S10 T38N R78W:   LOCATION
 CNTY.            NATRONA:   COUNTY
 STAT.            WYOMING:   STATE
 CTRY. UNITED STATES OF AMERICA:   COUNTRY
 SRVC.      DRESSER ATLAS:   SERVICE COMPANY
 DATE.        08-NOV-1985:   LOGDATE
 API .     49025110490000:   API NUMBER
~CURVE INFORMATION
#MNEM.UNIT       API CODE    CURVE DESCRIPTION
#----------   ------------   ------------------------------
 DEPT.F                  :   
 TEND.LBS    45 635 01 00:   TENSION FORM DENSITY LOG
 CNC .DEC    42 890 03 00:   NEUTRON POROSITY SANDSTONE
 CORR.G/C3   45 356 01 00:   DENSITY CORRECTION
 RHOB.G/C3   45 350 01 00:   BULK DENSITY
 TENR.LBS    11 635 01 00:   TENSION FROM RESISTIVITY
 GRR .GAPI   11 310 01 00:   GAMMA RAY FROM RESISTIVITY
 SPR .MV     11 010 01 00:   SPONTANEOUS POTENTIAL FROM RES.
 CALR.IN     11 280 01 00:   CALIPER FROM RESISTIVITY
 RD  .OHMM   11 220 10 00:   RESISTIVITY DEEP
 RS  .OHMM   11 220 09 00:   RESISTIVITY SHALLOW
 RMLL.OHMM   11 270 04 00:   MICRO LATEROLOG
 TENS.LBS    60 635 01 00:   TENSION FROM SONIC
 DT  .US/F   60 520 00 00:   DELTA TIME
~PARAMETER INFORMATION
#MNEM.UNIT          VALUE    DESCRIPTION
#----------   ------------   ------------------------------
 EKB .F         5167.0000:   Kelly bushing
 EGL .F         5155.0000:   Ground level
 EDF .F            0.0000:   Drilling floor
 TD  .F         5600.0000:   Total depth
 CLNT.            A2DTECH:   Client Code
 PD  .                 GL:   Permanent Datum
 EPD .F              5155:   Elevation Permanent Datum
 LMF .                 KB:   Log Measured From
 DMF .                 KB:   Drilling Measured From
 DAPD.F                12:   Feet Above Permanent Datum
 DATE.        08-NOV-1985:   Date Logged [DD-MMM-YYYY]
 DD  .F              5600:   Depth driller
 DL  .F              5600:   Depth logger
 BLI .F              5597:   Bottom log interval
 TLI .F               467:   Top log interval
 CS1 .IN            9.625:   Casing size
 CBD1.      9.625" @ 467':   Casing driller 1
 CBL1.F               465:   Casing logger 1
 BS1 .IN             8.75:   Bit size
 BSD1.F              5600:   Depth drilled with bit1
 DFT .        KCL POLYMER:   Type fluid in hole
 DFD .                9.2:   Density
 DFV .                 38:   Viscosity
 DFPH.                8.5:   pH
 DFL .                8.6:   Fluid loss
 MSS .           FLOWLINE:   Source of sample
 RMS .OHMM           0.28:   Rm
 MST .F                75:   Rm Meas. temp.
 RMF .OHMM           0.21:   Rmf
 MFST.F                75:   Rmf Meas. temp.
 MFSS.               CALC:   Source Rmf.
 RMC .OHMM           0.35:   Rmc
 MCST.F                75:   Rmc Meas. temp.
 MCSS.               CALC:   Source Rmc.
 RMB .OHMM           0.13:   Rm. at BHT
 BHT .F               168:   BHT.
 TCS .HRS               7:   Time Circ. stopped
 MRT .F               168:   Maximum recorded temp.
 LUN .               6274:   Logging unit number
 LUL .               GLTE:   Logging unit location
 ENGI.               MACK:   Recorded By
 WITN.             STRONG:   Witnessed by
 ORIG.      2.5" 5" PRINT:   Origin of data
 UWI .     49025110490000:   Unique Well ID
 DICO. A2D TECHNOLOGIES, INC.:   Digitizing Company
~OTHER INFORMATION
~A  DEPTH     TEND        CNC       CORR       RHOB       TENR        GRR        SPR       CALR         RD         RS       RMLL       TENS         DT
# ...
 3541.0000   -26.6083     0.2938     0.0560     2.0511   -70.9487   151.4005   -73.7001     9.4297     4.0816     5.4996     4.5805   -48.6489    92.3532
 3541.5000   -33.0919     0.2791     0.0654     2.0000   -79.6462   153.2359   -73.6806     9.4325     3.3407     3.6312     3.4742   -63.5902    92.0535
 3542.0000   -47.8586     0.2711     0.1232     2.0000   -65.6502   163.1552   -73.8109     9.4951     3.0552     2.6418     1.3263   -46.0854    92.2796
 3542.5000   -54.0936     0.2763    -0.0174     2.0000   -44.0899   177.8648   -73.9411     9.6778     2.7557     2.4666     0.8002    -3.3643    93.6327
 3543.0000   -53.4041     0.2961     0.0089     2.0000   -37.3755   184.1912   -74.3756    10.1902     2.8355     2.4171     0.5546   -18.3055    96.1879
 3543.5000   -52.8335     0.2739     0.0205     2.3006   -53.9201   179.7392   -75.0998    10.8412     3.3987     2.6842     0.4447   -33.2653    98.2172
 3544.0000   -52.2632     0.2621     0.0263     2.4705   -55.0527   161.2153   -75.5344    11.3646     5.3020     4.0994     0.6252   -40.6991    98.5183
 3544.5000   -51.6926     0.2574     0.0321     2.5120   -56.1853   153.1704   -76.4083    10.2885     7.1008     5.5648     0.9554   -40.6069    91.5103
 3545.0000   -65.7894     0.2633     0.0379     2.5088   -57.3179   149.0081   -77.2870     9.7215     9.0592     7.5019     3.0243   -40.5332    86.3487
 3545.5000   -65.1713     0.2751     0.0437     2.5061   -58.4511   151.1526   -77.7215     9.5143     9.9222     8.8656     6.2705   -32.9519    85.0722
 3546.0000   -64.6008     0.2810     0.0499     2.5046   -59.5837   153.5868   -78.0015     9.4864     9.9304     8.9319     6.8688   -40.4041    87.5523
 3546.5000   -64.0305     0.2834     0.0488     2.5033   -60.7164   157.2186   -78.1317     9.4897     9.4023     8.3991     7.2678   -55.3270    89.0556
 3547.0000   -63.4599     0.2922     0.0377     2.4932   -61.8490   162.0480   -78.2620     9.5074     8.9022     7.8421     8.2421   -77.7758    89.7326
 3547.5000   -77.5092     0.2987     0.0383     2.4663   -62.9816   168.9732   -78.2377     9.5251     8.0293     7.3221     7.8592   -47.6721    90.0338
 3548.0000   -76.9006     0.2899     0.0509     2.4443   -64.1148   175.0003   -78.0686     9.5279     7.5497     6.7425     7.2386   -25.0758    90.4161
 3548.5000   -76.3158     0.2758     0.0522     2.4318   -65.2474   179.5303   -77.8994     9.5456     7.0988     6.3392     6.8546   -40.0171    91.2530
 3549.0000   -75.7309     0.2623     0.0440     2.4366   -66.3801   179.5692   -77.7303     9.5633     6.6747     6.0014     6.4909   -47.4509    92.1326
 3549.5000   -75.1462     0.2576     0.0263     2.4530   -67.5127   174.5184   -77.5611     9.5810     6.2327     5.7212     5.6951   -47.3587    93.5681
 3550.0000   -74.5615     0.2825     0.0110     2.4574   -68.6459   166.4367   -77.3920     9.5987     6.5972     5.6064     6.5939   -54.8109    93.1181
 3550.5000   -73.9766     0.2871     0.0002     2.4530   -69.7785   159.9330   -77.6719     9.6014     7.5272     6.4470     7.9051   -54.7188    92.2172
 3551.0000   -73.3917     0.2842    -0.0192     2.4515   -66.8059   154.5890   -78.2925     9.6041     8.3005     7.7807     9.2820   -54.6451    91.6169
 3551.5000   -58.1871     0.2839    -0.0214     2.4500   -63.6996   154.0241   -78.8338     9.5911     8.3086     7.5748     9.2917   -54.5796    91.3921
 3552.0000   -57.6024     0.2900    -0.0034     2.4470   -72.5028   161.8650   -78.9641     9.5945     8.1409     7.2227     9.1099   -54.4976    92.2195
 3552.5000   -71.6375     0.3008     0.0116     2.4397   -73.4935   165.1946   -79.0943     9.6102     8.0902     6.8393     8.9316   -54.4239    92.7461
 3553.0000   -70.9481     0.3078     0.0296     2.4294   -82.0485   172.5435   -79.2239     9.6126     8.2661     6.7032     8.5766   -54.3502    93.1225
 3553.5000   -84.9974     0.3065     0.0583     2.4161   -75.4749   179.3215   -79.0546     9.5999     8.3294     6.8045     8.4065   -54.2764    93.4238
 3554.0000   -84.4268     0.2976     0.0673     2.4343   -76.4655   183.5928   -79.0350     9.5873     8.5697     7.0508     8.7146   -54.2027    93.6499
 3554.5000   -83.8562     0.2778     0.0602     2.4425   -69.6446   181.2146   -78.8657     9.5898     8.5827     7.3568     9.2856   -54.1290    93.7258
 3555.0000   -68.6658     0.2884     0.0485     2.4410   -63.0710   180.0891   -78.6965     9.5922     8.3468     7.7833     9.7577   -54.0541    93.6514
 3555.5000   -68.0955     0.2925     0.0250     2.4396   -64.3095   181.3567   -78.3775     9.5946     8.0122     8.0650     9.9018   -53.9790    93.5018
 3556.0000   -67.5249     0.2708    -0.0044     2.4219   -65.3001   183.7806   -78.2082     9.5970     7.5850     8.1285     8.6306   -53.8894    93.4275
 3556.5000   -66.9543     0.2641     0.0044     2.3940   -73.8556   185.9133   -78.0389     9.6144     7.0817     7.2820     7.4686   -53.8157    94.0294
 3557.0000   -66.3743     0.2590     0.0219     2.3936   -74.8463   189.5513   -78.0194     9.6168     7.1360     6.7244     6.9255   -46.2345    94.8566
 3557.5000   -65.7894     0.2641     0.0423     2.3983   -75.8370   191.9918   -77.7004     9.6343     7.3929     6.3866     6.6059   -38.6532    95.1579
 3558.0000   -65.2046     0.2710     0.0241     2.4483   -76.6264   195.6298   -77.3814     9.6367     7.7661     6.4177     6.0848   -38.5795    94.6078
 3558.5000   -64.6199     0.2728     0.0188     2.4526   -70.0067   188.4894   -76.9127     9.6391     8.1581     7.2771     6.2192   -38.5058    92.7915
 3559.0000   -64.0351     0.2800     0.0507     2.4526   -71.0286   180.4507   -76.2943     9.6415     7.8855     7.9553     6.8605   -38.4321    90.9751
 3559.5000   -63.4503     0.3110     0.0785     2.4481   -71.9881   172.1127   -75.5263     9.6589     7.1114     7.8947     7.5680   -38.3583    89.1588
 3560.0000   -62.8654     0.3357     0.1302     2.4241   -65.4144   165.2755   -75.0576     9.6913     5.9421     7.0772     6.1299   -30.7771    87.7388
 3560.5000   -62.2807     0.3304     0.2028     2.0627   -66.4056   160.2309   -74.5889     9.7237     4.4748     5.2582     4.3977   -23.1959    90.8958
 3561.0000   -61.6960     0.3293     0.2147     2.0015   -52.2677   159.6660   -74.2699     9.8311     2.7557     3.5210     2.6438    -8.1071   100.3409
 3561.5000   -61.1111     0.3268     0.2008     2.0037   -53.2584   162.1177   -74.5498    10.0584     2.3506     2.5445     0.8790    -8.1826   111.2020
 3562.0000   -60.5263     0.3118     0.1130     2.0666   -39.1075   159.7677   -74.9793    10.8063     2.8768     2.5200     0.4746   -16.1670   123.8079
 3562.5000   -68.4673     0.2621     0.0017     2.1926   -40.1116   156.8189   -75.5585    11.0750     3.6953     3.2041     0.5891   -22.9010   124.4852
 3563.0000   -73.9767     0.2599     0.0563     2.4598   -41.1023   158.0617   -76.1377    10.9650     4.9483     4.9628     1.0059   -22.8088   116.8235
 3563.5000   -58.6815     0.2595     0.0855     2.4714   -42.0930   164.6938   -76.8667    10.5776     7.8262     6.9277     2.6042   -30.2610   101.7447
 3564.0000   -58.1112     0.2639     0.1235     2.4488   -43.0836   176.1162   -77.4459     9.8304     9.1861     8.4189     7.5855   -37.6948    88.5021
 3564.5000   -57.5406     0.2748     0.1293     2.4442   -44.0748   183.3471   -77.8754     9.8027     8.6964     8.2532     8.1366   -37.6027    87.0757
 3565.0000   -27.7302     0.2820     0.1234     2.4421   -45.0655   183.0240   -78.3099     9.8202     8.1193     7.8695     6.4806   -37.5289    90.8342
 3565.5000   -27.1597     0.2888     0.0443     2.4450   -53.6204   175.0856   -78.8842     9.8526     7.5282     7.3492     5.8855   -37.4552    93.6155
 3566.0000   -41.2089     0.2876    -0.0143     2.4773   -54.6111   163.4039   -79.3137     9.8550     7.5858     6.9111     6.1869   -37.3815    94.7440
 3566.5000   -55.2585     0.2888    -0.0407     2.4684   -63.1661   158.9657   -79.5984     9.8575     7.6971     6.8207     6.6827   -44.8153    93.6185
