~VERSION INFORMATION
 VERS.                2.0:   CWLS LOG ASCII STANDARD - VERSION 2.0
 WRAP.                 NO:   ONE LINE PER DEPTH STEP
~WELL INFORMATION
#MNEM.UNIT      DATA TYPE    INFORMATION
#----------   ------------   ------------------------------
 STRT.F          330.0000:   START DEPTH
 STOP.F         2880.0000:   STOP DEPTH
 STEP.F            0.5000:   STEP LENGTH
 NULL.          -999.2500:   NO VALUE
 COMP.   TESORO PETROLEUM:   COMPANY
 WELL. TESORO NPR "AX" #3-21:   WELL
 FLD .        TEAPOT DOME:   FIELD
 LOC .      S21 T39N R78W:   LOCATION
 CNTY.            NATRONA:   COUNTY
 STAT.            WYOMING:   STATE
 CTRY. UNITED STATES OF AMERICA:   COUNTRY
 SRVC.       SCHLUMBERGER:   SERVICE COMPANY
 DATE.        17-AUG-1972:   LOGDATE
 API .     49025102150000:   API NUMBER
~CURVE INFORMATION
#MNEM.UNIT       API CODE    CURVE DESCRIPTION
#----------   ------------   ------------------------------
 DEPT.F                  :   
 GRD .GAPI   45 310 01 00:   GAMMA RAY FROM DENSITY LOG
 CALD.IN     45 280 60 00:   CALIPER FROM DENSITY LOG
 CORR.G/C3   45 356 01 00:   DENSITY CORRECTION
 RHOB.G/C3   45 350 01 00:   BULK DENSITY
 SPR .MV     05 010 01 00:   SPONTANEOUS POTENTIAL FROM RES.
 ILD .OHMM   05 120 46 00:   INDUCTION LOG DEEP
 ASN .OHMM   05 041 16 00:   AMPLIFIED SHORT NORMAL 16"
~PARAMETER INFORMATION
#MNEM.UNIT          VALUE    DESCRIPTION
#----------   ------------   ------------------------------
 EKB .F         4985.0000:   Kelly bushing
 EGL .F         4975.0000:   Ground level
 EDF .F            0.0000:   Drilling floor
 EPD .F         4975.0000:   Permanent datum
 TD  .F         2880.0000:   Total depth
 CLNT.            A2DTECH:   Client Code
 DATE.        17-AUG-1972:   Date Logged [DD-MMM-YYYY]
 DD  .F              2875:   Depth driller
 DL  .F              2880:   Depth logger
 BLI .F              2879:   Bottom log interval
 TLI .F               330:   Top log interval
 CS1 .              10.75:   Casing size
 CBD1.       10.75" @ 327:   Casing driller 1
 CBL1.IN              330:   Casing logger 1
 BS1 .IN                9:   Bit size
 BSD1.F              2875:   Depth drilled with bit1
 DFT .           CHEM-GEL:   Type fluid in hole
 DFD .                9.3:   Density
 DFV .                 61:   Viscosity
 DFPH.                9.0:   pH
 DFL .                 66:   Fluid loss
 MSS .           FLOWLINE:   Source of sample
 RMS .OHMM           1.86:   Rm
 MST .F                76:   Rm Meas. temp.
 RMF .OHMM           1.58:   Rmf
 MFST.F                76:   Rmf Meas. temp.
 MFSS.               MEAS:   Source Rmf.
 RMB .OHMM           1.25:   Rm. at BHT
 BHT .F               113:   BHT.
 TCS .HRS               3:   Time Circ. stopped
 MRT .F               113:   Maximum recorded temp.
 LUN .               7037:   Logging unit number
 LUL .               CSPR:   Logging unit location
 ENGI.              GOLAS:   Recorded By
 WITN.                MAY:   Witnessed by
 ORIG.      1" 2.5" PRINT:   Origin of data
 UWI .     49025102150000:   Unique Well ID
 DICO. A2D TECHNOLOGIES, INC.:   Digitizing Company
~OTHER INFORMATION
~A   DEPT      GRD       CALD       CORR       RHOB        SPR          ILD        ASN 
# ...
 2832.5000   105.2115     9.1299     0.0321     2.5096   -10.9292     4.1667     5.0867
 2833.0000   103.8228     9.1300     0.0282     2.4917   -10.9354     4.1667     5.0524
 2833.5000   102.9231     9.1302     0.0244     2.4843   -10.9415     4.1667     5.0274
 2834.0000   107.1233     9.0996     0.0212     2.4799   -10.6381     4.1667     5.3181
 2834.5000   111.6923     9.0997     0.0195     2.4904   -10.6442     4.1667     5.3860
 2835.0000   110.0390     9.0999     0.0307     2.4994   -10.6504     4.1667     5.2842
 2835.5000   107.3256     9.1001     0.0183     2.4708   -10.6565     4.1667     5.2073
 2836.0000   105.5692     9.0695     0.0091     2.4546   -10.6627     4.1976     5.1776
 2836.5000   105.9715     9.0696     0.0307     2.5020   -10.6688     4.3210     5.1851
 2837.0000   108.0078     9.0698     0.0385     2.4938   -10.6750     4.3210     5.2454
 2837.5000   109.3846     9.0700     0.0215     2.4803   -10.9907     4.3210     5.2677
 2838.0000   107.6207     9.0702     0.0184     2.4866   -10.6873     4.3210     5.2764
 2838.5000   105.2794     9.0704     0.0262     2.4893   -10.6935     4.5190     5.2979
 2839.0000   103.1617     9.0706     0.0077     2.4705   -10.6997     4.6758     5.3372
 2839.5000   103.6243     9.0708     0.0015     2.4576   -10.7059     4.8329     5.3878
 2840.0000   105.0257     9.0710     0.0262     2.4551   -10.7121     5.0411     5.4676
 2840.5000   104.9578     9.0712     0.0479     2.5012   -10.7183     5.4552     5.6488
 2841.0000   102.9231     9.0714     0.0496     2.5106   -10.7245     5.6687     6.1821
 2841.5000    98.7692     9.0715     0.0464     2.4929   -10.7306     5.9233     6.8128
 2842.0000    90.0000     9.0717     0.0572     2.5183   -10.7369     6.1728     7.3126
 2842.5000    85.8462     9.0719     0.0510     2.5310   -10.7430     6.3272     7.8536
 2843.0000    84.4615     9.0721     0.0464     2.5260   -10.7946     6.3272     8.4287
 2843.5000    83.5385     9.0723     0.0403     2.4876   -11.0650     6.3272     9.0909
 2844.0000    83.5385     9.0725     0.0108     2.4705   -11.0712     6.1728     8.5538
 2844.5000    85.3846     9.0727    -0.0045     2.4796   -11.0774     5.9439     8.1062
 2845.0000    90.9231     9.0729     0.0021     2.4856   -11.0836     5.6328     7.6288
 2845.5000    97.8462     9.0732     0.0179     2.4812   -11.0898     5.4758     7.2110
 2846.0000   101.0769     9.0733     0.0249     2.4558   -11.0960     5.3189     6.8829
 2846.5000   101.5385     9.0735     0.0157     2.4708   -11.1021     5.2469     6.7338
 2847.0000   100.1254     9.0737     0.0210     2.4888   -11.1084     5.0926     6.6743
 2847.5000    99.6923     9.0739     0.0302     2.4934   -10.8041     5.0926     6.6148
 2848.0000   102.9850     9.0741     0.0156     2.4919   -10.8112     4.9383     6.5851
 2848.5000   101.1481     9.0743     0.0048     2.4650   -10.8173     4.9383     6.5554
 2849.0000    96.6393     9.0745     0.0167     2.4666   -10.8236     4.9383     6.4661
 2849.5000    96.0000     9.0747     0.0316     2.4741   -10.8297     4.9383     6.3170
 2850.0000   100.5382     9.0440     0.0190     2.4787   -10.8359     4.9383     6.1978
 2850.5000   102.4615     9.0442     0.0120     2.4787   -10.8421     4.9383     6.1084
 2851.0000   101.5385     9.0444     0.0178     2.4756   -10.8483     4.7840     5.9892
 2851.5000   103.1013     9.0446     0.0325     2.4728   -10.8545     4.7840     5.8103
 2852.0000   104.6977     9.0448     0.0398     2.4797   -10.7409     4.6296     5.6612
 2852.5000   106.1157     9.0450     0.0463     2.4909   -10.5560     4.6296     5.5718
 2853.0000   107.3049     9.0451     0.0366     2.4850   -10.5635     4.4753     5.4526
 2853.5000   108.4615     9.0453     0.0311     2.4917   -10.5696     4.4753     5.3631
 2854.0000   107.0155     9.0455     0.0233     2.4941   -10.5759     4.3210     5.2719
 2854.5000   105.2308     9.0457     0.0129     2.4603   -10.5820     4.3210     4.9457
 2855.0000   107.5385     9.0459     0.0087     2.4563   -10.5882     4.3210     5.0690
 2855.5000   109.3846     9.0461     0.0253     2.4518   -10.5944     4.3210     5.2180
 2856.0000   107.5385     9.0463     0.0296     2.4575   -10.6006     4.1667     5.2786
 2856.5000   106.1538     9.0465     0.0416     2.4878   -10.6068     4.1667     5.3345
 2857.0000   105.6923     9.0467     0.0595     2.5077   -10.6130     4.1667     5.2723
 2857.5000   106.6154     9.0469     0.0490     2.5132   -10.6192     4.0123     5.1825
 2858.0000   110.3077     9.0470     0.0340     2.5047   -10.6254     4.0123     5.0893
 2858.5000   113.0769     9.0472     0.0355     2.4854   -10.4584     4.0123     4.9954
 2859.0000   113.6046     9.0474     0.0400     2.4812   -10.3282     4.0123     4.8750
 2859.5000   110.7692     9.0476     0.0414     2.4812   -10.3344     3.8580     4.7593
 2860.0000   114.0000     9.0478     0.0399     2.4813   -10.3418     3.8580     4.6393
 2860.5000   115.3846     9.0480     0.0369     2.4769   -10.3479     3.7037     4.4895
 2861.0000   114.4280     9.0482     0.0249     2.4560   -10.3541     3.7037     4.4407
 2861.5000   113.9500     9.0485     0.0159     2.4425   -10.3602     3.7037     4.4110
 2862.0000   113.4047     9.0487     0.0278     2.4366   -10.0557     3.7037     4.4112
 2862.5000   109.9752     9.0488     0.0353     2.4591   -10.0629     3.7037     4.4114
 2863.0000   105.0922     9.0182     0.0248     2.4594   -10.0691     3.6883     4.4414
 2863.5000    98.6425     9.0184     0.0185     2.4428   -10.0752     3.5494     4.4790
 2864.0000    85.4283     9.0185     0.0166     2.4398   -10.0814     3.5494     4.5313
 2864.5000    73.4816     9.0187     0.0271     2.4354   -10.0875     3.3951     4.5149
 2865.0000    68.3077     9.0189     0.0427     2.4519   -10.0937     3.3694     4.3862
 2865.5000  -999.2500     9.0191     0.0726     2.5030   -10.0999     3.2407     4.2451
 2866.0000  -999.2500     9.0193     0.0762     2.5024    -9.7964     3.0864     4.0953
 2866.5000  -999.2500     9.0195     0.0336     2.4629    -9.8026     3.0864     3.9553
 2867.0000  -999.2500     9.0197     0.0231     2.4419    -9.8087     3.0864     3.8954
 2867.5000  -999.2500     9.0199     0.0186     2.4265    -9.8149     3.0864     3.8460
 2868.0000  -999.2500     9.0201     0.0201     2.4208    -9.8210     3.0864     3.8353
 2868.5000  -999.2500     9.0203     0.0280     2.4253    -9.8272     3.0864     3.8166
 2869.0000  -999.2500     9.0513     0.0350     2.4167    -9.8333     3.0864     3.8168
 2869.5000  -999.2500     9.0515     0.0438     2.4096    -9.8395     3.0864     3.8468
 2870.0000  -999.2500     9.0517     0.0537     2.4230    -9.8456     3.0864     3.9192
 2870.5000  -999.2500     9.0496     0.0452     2.4294    -9.8518     2.9321     3.9367
 2871.0000  -999.2500     8.9871     0.0701     2.4619    -9.8579     2.9321     3.9237
 2871.5000  -999.2500     8.9246     0.0849     2.4796    -9.8641     2.9321     3.8639
 2872.0000  -999.2500     8.8570     0.0907     2.4606    -9.8702     2.9321     3.7901
 2872.5000  -999.2500     8.7627     0.0989     2.4468   -10.1860     2.9321     3.5985
 2873.0000  -999.2500     8.6754     0.1027     2.4415   -10.1921     2.7778     3.2966
 2873.5000  -999.2500     8.5968     0.1062     2.4524   -10.1983     2.7778     3.2664
 2874.0000  -999.2500     8.2945     0.1156     2.4904   -10.2044     2.7778     3.3564
 2874.5000  -999.2500     8.1792     0.1503     2.5069   -10.2106     2.7778     3.4010
 2875.0000  -999.2500     8.1585     0.1582     2.5084   -10.2167     2.7778     3.3850
 2875.5000  -999.2500     8.1896     0.1518     2.5089   -10.2229     2.7778     3.2786
 2876.0000  -999.2500     8.1898     0.1341     2.5026   -10.2291     2.7778     3.1885
 2876.5000  -999.2500     8.1900     0.1175     2.4891   -10.2353     2.7778     3.1157
 2877.0000  -999.2500     8.1150     0.1107     2.4637   -10.2415     2.7778     3.1210
 2877.5000  -999.2500     7.7571     0.1079     2.4398   -10.2477     2.7778     3.2230
