~VERSION INFORMATION
 VERS.                2.0:   CWLS LOG ASCII STANDARD - VERSION 2.0
 WRAP.                 NO:   ONE LINE PER DEPTH STEP
~WELL INFORMATION
#MNEM.UNIT      DATA TYPE    INFORMATION
#----------   ------------   ------------------------------
 STRT.F          492.0000:   START DEPTH
 STOP.F         3008.0000:   STOP DEPTH
 STEP.F            0.5000:   STEP LENGTH
 NULL.          -999.2500:   NO VALUE
 COMP.    FENIX & SCISSON:   COMPANY
 WELL. FENIX & SCISSON AX #24-28:   WELL
 FLD .             TEAPOT:   FIELD
 LOC .      S28 T39N R78W:   LOCATION
 CNTY.            NATRONA:   COUNTY
 STAT.            WYOMING:   STATE
 CTRY. UNITED STATES OF AMERICA:   COUNTRY
 SRVC.              WELEX:   SERVICE COMPANY
 DATE.        03-AUG-1980:   LOGDATE
 API .     49025108490000:   API NUMBER
~CURVE INFORMATION
#MNEM.UNIT       API CODE    CURVE DESCRIPTION
#----------   ------------   ------------------------------
 DEPT.F                  :   
 SPR .MV     07 010 01 00:   SPONTANEOUS POTENTIAL
 ILD .OHMM   07 120 46 00:   DEEP INDUCTION RESISTIVITY
 ILM .OHMM   07 120 44 00:   INDUCTION LOG MEDIUM RESISTIVITY
 SGRD.OHMM   07 220 05 00:   SHALLOW SHORT GUARD RESISTIVITY
 GRD .GAPI   45 310 01 00:   GAMMA RAY FROM DENSITY LOG
 CALD.IN     45 280 60 00:   CALIPER FROM DENSITY LOG
 CORR.G/C3   45 356 01 00:   DENSITY CORRECTION
 RHOB.G/C3   45 350 01 00:   BULK DENSITY
~PARAMETER INFORMATION
#MNEM.UNIT          VALUE    DESCRIPTION
#----------   ------------   ------------------------------
 EKB .F         5061.0000:   Kelly bushing
 EGL .F         5051.0000:   Ground level
 TD  .F         3000.0000:   Total depth
 CLNT.            A2DTECH:   Client Code
 SL  . 2350' FNL & 1000' FWL:   Surface Location
 DATE.         3-AUG-1980:   Date Logged [DD-MMM-YYYY]
 DD  .F              3000:   Depth driller
 DL  .F              3010:   Depth logger
 BLI .F              3008:   Bottom log interval
 TLI .F               308:   Top log interval
 CS1 .              8.625:   Casing size
 CBD1.      8.625" @ 393':   Casing driller 1
 BS1 .IN            7.875:   Bit size
 BSD1.F              3000:   Depth drilled with bit1
 DFT .     WATER BASE MUD:   Type fluid in hole
 DFD .                8.9:   Density
 TCS .HRS               8:   Time Circ. stopped
 MRT .F               115:   Maximum recorded temp.
 ENGI.           WACHTELL:   Recorded By
 WITN.           DINSMORE:   Witnessed by
 ORIG.      2.5" 5" PRINT:   Origin of data
 UWI .     49025108490000:   Unique Well ID
 DICO. A2D TECHNOLOGIES, INC.:   Digitizing Company
 PD  .                 GL:   Permanent Datum
 EPD .F              3051:   Elevation Permanent Datum
 LMF .                 KB:   Log Measured From
 DMF .                 KB:   Drilling Measured From
 DAPD.F                10:   Feet Above Permanent Datum
 DFV .                 43:   Viscosity
 DFPH.                9.5:   pH
 DFL .                7.2:   Fluid loss
 MSS .           FLOWLINE:   Source of sample
 RMS .OHMM             .9:   Rm
 MST .F                80:   Rm Meas. temp.
 RMF .OHMM            .72:   Rmf
 MFST.F                80:   Rmf Meas. temp.
 MFSS.               MEAS:   Source Rmf.
 RMC .OHMM           1.08:   Rmc
 MCST.F                80:   Rmc Meas. temp.
 MCSS.               MEAS:   Source Rmc.
 RMB .OHMM            .06:   Rm. at BHT
 BHT .F               115:   BHT.
 LUN .               1892:   Logging unit number
 LUL .             CASPER:   Logging unit location
~OTHER INFORMATION
~A   DEPT      SPR        ILD        ILM       SGRD        GRD       CALD       CORR       RHOB   
# ...
  816.0000   -88.1441     6.3992     7.6703     7.5520    79.9160    12.0811     0.1394     2.5235
  816.5000   -88.1387     6.3958     7.6660     7.5286    80.4337    11.9459     0.1050     2.4921
  817.0000   -88.1344     6.3039     7.6275     7.5052    81.9303    11.9610     0.1081     2.4765
  817.5000   -88.1300     6.3004     7.5515     7.4819    83.0505    12.0360     0.1280     2.4741
  818.0000   -87.8254     6.2969     7.5960     7.4585    84.3955    12.0961     0.0906     2.4865
  818.5000   -87.8210     6.2933     7.8138     7.4351    85.2907    12.1411     0.0407     2.5006
  819.0000   -87.8167     6.2898     8.0820     7.4137    85.2655    12.1411     0.0359     2.5128
  819.5000   -87.8123     6.2863     8.3059     7.3956    83.7069    12.0811     0.0451     2.5213
  820.0000   -87.8078     6.2828     7.8514     7.3683    81.0039    12.0360     0.0714     2.5321
  820.5000   -87.8033     6.2793     7.5259     7.3411    78.0761    12.0360     0.0946     2.5322
  821.0000   -88.0995     6.1890     7.2139     7.3139    76.2727    12.0511     0.1193     2.5201
  821.5000   -88.0946     6.0993     6.9148     7.2867    75.3688    12.1111     0.1456     2.5063
  822.0000   -88.0901     6.0117     6.9111     7.2594    76.0381    12.2162     0.2061     2.4969
  822.5000   -88.0856     6.0084     7.0043     7.2322    77.1583    12.3363     0.1857     2.4883
  823.0000   -88.0811     6.0052     7.0144     7.2050    78.0535    12.3664     0.1421     2.4812
  823.5000   -88.0766     6.0862     7.0949     7.1777    78.4990    12.0811     0.1326     2.4862
  824.0000   -88.3724     6.1682     7.0906     7.1505    78.7196    12.0360     0.1822     2.5145
  824.5000   -88.6675     6.2527     7.0866     7.1233    77.7497    12.1562     0.2396     2.5315
  825.0000   -88.9640     6.3430     6.9847     7.0960    76.2362    12.2462     0.2612     2.5346
  825.5000   -89.5597     6.4346     6.9808     7.0653    75.1074    12.3067     0.2704     2.4778
  826.0000   -89.8559     6.5078     6.9769     7.0620    73.9787    12.3664     0.2874     2.3852
  826.5000   -89.8512     6.7146     7.3719     7.0586    73.0749    12.4414     0.3262     2.3456
  827.0000   -89.8468     6.8115     7.7903     7.0553    72.1529    12.5015     0.2980     2.3509
  827.5000   -89.8423     6.8689     8.0066     7.0520    71.9418    12.5616     0.2416     2.3820
  828.0000   -89.8378     6.9126     8.3434     7.0485    73.7355    12.6370     0.1842     2.4487
  828.5000   -89.8333     6.9575     8.5746     7.0451    74.6308    12.7568     0.1576     2.4619
  829.0000   -89.8288     7.0512     8.8121     7.0417    75.0774    12.8619     0.1482     2.4440
  829.5000   -89.7147     7.0467     8.3191     7.0383    74.6162    12.8919     0.1543     2.4579
  830.0000   -89.5195     7.0429     7.8630     7.0348    71.2435    12.5616     0.1572     2.3910
  830.5000   -89.2147     7.0391     7.6354     7.1306    68.5406    12.5164     0.1711     2.4034
  831.0000   -89.2102     7.0353     7.5431     7.1264    67.6367    12.6066     0.1896     2.4295
  831.5000   -88.9046     7.0315     7.5712     7.1230    68.0833    12.6817     0.2175     2.4258
  832.0000   -88.9003     7.0276     7.6805     7.1188    67.8530    12.5616     0.2407     2.4436
  832.5000   -88.8959     7.0237     7.7913     7.1155    67.6237    12.5465     0.1801     2.4824
  833.0000   -88.8915     7.0198     7.9577     7.1121    67.3936    12.6667     0.1393     2.5142
  833.5000   -88.8872     7.0159     8.1303     7.1088    67.6152    13.0270     0.1609     2.5797
  834.0000   -88.8828     7.0120     8.4037     7.2052    67.8358    13.3423     0.1686     2.5871
  834.5000   -88.5635     7.0081     8.5170     7.2016    68.5051    13.3874     0.1140     2.5458
  835.0000   -88.2382     7.0042     8.3946     7.2990    68.9654    13.3724     0.1196     2.5302
  835.5000   -87.9685     7.0003     8.1595     7.2955    69.8448    13.1772     0.1743     2.5263
  836.0000   -87.9640     6.8988     7.7130     7.2919    70.2913    12.9922     0.2037     2.5207
  836.5000   -87.9595     6.7997     7.4970     7.2884    70.5119    12.9369     0.1974     2.4966
  837.0000   -87.9550     6.7020     7.4928     7.2848    70.9563    12.9369     0.1786     2.4694
  837.5000   -87.9505     6.6057     7.4887     7.2813    71.8516    12.9369     0.1929     2.4538
  838.0000   -87.7878     6.4207     7.5048     7.2777    72.7458    12.9520     0.2110     2.4576
  838.5000   -87.6403     6.4172     7.5858     7.3761    73.1923    12.9692     0.1984     2.4762
  839.0000   -87.6359     6.4137     7.5810     7.3725    73.1869    13.0270     0.1345     2.4575
  839.5000   -87.6316     6.3215     7.6840     7.3682    72.7329    13.0871     0.1281     2.4527
  840.0000   -87.6272     6.3179     7.8376     7.3648    71.1544    13.2372     0.1386     2.4931
  840.5000   -87.3225     6.3144     7.9507     7.3613    70.4484    12.9970     0.2025     2.5358
  841.0000   -87.0179     6.3109     8.1091     7.3578    70.0202    12.9069     0.1432     2.4859
  841.5000   -86.4129     6.3074     8.2184     7.5619    70.2419    12.8619     0.1229     2.4975
  842.0000   -86.3863     6.3039     8.2140     7.7716    70.4625    12.8619     0.1134     2.5278
  842.5000   -86.0611     6.3004     8.2096     7.7679    70.4571    12.8168     0.1086     2.5215
  843.0000   -85.7988     6.3852     8.2052     7.7641    70.6895    12.7718     0.1100     2.4997
  843.5000   -85.7943     6.3810     8.0873     7.8691    71.5719    12.6934     0.1052     2.5172
  844.0000   -85.7898     6.3775     7.8607     7.8653    72.9169    12.6066     0.1004     2.5369
  844.5000   -85.7853     6.3741     7.8563     8.0825    74.4868    12.5465     0.0972     2.5127
  845.0000   -85.7808     6.3707     7.7433     8.0787    75.1583    12.4114     0.1126     2.4824
  845.5000   -86.0766     6.3672     7.7390     8.1885    74.0285    12.2613     0.0767     2.4613
  846.0000   -86.3724     6.3638     7.7658     8.1841    73.7982    12.1562     0.0657     2.4487
  846.5000   -86.3672     6.3604     7.8396     8.1803    74.4686    12.0961     0.0780     2.4565
  847.0000   -86.6637     6.4462     7.8345     8.1764    75.3638    12.0661     0.0887     2.4868
  847.5000   -86.6588     6.4424     7.9400     8.1726    76.2591    12.0811     0.0963     2.5069
  848.0000   -86.6544     6.4593     7.9979     8.1686    76.7047    12.0961     0.1071     2.4874
  848.5000   -86.6501     6.5260     8.0424     8.1646    77.3987    12.0811     0.0945     2.4858
  849.0000   -86.3454     6.5219     8.0373     8.1607    78.2702    11.9309     0.0850     2.5083
  849.5000   -86.3408     6.6097     7.8122     8.1567    79.1644    11.8108     0.1253     2.5370
  850.0000   -86.3363     6.6524     7.6999     8.1527    79.8347    11.7958     0.1998     2.6154
  850.5000   -86.0315     6.6950     7.6958     8.1487    80.5051    11.7808     0.2401     2.6180
  851.0000   -85.7267     6.6906     7.6916     8.1448    81.4093    11.7808     0.2447     2.6105
  851.5000   -85.4219     6.6870     7.6874     8.1408    82.0696    11.7958     0.2476     2.5624
  852.0000   -85.4174     6.6834     7.7912     8.1361    82.7400    11.8258     0.1697     2.4893
  852.5000   -85.1126     6.6798     7.9152     8.3617    83.4104    11.7357     0.1478     2.4877
  853.0000   -85.1081     6.7699     8.1422     8.5936    83.8569    11.6456     0.1166     2.5070
  853.5000   -85.1028     6.7662     8.3756     8.7099    84.0764    11.6156     0.1129     2.5295
  854.0000   -85.0985     6.8575     8.6912     8.7058    83.8111    11.6607     0.1355     2.5822
  854.5000   -85.0941     6.8536     8.6854     8.5815    82.7174    11.7057     0.1706     2.5558
  855.0000   -84.7895     6.8497     8.6185     8.5774    81.3638    11.6907     0.1704     2.5782
  855.5000   -85.0854     6.8459     8.3690     8.5653    80.9108    11.6156     0.1812     2.6085
  856.0000   -85.0811     6.8421     8.0866     8.4351    81.1304    11.5401     0.1966     2.5933
