~VERSION INFORMATION
 VERS.                2.0:   CWLS LOG ASCII STANDARD - VERSION 2.0
 WRAP.                 NO:   ONE LINE PER DEPTH STEP
~WELL INFORMATION
#MNEM.UNIT      DATA TYPE    INFORMATION
#----------   ------------   ------------------------------
 STRT.F           40.0000:   START DEPTH
 STOP.F         1336.0000:   STOP DEPTH
 STEP.F            0.5000:   STEP LENGTH
 NULL.          -999.2500:   NO VALUE
 COMP. LAWRENCE - ALLISON WEST:   COMPANY
 WELL. LAWRENCE NPR 3 "AX" #54-23:   WELL
 FLD .              N P R:   FIELD
 LOC .      S23 T38N R78W:   LOCATION
 CNTY.            NATRONA:   COUNTY
 STAT.            WYOMING:   STATE
 CTRY. UNITED STATES OF AMERICA:   COUNTRY
 SRVC.       SCHLUMBERGER:   SERVICE COMPANY
 DATE.        13-MAY-1982:   LOGDATE
 API .     49025108880000:   API NUMBER
~CURVE INFORMATION
#MNEM.UNIT       API CODE    CURVE DESCRIPTION
#----------   ------------   ------------------------------
 DEPT.F                  :   
 NPOR.DEC    42 890 03 00:   ALPHA PROCESSED NEUTRON POROSITY
 TEND.LBS    45 635 01 00:   TENSION FROM DENSITY LOG
 CORR.G/C3   45 356 01 00:   DENSITY CORRECTION
 RHOB.G/C3   45 350 01 00:   BULK DENSITY
 GRD .GAPI   45 310 01 00:   GAMMA RAY FROM DENSITY LOG
 CALD.IN     45 280 60 00:   CALIPER FROM DENSITY LOG
 SPR .MV     07 010 01 00:   SPONTANEOUS POTENTIAL
 TENR.LBS    07 635 01 00:   TENSION
 ILD .OHMM   07 120 46 00:   DEEP INDUCTION RESISTIVITY
 ILM .OHMM   07 120 44 00:   INDUCTION LOG MEDIUM RESISTIVITY
 SFL .OHMM   07 220 01 00:   SHALLOW FOCUSED LOG RESISTIVITY
~PARAMETER INFORMATION
#MNEM.UNIT          VALUE    DESCRIPTION
#----------   ------------   ------------------------------
 EKB .F         5342.0000:   Kelly bushing
 EGL .F         5332.0000:   Ground level
 EDF .F            0.0000:   Drilling floor
 TD  .F         1325.0000:   Total depth
 DATE.        13-MAY-1982:   Date logged
 CLNT.            A2DTECH:   Client Code
 SL  . 2278' FSL & 2665' FWL:   Surface Location
 PD  .                 GL:   Permanent Datum
 DD  .F              1325:   Depth driller
 DL  .F              1314:   Depth logger
 BLI .F              1308:   Bottom log interval
 CS1 .IN             15.5:   Casing size
 CBD1.        15.5" @ 40':   Casing driller 1
 CBL1.F                54:   Casing logger 1
 BS1 .IN            12.25:   Bit size
 DFT .             LT/GEL:   Type fluid in hole
 DFD .                8.9:   Density
 DFV .                 33:   Viscosity
 DFPH.                8.8:   pH
 DFL .                 16:   Fluid loss
 MSS .                PIT:   Source of sample
 RMS .OHMM           2.47:   Rm
 MST .F                61:   Rm Meas. temp.
 RMF .OHMM           2.12:   Rmf
 MFST.F                62:   Rmf Meas. temp.
 MFSS.               MEAS:   Source Rmf.
 RMB .OHMM           1.73:   Rm. at BHT
 BHT .F                87:   BHT.
 TCS .HRS            2300:   Time Circ. stopped
 MRT .F                87:   Maximum recorded temp.
 LUN .               8043:   Logging unit number
 LUL .               CSPR:   Logging unit location
 ENGI.        WAGNER/CSPR:   Recorded By
 WITN.           JENNINGS:   Witnessed by
 ORIG.           5" PRINT:   Origin of data
 UWI .     49025108880000:   Unique Well ID
 DICO. A2D TECHNOLOGIES, INC.:   Digitizing Company
 BSD1.F              1325:   Depth drilled with bit1
 EPD .F              5332:   Elevation Permanent Datum
 LMF .                 KB:   Log Measured From
 DMF .                 KB:   Drilling Measured From
 TLI .F                54:   Top log interval
 DAPD.F                10:   Feet Above Permanent Datum
~OTHER INFORMATION
~A   DEPT     NPOR       TEND       CORR       RHOB        GRD       CALD        SPR       TENR        ILD        ILM        SFL   
# ...
  284.0000     0.1630    97.9500    -0.0040     2.4020   135.4350    13.1520   -26.4590   -44.0510     6.9650     6.8360     6.5830
  284.5000     0.1670    97.1240    -0.0010     2.4070   136.9760    13.1520   -26.6840   -43.6700     6.9440     6.7290     6.5100
  285.0000     0.1660    96.2980     0.0040     2.4180   135.0960    13.1520   -27.3350   -43.2880     6.8900     6.6410     6.4490
  285.5000     0.1620    95.4720     0.0080     2.4340   132.3600    13.1520   -27.6880   -42.9070     6.8370     6.5520     6.3880
  286.0000     0.1580    94.6460     0.0060     2.4360   130.4030    13.1520   -27.6260   -42.5250     6.7830     6.4630     6.3390
  286.5000     0.1590    93.8190     0.0040     2.4300   132.0740    13.1520   -27.6080   -42.1440     6.7290     6.3750     6.2230
  287.0000     0.1620    92.9930     0.0010     2.4230   135.0090    13.1520   -27.0970   -41.7620     6.6710     6.3390     6.1270
  287.5000     0.1640    92.1670    -0.0010     2.4160   134.1750    13.1520   -26.3760   -41.3810     6.6090     6.3390     6.0300
  288.0000     0.1670    91.3410     0.0010     2.4140   132.0420    13.1520   -27.6540   -40.9990     6.5470     6.3390     5.9910
  288.5000     0.1690    92.0100     0.0040     2.4150   129.9250    13.1520   -28.9530   -40.6170     6.4600     6.3390     6.1050
  289.0000     0.1720    93.1570     0.0050     2.4100   129.8860    13.1520   -28.7230   -40.2360     6.4970     6.3390     6.2520
  289.5000     0.1750    94.3050     0.0010     2.4040   131.6880    13.1520   -28.1300   -39.8540     6.5590     6.3390     6.4480
  290.0000     0.1760    95.4520    -0.0050     2.4000   134.6780    13.1520   -27.3590   -39.4730     6.6210     6.3390     6.7190
  290.5000     0.1670    96.6000    -0.0060     2.4020   135.8160    13.1520   -27.2220   -39.0910     6.6830     6.3390     6.9900
  291.0000     0.1590    97.7470    -0.0040     2.4090   136.4450    13.1520   -27.4290   -38.7100     6.7740     6.4420     7.1660
  291.5000     0.1550    98.8950     0.0030     2.4240   137.2870    13.1500   -28.3460   -38.3280     6.8830     6.5440     7.2800
  292.0000     0.1550   100.0420     0.0090     2.4400   139.0090    13.1490   -30.6270   -37.9470     6.9920     6.6470     7.3700
  292.5000     0.1580   101.1900     0.0070     2.4490   140.8990    13.1470   -30.7500   -37.5650     7.1020     6.8050     7.4550
  293.0000     0.1600   102.3370     0.0020     2.4570   139.8940    13.1460   -30.6570   -37.1840     7.2330     7.0980     7.5110
  293.5000     0.1630   103.4850     0.0010     2.4520   137.9860    13.1440   -28.6300   -36.8020     7.2880     6.9560     7.3250
  294.0000     0.1660   104.6320     0.0030     2.4420   136.0540    13.1430   -28.0320   -36.4210     7.3700     6.7790     7.1700
  294.5000     0.1670   105.7800     0.0050     2.4320   134.1210    13.1410   -28.5960   -36.0390     7.2490     6.6020     7.0160
  295.0000     0.1670   106.9270     0.0070     2.4270   132.1610    13.1390   -29.2990   -35.6580     7.0980     6.4600     6.8610
  295.5000     0.1620   108.0750     0.0090     2.4300   130.2140    13.1380   -29.9440   -35.2760     6.9460     6.2590     6.7070
  296.0000     0.1550   109.2220     0.0100     2.4340   129.5150    13.1360   -30.0400   -35.2760     6.7950     6.0920     6.5830
  296.5000     0.1490   110.3700     0.0100     2.4310   130.2840    13.1350   -29.6180   -35.2760     6.6430     5.9800     6.3190
  297.0000     0.1570   111.5170     0.0090     2.4280   132.3180    13.1330   -28.6230   -35.2760     6.4400     5.9520     6.0990
  297.5000     0.1650   112.6650     0.0060     2.4240   134.0550    13.1320   -27.7920   -35.2760     6.1050     5.9240     5.8790
  298.0000     0.1720   113.8120     0.0020     2.4210   134.7460    13.1300   -28.8330   -35.2760     6.1340     5.8790     5.7710
  298.5000     0.1690   114.9600    -0.0010     2.4170   134.5740    13.1290   -29.9070   -35.2760     6.1830     5.8870     5.6620
  299.0000     0.1640   116.1070    -0.0040     2.4140   135.2180    13.1270   -30.0070   -35.2760     6.2320     5.9080     5.7290
  299.5000     0.1650   117.2550    -0.0050     2.4130   136.9300    13.1260   -30.0110   -35.2760     6.2810     5.9280     5.8650
  300.0000     0.1670   118.4020    -0.0050     2.4150   138.6530    13.1240   -29.9800   -35.2760     6.3390     5.9480     6.1030
  300.5000     0.1660   119.5500    -0.0050     2.4200   138.2510    13.1230   -30.1760   -35.2760     6.3280     5.9680     6.3390
  301.0000     0.1640   120.6970    -0.0040     2.4240   136.2560    13.1210   -30.6420   -35.2760     6.3140     5.9890     6.3390
  301.5000     0.1650   121.5610    -0.0030     2.4280   134.1990    13.1200   -31.0860   -35.2760     6.3000     6.0090     6.3390
  302.0000     0.1640   120.5980    -0.0020     2.4320   134.1720    13.1180   -31.5450   -35.2760     6.2860     6.0290     6.2780
  302.5000     0.1610   119.6350    -0.0020     2.4360   136.9930    13.1160   -32.0070   -35.2760     6.2720     6.0490     5.9950
  303.0000     0.1580   118.6720    -0.0010     2.4350   140.1390    13.1150   -32.2970   -35.2760     6.2570     6.0690     5.6620
  303.5000     0.1550   117.7080     0.0000     2.4360   139.8300    13.1130   -32.1070   -35.2760     6.2430     6.0890     5.6620
  304.0000     0.1570   116.7450     0.0030     2.4400   138.0900    13.1120   -31.8590   -35.2760     6.2290     6.0990     5.7260
  304.5000     0.1610   115.7820     0.0070     2.4500   136.4150    13.1110   -31.4150   -35.2760     6.2140     6.0700     6.0040
  305.0000     0.1630   114.8190     0.0120     2.4580   134.7350    13.1120   -30.9900   -35.2760     6.1990     6.0420     6.3970
  305.5000     0.1620   113.8560     0.0120     2.4560   133.0080    13.1130   -30.5440   -35.2760     6.1840     6.0130     6.8360
  306.0000     0.1490   112.8930     0.0050     2.4540   132.6210    13.1130   -30.3550   -35.2760     6.1680     5.9850     6.7360
  306.5000     0.1380   111.9300     0.0010     2.4570   133.8900    13.1140   -30.3220   -35.2760     6.1530     5.9570     6.3350
  307.0000     0.1360   110.9670     0.0100     2.4560   136.2040    13.1150   -30.2740   -35.2760     6.1380     5.9290     5.9340
  307.5000     0.1410   110.0030     0.0060     2.4490   137.3480    13.1160   -30.2290   -35.2760     6.1230     5.9000     5.5560
  308.0000     0.1560   109.0400     0.0020     2.4360   137.4680    13.1160   -30.1850   -35.2760     6.1050     5.8550     5.5560
  308.5000     0.1690   108.0770    -0.0030     2.4250   137.1360    13.1170   -30.1370   -35.2760     6.1050     5.7650     5.7370
  309.0000     0.1720   107.1140    -0.0050     2.4130   136.8000    13.1180   -30.0980   -35.2760     6.0590     5.6620     5.9450
  309.5000     0.1700   106.1510    -0.0040     2.4050   135.9110    13.1190   -30.0460   -35.2760     5.9890     5.5260     6.2210
  310.0000     0.1680   105.1880    -0.0010     2.4060   134.0060    13.1190   -29.9870   -35.2760     5.9200     5.3510     6.1320
  310.5000     0.1630   104.2250    -0.0010     2.4100   133.2360    13.1200   -29.5710   -35.2760     5.8500     5.2640     5.8100
  311.0000     0.1560   103.2620    -0.0030     2.4130   134.3430    13.1210   -29.0760   -35.2760     5.7810     5.1530     5.4530
  311.5000     0.1540   102.2980    -0.0050     2.4140   136.7310    13.1220   -28.5910   -35.2760     5.6620     5.1650     5.4530
  312.0000     0.1530   101.3240    -0.0050     2.4160   140.3830    13.1220   -28.4440   -35.2760     5.6710     5.1900     5.4710
  312.5000     0.1520   102.1320    -0.0020     2.4180   143.0040    13.1230   -29.0100   -35.2760     5.7010     5.2150     5.4970
  313.0000     0.1500   102.9500     0.0030     2.4200   140.8810    13.1240   -29.3780   -35.2760     5.7320     5.2400     5.5230
  313.5000     0.1480   103.7680     0.0070     2.4200   138.1710    13.1250   -29.8650   -35.2760     5.7620     5.2650     5.5490
  314.0000     0.1470   104.5860     0.0070     2.4180   135.4710    13.1250   -30.3360   -35.2760     5.7920     5.2890     5.5990
