~VERSION INFORMATION
 VERS.                2.0:   CWLS LOG ASCII STANDARD - VERSION 2.0
 WRAP.                 NO:   ONE LINE PER DEPTH STEP
~WELL INFORMATION
#MNEM.UNIT      DATA TYPE    INFORMATION
#----------   ------------   ------------------------------
 STRT.F          197.0000:   START DEPTH
 STOP.F         3074.5000:   STOP DEPTH
 STEP.F            0.5000:   STEP LENGTH
 NULL.          -999.2500:   NO VALUE
 COMP.    FENIX & SCISSON:   COMPANY
 WELL.   FENIX "A" #36-21:   WELL
 FLD .             NPR #3:   FIELD
 LOC .      S21 T39N R78W:   LOCATION
 CNTY.            NATRONA:   COUNTY
 STAT.            WYOMING:   STATE
 CTRY. UNITED STATES OF AMERICA:   COUNTRY
 SRVC.              WELEX:   SERVICE COMPANY
 DATE.        06-JUL-1977:   LOGDATE
 API .     49025103920000:   API NUMBER
~CURVE INFORMATION
#MNEM.UNIT       API CODE    CURVE DESCRIPTION
#----------   ------------   ------------------------------
 DEPT.F                  :   
 CALD.IN     45 280 60 00:   CALIPER FROM DENSITY LOG
 GRD .GAPI   45 310 01 00:   GAMMA RAY FROM DENSITY LOG
 CORR.G/C3   45 356 01 00:   DENSITY CORRECTION
 RHOB.G/C3   45 350 01 00:   BULK DENSITY
 SPR .MV     11 010 01 00:   SPONTANEOUS POTENTIAL FROM RES.
 FORX.OHMM   11 000 00 00:   FORMATION FACTOR
 GURD.OHMM   11 220 05 00:   GUARD LOG RESISTIVITY
 NPHI.DEC    42 890 03 00:   NEUTRON POROSITY SANDSTONE
~PARAMETER INFORMATION
#MNEM.UNIT          VALUE    DESCRIPTION
#----------   ------------   ------------------------------
 EKB .F         4960.0000:   Kelly bushing
 EGL .F         4950.0000:   Ground level
 EDF .F            0.0000:   Drilling floor
 EPD .F         4950.0000:   Permanent datum
 TD  .F         3078.0000:   Total depth
 CLNT.            A2DTECH:   Client Code
 SL  . 1650' FSL & 1650' FWL:   Surface Location
 PD  .                 GL:   Permanent Datum
 DAPD.F                10:   Feet Above Permanent Datum
 DATE.        06-JUL-1977:   Date Logged [DD-MMM-YYYY]
 DD  .F              3066:   Depth driller
 DL  .F              3078:   Depth logger
 BLI .F              3076:   Bottom log interval
 TLI .F               200:   Top log interval
 CS1 .IN            8.625:   Casing size
 BS1 .IN            7.875:   Bit size
 BSD1.F              3066:   Depth drilled with bit1
 DFT .            KCL MUD:   Type fluid in hole
 DFD .                9.2:   Density
 DFV .                 35:   Viscosity
 DFPH.                7.5:   pH
 DFL .                 18:   Fluid loss
 MSS .           FLOWLINE:   Source of sample
 RMS .OHMM            0.9:   Rm
 MST .F                80:   Rm Meas. temp.
 RMF .OHMM           0.81:   Rmf
 MFST.F                80:   Rmf Meas. temp.
 MFSS.               FANN:   Source Rmf.
 RMC .OHMM           1.06:   Rmc
 MCST.F                80:   Rmc Meas. temp.
 MCSS.                KIT:   Source Rmc.
 RMB .OHMM           0.60:   Rm. at BHT
 BHT .F               119:   BHT.
 TCS .HRS               3:   Time Circ. stopped
 MRT .F               119:   Maximum recorded temp.
 LUN .               8611:   Logging unit number
 LUL .             CASPER:   Logging unit location
 ENGI.             C DOAK:   Recorded By
 WITN.         HARRINGTON:   Witnessed by
 ORIG.           5" PRINT:   Origin of data
 UWI .     49025103920000:   Unique Well ID
 DICO. A2D TECHNOLOGIES,INC.:   Digitizing Company
~OTHER INFORMATION
~A   DEPT     CALD         GRD      CORR       RHOB        SPR       FORX       GURD       NPHI   
# ...
 1695.5000     7.6721   107.0326     0.0525     2.4491   -69.0919    10.7605     7.9341     0.2831
 1696.0000     7.6737   104.1204     0.0527     2.4738   -69.0827     9.5699     8.1557     0.2882
 1696.5000     7.6753   100.3232     0.0575     2.4830   -69.0734    11.1366     8.4417     0.2924
 1697.0000     7.6769    96.5261     0.0664     2.5044   -68.9145    10.5381     7.9325     0.2932
 1697.5000     7.6633    91.5490     0.0697     2.5425   -68.9072    11.1349     7.7693     0.2860
 1698.0000     7.6801    93.2381     0.0711     2.5269   -69.0481    72.6149     9.2964     0.2791
 1698.5000     7.6669   107.5270     0.0623     2.4637   -69.0389    50.3864    21.1404     0.2718
 1699.0000     7.6537   117.0401     0.0520     2.4168   -69.0296    13.6904    14.4597     0.2597
 1699.5000     7.6553   120.0276     0.0432     2.4043   -69.0204    10.3182    10.0974     0.2432
 1700.0000     7.6417   121.2452     0.0403     2.3998   -69.0112     9.2406     8.3219     0.2237
 1700.5000     7.6588   119.5128     0.0465     2.4163   -69.0020    10.0376     8.3346     0.2168
 1701.0000     7.6606   117.4855     0.0467     2.4231   -68.9928    10.3182     8.7339     0.2177
 1701.5000     7.6623   116.0481     0.0484     2.4269   -69.1356    10.3896     9.0407     0.2406
 1702.0000     7.6641   115.1913     0.0500     2.4381   -69.1240    10.7540     8.7944     0.2563
 1702.5000     7.6506   114.6388     0.0532     2.4599   -69.1168    10.6067     8.9167     0.2742
 1703.0000     7.6528   115.2757     0.0519     2.4621   -69.2576    10.9033     9.0407     0.2820
 1703.5000     7.6546   116.7882     0.0506     2.4600   -69.2484    10.8224     9.2939     0.2862
 1704.0000     7.6563   118.0135     0.0508     2.4511   -69.3892    10.4615     9.0407     0.2898
 1704.5000     7.6581   118.9292     0.0510     2.4358   -69.3796    10.3182     8.7339     0.2934
 1705.0000     7.6598   118.9751     0.0497     2.4248   -69.3704     9.7646     7.7560     0.2991
 1705.5000     7.6615   119.0126     0.0484     2.4226   -69.3612     9.6975     7.6602     0.3000
 1706.0000     7.6633   118.1652     0.0456     2.4250   -69.3520    10.0376     7.7667     0.3006
 1706.5000     7.6651   117.6127     0.0443     2.4243   -69.3428    10.3182     8.6738     0.3018
 1707.0000     7.6669   117.0509     0.0430     2.4236   -69.3353    10.3182     8.3795     0.3039
 1707.5000     7.6690   118.2778     0.0432     2.4238   -69.4763    10.3182     8.2077     0.3102
 1708.0000     7.6707   121.2652     0.0434     2.4291   -69.4671    10.3182     7.8747     0.3138
 1708.5000     7.6725   123.3676     0.0436     2.4284   -69.5807    10.3182     7.6602     0.3141
 1709.0000     7.6590   123.4356     0.0438     2.4285   -69.4486    10.0376     7.6602     0.3141
 1709.5000     7.6612   123.1475     0.0440     2.4323   -69.8890     9.4990     7.6554     0.3141
 1710.0000     7.6629   123.1858     0.0442     2.4332   -69.8802     9.4337     7.5551     0.3147
 1710.5000     7.6647   124.4947     0.0444     2.4340   -69.8713     9.7646     7.6075     0.3159
 1711.0000     7.6664   126.8095     0.0467     2.4333   -69.7109     9.9001     7.6075     0.3165
 1711.5000     7.6682   128.0270     0.0507     2.4431   -69.7022     9.7646     7.6075     0.3150
 1712.0000     7.6699   128.3595     0.0509     2.4618   -69.8431     9.6309     7.4002     0.3120
 1712.5000     7.6717   125.1522     0.0511     2.4790   -69.8344     9.4337     7.2485     0.3090
 1713.0000     7.6734   124.3048     0.0528     2.4858   -69.8257     9.3689     7.4515     0.3039
 1713.5000     7.6752   124.0379     0.0530     2.4599   -69.8170     9.3689     7.6075     0.3042
 1714.0000     7.6769   124.0848     0.0517     2.4391   -69.8082     8.9893     7.1564     0.3066
 1714.5000     7.6787   125.0073     0.0519     2.4303   -69.7994     8.3904     6.2271     0.3069
 1715.0000     7.6656   126.5198     0.0521     2.4237   -69.6407     7.7243     6.3136     0.3033
 1715.5000     7.6675   126.8523     0.0523     2.4230   -69.6302     7.6712     6.7650     0.3006
 1716.0000     7.6696   124.7630     0.0495     2.4321   -69.6214     9.4990     7.1491     0.3021
 1716.5000     7.6713   122.5120     0.0497     2.4382   -69.6127     9.6504     7.3493     0.3048
 1717.0000     7.6578   120.7796     0.0484     2.4406   -69.6040     9.3689     7.2485     0.3111
 1717.5000     7.6600   119.0472     0.0471     2.4421   -69.5953     9.4337     7.2485     0.3192
 1718.0000     7.6618   117.9048     0.0473     2.4414   -69.5865     9.6424     7.2988     0.3210
 1718.5000     7.6635   116.7624     0.0475     2.4408   -69.7275     9.9686     7.5625     0.3126
 1719.0000     7.6653   115.6106     0.0492     2.4409   -69.7186    10.2473     7.8747     0.3066
 1719.5000     7.6670   115.3532     0.0509     2.4447   -69.7079     9.9686     8.0952     0.3033
 1720.0000     7.6536   115.9901     0.0510     2.4492   -69.6992     9.6975     8.0952     0.3006
 1720.5000     7.6705   116.9126     0.0512     2.4552   -69.6904     9.8321     8.0952     0.3009
 1721.0000     7.6723   117.8351     0.0484     2.4293   -69.6817    10.1769     8.0395     0.3015
 1721.5000     7.6740   118.1681     0.0457     2.4168   -69.6730    10.3182     7.8747     0.2961
 1722.0000     7.6758   118.5015     0.0429     2.4080   -69.6642    10.3182     7.7667     0.2888
 1722.5000     7.6775   118.5470     0.0401     2.4021   -69.5058    10.1584     7.8747     0.2874
 1723.0000     7.6793   118.5845     0.0373     2.3992   -69.4970     9.9001     7.8747     0.2890
 1723.5000     7.6811   118.3177     0.0375     2.4009   -69.4880    10.0376     7.9936     0.2945
 1724.0000     7.6828   118.0603     0.0377     2.4061   -69.4774     9.4990     8.0952     0.2998
 1724.5000     7.6697   117.2222     0.0394     2.4144   -69.6206     9.6309     8.0952     0.3006
 1725.0000     7.6719   116.3748     0.0441     2.4338   -69.6108     9.9686     7.9842     0.2969
 1725.5000     7.6584   115.5274     0.0472     2.4510   -69.6010    10.0376     7.6602     0.2958
 1726.0000     7.6606   114.6785     0.0504     2.4727   -69.5922     9.4990     7.4515     0.3004
 1726.5000     7.6624   114.7175     0.0536     2.4944   -69.4338     9.3689     7.4515     0.3030
 1727.0000     7.6639   115.9392     0.0568     2.5071   -69.4251     9.3689     7.7667     0.3034
 1727.5000     7.6659   117.8022     0.0570     2.4856   -69.4162     9.7646     8.2077     0.3043
 1728.0000     7.6676   121.0342     0.0586     2.4768   -69.4062    10.5338     8.0130     0.3052
 1728.5000     7.6694   122.8416     0.0603     2.4724   -69.2477     9.9001     7.6602     0.3041
 1729.0000     7.6711   121.9942     0.0605     2.4718   -69.2390     9.1771     7.4515     0.3006
 1729.5000     7.6729   120.5568     0.0607     2.4719   -69.2303     9.3689     7.5551     0.3006
 1730.0000     7.6746   119.2528     0.0579     2.4705   -69.0719    10.1769     7.8747     0.2994
 1730.5000     7.6764   118.0854     0.0551     2.4682   -69.0629    10.3896     8.2077     0.2973
 1731.0000     7.6781   116.8346     0.0523     2.4610   -69.0522    10.4615     8.5549     0.2979
 1731.5000     7.6799   116.2728     0.0495     2.4500   -69.0435    10.9033     8.6738     0.3003
 1732.0000     7.6817   115.4348     0.0467     2.4330   -69.0348    10.2957     8.2953     0.3044
 1732.5000     7.6834   116.0623     0.0439     2.4122   -69.1779     9.4990     6.4444     0.3111
 1733.0000     7.6852   118.1970     0.0411     2.4012   -69.4664     9.2406     7.1491     0.3096
 1733.5000     7.6873   120.9408     0.0384     2.4072   -69.4577     8.8662     7.8205     0.3063
 1734.0000     7.6891   122.6739     0.0386     2.4192   -69.4490     8.3904     5.9744     0.3018
 1734.5000     7.6908   120.3516     0.0388     2.4290   -69.4401     7.1110     6.1417     0.2994
 1735.0000     7.6926   118.9142     0.0390     2.4254   -69.4311     5.9441     8.1513     0.2970
 1735.5000     7.6791   118.0574     0.0421     2.4195   -69.4206    10.1769     8.5549     0.2934
