~VERSION INFORMATION
 VERS.                2.0:   CWLS LOG ASCII STANDARD - VERSION 2.0
 WRAP.                 NO:   ONE LINE PER DEPTH STEP
~WELL INFORMATION
#MNEM.UNIT      DATA TYPE    INFORMATION
#----------   ------------   ------------------------------
 STRT.F         1053.5000:   START DEPTH
 STOP.F         3062.0000:   STOP DEPTH
 STEP.F            0.5000:   STEP LENGTH
 NULL.          -999.2500:   NO VALUE
 COMP.    FENIX & SCISSON:   COMPANY
 WELL.  FENIX "A" #301-11:   WELL
 FLD .              NPR-3:   FIELD
 LOC .      S11 T38N R78W:   LOCATION
 CNTY.            NATRONA:   COUNTY
 STAT.            WYOMING:   STATE
 CTRY. UNITED STATES OF AMERICA:   COUNTRY
 SRVC.      NL MCCULLOUGH:   SERVICE COMPANY
 DATE.        13-OCT-1977:   LOGDATE
 API .     49025104410000:   API NUMBER
~CURVE INFORMATION
#MNEM.UNIT       API CODE    CURVE DESCRIPTION
#----------   ------------   ------------------------------
 DEPT.F                  :   
 GR  .GAPI   35 310 01 00:   GAMMA RAY
 NEUT.NAPI   35 330 01 00:   NEUTRON
~PARAMETER INFORMATION
#MNEM.UNIT          VALUE    DESCRIPTION
#----------   ------------   ------------------------------
 EDF .F         5165.0000:   Drilling floor
 TD  .F         3097.0000:   Total depth
 CLNT.            A2DTECH:   Client Code
 PD  .                 DF:   Permanent Datum
 EPD .F              5165:   Elevation Permanent Datum
 LMF .                 GL:   Log Measured From
 DMF .                 DF:   Drilling Measured From
 DATE.        13-OCT-1977:   Date Logged [DD-MMM-YYYY]
 DD  .F              3097:   Depth driller
 BLI .F              3060:   Bottom log interval
 TLI .F              1060:   Top log interval
 BSD1.F              3097:   Depth drilled with bit1
 DFT .              WATER:   Type fluid in hole
 ENGI.            MUNDELL:   Recorded By
 ORIG.           5" PRINT:   Origin of data
 UWI .     49025104410000:   Unique Well ID
 DICO. A2D TECHNOLOGIES, INC.:   Digitizing Company
~OTHER INFORMATION
~A  DEPT         GR      NEUT   
# ...
 1539.5000    76.7395   225.1469
 1540.0000    72.8068   221.8566
 1540.5000    76.8999   217.9314
 1541.0000    79.0987   214.0062
 1541.5000    80.0419   215.6629
 1542.0000    80.5143   217.8664
 1542.5000    80.2019   231.2284
 1543.0000    78.9478   230.6491
 1543.5000    78.3215   222.5819
 1544.0000    79.6290   225.0238
 1544.5000    78.3250   245.0775
 1545.0000    75.8153   231.1147
 1545.5000    74.5612   224.9589
 1546.0000    76.6031   226.0525
 1546.5000    77.8602   229.3777
 1547.0000    78.4895   228.2398
 1547.5000    79.4354   224.2767
 1548.0000    80.2420   224.8452
 1548.5000    78.9653   229.2847
 1549.0000    78.6529   233.7243
 1549.5000    78.3407   240.3944
 1550.0000    78.1852   245.3916
 1550.5000    75.8325   246.4906
 1551.0000    73.9539   228.6188
 1551.5000    74.5847   220.2177
 1552.0000    76.4711   217.8975
 1552.5000    75.3676   219.0684
 1553.0000    75.6932   231.3150
 1553.5000    76.6379   239.1004
 1554.0000    79.6230   245.7705
 1554.5000    79.3122   253.5614
 1555.0000    78.8436   253.5343
 1555.5000    78.6903   262.4350
 1556.0000    79.3382   269.2235
 1556.5000    81.3654   260.7134
 1557.0000    83.8797   259.0188
 1557.5000    85.4522   263.4583
 1558.0000    86.5539   267.8979
 1558.5000    87.0277   263.4150
 1559.0000    86.5599   242.2027
 1559.5000    85.4553   235.4892
 1560.0000    84.0555   233.6091
 1560.5000    83.4300   218.7110
 1561.0000    82.4921   217.0219
 1561.5000    81.7096   222.0136
 1562.0000    81.2425   235.9332
 1562.5000    80.9316   250.5977
 1563.0000    80.2789   249.2969
 1563.5000    78.5842   251.5275
 1564.0000    78.9012   261.5652
 1564.5000    78.4333   266.0264
 1565.0000    78.1217   266.0264
 1565.5000    80.1659   256.9117
 1566.0000    80.1689   250.4122
 1566.5000    81.9181   259.3346
 1567.0000    81.5875   256.5464
 1567.5000    81.4336   260.4499
 1568.0000    81.5943   266.0264
 1568.5000    81.7543   263.7879
 1569.0000    82.2282   260.4499
 1569.5000    82.5451   262.1228
 1570.0000    80.6124   267.1417
 1570.5000    78.9421   272.7182
 1571.0000    79.1021   277.1794
 1571.5000    80.0468   273.8335
 1572.0000    79.7359   272.1158
 1572.5000    79.2673   271.6029
 1573.0000    80.8406   277.1794
 1573.5000    81.8074   271.6029
 1574.0000    80.2197   272.7182
 1574.5000    78.4955   277.7370
 1575.0000    80.3827   288.8900
 1575.5000    81.9552   272.2888
 1576.0000    81.6443   266.0264
 1576.5000    80.3918   262.1228
 1577.0000    79.2846   261.0075
 1577.5000    78.8283   262.6805
 1578.0000    79.1460   267.1417
 1578.5000    78.0496   272.2420
 1579.0000    78.6805   277.7370
 1579.5000    78.3696   290.5629
 1580.0000    79.1581   295.0241
 1580.5000    76.3119   290.5629
 1581.0000    75.3981   289.4476
 1581.5000    76.0290   281.6405
 1582.0000    75.7173   276.3759
 1582.5000    76.0350   272.1605
 1583.0000    77.2937   272.7182
 1583.5000    77.3163   273.8335
 1584.0000    76.6719   269.3723
 1584.5000    77.9313   267.1417
 1585.0000    80.1316   279.4099
 1585.5000    79.8208   273.8335
 1586.0000    78.5682   274.3911
 1586.5000    76.5309   286.6594
 1587.0000    78.7312   291.1206
 1587.5000    80.6438   289.4476
 1588.0000    81.0923   276.6217
 1588.5000    82.3509   274.9488
 1589.0000    83.6096   277.1794
 1589.5000    82.9848   287.2170
 1590.0000    81.4183   293.3512
 1590.5000    79.8518   296.1394
 1591.0000    80.0119   305.0618
 1591.5000    80.3287   307.2924
 1592.0000    79.0769   289.4476
 1592.5000    79.2369   289.4476
 1593.0000    78.4552   289.4476
 1593.5000    78.4582   286.6594
 1594.0000    78.3043   274.9488
 1594.5000    77.9793   278.2946
 1595.0000    77.3687   277.0300
 1595.5000    77.3725   271.6029
 1596.0000    75.6490   278.2946
 1596.5000    75.4951   287.2170
 1597.0000    72.6730   298.3700
 1597.5000    72.3621   302.8312
 1598.0000    68.2698   300.6006
 1598.5000    69.8577   300.6006
 1599.0000    71.4303   303.9465
 1599.5000    72.2181   310.6383
 1600.0000    74.1045   312.8689
 1600.5000    73.7936   300.6006
 1601.0000    73.6397   303.9465
 1601.5000    74.6149   306.7347
 1602.0000    78.6690   294.4665
 1602.5000    79.9276   291.6782
 1603.0000    80.5584   299.4853
 1603.5000    81.1893   304.5042
 1604.0000    82.1340   309.5230
 1604.5000    83.0787   320.2223
 1605.0000    83.7097   335.7325
 1605.5000    83.7134   337.9631
 1606.0000    82.1279   331.8289
 1606.5000    81.6586   321.7913
 1607.0000    81.3458   319.0030
 1607.5000    81.6616   315.0995
 1608.0000    82.4479   316.2148
 1608.5000    81.1934   312.8689
 1609.0000    82.4509   318.4454
 1609.5000    82.7894   332.7320
 1610.0000    83.8669   334.9518
 1610.5000    83.5545   318.6945
 1611.0000    82.4574   325.4474
 1611.5000    81.8311   338.2626
 1612.0000    82.3035   334.9059
 1612.5000    81.8341   336.0104
 1613.0000    81.0509   338.2329
 1613.5000    81.8508   337.1041
 1614.0000    82.3099   319.0627
 1614.5000    82.9393   304.7362
 1615.0000    84.0394   306.3983
 1615.5000    84.3549   305.8299
 1616.0000    84.9842   299.1273
 1616.5000    84.3579   295.7706
 1617.0000    81.8482   295.6859
 1617.5000    80.4056   296.8643
 1618.0000    82.0086   296.8532
 1618.5000    83.8935   310.2263
 1619.0000    84.8367   299.6175
 1619.5000    84.9952   297.9338
 1620.0000    78.5618   284.5394
 1620.5000    76.8367   280.0674
 1621.0000    76.9953   278.3837
 1621.5000    78.1133   299.0428
 1622.0000    80.4516   306.7995
 1622.5000    81.2375   300.0969
 1623.0000    79.5130   307.3356
 1623.5000    78.2589   322.3813
 1624.0000    76.8479   325.7191
 1624.5000    76.2215   319.0138
 1625.0000    75.5953   325.6948
 1625.5000    74.9491   334.6804
 1626.0000    77.0113   323.9976
 1626.5000    77.4836   314.5095
 1627.0000    78.1130   322.8607
 1627.5000    79.0562   326.7534
 1628.0000    77.4882   305.5520
 1628.5000    77.3328   302.1953
 1629.0000    76.8634   302.2586
 1629.5000    76.8431   308.8628
 1630.0000    76.3956   314.4312
 1630.5000    79.0657   314.9754
 1631.0000    80.7937   319.9834
 1631.5000    80.9522   338.3750
 1632.0000    81.4245   341.1525
 1632.5000    78.4440   352.8523
 1633.0000    79.5565   354.5144
 1633.5000    80.6684   327.7338
 1634.0000    78.6059   313.7818
 1634.5000    80.6478   312.0981
 1635.0000    80.0215   299.8190
 1635.5000    77.6687   295.3470
 1636.0000    76.8855   287.5291
 1636.5000    76.8873   288.7820
 1637.0000    76.7315   295.3146
 1637.5000    77.2042   279.6870
 1638.0000    78.3044   277.4483
 1638.5000    81.2880   279.6681
 1639.0000    80.3478   278.5393
 1639.5000    79.4076   278.5285
 1640.0000    78.7813   280.7483
 1640.5000    78.9402   293.5996
 1641.0000    78.9417   297.4562
 1641.5000    78.0015   294.6544
 1642.0000    77.5318   297.9895
 1642.5000    78.9463   304.1156
 1643.0000    79.2617   304.1021
 1643.5000    78.7924   304.0913
 1644.0000    77.6952   307.4264
 1644.5000    78.7954   307.4129
 1645.0000    77.6987   324.1316
 1645.5000    76.9154   334.7161
 1646.0000    75.8183   339.7242
 1646.5000    76.7615   342.5016
 1647.0000    78.1756   344.1638
 1647.5000    77.8476   341.9224
 1648.0000    77.3939   324.7332
 1648.5000    77.8666   301.7474
 1649.0000    77.5869   295.0448
 1649.5000    76.3559   293.3611
 1650.0000    77.7762   292.7926
 1650.5000    78.8811   289.4359
 1651.0000    78.8852   291.0981
 1651.5000    78.5603   302.8720
 1652.0000    79.8386   321.7445
 1652.5000    81.5722   331.7741
 1653.0000    81.1052   332.8786
 1653.5000    79.2235   326.1733
 1654.0000    78.9125   332.8543
 1654.5000    78.4467   332.8435
 1655.0000    77.1151   335.0633
 1655.5000    74.8417   323.4535
 1656.0000    74.5307   321.6581
 1656.5000    78.7804   329.4518
 1657.0000    79.2554   324.4221
 1657.5000    78.4740   309.9124
 1658.0000    79.7372   308.2287
 1658.5000    80.8421   291.4884
 1659.0000    81.3181   285.9010
 1659.5000    78.1801   285.3300
 1660.0000    76.4556   285.8796
 1660.5000    75.3599   285.8661
