~VERSION INFORMATION
 VERS.                2.0:   CWLS LOG ASCII STANDARD - VERSION 2.0
 WRAP.                 NO:   ONE LINE PER DEPTH STEP
~WELL INFORMATION
#MNEM.UNIT      DATA TYPE    INFORMATION
#----------   ------------   ------------------------------
 STRT.F            0.0000:   START DEPTH
 STOP.F          678.0000:   STOP DEPTH
 STEP.F            0.5000:   STEP LENGTH
 NULL.          -999.2500:   NO VALUE
 COMP.       FLUOR DANIEL:   COMPANY
 WELL. FLUOR DANIEL "X" #23-2:   WELL
 FLD .          N.P.R. #3:   FIELD
 LOC .       S2 T38N R78W:   LOCATION
 CNTY.            NATRONA:   COUNTY
 STAT.            WYOMING:   STATE
 CTRY. UNITED STATES OF AMERICA:   COUNTRY
 SRVC.      WESTERN ATLAS:   SERVICE COMPANY
 DATE.        12-AUG-1994:   LOGDATE
 API .     49025226420000:   API NUMBER
~CURVE INFORMATION
#MNEM.UNIT       API CODE    CURVE DESCRIPTION
#----------   ------------   ------------------------------
 DEPT.F                  :   
 GR  .GAPI   07 310 01 00:   GAMMA RAY
 ILD .OHMM   07 120 46 00:   DEEP INDUCTION RESISTIVITY
 ILM .OHMM   07 120 44 00:   INDUCTION LOG MEDIUM RESISTIVITY
 TENR.LBS    07 635 01 00:   TENSION FROM RESISTIVITY
~PARAMETER INFORMATION
#MNEM.UNIT          VALUE    DESCRIPTION
#----------   ------------   ------------------------------
 EKB .F         5110.0000:   Kelly bushing
 EGL .F         5100.0000:   Ground level
 EDF .F         5109.0000:   Drilling floor
 EPD .F         5100.0000:   Permanent datum
 TD  .F          677.0000:   Total depth
 CLNT.            A2DTECH:   Client Code
 SL  . 1896' FNL & 744' FWL:   Surface Location
 PD  .                 GL:   Permanent Datum
 DAPD.F                10:   Feet Above Permanent Datum
 DATE.        12-AUG-1994:   Date Logged [DD-MMM-YYYY]
 DD  .F               670:   Depth driller
 DL  .F               677:   Depth logger
 BLI .F               664:   Bottom log interval
 TLI .F                 0:   Top log interval
 CS1 .              9.625:   Casing size
 CBD1.       9.625" @ 72':   Casing driller 1
 CBL1.IN               79:   Casing logger 1
 BS1 .IN             8.75:   Bit size
 BSD1.F               670:   Depth drilled with bit1
 DFT .                AIR:   Type fluid in hole
 LUN .            HL 6530:   Logging unit number
 LUL .             CASPER:   Logging unit location
 ENGI.      PAT RASMUSSEN:   Recorded By
 WITN.        GARY STRONG:   Witnessed by
 ORIG.         2.5" PRINT:   Origin of data
 UWI .     49025226420000:   Unique Well ID
 DICO. A2D TECHNOLOGIES, INC.:   Digitizing Company
~OTHER INFORMATION
~A    DEPT       GR       ILD        ILM       TENR   
# ...
   73.0000    72.0295  -999.2500  -999.2500  -999.2500
   73.5000    68.9980  -999.2500  -999.2500  -999.2500
   74.0000    66.6079  -999.2500  -999.2500  -999.2500
   74.5000    65.5513  -999.2500  -999.2500  -999.2500
   75.0000    66.4226  -999.2500  -999.2500  -999.2500
   75.5000    69.7546  -999.2500  -999.2500  -999.2500
   76.0000    70.9364  -999.2500  -999.2500  -999.2500
   76.5000    71.3823  -999.2500  -999.2500  -999.2500
   77.0000    70.6178  -999.2500  -999.2500  -999.2500
   77.5000    68.2454  -999.2500  -999.2500  -999.2500
   78.0000    67.2493  -999.2500  -999.2500  -999.2500
   78.5000    66.6556  -999.2500  -999.2500  -999.2500
   79.0000    67.8182  9908.5234  -999.2500   -30.2923
   79.5000    69.8250  9905.6689  -999.2500   -30.0000
   80.0000    77.0632  9903.0020  -999.2500   -29.7101
   80.5000   106.7522  9900.3350  -999.2500   -29.4191
   81.0000   121.3426  9880.9111  9989.0000   -29.1280
   81.5000   129.4907  2019.9712  2246.2107   -28.8369
   82.0000   133.5563   129.5387    93.6393   -28.5459
   82.5000   136.9632     1.4139     1.4071   -28.2548
   83.0000   138.7140     1.2770     1.2998   -27.9637
   83.5000   132.8402     1.4274     1.6000   -27.6727
   84.0000   116.9958     2.3251     2.6444   -27.3816
   84.5000   110.5355     3.9594     4.6335   -27.0905
   85.0000   108.1808     4.7287     6.4302   -26.7995
   85.5000   107.5856     5.1735     8.7225   -26.5084
   86.0000   108.1642     5.1988    10.8333   -26.2173
   86.5000   107.5683     5.8584    12.6327   -25.9263
   87.0000   106.3866     6.2490    14.9169   -25.6352
   87.5000   104.0319     6.2399    16.1442   -39.8551
   88.0000   100.5042     6.1548    15.1099   -39.5458
   88.5000   100.4955     6.2431    11.4351   -39.2547
   89.0000   101.0733     6.7941     7.7111   -38.9637
   89.5000   101.0431     7.5554     6.3326   -38.6726
   90.0000   100.4302     7.7298     5.4265   -38.3815
   90.5000    99.8743     6.7262     5.0014   -38.0905
   91.0000   105.1593     5.7224     4.8330   -37.7994
   91.5000   119.6707     5.1568     4.8903   -37.5083
   92.0000   123.5270     5.1554     4.9916   -37.2173
   92.5000   124.4731     5.2310     5.0871   -36.9262
   93.0000   118.4608     5.5221     5.3554   -36.6351
   93.5000   113.0866     5.9915     5.9468   -36.3441
   94.0000   109.2436     6.7640     6.9384   -36.0530
   94.5000   106.6442     7.9376     7.6323   -35.7619
   95.0000   105.6598     9.2050     8.3581   -35.4709
   95.5000   105.6510    10.2339     9.1735   -35.1798
   96.0000   107.0655    10.9468    10.2041   -49.4203
   96.5000   107.6608    11.5478    10.9360   -49.0904
   97.0000   106.8131    12.1819    11.6879   -34.3066
   97.5000   100.5614    12.8420    12.4294   -34.0155
   98.0000    94.3539    13.3702    13.1084   -33.7245
   98.5000    90.5973    13.5472    13.6407   -33.4334
   99.0000    90.3385    14.1012    13.8848   -33.1423
   99.5000    90.9163    14.2872    14.3159   -32.8513
  100.0000    93.2537    14.4770    14.5049   -18.0674
  100.5000    93.8315    14.8682    14.5642   -17.7764
  101.0000    94.5845    14.8642    14.6925   -17.4853
  101.5000    96.3073    14.8602    14.4926   -17.1942
  102.0000    98.8386    14.8562    14.4296   -31.3959
  102.5000    99.6216    14.8521    14.2922   -31.1048
  103.0000    97.6578    14.6495    14.2884   -30.8138
  103.5000    96.6510    14.6456    14.2846   -30.5227
  104.0000   101.5916    14.6416    14.2276   -30.2898
  104.5000   106.7645    14.4419    14.0871   -30.0000
  105.0000   109.2668    14.4380    14.0334   -29.7101
  105.5000   111.8325    14.4341    13.8923   -29.4203
  106.0000   112.4014    14.2373    13.8886   -29.1304
  106.5000   111.2846    13.8819    13.8165   -28.8406
  107.0000   109.0947    12.5843    13.3874   -28.5507
  107.5000   107.4877    11.2983    12.5207   -28.2609
  108.0000   107.0498    10.1805    11.0055   -27.9710
  108.5000   109.4410     9.5163     9.8290   -27.6811
  109.0000   115.0150     8.8401     8.5991   -27.3913
  109.5000   123.8297     8.3747     7.6781   -27.1014
  110.0000   132.9818     7.9337     7.0410   -26.8116
  110.5000   137.9235     7.5161     6.5850   -41.0145
  111.0000   141.2669     7.0958     6.4134   -40.7246
  111.5000   144.1781     6.6103     6.2428   -40.4348
  112.0000   142.9682     6.3049     6.2005   -40.1449
  112.5000   136.8035     6.3248     6.1988   -39.8551
  113.0000   135.0264     6.3229     6.1972   -39.5652
  113.5000   134.8661     6.3212     6.2790   -39.2753
  114.0000   133.0909     6.3195     6.2773   -38.9855
  114.5000   132.4888     6.3177     6.2756   -38.6957
  115.0000   130.7137     6.3160     6.2740   -38.4058
  115.5000   129.3900     6.3143     6.2723   -23.6232
  116.0000   127.8847     6.3126     6.2706   -32.0288
  116.5000   129.7556     6.3109     6.2228   -37.5932
  117.0000   131.0382     6.3950     6.2672   -22.7536
  117.5000   132.5239     6.5869     6.3500   -22.4638
  118.0000   131.5427     6.6740     6.3848   -22.1739
  118.5000   127.1787     6.9470     6.5931   -21.8841
  119.0000   123.0851     7.0390     6.7841   -21.5942
  119.5000   125.3039     7.3069     6.8737   -21.3043
  120.0000   130.2053     7.4039     6.9089   -21.0145
  120.5000   129.6094     7.4214     6.9995   -20.7246
  121.0000   122.3345     7.5003     7.0550   -20.4348
  121.5000   117.6070     7.3977     7.0527   -20.1449
  122.0000   116.5279     7.2968     7.0508   -19.8550
  122.5000   117.8983     7.2949     7.0146   -19.5652
  123.0000   121.0207     7.2929     6.9533   -19.2754
  123.5000   123.5148     7.1934     6.8590   -33.5183
  124.0000   122.8074     7.1915     6.8572   -33.1884
  124.5000   122.3050     7.1895     6.7642   -32.8985
  125.0000   122.3851     7.2039     6.8535   -32.6087
  125.5000   122.2683     7.2833     6.8517   -32.3188
  126.0000   116.3856     7.1837     6.9422   -17.5362
  126.5000   115.7814     7.1818     7.0338   -17.2464
  127.0000   120.4559     7.1799     7.0319   -16.9566
  127.5000   126.3034     7.1778     7.0300   -16.6667
  128.0000   128.0453     7.1758     7.0282   -16.3768
  128.5000   128.7274     7.1739     7.0263   -16.0869
  129.0000   127.4235     7.1720     7.0244   -30.3165
  129.5000   126.8194     7.1700     7.1172   -30.0000
  130.0000   127.3883     7.2653     7.1152   -29.7102
  130.5000   129.7167     7.2633     7.1133   -29.4203
  131.0000   131.4586     7.2614     7.1114   -29.1304
  131.5000   129.6814     7.2594     7.1095   -28.8406
  132.0000   124.3852     7.2574     7.1076   -30.4838
  132.5000   122.0215     7.2555     7.1057   -42.7718
  133.0000   121.8768     7.2535     7.1038   -40.7728
  133.5000   123.7458     7.3499     7.1019   -27.6811
  134.0000   126.6608     7.3479     7.1956   -27.3913
  134.5000   128.9892     7.3459     7.1937   -41.6075
  135.0000   128.9715     7.3439     7.1918   -41.3044
  135.5000   128.3674     7.4415     7.1898   -41.0145
  136.0000   128.3498     7.4395     7.2849   -40.7246
  136.5000   130.0917     7.4375     7.2828   -40.4348
  137.0000   134.7662     7.3360     7.1841   -39.4174
  137.5000   135.9238     7.3340     7.1663   -25.3623
  138.0000   134.1444     7.2340     7.0698   -25.0724
  138.5000   131.7807     7.0399     6.9604   -24.7825
  139.0000   131.7631     6.9438     6.7119   -24.4928
  139.5000   132.3320     6.7575     6.6086   -24.2029
  140.0000   134.0739     6.5762     6.4442   -23.9130
  140.5000   134.6428     6.5744     6.4316   -23.6220
  141.0000   135.7982     6.4847     6.3551   -23.3309
  141.5000   136.3695     6.3963     6.3534   -23.0398
  142.0000   136.5161     6.3090     6.3427   -22.7488
  142.5000   133.9858     6.3073     6.2655   -36.9505
  143.0000   132.7951     6.3056     6.3484   -36.6594
  143.5000   131.0180     6.2196     6.2622   -36.3683
  144.0000   129.2408     6.2179     6.2605   -36.0773
  144.5000   128.0502     6.2162     6.3433   -35.7862
  145.0000   128.0325     6.2146     6.3415   -49.9879
  145.5000   129.1906     6.2974     6.3398   -49.6968
