~VERSION INFORMATION
 VERS.                2.0:   CWLS LOG ASCII STANDARD - VERSION 2.0
 WRAP.                 NO:   ONE LINE PER DEPTH STEP
~WELL INFORMATION
#MNEM.UNIT      DATA TYPE    INFORMATION
#----------   ------------   ------------------------------
 STRT.F          220.0000:   START DEPTH
 STOP.F         3284.5000:   STOP DEPTH
 STEP.F            0.5000:   STEP LENGTH
 NULL.          -999.2500:   NO VALUE
 COMP.    FENIX & SCISSON:   COMPANY
 WELL. FENIX HARPEL "A" #85-28:   WELL
 FLD .              NPR-3:   FIELD
 LOC .      S28 T39N R78W:   LOCATION
 CNTY.            NATRONA:   COUNTY
 STAT.            WYOMING:   STATE
 CTRY. UNITED STATES OF AMERICA:   COUNTRY
 SRVC.      DRESSER ATLAS:   SERVICE COMPANY
 DATE.        07-AUG-1977:   LOGDATE
 API .     49025104040000:   API NUMBER
~CURVE INFORMATION
#MNEM.UNIT       API CODE    CURVE DESCRIPTION
#----------   ------------   ------------------------------
 DEPT.F                  :   
 GRD .GAPI   45 310 01 00:   GAMMA RAY FROM DENSITY LOG
 CALD.IN     45 280 60 00:   CALIPER FROM DENSITY LOG
 CORR.G/C3   45 356 01 00:   DENSITY CORRECTION
 RHOB.G/C3   45 350 01 00:   BULK DENSITY
 TEND.LBS    45 635 01 00:   TENSION FORM DENSITY LOG
 NPHI.DEC    42 890 03 00:   NEUTRON POROSITY SANDSTONE
 SPR .MV     11 010 01 00:   SPONTANEOUS POTENTIAL FROM RES.
 TENR.LBS    11 635 01 00:   TENSION FROM RES.
 LLD .OHMM   11 220 10 00:   LATEROLOG LOG DEEP
 LLS .OHMM   11 220 09 00:   LATEROLOG SHALLOW
 RXO .OHMM   11 270 04 00:   FLUSHED ZONE RESISTIVITY
~PARAMETER INFORMATION
#MNEM.UNIT          VALUE    DESCRIPTION
#----------   ------------   ------------------------------
 EKB .F         5059.0000:   Kelly bushing
 EGL .F         5049.0000:   Ground level
 EDF .F            0.0000:   Drilling floor
 EPD .F            0.0000:   Permanent datum
 TD  .F         3240.0000:   Total depth
 CLNT.            A2DTECH:   Client Code
 SL  . 2310' FSL & 330' FEL:   Surface Location
 PD  .                 GL:   Permanent Datum
 DAPD.F                10:   Feet Above Permanent Datum
 DATE.        07-AUG-1977:   Date Logged [DD-MMM-YYYY]
 DD  .F              3240:   Depth driller
 DL  .F              3267:   Depth logger
 BLI .F              3265:   Bottom log interval
 TLI .F               224:   Top log interval
 CS1 .IN            8.625:   Casing size
 CBD1.      8.625" @ 254':   Casing driller 1
 CBL1.F               224:   Casing logger 1
 BS1 .IN            7.875:   Bit size
 BSD1.F              3240:   Depth drilled with bit1
 DFT .                KCL:   Type fluid in hole
 DFD .                8.8:   Density
 DFV .                 36:   Viscosity
 DFPH.               10.5:   pH
 DFL .                9.6:   Fluid loss
 MSS .         CIRCULATED:   Source of sample
 RMS .OHMM           0.22:   Rm
 MST .F                78:   Rm Meas. temp.
 RMF .OHMM           0.16:   Rmf
 MFST.F                78:   Rmf Meas. temp.
 MFSS.               MEAS:   Source Rmf.
 RMC .OHMM           0.28:   Rmc
 MCST.F                78:   Rmc Meas. temp.
 MCSS.               MEAS:   Source Rmc.
 RMB .OHMM           0.14:   Rm. at BHT
 BHT .F               125:   BHT.
 TCS .HRS               7:   Time Circ. stopped
 MRT .F               125:   Maximum recorded temp.
 LUN .               6134:   Logging unit number
 LUL .              GLTTE:   Logging unit location
 ENGI.              GOULD:   Recorded By
 WITN.         HARRINGTON:   Witnessed by
 ORIG.      2.5" 5" PRINT:   Origin of data
 UWI .     49025104040000:   Unique Well ID
 DICO. A2D TECHNOLOGIES, INC.:   Digitizing Company
~OTHER INFORMATION
~A   DEPT      GRD       CALD       CORR       RHOB       TEND         NPHI      SPR       TENR        LLD        LLS        RXO   
# ...
  616.5000    47.2387     8.5557     0.0135     2.5116  1083.3036     0.3069   -76.1961   688.4808    14.1716    10.7203     7.3106
  617.0000    46.0579     8.5420     0.0046     2.5004  1083.3572     0.3054   -76.2006   689.3322    13.4835    10.5702     7.4093
  617.5000    46.3838     8.5435     0.0077     2.4944  1083.4106     0.3167   -76.5045   690.1836    13.8519    10.2737     7.2047
  618.0000    46.6994     8.5447     0.0213     2.4886  1083.4641     0.3239   -76.5090   691.0349    13.2095    10.1358     7.1735
  618.5000    45.5186     8.5460     0.0275     2.4992  1083.5177     0.3349   -76.5135   691.9162    13.7620    10.1330     7.1002
  619.0000    46.7608     8.5474     0.0261     2.4971  1083.5712     0.3441   -76.8180   692.8144    13.3824     9.9342     7.0972
  619.5000    45.5645     8.5487     0.0172     2.4926  1083.6246     0.3327   -76.8223   693.7126    12.6457     9.6443     7.1923
  620.0000    47.2400     8.5501     0.0144     2.4815  1083.6781     0.3309   -77.1259   694.6108    12.4807     9.3192     7.1896
  620.5000    48.0060     8.5516     0.0205     2.4846  1082.2723     0.3315   -77.1302   695.5090    12.6496     9.1890     7.3877
  621.0000    46.9754     8.5529     0.0266     2.4914  1080.3661     0.3266   -77.9855   696.5689    12.3200     9.1866     7.4874
  621.5000    46.8507     8.5541     0.0283     2.5058  1078.4595     0.3164   -77.9955   697.4203    11.7051     9.4468     7.4842
  622.0000    45.2195     8.5555     0.0269     2.4916  1076.5530     0.3098   -78.0060   698.2717    11.6293     9.5702     7.4811
  622.5000    45.7106     8.5569     0.0195     2.4849  1074.6464     0.3163   -78.3159   699.1231    12.2839     9.2695     7.4328
  623.0000    47.2174     8.5581     0.0152     2.4858  1072.7397     0.3217   -78.3264   700.0000    12.6226     9.1765     7.2148
  623.5000    45.8864     8.5595     0.0213     2.5039  1070.8459     0.3283   -78.3368   700.8982    11.9404     9.1059     7.0705
  624.0000    46.8026     8.5608     0.0291     2.5167  1068.8821     0.3333   -78.3493   701.7964    12.1303     8.6783     6.8755
  624.5000    45.1765     8.5622     0.0272     2.5078  1066.5436     0.3354   -78.3592   702.6946    11.8823     8.4397     6.7787
  625.0000    45.4972     8.5635     0.0185     2.4966  1064.6370     0.3341   -78.3691   703.5928    11.1578     8.4375     6.6594
  625.5000    45.8179     8.5649     0.0158     2.4906  1062.7303     0.3353   -78.0793   704.6570    10.6757     8.6764     6.5635
  626.0000    45.5095     8.5814     0.0160     2.4870  1060.8239     0.3323   -78.0898   705.5084    11.4321     8.6492     6.3804
  626.5000    46.7638     8.5825     0.0161     2.4912  1059.0636     0.3244   -78.1003   706.3598    11.4628     8.5478     6.2885
  627.0000    46.9302     8.5839     0.0147     2.4978  1057.0107     0.3214   -78.1108   737.1513    10.9603     8.8356     6.3815
  627.5000    45.3040     8.5854     0.0142     2.4963  1040.0302     0.3124   -78.1213   738.0240    11.1199     8.7171     6.5447
  628.0000    48.6278     8.5867     0.0105     2.4927  1038.0665     0.3076   -78.1317   738.9222    11.2580     8.6591     6.6308
  628.5000    50.7503     8.5727     0.0122     2.4920  1036.1028     0.3063   -78.1439   739.8204    11.0582     8.8993     6.6249
  629.0000    51.0659     8.5743     0.0228     2.5041  1033.8021     0.3033   -78.1538   720.0605    11.2771     9.2733     6.6726
  629.5000    49.8902     8.5906     0.0259     2.5275  1032.3722     0.3009   -78.1637   711.6766    12.2135     9.2708     6.7067
  630.0000    50.5505     8.5919     0.0216     2.5193  1045.5713     0.3002   -78.1737   712.7451    12.0404     9.2897     6.7011
  630.5000    49.6307     8.5933     0.0172     2.5104  1043.1882     0.3002   -78.1841   713.5964    12.5440     9.5637     6.6963
  631.0000    47.8018     8.5946     0.0143     2.5045  1056.4955     0.3014   -78.1946   714.4479    12.8900     9.9258     6.6915
  631.5000    48.7757     8.5960     0.0160     2.5106  1054.5316     0.3062   -78.2051   715.2992    12.7082     9.8488     6.7924
  632.0000    46.3937     8.5976     0.0206     2.5196  1052.5680     0.3133   -78.2156   716.1676    12.5293     9.5168     6.8923
  632.5000    45.5081     8.5987     0.0297     2.5137  1048.5906     0.3036   -78.2281   717.0659    13.4183     9.6467     7.0907
  633.0000    47.3371     8.6029     0.0391     2.5378  1033.1788     0.2964   -78.2380   717.9641    13.1626     9.9142     7.2466
  633.5000    50.2104     8.6163     0.0435     2.5597  1031.2722     0.2880   -78.2479   718.8622    13.0419    10.3368     7.3416
  634.0000    46.1768     8.6178     0.0358     2.5555  1029.3657     0.2850   -78.2578   719.7605    13.9659    10.6174     7.2348
  634.5000    47.0981     8.6038     0.0198     2.5384  1027.4591     0.2814   -78.2680   720.8332    15.5885    10.4686     7.1306
  635.0000    48.3197     8.6055     0.0184     2.5254  1041.1351     0.2789   -78.2784   721.6846    15.3690    10.3222     7.1255
  635.5000    49.2410     8.6069     0.0261     2.5218  1038.7517     0.2756   -78.2889   722.5359    14.5387    10.1779     7.1203
  636.0000    52.8650     8.6081     0.0247     2.5279  1036.8451     0.2872   -78.2994   723.3874    14.3340     9.8325     7.2141
  636.5000    49.1840     8.6095     0.0203     2.5205  1050.0444     0.3064   -78.3099   724.2515    14.7290     9.6977     7.2082
  637.0000    47.8007     8.5956     0.0250     2.5123  1048.0361     0.3156   -78.3222   725.1497    13.8681     9.7638     7.2027
  637.5000    47.9713     8.5666     0.0266     2.5176  1030.6489     0.3210   -78.3308   726.0479    13.7359    10.3804     7.1973
  638.0000    46.3875     8.5536     0.0312     2.5237  1029.0029     0.3302   -78.3420   696.8527    14.3089    10.0294     7.1908
  638.5000    47.1180     8.5401     0.0313     2.5283  1026.6770     0.3322   -78.3519   697.9041    14.5027     9.7567     7.1857
  639.0000    48.0393     8.5414     0.0315     2.5299  1025.0754     0.3259   -78.0624   698.9812    13.7184    10.0792     7.0822
  639.5000    49.4060     8.5577     0.0316     2.5300  1023.0229     0.3199   -78.0734   699.8325    13.5252     9.9358     6.9802
  640.0000    47.9300     8.5592     0.0272     2.5218  1021.1479     0.3292   -78.0838   700.6838    13.7077     9.5276     6.8795
  640.5000    46.4438     8.5755     0.0259     2.5077  1019.1842     0.3360   -78.3937   701.5353    13.1466     9.5226     6.8743
  641.0000    46.7696     8.6066     0.0260     2.5003  1017.2205     0.3372   -78.4042   702.3952    13.3810     9.8051     6.8415
  641.5000    47.6909     8.6230     0.0262     2.5026  1015.2567     0.3323   -78.4162   703.2934    13.6905     9.9150     6.7699
  642.0000    46.4865     8.6244     0.0248     2.5133  1013.0135     0.3281   -78.4261   704.1916    13.1948     9.7220     6.8136
  642.5000    46.3804     8.6405     0.0264     2.5225  1026.2128     0.3170   -78.4360   705.0898    12.7671     9.6336     6.8535
  643.0000    46.5560     8.6419     0.0296     2.5300  1032.7953     0.3125   -78.4461   705.9880    12.4150     9.8969     6.8476
  643.5000    47.1770     8.6432     0.0357     2.5337  1037.9819     0.3238   -78.4566   706.8862    13.2959     9.8917     6.8427
  644.0000    47.7929     8.6445     0.0388     2.5331  1050.7045     0.3364   -78.4671   737.8607    12.9291     9.7509     6.8378
  644.5000    46.9124     8.6459     0.0210     2.5249  1048.7915     0.3351   -78.1762   738.7122    12.7468     9.7378     6.8327
  645.0000    45.7317     8.6473     0.0092     2.5100  1046.8279     0.3294   -78.4880   739.5635    13.0729    10.0135     6.8275
  645.5000    47.5590     8.6488     0.0033     2.4868  1059.9697     0.3318   -78.5004   740.4192    13.6463     9.9857     6.8224
  646.0000    46.9548     8.6501     0.0064     2.4727  1072.8132     0.3347   -78.5103   741.3173    12.9077     9.7299     6.8172
  646.5000    45.7747     8.6513     0.0140     2.4968  1076.7874     0.3320   -78.5202   742.2156    12.7249     9.7765     6.8120
