~VERSION INFORMATION
 VERS.                2.0:   CWLS LOG ASCII STANDARD - VERSION 2.0
 WRAP.                 NO:   ONE LINE PER DEPTH STEP
~WELL INFORMATION
#MNEM.UNIT      DATA TYPE    INFORMATION
#----------   ------------   ------------------------------
 STRT.F          186.0000:   START DEPTH
 STOP.F         3060.0000:   STOP DEPTH
 STEP.F            0.5000:   STEP LENGTH
 NULL.          -999.2500:   NO VALUE
 COMP.    FENIX & SCISSON:   COMPANY
 WELL. FENIX NPR 3 "AX" #63-29:   WELL
 FLD .              N P R:   FIELD
 LOC .      S29 T39N R78W:   LOCATION
 CNTY.            NATRONA:   COUNTY
 STAT.            WYOMING:   STATE
 CTRY. UNITED STATES OF AMERICA:   COUNTRY
 SRVC.           BIRDWELL:   SERVICE COMPANY
 DATE.        28-FEB-1978:   LOGDATE
 API .     49025105960000:   API NUMBER
~CURVE INFORMATION
#MNEM.UNIT       API CODE    CURVE DESCRIPTION
#----------   ------------   ------------------------------
 DEPT.F                  :   
 CALD.IN     45 280 60 00:   CALIPER FROM DENSITY LOG
 GRD .GAPI   45 310 01 00:   GAMMA RAY FROM DENSITY LOG
 DEN .LBS    07 635 01 00:   
 CORR.G/C3   45 356 01 00:   DENSITY CORRECTION
 SPR .MV     05 010 01 00:   SPONTANEOUS POTENTIAL
 SN  .OHMM   05 040 00 00:   SHORT NORMAL
 ILD .OHMM   05 120 46 00:   DEEP INDUCTION RESISTIVITY
~PARAMETER INFORMATION
#MNEM.UNIT          VALUE    DESCRIPTION
#----------   ------------   ------------------------------
 EKB .F         4993.0000:   Kelly bushing
 EGL .F         4983.0000:   Ground level
 EDF .F            0.0000:   Drilling floor
 TD  .F         3060.0000:   Total depth
 DATE.        28-FEB-1978:   Date logged
 CLNT.            A2DTECH:   Client Code
 SL  . 1300' FNL & 1050' FEL:   Surface Location
 PD  .                 GL:   Permanent Datum
 DD  .F              3060:   Depth driller
 DL  .F              3056:   Depth logger
 BLI .F              5050:   Bottom log interval
 CS1 .IN            8.625:   Casing size
 CBD1.      8.625" @ 214':   Casing driller 1
 CBL1.F               218:   Casing logger 1
 BS1 .IN            7.875:   Bit size
 DFT .     LIGNOSULFONATE:   Type fluid in hole
 DFD .                  9:   Density
 DFV .                 34:   Viscosity
 DFPH.               10.5:   pH
 DFL .                  9:   Fluid loss
 MSS .           FLOWLINE:   Source of sample
 RMS .OHMM            1.8:   Rm
 MST .F                58:   Rm Meas. temp.
 RMF .OHMM             .9:   Rmf
 MFST.F                65:   Rmf Meas. temp.
 RMC .OHMM            2.5:   Rmc
 MCST.F                70:   Rmc Meas. temp.
 MFSS.               MEAS:   Source Rmf.
 RMB .OHMM             88:   Rm. at BHT
 BHT .F               118:   BHT.
 TCS .HRS               8:   Time Circ. stopped
 MRT .F               118:   Maximum recorded temp.
 LUN .               2959:   Logging unit number
 LUL .               CASP:   Logging unit location
 ENGI.             MILLER:   Recorded By
 WITN.         HARRINGTON:   Witnessed by
 ORIG.           5" PRINT:   Origin of data
 UWI .     49025105960000:   Unique Well ID
 DICO. A2D TECHNOLOGIES, INC.:   Digitizing Company
 BSD1.F              3060:   Depth drilled with bit1
 EPD .F              4983:   Elevation Permanent Datum
 LMF .                 KB:   Log Measured From
 DMF .                 KB:   Drilling Measured From
 TLI .F               800:   Top log interval
~OTHER INFORMATION
~A   DEPT     CALD         GRD       DEN       CORR        SPR         SN        ILD   
# ...
 3007.0000     8.0970   114.4910     2.4430     0.0330   -27.6690     4.1450     3.3590
 3007.5000     8.0960   118.2590     2.4430     0.0340   -27.9480     4.1620     3.3510
 3008.0000     8.0950   121.9640     2.4400     0.0340   -28.2120     4.1780     3.3430
 3008.5000     8.0930   125.0980     2.4300     0.0330   -28.4650     4.1950     3.3340
 3009.0000     8.0920   125.0560     2.4290     0.0320   -28.7120     4.2120     3.3260
 3009.5000     8.0910   124.1460     2.4280     0.0310   -28.6250     4.2170     3.3180
 3010.0000     8.0890   123.5630     2.4280     0.0300   -28.3020     4.1400     3.3090
 3010.5000     8.0880   125.7240     2.4250     0.0300   -27.9770     4.0200     3.3010
 3011.0000     8.0890   128.8460     2.4190     0.0310   -27.6530     3.9120     3.2510
 3011.5000     8.0930   129.2670     2.4150     0.0320   -27.3230     3.8040     3.1640
 3012.0000     8.0960   129.7340     2.4090     0.0330   -27.0000     3.6950     3.0770
 3012.5000     8.0980   130.4550     2.4000     0.0430   -26.7160     3.5870     2.9900
 3013.0000     8.1010   134.5050     2.3910     0.0610   -26.6670     3.4790     2.9030
 3013.5000     8.1040   137.8160     2.3870     0.0780   -26.5960     3.3710     2.8160
 3014.0000     8.1080   141.4890     2.3840     0.0860   -26.5390     3.2630     2.7460
 3014.5000     8.1100   144.8340     2.3810     0.0740   -26.4830     3.1550     2.6810
 3015.0000     8.1140   149.0370     2.3870     0.0740   -26.4080     3.0470     2.6160
 3015.5000     8.1170   149.7010     2.3940     0.0910   -26.3640     2.9180     2.5500
 3016.0000     8.1180   152.1560     2.4010     0.0870   -26.3580     2.9220     2.4850
 3016.5000     8.1260   150.2950     2.4060     0.0550   -27.0610     2.9310     2.4200
 3017.0000     8.1240   127.5440     2.4230     0.0370   -27.7040     2.9400     2.3550
 3017.5000     8.1070   107.3230     2.4380     0.0440   -28.3040     2.9490     2.2900
 3018.0000     7.8790    75.7110     2.4850     0.0430   -27.7350     2.9570     2.2440
 3018.5000     7.6680    40.8150     2.4620     0.0300   -26.9780     2.9660     2.2720
 3019.0000     7.6490    40.0750     2.4420     0.0310   -25.3770     2.9720     2.3270
 3019.5000     7.6380    40.8580     2.4370     0.0360   -29.8940     3.0830     2.3830
 3020.0000     7.6380    48.3380     2.4530     0.0410   -28.8310     3.1990     2.9460
 3020.5000     7.6310    56.0790     2.4700     0.0360   -28.7170     6.8370     4.1980
 3021.0000     7.6260    64.5160     2.4880     0.0160   -29.4400    10.3400     5.4500
 3021.5000     7.6210    74.9310     2.5100    -0.0010   -30.4660    13.8420     6.3900
 3022.0000     7.6160    85.7930     2.5340     0.0100   -31.4470    17.3450     6.7160
 3022.5000     7.6110    86.3970     2.5650     0.0200   -32.2640    20.8480     7.0410
 3023.0000     7.6060    87.0720     2.5560     0.0300   -33.4070    22.9630     7.4110
 3023.5000     7.6010    90.3800     2.5260     0.0290   -32.7640    23.3900     7.6160
 3024.0000     7.5960   100.8790     2.4990     0.0250   -31.9070    22.1320     8.0470
 3024.5000     7.5910   111.3210     2.4860     0.0210   -30.9730    20.3420     8.4770
 3025.0000     7.5860   124.9480     2.4770     0.0180   -30.0990    18.4190     9.1230
 3025.5000     7.5810   123.9010     2.4790     0.0200   -29.2020    16.4950     9.0720
 3026.0000     7.5760   119.9430     2.4790     0.0240   -28.3010    14.5710     8.2630
 3026.5000     7.5700   115.7990     2.4760     0.0290   -27.4230    12.6470     7.3010
 3027.0000     7.5650   109.6350     2.4730     0.0330   -26.5220    10.9910     6.3390
 3027.5000     7.5600    99.8280     2.4790     0.0380   -26.3320    10.5550     5.6370
 3028.0000     7.5550    90.3570     2.4850     0.0420   -26.4550     9.8710     5.3860
 3028.5000     7.5500    83.3260     2.4910     0.0420   -26.5770     8.9800     5.1340
 3029.0000     7.5450    82.5220     2.4980     0.0390   -26.7310     8.3370     4.8560
 3029.5000     7.5400    99.2230     2.5010     0.0360   -27.2420     8.1850     4.7670
 3030.0000     7.5350   102.7920     2.5000     0.0330   -27.8410     8.2060     4.7670
 3030.5000     7.5300   106.8600     2.4980     0.0300   -27.2400     8.2680     4.8930
 3031.0000     7.5280   108.7770     2.4950     0.0270   -26.5560     8.3290     5.0230
 3031.5000     7.5260   109.0130     2.4930     0.0240   -26.2950     8.3900     5.1540
 3032.0000     7.5240   106.6810     2.4910     0.0190   -26.3450     8.4510     5.2840
 3032.5000     7.5210   103.8470     2.4910     0.0180   -26.3680     8.4920     5.4140
 3033.0000     7.5190   101.7340     2.4920     0.0240   -26.3840     8.3280     5.5230
 3033.5000     7.5170   103.5430     2.4930     0.0310   -26.4110     8.0360     5.5230
 3034.0000     7.5150   106.3490     2.4860     0.0370   -26.4320     8.1160     5.4240
 3034.5000     7.5130   108.2740     2.4800     0.0320   -26.4550     8.1850     5.2670
 3035.0000     7.5110   105.1650     2.4890     0.0300   -26.4780     7.6040     5.1100
 3035.5000     7.5090   102.0480     2.5060     0.0310   -26.5010     7.7450     4.9530
 3036.0000     7.5070    98.8110     2.5220     0.0330   -26.5230     8.0360     4.8560
 3036.5000     7.5050    95.9860     2.5290     0.0350   -26.5460     8.0110     4.8660
 3037.0000     7.5030    96.4510     2.5190     0.0380   -26.5680     7.8970     4.9140
 3037.5000     7.5010    97.6860     2.5120     0.0400   -26.5900     7.7830     4.9610
 3038.0000     7.4980    98.9400     2.5120     0.0420   -26.6140     7.6700     5.0090
 3038.5000     7.4960   100.1530     2.5150     0.0440   -26.6370     7.5560     5.0560
 3039.0000     7.4940   101.4080     2.5170     0.0450   -26.6570     7.3290     5.1040
 3039.5000     7.4920   102.6030     2.5150     0.0390   -26.6870     7.3290     5.1310
 3040.0000     7.4900   103.5020     2.5130     0.0300   -26.7130     7.3290     5.1310
 3040.5000     7.4880   102.6250     2.5150     0.0220   -27.0160     7.4320     5.1310
 3041.0000     7.4860   101.4690     2.5210     0.0220   -27.3660     7.6390     5.1310
 3041.5000     7.4840   100.3310     2.5180     0.0250   -27.4950     7.8470     5.1310
 3042.0000     7.4820    98.7740     2.5140     0.0290   -27.1330     7.8890     5.1310
 3042.5000     7.4800    99.5410     2.5100     0.0260   -26.8370     7.7630     5.1310
 3043.0000     7.4770   100.8900     2.5060     0.0260   -26.4940     7.6400     5.1310
 3043.5000     7.4750   102.2410     2.5060     0.0260   -26.2930     7.6040     5.1310
 3044.0000     7.4730   100.5800     2.5110     0.0260   -26.3430     7.8880     5.2040
 3044.5000     7.4710    98.7600     2.5120     0.0260   -26.3610     8.1930     5.3370
 3045.0000     7.4690    96.5600     2.5050     0.0290   -26.3830     8.4970     5.4700
 3045.5000     7.4670    96.4690     2.4970     0.0360   -26.4100     8.8020     5.6020
 3046.0000     7.4650    97.8570     2.4900     0.0380   -26.4330     9.1060     5.7350
 3046.5000     7.4640    99.3330     2.4810     0.0380   -26.4580     9.4110     5.8680
 3047.0000     7.4640    99.9410     2.4770     0.0370   -26.4820     9.6610     6.0010
 3047.5000     7.4530    99.5970     2.4760     0.0410   -26.5070     9.4850     6.0540
 3048.0000     7.4660    94.4090     2.4740     0.0590   -26.5310     9.2670     6.1670
 3048.5000     7.4580    96.9070     2.4480     0.0780   -26.5550     8.9750     6.0080
 3049.0000     7.4170    98.8010     2.4210     0.1630   -26.5800     8.3700     5.7690
 3049.5000     7.5500    97.8230     2.3910     0.2550   -26.6040     7.5060     5.5230
 3050.0000     6.6800    97.1740     2.3520     0.2620   -26.6280     6.8080     5.5230
 3050.5000  -999.2500  -999.2500     2.2940     0.2660   -26.6530     6.6840     5.4220
 3051.0000  -999.2500  -999.2500     2.3240     0.2670   -26.6760     6.6980     5.4290
 3051.5000  -999.2500  -999.2500     2.3900     0.2660   -26.7010     6.7210     5.4410
 3052.0000  -999.2500  -999.2500     2.3810     0.2660   -26.6460     6.7440     5.4530
