~VERSION INFORMATION
 VERS.                2.0:   CWLS LOG ASCII STANDARD - VERSION 2.0
 WRAP.                 NO:   ONE LINE PER DEPTH STEP
~WELL INFORMATION
#MNEM.UNIT      DATA TYPE    INFORMATION
#----------   ------------   ------------------------------
 STRT.F           96.5000:   START DEPTH
 STOP.F         2720.0000:   STOP DEPTH
 STEP.F            0.5000:   STEP LENGTH
 NULL.          -999.2500:   NO VALUE
 COMP.          INTEX OIL:   COMPANY
 WELL. INTEX NPR 65 "AX" #3-20:   WELL
 FLD .             TEAPOT:   FIELD
 LOC .      S20 T39N R78W:   LOCATION
 CNTY.            NATRONA:   COUNTY
 STAT.            WYOMING:   STATE
 CTRY. UNITED STATES OF AMERICA:   COUNTRY
 SRVC.       SCHLUMBERGER:   SERVICE COMPANY
 DATE.        04-MAY-1966:   LOGDATE
 API .     49025094910000:   API NUMBER
~CURVE INFORMATION
#MNEM.UNIT       API CODE    CURVE DESCRIPTION
#----------   ------------   ------------------------------
 DEPT.F                  :   
 SPR .MV     05 010 01 00:   SPONTANEOUS POTENTIAL FROM RES.
 SN  .OHMM   05 040 16 00:   SHORT NORMAL 16"
 ILD .OHMM   05 120 46 00:   INDUCTION LOG DEEP
 CALD.IN     45 280 60 00:   CALIPER FROM DENSITY LOG
 CORR.G/C3   45 356 01 00:   DENSITY CORRECTION
 GRD .GAPI   45 310 01 00:   GAMMA RAY FROM DENSITY LOG
 RHOB.G/C3   45 350 01 00:   BULK DENSITY
~PARAMETER INFORMATION
#MNEM.UNIT          VALUE    DESCRIPTION
#----------   ------------   ------------------------------
 EKB .F         5053.3000:   Kelly bushing
 EGL .F         5043.0000:   Ground level
 EDF .F            0.0000:   Drilling floor
 TD  .F         2720.0000:   Total depth
 DATE.        04-MAY-1966:   Date logged
 CLNT.            A2DTECH:   Client Code
 PD  .                 GL:   Permanent Datum
 EPD .F              5043:   Elevation Permanent Datum
 LMF .                 KB:   Log Measured From
 DMF .                 KB:   Drilling Measured From
 DAPD.F              10.3:   Feet Above Permanent Datum
 DD  .F              2720:   Depth driller
 DL  .F              2720:   Depth logger
 BLI .F              2719:   Bottom log interval
 TLI .F                97:   Top log interval
 CS1 .IN            10.75:   Casing size
 CBD1.       10.75" @ 30':   Casing driller 1
 BS1 .IN            7.875:   Bit size
 BSD1.F              2720:   Depth drilled with bit1
 DFT . GEL/Q-BROX/OIL/DAKOLITE:   Type fluid in hole
 DFD .               10.3:   Density
 DFV .                 41:   Viscosity
 DFPH.                7.2:   pH
 DFL .                8.8:   Fluid loss
 MSS .           FLOWLINE:   Source of sample
 RMS .OHMM              2:   Rm
 MST .F                61:   Rm Meas. temp.
 RMF .OHMM           1.31:   Rmf
 MFST.F                65:   Rmf Meas. temp.
 MFSS.                 FP:   Source Rmf.
 RMB .OHMM           1.15:   Rm. at BHT
 BHT .F               110:   BHT.
 TCS .HRS               2:   Time Circ. stopped
 MRT .F               110:   Maximum recorded temp.
 LUN .               4507:   Logging unit number
 LUL .               CSPR:   Logging unit location
 ENGI.            MANGOLD:   Recorded By
 WITN.             TUTTLE:   Witnessed by
 ORIG.       2", 5" PRINT:   Origin of data
 UWI .     49025094910000:   Unique Well ID
 DICO. A2D TECHNOLOGIES, INC.:   Digitizing Company
~OTHER INFORMATION
~A   DEPT      SPR         SN         ILD      CALD       CORR        GRD       RHOB   
# ...
 2280.5000   -34.1530    32.6380    32.9400     7.9930     0.0260    65.9400     2.3480
 2281.0000   -34.2300    32.7590    33.5100     7.9940     0.0260    67.5010     2.3530
 2281.5000   -34.5080    32.9050    34.1920     7.9960     0.0260    69.0790     2.3620
 2282.0000   -34.7960    33.0210    34.7430     7.9970     0.0260    70.5700     2.3710
 2282.5000   -34.9970    33.0230    34.9390     7.9990     0.0280    72.2900     2.3740
 2283.0000   -35.1890    32.9360    34.8550     8.0000     0.0370    72.0390     2.3680
 2283.5000   -35.4630    32.8260    34.5820     8.0020     0.0460    70.2400     2.3790
 2284.0000   -35.7670    32.6910    34.1200     8.0030     0.0550    69.5140     2.3930
 2284.5000   -35.9540    32.6360    33.8940     8.0040     0.0640    69.1590     2.4060
 2285.0000   -36.0040    32.5800    33.6880     8.0060     0.0700    69.4950     2.4160
 2285.5000   -36.0960    32.3550    32.9930     8.0080     0.0550    70.4230     2.3990
 2286.0000   -36.3940    31.8900    31.5630     8.0090     0.0440    72.4630     2.3730
 2286.5000   -36.8310    31.2980    29.7810     8.0110     0.0300    74.3930     2.3570
 2287.0000   -37.2430    30.7000    28.1760     8.0130     0.0340    76.6750     2.3710
 2287.5000   -37.6230    30.0470    26.7710     8.0480     0.0430    79.2890     2.3900
 2288.0000   -38.0740    29.2280    25.2360     8.0950     0.0450    84.1610     2.4130
 2288.5000   -38.5130    28.2940    23.5480     8.1410     0.0340    89.3800     2.4080
 2289.0000   -38.6430    27.3980    22.0830     8.1880     0.0260    93.6800     2.4020
 2289.5000   -38.3160    26.5390    21.0510     8.2340     0.0170    97.6240     2.3930
 2290.0000   -37.7500    25.5910    20.2300     8.2800     0.0170   100.3680     2.3960
 2290.5000   -37.2530    24.5940    19.3670     8.3270     0.0170   102.6620     2.4050
 2291.0000   -36.8500    23.8190    18.5320     8.3620     0.0180   103.5950     2.4130
 2291.5000   -36.3650    23.4420    17.9580     8.3630     0.0170   102.9660     2.4210
 2292.0000   -35.7950    23.3440    17.7420     8.3630     0.0280    99.7840     2.4290
 2292.5000   -35.3650    23.3010    17.8460     8.3630     0.0450    96.8710     2.4390
 2293.0000   -35.2020    23.2570    18.1940     8.3630     0.0410    93.9290     2.4330
 2293.5000   -35.1920    23.2830    18.6500     8.3630     0.0360    90.8070     2.4140
 2294.0000   -35.2150    23.3850    19.0040     8.3630     0.0290    89.6140     2.4150
 2294.5000   -35.3120    23.4900    19.1480     8.3630     0.0330    89.8970     2.4260
 2295.0000   -35.5370    23.5520    19.1690     8.3630     0.0410    91.9950     2.4370
 2295.5000   -35.8290    23.5960    19.1990     8.3630     0.0400    94.4760     2.4230
 2296.0000   -36.1330    23.6700    19.2400     8.3630     0.0270    94.5760     2.3990
 2296.5000   -36.4810    23.7760    19.2370     8.3630     0.0170    92.8710     2.3900
 2297.0000   -36.8560    23.8580    19.2460     8.3630     0.0220    93.1430     2.4010
 2297.5000   -37.1190    23.8770    19.4190     8.3630     0.0360    93.3590     2.4080
 2298.0000   -37.1640    23.9160    19.8240     8.3640     0.0350    92.8640     2.4070
 2298.5000   -37.0210    24.1400    20.4110     8.3620     0.0220    92.3140     2.4040
 2299.0000   -36.7060    24.5920    21.0740     8.3780     0.0150    91.7150     2.4170
 2299.5000   -36.1420    25.1200    21.6600     8.4060     0.0190    91.2250     2.4400
 2300.0000   -35.3280    25.5890    21.9620     8.4320     0.0230    90.1400     2.4620
 2300.5000   -34.5210    26.0390    21.8900     8.4590     0.0270    88.3380     2.4830
 2301.0000   -34.0840    26.5060    21.6410     8.4780     0.0300    88.2100     2.4940
 2301.5000   -34.1350    26.8000    21.4870     8.4580     0.0230    89.2090     2.4650
 2302.0000   -34.4440    26.6500    21.3930     8.4420     0.0110    91.7240     2.4290
 2302.5000   -34.7070    26.0350    21.0260     8.4240     0.0070    94.3730     2.3940
 2303.0000   -34.8330    25.2320    20.1940     8.4060     0.0030    96.5510     2.3880
 2303.5000   -34.8890    24.5100    19.1010     8.3890    -0.0020    96.0470     2.3900
 2304.0000   -34.8620    23.8900    18.1130     8.3710    -0.0020    94.1800     2.3980
 2304.5000   -34.6590    23.2380    17.4170     8.3540     0.0020    94.9380     2.4050
 2305.0000   -34.2980    22.4950    16.9640     8.3350     0.0050    99.5310     2.4130
 2305.5000   -33.9330    21.7640    16.6190     8.3240     0.0090   104.0060     2.4200
 2306.0000   -33.6350    21.1900    16.2720     8.3420     0.0120   106.8500     2.4270
 2306.5000   -33.2910    20.8090    15.8880     8.3600     0.0150   108.1420     2.4340
 2307.0000   -32.7950    20.5560    15.5150     8.3790     0.0190   106.2570     2.4430
 2307.5000   -32.2310    20.3740    15.2200     8.3970     0.0220   103.8130     2.4440
 2308.0000   -31.8070    20.2710    15.0220     8.4160     0.0200   102.8880     2.4340
 2308.5000   -31.6410    20.2490    14.8900     8.4340     0.0190   103.4980     2.4250
 2309.0000   -31.6670    20.2540    14.8210     8.4520     0.0170   103.8430     2.4160
 2309.5000   -31.7270    20.2350    14.8430     8.4710     0.0150   104.2930     2.4160
 2310.0000   -31.7140    20.2000    14.9420     8.4890     0.0130   104.6810     2.4220
 2310.5000   -31.6550    20.1800    15.0440     8.5070     0.0110   105.1720     2.4260
 2311.0000   -31.6600    20.1690    15.1080     8.5260     0.0100   104.9720     2.4310
 2311.5000   -31.7990    20.1430    15.1960     8.5440     0.0100   104.1120     2.4210
 2312.0000   -31.9960    20.1110    15.3930     8.5630     0.0100   103.4950     2.4080
 2312.5000   -32.1090    20.1150    15.6720     8.5810     0.0100   103.3940     2.3940
 2313.0000   -32.1000    20.1710    15.9090     8.5940     0.0090   104.2240     2.3960
 2313.5000   -32.0690    20.2670    16.0310     8.5590     0.0090   106.2240     2.4030
 2314.0000   -32.0930    20.3770    16.0960     8.5260     0.0090   107.9480     2.4090
 2314.5000   -32.1100    20.4840    16.1890     8.4910     0.0090   111.3200     2.4160
 2315.0000   -32.0580    20.5740    16.3040     8.4570     0.0090   111.9480     2.4220
 2315.5000   -32.0420    20.6500    16.3960     8.4230     0.0080   109.5510     2.4280
 2316.0000   -32.1930    20.7300    16.4820     8.3880     0.0060   108.1050     2.4230
 2316.5000   -32.4180    20.8210    16.6060     8.3600     0.0050   107.6670     2.4160
 2317.0000   -32.4890    20.9140    16.7240     8.3460     0.0040   107.0380     2.4080
 2317.5000   -32.4270    21.0200    16.7650     8.3320     0.0030   105.0800     2.4010
 2318.0000   -32.5910    21.1450    16.8180     8.3180     0.0070   103.1830     2.3930
 2318.5000   -33.2210    21.2470    17.1020     8.3040     0.0120   100.9610     2.3840
 2319.0000   -34.0450    21.2980    17.6760     8.2900     0.0170    97.7130     2.3750
 2319.5000   -34.5670    21.3870    18.3520     8.2750     0.0200    93.5730     2.3610
 2320.0000   -34.7110    21.6460    18.9680     8.2630     0.0200    90.7490     2.3650
 2320.5000   -34.9360    22.0780    19.5850     8.2470     0.0220    89.4080     2.3760
 2321.0000   -35.6360    22.5790    20.2860     8.2410     0.0270    87.1500     2.3730
 2321.5000   -36.6530    23.1110    20.9120     8.1700     0.0320    83.9440     2.3720
 2322.0000   -37.5060    23.6750    21.1880     8.0990     0.0380    81.0900     2.3750
 2322.5000   -37.9380    24.1110    21.0570     8.0240     0.0380    79.4550     2.3790
 2323.0000   -38.0260    24.1760    20.7210     7.9510     0.0400    81.6640     2.3780
 2323.5000   -37.8650    23.8310    20.3890     7.9000     0.0400    87.2060     2.3720
 2324.0000   -37.4070    23.2600    20.1070     7.9350     0.0390    93.7340     2.3670
 2324.5000   -36.6240    22.6070    19.8240     7.9680     0.0230   102.3300     2.3610
 2325.0000   -35.6820    21.9370    19.5070     7.9650     0.0050   101.0460     2.3730
 2325.5000   -34.8900    21.4460    19.1790     7.9530     0.0020    97.7550     2.3850
