~VERSION INFORMATION
 VERS.                2.0:   CWLS LOG ASCII STANDARD - VERSION 2.0
 WRAP.                 NO:   ONE LINE PER DEPTH STEP
~WELL INFORMATION
#MNEM.UNIT      DATA TYPE    INFORMATION
#----------   ------------   ------------------------------
 STRT.F            0.0000:   START DEPTH
 STOP.F         3440.0000:   STOP DEPTH
 STEP.F            0.5000:   STEP LENGTH
 NULL.          -999.2500:   NO VALUE
 COMP. FLOOR DANIEL (NPSOR):   COMPANY
 WELL. FLOOR DANIEL "SHX" #48-34:   WELL
 FLD .                NPR:   FIELD
 LOC .      S34 T39N R78W:   LOCATION
 CNTY.            NATRONA:   COUNTY
 STAT.            WYOMING:   STATE
 CTRY. UNITED STATES OF AMERICA:   COUNTRY
 SRVC.      WESTERN ATLAS:   SERVICE COMPANY
 DATE.        06-APR-1995:   LOGDATE
 API .     49025109220000:   API NUMBER
~CURVE INFORMATION
#MNEM.UNIT       API CODE    CURVE DESCRIPTION
#----------   ------------   ------------------------------
 DEPT.F                  :   
 TEND.LBS    45 635 01 00:   TENSION FROM DENSITY LOG
 ZCOR.G/C3   45 356 01 00:   DENSITY CORRECTION
 ZDEN.G/C3   45 350 01 00:   BULK DENSITY
 CALD.IN     45 280 60 00:   CALIPER FROM DENSITY LOG
 CNC .DEC    42 890 03 00:   NEUTRON POROSITY SANDSTONE
 GRR .GAPI   07 310 01 00:   GAMMA RAY FROM RESISTIVITY
 TENR.LBS    07 635 01 00:   TENSION FROM RESISTIVITY
 RFOC.OHMM   07 220 04 00:   RESISTIVITY FOCUSED LOG RES.
 RILD.OHMM   07 120 46 00:   DEEP INDUCTION RESISTIVITY
 RILM.OHMM   07 120 44 00:   INDUCTION LOG MEDIUM RESISTIVITY
~PARAMETER INFORMATION
#MNEM.UNIT          VALUE    DESCRIPTION
#----------   ------------   ------------------------------
 EKB .F         5182.0000:   Kelly bushing
 EGL .F         5172.0000:   Ground level
 EDF .F            0.0000:   Drilling floor
 EPD .F            0.0000:   Permanent datum
 TD  .F         3442.0000:   Total depth
 DATE.        06-APR-1995:   Date logged
 CLNT.            A2DTECH:   Client Code
 SL  . 97' FSL & 2256 FWL:   Surface Location
 PD  .                 GL:   Permanent Datum
 DD  .F              3442:   Depth driller
 DL  .F              3422:   Depth logger
 BLI .F              3420:   Bottom log interval
 CS1 .IN            8.625:   Casing size
 CBD1.      8.625" @ 667':   Casing driller 1
 BS1 .IN            7.875:   Bit size
 BSD1.F               AIR:   Depth drilled with bit1
 ENGI.      PAT RASMUSSEN:   Recorded By
 WITN.        GARY STRONG:   Witnessed by
 ORIG.           5" PRINT:   Origin of data
 UWI .     49025109220000:   Unique Well ID
 DICO. A2D TECHNOLOGIES, INC.:   Digitizing Company
 MRT .F               142:   Maximum recorded temp.
~OTHER INFORMATION
~A    DEPT    TEND       ZCOR       ZDEN       CALD        CNC         GRR      TENR       RFOC       RILD       RILM   
# ...
 2043.5000   -42.8990    -0.0110     2.4650     8.6970     0.2740   172.5170   -39.1720  -999.2500     7.4890     7.8250
 2044.0000   -45.5740    -0.0020     2.4550     8.6960     0.2720   175.0610   -39.3270  -999.2500     7.5350     7.8670
 2044.5000   -48.0370     0.0080     2.4460     8.6940     0.2700   177.5760   -39.4820  -999.2500     7.5810     7.9080
 2045.0000   -50.5000     0.0170     2.4480     8.6930     0.2720   180.1240   -39.6370  -999.2500     7.6280     7.9330
 2045.5000   -52.9630     0.0310     2.4540     8.6920     0.2730   177.4410   -39.7920  -999.2500     7.6740     7.9530
 2046.0000   -55.4260     0.0460     2.4590     8.6910     0.2750   174.2680   -39.9470  -999.2500     7.7200     7.9730
 2046.5000   -57.8900     0.0600     2.4440     8.6900     0.2760   173.8070   -40.1020  -999.2500     7.7670     7.9920
 2047.0000   -60.3530     0.0750     2.4290     8.6900     0.2740   175.6400   -40.2570  -999.2500     7.8130     8.0120
 2047.5000   -62.8160     0.0810     2.4330     8.6910     0.2730   177.8110   -40.4120  -999.2500     7.8590     8.0310
 2048.0000   -65.2790     0.0820     2.4480     8.6920     0.2720   177.0210   -40.5670  -999.2500     7.9190     8.0510
 2048.5000   -67.7420     0.0830     2.4680     8.6930     0.2720   174.4710   -40.7220  -999.2500     7.9030     8.0640
 2049.0000   -70.2050     0.0850     2.4850     8.6940     0.2730   171.9860   -40.8770  -999.2500     7.8550     8.0650
 2049.5000   -72.6680     0.0860     2.4870     8.6960     0.2730   169.3590   -41.0320  -999.2500     7.8070     8.0650
 2050.0000   -75.1310     0.0880     2.4850     8.6970     0.2740   168.3490   -41.1870  -999.2500     7.7580     8.0650
 2050.5000   -77.5940     0.0880     2.4820     8.6980     0.2720   168.8040   -41.3420  -999.2500     7.7100     8.0220
 2051.0000   -80.0570     0.0920     2.4820     8.6990     0.2710   168.8740   -41.4970  -999.2500     7.6610     7.9200
 2051.5000   -82.3470     0.0950     2.4910     8.7000     0.2690   170.5960   -41.6520  -999.2500     7.5890     7.8170
 2052.0000   -79.9970     0.0990     2.5000     8.7010     0.2690   174.0710   -41.8070  -999.2500     7.4900     7.7140
 2052.5000   -77.8020     0.1020     2.5080     8.7020     0.2710   177.5980   -41.9620  -999.2500     7.3920     7.6120
 2053.0000   -75.6070     0.1010     2.5100     8.7040     0.2700   175.4990   -42.1170  -999.2500     7.2930     7.5100
 2053.5000   -73.4110     0.0960     2.5110     8.7050     0.2680   174.5440   -42.2720  -999.2500     7.1940     7.4070
 2054.0000   -71.2160     0.0930     2.5140     8.7060     0.2690   176.3080   -42.4270  -999.2500     7.1010     7.3050
 2054.5000   -69.0210     0.0880     2.5020     8.7070     0.2700   188.4410   -42.5820  -999.2500     7.0430     7.2310
 2055.0000   -66.8250     0.1130     2.4770     8.7080     0.2690   196.1590   -42.7370  -999.2500     6.9860     7.2310
 2055.5000   -64.6300     0.1430     2.4590     8.7090     0.2680   202.3700   -42.8990  -999.2500     7.0130     7.2310
 2056.0000   -62.6230     0.1650     2.4550     8.7110     0.2660   199.5760   -41.8210  -999.2500     7.0680     7.2310
 2056.5000   -66.5400     0.1150     2.4810     8.7120     0.2660   191.3810   -40.6900  -999.2500     7.1410     7.2790
 2057.0000   -70.1470     0.0670     2.5010     8.7130     0.2680   185.0910   -39.5600  -999.2500     7.2390     7.3970
 2057.5000   -73.7530     0.0480     2.5130     8.7140     0.2710   180.6150   -38.4290  -999.2500     7.3380     7.5150
 2058.0000   -77.3600     0.0460     2.5110     8.7150     0.2730   178.4120   -37.2980  -999.2500     7.4370     7.6340
 2058.5000   -80.9660     0.0580     2.5010     8.7160     0.2720   176.3380   -36.1670  -999.2500     7.5350     7.7520
 2059.0000   -79.7500     0.0780     2.4910     8.7170     0.2700   175.5070   -35.0360  -999.2500     7.6360     7.9190
 2059.5000   -75.5420     0.0660     2.4960     8.7190     0.2690   175.4010   -33.9050  -999.2500     7.6090     7.8830
 2060.0000   -71.3350     0.0500     2.5030     8.7200     0.2670   173.9120   -32.7740  -999.2500     7.5810     7.8210
 2060.5000   -67.1270     0.0330     2.5060     8.7210     0.2650   171.6030   -31.6440  -999.2500     7.5530     7.7650
 2061.0000   -62.6230     0.0260     2.5070     8.7220     0.2640   168.0560   -30.5130  -999.2500     7.5240     7.7230
 2061.5000   -62.6230     0.0230     2.5080     8.7230     0.2630   165.3040   -29.3820  -999.2500     7.4960     7.6810
 2062.0000   -62.6230     0.0210     2.5090     8.7240     0.2640   165.9280   -28.2510  -999.2500     7.4680     7.6390
 2062.5000   -62.6230     0.0210     2.5100     8.7260     0.2660   166.6220   -27.1200  -999.2500     7.4400     7.5970
 2063.0000   -62.6230     0.0210     2.5120     8.7270     0.2670   167.3860   -25.9890  -999.2500     7.4120     7.5550
 2063.5000   -62.6230     0.0210     2.5130     8.7280     0.2690   168.2190   -24.8590  -999.2500     7.3840     7.4990
 2064.0000   -62.6230     0.0180     2.5130     8.7290     0.2700   167.3800   -23.7280  -999.2500     7.3640     7.5100
 2064.5000   -62.6230     0.0130     2.5060     8.7280     0.2720   166.1830   -24.4770  -999.2500     7.3640     7.5250
 2065.0000   -62.6230     0.0070     2.4850     8.7270     0.2720   168.7470   -27.0220  -999.2500     7.3640     7.5420
 2065.5000   -62.6230     0.0280     2.4620     8.7260     0.2710   170.7530   -29.5660  -999.2500     7.3640     7.5580
 2066.0000   -62.6230     0.0630     2.4390     8.7250     0.2690   170.2340   -32.1100  -999.2500     7.3640     7.5740
 2066.5000   -62.6230     0.0970     2.4310     8.7240     0.2680   169.6210   -34.6550  -999.2500     7.3640     7.5900
 2067.0000   -62.6230     0.1170     2.4370     8.7220     0.2690   173.2200   -37.1990  -999.2500     7.3640     7.6070
 2067.5000   -62.6230     0.0930     2.4640     8.7210     0.2730   178.8710   -39.7440  -999.2500     7.3640     7.6220
 2068.0000   -62.6230     0.0690     2.4900     8.7200     0.2760   181.7650   -42.2880  -999.2500     7.3640     7.6360
 2068.5000   -62.6230     0.0470     2.5180     8.7190     0.2800   182.3710   -42.8990  -999.2500     7.3640     7.6240
 2069.0000   -62.6230     0.0300     2.5270     8.7180     0.2820   183.4250   -39.3260  -999.2500     7.3640     7.6150
 2069.5000   -62.6230     0.0290     2.5270     8.7170     0.2820   184.4920   -33.3390  -999.2500     7.3640     7.6040
 2070.0000   -62.6230     0.0280     2.5220     8.7160     0.2820   185.4520   -27.3520  -999.2500     7.3640     7.5940
 2070.5000   -62.6230     0.0210     2.5180     8.7150     0.2810   186.5320   -21.3660  -999.2500     7.3640     7.5840
 2071.0000   -62.6230     0.0140     2.5130     8.7140     0.2800   185.0830   -15.3790  -999.2500     7.3640     7.5740
 2071.5000   -62.6230     0.0060     2.5080     8.7130     0.2810   182.5430    -9.3920  -999.2500     7.3650     7.5640
 2072.0000   -65.4340     0.0110     2.5040     8.7110     0.2820   180.0630    -3.4520  -999.2500     7.3550     7.5540
 2072.5000   -71.7460     0.0170     2.5050     8.7100     0.2830   177.5420    -6.8700  -999.2500     7.3300     7.5440
 2073.0000   -78.0570     0.0250     2.5060     8.7090     0.2830   175.1630   -10.2630  -999.2500     7.3060     7.5340
 2073.5000   -82.3470     0.0310     2.5070     8.7080     0.2820   172.6050   -13.6550  -999.2500     7.2810     7.5230
 2074.0000   -82.3470     0.0390     2.5080     8.7070     0.2810   173.9140   -17.0480  -999.2500     7.2570     7.5140
 2074.5000   -82.3470     0.0460     2.5010     8.7060     0.2810   175.0930   -20.4400  -999.2500     7.2310     7.5030
 2075.0000   -82.3470     0.0540     2.4920     8.7050     0.2800   175.6250   -23.1760  -999.2500     7.2310     7.4990
 2075.5000   -82.3470     0.0610     2.4840     8.7040     0.2790   177.8830   -18.1130  -999.2500     7.2310     7.5000
 2076.0000   -82.3470     0.0690     2.4720     8.7030     0.2810   180.5610   -13.8720  -999.2500     7.2310     7.4820
 2076.5000   -82.3470     0.0750     2.4580     8.7020     0.2830   181.0540    -9.6320  -999.2500     7.2310     7.4180
