~VERSION INFORMATION
 VERS.                2.0:   CWLS LOG ASCII STANDARD - VERSION 2.0
 WRAP.                 NO:   ONE LINE PER DEPTH STEP
~WELL INFORMATION
#MNEM.UNIT      DATA TYPE    INFORMATION
#----------   ------------   ------------------------------
 STRT.F          170.5000:   START DEPTH
 STOP.F         3160.0000:   STOP DEPTH
 STEP.F            0.5000:   STEP LENGTH
 NULL.          -999.2500:   NO VALUE
 COMP.  FENIX AND SCISSON:   COMPANY
 WELL.    FENIX "A" #85-3:   WELL
 FLD .       TEA POT DOME:   FIELD
 LOC .       S3 T38N R78W:   LOCATION
 CNTY.            NATRONA:   COUNTY
 STAT.            WYOMING:   STATE
 CTRY. UNITED STATES OF AMERICA:   COUNTRY
 SRVC.           BIRDWELL:   SERVICE COMPANY
 DATE.        20-DEC-1977:   LOGDATE
 API .     49025104450000:   API NUMBER
~CURVE INFORMATION
#MNEM.UNIT       API CODE    CURVE DESCRIPTION
#----------   ------------   ------------------------------
 DEPT.F                  :   
 CALD.IN     45 280 60 00:   CALIPER FROM DENSITY LOG
 GRD .GAPI   45 310 01 00:   GAMMA RAY FROM DENSITY LOG
 RHOB.G/C3   45 350 01 00:   BULK DENSITY
 CORR.G/C3   45 356 01 00:   DENSITY CORRECTION
 SPR .MV     05 010 01 00:   SPONTANEOUS POTENTIAL
 SN  .OHMM   05 040 00 00:   SHORT NORMAL
 ILD .OHMM   05 120 46 00:   DEEP INDUCTION RESISTIVITY
~PARAMETER INFORMATION
#MNEM.UNIT          VALUE    DESCRIPTION
#----------   ------------   ------------------------------
 EKB .F         5165.0000:   Kelly bushing
 EGL .F         5155.0000:   Ground level
 TD  .F         3151.0000:   Total depth
 DATE.        20-DEC-1977:   Date logged
 CLNT.            A2DTECH:   Client Code
 SL  . 2000' FSL & 100'FEL:   Surface Location
 PD  .                 GL:   Permanent Datum
 EPD .F              5155:   Elevation Permanent Datum
 LMF .                 KB:   Log Measured From
 DMF .                 KB:   Drilling Measured From
 DAPD.F                10:   Feet Above Permanent Datum
 DD  .F              3150:   Depth driller
 DL  .F              3151:   Depth logger
 BLI .F              3146:   Bottom log interval
 TLI .F               200:   Top log interval
 CS1 .IN            8.625:   Casing size
 CBD1.      8.625" @ 223':   Casing driller 1
 BS1 .IN            7.875:   Bit size
 BSD1.F              3150:   Depth drilled with bit1
 DFT .                KCL:   Type fluid in hole
 DFD .                8.9:   Density
 DFV .                 40:   Viscosity
 DFPH.                 11:   pH
 DFL .                7.2:   Fluid loss
 MSS .           FLOWLINE:   Source of sample
 RMS .OHMM            0.4:   Rm
 MST .F                62:   Rm Meas. temp.
 RMF .OHMM           0.48:   Rmf
 MFST.F                63:   Rmf Meas. temp.
 RMC .OHMM           0.52:   Rmc
 MCST.F                63:   Rmc Meas. temp.
 MFSS.               MEAS:   Source Rmf.
 MCSS.               MEAS:   Source Rmc.
 TCS .HRS             3.5:   Time Circ. stopped
 MRT .F               118:   Maximum recorded temp.
 LUN .               2958:   Logging unit number
 LUL .             CASPER:   Logging unit location
 ENGI.             MILLER:   Recorded By
 WITN.         HERRINGTON:   Witnessed by
 ORIG.           5" PRINT:   Origin of data
 UWI .     49025104450000:   Unique Well ID
 DICO. A2D TECHNOLOGIES, INC.:   Digitizing Company
~OTHER INFORMATION
~A   DEPT     CALD        GRD       RHOB        CORR       SPR         SN        ILD   
# ...
 1763.0000    11.3868   115.6712     2.5541     0.0109   -60.4087     8.0008     5.9559
 1763.5000    11.3879   120.0560     2.5551     0.0119   -60.2076     8.0015     5.9565
 1764.0000    11.4089   123.2491     2.5602     0.0120   -60.2056     7.9288     6.0124
 1764.5000    11.3901   123.0614     2.5602     0.0100   -60.2036     8.0032     5.9578
 1765.0000    11.3910   121.8796     2.5563     0.0161   -60.2016     7.9305     5.9584
 1765.5000    11.3921   121.6919     2.5683     0.0221   -60.1996     7.9313     5.9042
 1766.0000    11.3932   121.7029     2.5784     0.0252   -60.1975     7.9322     5.8506
 1766.5000    11.3744   116.5417     2.5734     0.0232   -60.1955     7.9330     5.9054
 1767.0000    11.3755   119.5360     2.5614     0.0192   -60.1935     7.9339     5.9060
 1767.5000    11.3766   123.7208     2.5525     0.0143   -60.1915     8.0083     5.9066
 1768.0000    11.3777   122.1414     2.5535     0.0133   -60.1895     7.9356     5.8529
 1768.5000    11.3589   120.9596     2.5565     0.0154   -60.1875     8.0100     5.9626
 1769.0000    11.3600   125.5432     2.5616     0.0174   -60.1855     8.0109     5.9633
 1769.5000    11.3412   122.1746     2.5616     0.0165   -60.1835     8.0117     6.0192
 1770.0000    11.3423   123.5839     2.5557     0.0145   -60.1815     8.0869     6.0198
 1770.5000    11.3434   121.2027     2.5567     0.0155   -60.1795     8.0878     6.0763
 1771.0000    11.3445   119.8221     2.5688     0.0206   -60.1775     8.0887     6.1333
 1771.5000    11.3656   118.0440     2.5738     0.0216   -60.3746     8.0895     6.1340
 1772.0000    11.3667   119.4467     2.5749     0.0237   -60.1735     8.1654     6.1346
 1772.5000    11.3678   123.2350     2.5729     0.0237   -60.3706     8.0912     6.1353
 1773.0000    11.3689   125.2341     2.5669     0.0228   -60.3686     8.0921     6.1359
 1773.5000    11.3698   127.4320     2.5630     0.0198   -60.3666     8.0930     6.1366
 1774.0000    11.3908   122.2720     2.5640     0.0229   -60.3646     8.1689     6.1372
 1774.5000    11.3919   127.2554     2.5691     0.0279   -60.7608     8.0203     6.0814
 1775.0000    11.3930   128.8591     2.5731     0.0310   -60.7588     8.0212     6.0821
 1775.5000    11.4140   125.6848     2.5721     0.0340   -60.5577     8.0220     6.0827
 1776.0000    11.3952   123.9067     2.5732     0.0341   -60.9540     8.0229     6.0833
 1776.5000    11.3963   123.1269     2.5722     0.0311   -60.7528     8.0237     6.0840
 1777.0000    11.3775   120.9489     2.5683     0.0271   -60.7508     8.0246     6.1411
 1777.5000    11.3587   119.1685     2.5623     0.0242   -60.7488     8.0999     6.1417
 1778.0000    11.3797   116.1975     2.5583     0.0252   -60.5477     8.1008     6.1424
 1778.5000    11.3808   114.8170     2.5564     0.0253   -60.7448     8.1768     6.1430
 1779.0000    11.4018   118.8041     2.5544     0.0253   -60.9423     8.1777     6.1437
 1779.5000    11.4029   117.2247     2.5554     0.0324   -60.7412     8.2544     6.3172
 1780.0000    11.3643   118.4286     2.5635     0.0374   -60.7392     8.2551     6.3176
 1780.5000    11.3258   121.0242     2.5846     0.0646   -60.7372     8.2560     6.3182
 1781.0000    11.2670   121.4329     2.5936     0.0777   -60.5361     8.2569     6.3774
 1781.5000    11.2283   121.2451     2.5947     0.0928   -60.3350     8.2578     6.3782
 1782.0000    11.2294   120.2621     2.6077     0.1199   -60.3330     8.3353     6.3788
 1782.5000    11.2303   119.4780     2.5968     0.1400   -60.3310     8.1836     6.3794
 1783.0000    11.2314   119.2903     2.5908     0.1722   -60.3290     8.1093     6.3214
 1783.5000    11.2325   118.9015     2.5878     0.1813   -60.3270     8.1101     6.3221
 1784.0000    11.2336   119.3102     2.5708     0.1783   -60.5241     8.1110     6.3228
 1784.5000    11.2347   121.3093     2.5308     0.1583   -60.3229     8.0373     6.0941
 1785.0000    11.2159   122.1156     2.4998     0.1061   -60.3209     7.9643     6.0947
 1785.5000    11.2170   117.5541     2.4988     0.0299   -60.3189     7.9651     6.0954
 1786.0000    11.1982   117.5607     2.5089     0.0199   -60.5161     7.8928     6.0960
 1786.5000    11.2192   119.5643     2.5580     0.0249   -60.3149     7.9668     6.0406
 1787.0000    11.2203   124.9431     2.5621     0.0250   -60.7112     7.8944     5.9857
 1787.5000    11.2015   128.1351     2.5621     0.0250   -60.7092     7.9685     6.0419
 1788.0000    11.2026   124.3688     2.5631     0.0241   -60.7072     7.8961     5.9870
 1788.5000    11.2037   121.5966     2.5612     0.0251   -61.1034     7.8970     5.9876
 1789.0000    11.2049   126.3790     2.5672     0.0272   -61.3005     7.8978     5.9330
 1789.5000    11.2060   126.9865     2.5733     0.0262   -61.2985     7.8987     5.9888
 1790.0000    11.1872   122.4250     2.5643     0.0283   -61.4956     7.9728     5.9895
 1790.5000    11.1883   118.2612     2.5804     0.0303   -61.4936     7.9736     6.0457
 1791.0000    11.1894   116.8806     2.5874     0.0334   -61.4916     7.9012     6.0463
 1791.5000    11.1903   119.8738     2.5885     0.0314   -61.4896     7.9020     6.1031
 1792.0000    11.1914   117.1015     2.5805     0.0284   -61.4876     7.8302     6.2175
 1792.5000    11.2124   122.5356     2.5725     0.0255   -61.4856     7.8311     6.1610
 1793.0000    11.1936   126.0677     2.5646     0.0245   -61.4836     7.7599     5.9381
 1793.5000    11.2146   125.2836     2.5626     0.0255   -61.4816     7.5487     5.6707
 1794.0000    11.2157   125.2946     2.5636     0.0306   -61.4796     7.2088     5.4153
 1794.5000    11.1969   124.5127     2.5637     0.0276   -61.4776     7.0776     5.0648
 1795.0000    11.1980   123.1299     2.5617     0.0247   -61.2765     7.0783     4.9386
 1795.5000    11.1996   127.9101     2.5638     0.0277   -61.2745     7.0791     4.9391
 1796.0000    11.2002   125.9353     2.5718     0.0398   -61.0737     7.0798     4.8942
 1796.5000    11.1814   127.3425     2.5789     0.0599   -61.0717     7.2126     4.9401
 1797.0000    11.1626   123.7728     2.5819     0.0750   -60.8706     7.5541     4.9406
 1797.5000    11.1637   123.1852     2.5840     0.0952   -60.8686     7.8393     5.0800
 1798.0000    11.1649   122.1978     2.5800     0.1153   -60.4684     8.0604     5.2233
 1798.5000    11.1660   114.2633     2.5750     0.1374   -60.4664     8.1360     5.8903
 1799.0000    11.1472   114.2721     2.5550     0.1254   -60.2653     8.2124     6.0007
 1799.5000    11.1483   115.5820     2.4899    -0.0532   -60.2633     8.2133     6.4022
 1800.0000    11.1494   116.8919     2.3898    -0.0522   -59.6639     8.2904     6.4029
 1800.5000    11.1308   118.2018     2.5481     0.0172   -60.2597     8.2188     6.2886
 1801.0000    11.1119   118.0898     2.5652     0.0292   -60.2591     8.2152     6.1146
 1801.5000    11.1125   117.1079     2.5703     0.0293   -60.2581     8.1402     5.9478
 1802.0000    11.0936   115.3308     2.5693     0.0233   -60.2571     7.9182     5.8393
 1802.5000    11.0748   115.7345     2.5523     0.0223   -60.2561     7.9922     5.8397
 1803.0000    11.0559   118.3310     2.5564     0.0254   -60.2551     7.9192     5.8400
 1803.5000    11.0570   115.5560     2.5615     0.0214   -60.2541     7.9931     5.8403
 1804.0000    11.0580   115.9637     2.5505     0.0195   -60.2531     7.9936     5.8407
 1804.5000    11.0590   120.9456     2.5395     0.0185   -60.2521     8.0683     5.8410
 1805.0000    11.0402   118.5723     2.5366     0.0226   -60.2511     8.2192     5.8956
 1805.5000    11.0412   118.3795     2.5366     0.0326   -60.2501     8.5291     6.0059
 1806.0000    11.0423   116.2030     2.5517     0.0407   -60.0499     8.5296     6.1750
 1806.5000    11.0234   116.4058     2.5527     0.0508   -60.0489     8.5301     6.0623
 1807.0000    11.0244   119.4078     2.5448     0.0458   -60.0479     8.5306     6.3520
 1807.5000    11.0255   119.4138     2.5188     0.0128   -60.0469     8.6902     6.4086
 1808.0000    11.0066   115.2517     2.5118     0.0138   -60.0461     8.7716     6.4089
