~VERSION INFORMATION
 VERS.                2.0:   CWLS LOG ASCII STANDARD - VERSION 2.0
 WRAP.                 NO:   ONE LINE PER DEPTH STEP
~WELL INFORMATION
#MNEM.UNIT      DATA TYPE    INFORMATION
#----------   ------------   ------------------------------
 STRT.F          261.0000:   START DEPTH
 STOP.F         2875.0000:   STOP DEPTH
 STEP.F            0.5000:   STEP LENGTH
 NULL.          -999.2500:   NO VALUE
 COMP.   LAWRENCE ALLISON:   COMPANY
 WELL. LAWRENCE ALLISON "X" #85-20:   WELL
 FLD .          N.P.R. #3:   FIELD
 LOC .      S20 T39N R78W:   LOCATION
 CNTY.            NATRONA:   COUNTY
 STAT.            WYOMING:   STATE
 CTRY. UNITED STATES OF AMERICA:   COUNTRY
 SRVC.      DRESSER ATLAS:   SERVICE COMPANY
 DATE.        23-JUL-1986:   LOGDATE
 API .     49025111030000:   API NUMBER
~CURVE INFORMATION
#MNEM.UNIT       API CODE    CURVE DESCRIPTION
#----------   ------------   ------------------------------
 DEPT.F                  :   
 CORR.G/C3   45 356 01 00:   DENSITY CORRECTION
 RHOB.G/C3   45 350 01 00:   BULK DENSITY
 CNC .DEC    42 890 03 00:   NEUTRON POROSITY SANDSTONE
 GRR .GAPI   07 310 01 00:   GAMMA RAY FROM RESISTIVITY
 CALR.IN     07 280 01 00:   CALIPER FROM RESISTIVITY
 SPR .MV     07 010 01 00:   SPONTANEOUS POTENTIAL
 TENR.LBS    07 635 01 00:   TENSION FROM RESISTIVITY
 RILD.OHMM   07 120 46 00:   DEEP INDUCTION RESISTIVITY
 RILM.OHMM   07 120 44 00:   INDUCTION LOG MEDIUM RESISTIVITY
 RFOC.OHMM   07 220 04 00:   RESISTIVITY FOCUSED LOG RES.
~PARAMETER INFORMATION
#MNEM.UNIT          VALUE    DESCRIPTION
#----------   ------------   ------------------------------
 EKB .F         5007.0000:   Kelly bushing
 EGL .F         4995.0000:   Ground level
 EDF .F            0.0000:   Drilling floor
 EPD .F         4995.0000:   Permanent datum
 TD  .F         2874.0000:   Total depth
 CLNT.            A2DTECH:   Client Code
 SL  . 307' FEL & 2237' FSL:   Surface Location
 DATE.        23-JUL-1986:   Date Logged [DD-MMM-YYYY]
 DD  .F              2870:   Depth driller
 DL  .F              2874:   Depth logger
 BLI .F              2872:   Bottom log interval
 TLI .F              2205:   Top log interval
 CS1 .              8.625:   Casing size
 CBD1.      8.625" @ 261':   Casing driller 1
 CBL1.IN              261:   Casing logger 1
 BS1 .IN            7.875:   Bit size
 BSD1.F              2870:   Depth drilled with bit1
 DFT .            KCL-GEL:   Type fluid in hole
 DFD .                9.0:   Density
 DFV .                 37:   Viscosity
 MSS .           MUD TANK:   Source of sample
 RMS .OHMM          0.257:   Rm
 MST .F                89:   Rm Meas. temp.
 RMF .OHMM           0.19:   Rmf
 MFST.F                89:   Rmf Meas. temp.
 MFSS.               CALC:   Source Rmf.
 RMC .OHMM           0.32:   Rmc
 MCST.F                89:   Rmc Meas. temp.
 MCSS.               CALC:   Source Rmc.
 RMB .OHMM           0.20:   Rm. at BHT
 BHT .F               116:   BHT.
 TCS .HRS               4:   Time Circ. stopped
 MRT .F               116:   Maximum recorded temp.
 LUN .            HL 6264:   Logging unit number
 LUL .           GILLETTE:   Logging unit location
 ENGI.      P.M. FAHLSING:   Recorded By
 WITN.           JENNINGS:   Witnessed by
 ORIG.         2.5" PRINT:   Origin of data
 UWI .     49025111030000:   Unique Well ID
 DICO. A2D TECHNOLOGIES, INC.:   Digitizing Company
~OTHER INFORMATION
~A   DEPT     CORR       RHOB        CNC         GRR        CALR      SPR        TENR       RILD      RILM         RFOC 
# ...
 1768.5000  -999.2500  -999.2500  -999.2500   132.5306     9.6015   -88.0529  -126.8777     9.8548     9.3410    11.3337
 1769.0000  -999.2500  -999.2500  -999.2500   136.0886     9.6018   -88.9353  -127.1237    10.2651     9.5326    11.9406
 1769.5000  -999.2500  -999.2500  -999.2500   139.0530     9.6021   -89.2324  -127.3697    10.5477     9.7340    13.3406
 1770.0000  -999.2500  -999.2500  -999.2500   136.4518     9.6024   -89.2353  -127.6157    10.6912     9.7972    14.6338
 1770.5000  -999.2500  -999.2500  -999.2500   133.4103     9.6027   -89.2382  -127.8617    10.6898     9.5881    14.9020
 1771.0000  -999.2500  -999.2500  -999.2500   130.3687     9.6030   -89.2411  -128.1077    10.6883     9.4518    13.3640
 1771.5000  -999.2500  -999.2500  -999.2500   124.8695     9.6033   -89.2441  -128.3537    10.5420     9.2688    11.8563
 1772.0000  -999.2500  -999.2500  -999.2500   120.0396     9.6036   -89.2470  -128.5997    10.2569     9.1407    10.8887
 1772.5000  -999.2500  -999.2500  -999.2500   121.2711     9.6039   -89.2500  -128.5398     9.9772     9.0144    10.6570
 1773.0000  -999.2500  -999.2500  -999.2500   122.6051     9.6042   -89.2529  -127.7357     9.8366     8.7694    11.0388
 1773.5000  -999.2500  -999.2500  -999.2500   114.1832     9.6341   -89.1613  -126.9316     9.5666     8.7670    11.6705
 1774.0000  -999.2500  -999.2500  -999.2500   113.3172     9.6344   -88.9642  -126.1275     9.3174     8.6459    12.1364
 1774.5000  -999.2500  -999.2500  -999.2500   118.8452     9.6347   -88.9676  -125.3234     9.3162     8.6436    12.4732
 1775.0000  -999.2500  -999.2500  -999.2500   121.2161     9.6350   -88.8480  -124.5193     9.3362     8.6412    12.1364
 1775.5000  -999.2500  -999.2500  -999.2500   118.2458     9.6353   -88.6794  -123.7152     9.4671     8.6389    11.3337
 1776.0000  -999.2500  -999.2500  -999.2500   111.1213     9.6356   -88.3882  -122.9111     9.5998     8.7553    11.1797
 1776.5000  -999.2500  -999.2500  -999.2500   109.7814     9.6359   -88.3912  -122.1070     9.7343     8.8732    11.4899
 1777.0000  -999.2500  -999.2500  -999.2500   111.7089     9.6362   -88.3941  -121.3029     9.8708     9.1162    11.9715
 1777.5000  -999.2500  -999.2500  -999.2500   115.8602     9.6661   -88.5661  -120.4988    10.1029     9.2389    12.6451
 1778.0000  -999.2500  -999.2500  -999.2500   120.0116     9.6664   -88.9888  -119.6947    10.1494     9.3633    12.9960
 1778.5000  -999.2500  -999.2500  -999.2500   123.5695     9.6668   -89.2858  -118.8906    10.2390     9.3607    12.9960
 1779.0000  -999.2500  -999.2500  -999.2500   125.3470     9.6671   -89.5828  -118.0865    10.2373     9.3582    12.8193
 1779.5000  -999.2500  -999.2500  -999.2500   128.3114     9.6674   -89.5857  -117.2824    10.2359     9.3426    12.4732
 1780.0000  -999.2500  -999.2500  -999.2500   130.6824     9.6973   -89.5886  -116.4783    10.2345     8.9457    11.3337
 1780.5000  -999.2500  -999.2500  -999.2500   130.7271     9.6976   -89.5915  -115.6742    10.2332     8.7146    11.0277
 1781.0000  -999.2500  -999.2500  -999.2500   127.1157     9.6979   -89.5944  -114.8701    10.0930     8.6134    11.2005
 1781.5000  -999.2500  -999.2500  -999.2500   120.5006     9.7279   -89.5973  -114.0660     9.8798     8.8493    11.6806
 1782.0000  -999.2500  -999.2500  -999.2500   111.6558     9.7282   -89.3061  -113.2619     9.4034     9.1230    12.1814
 1782.5000  -999.2500  -999.2500  -999.2500   111.7553     9.7285   -89.3090  -112.4578     8.8019     9.3407    12.6741
 1783.0000  -999.2500  -999.2500  -999.2500   114.8074     9.7288   -89.3119  -111.6537     8.4477     9.4665    12.8193
 1783.5000  -999.2500  -999.2500  -999.2500   117.0120     9.7291   -89.3148  -110.8496     8.1078     9.5081    12.4336
 1784.0000  -999.2500  -999.2500  -999.2500   114.8658     9.7294   -89.0235  -110.0456     7.8885     9.5914    11.7237
 1784.5000  -999.2500  -999.2500  -999.2500   107.7954     9.7297   -89.0264  -109.2415     7.7805     9.5883    11.0448
 1785.0000  -999.2500  -999.2500  -999.2500   104.5401     9.7300   -89.0294  -108.4374     7.7795     9.5856    10.3004
 1785.5000  -999.2500  -999.2500  -999.2500   104.8061     9.7600   -89.0323  -107.6333     7.9936     9.5831     9.8841
 1786.0000  -999.2500  -999.2500  -999.2500   107.2087     9.7603   -89.0353  -106.8292     8.3265     9.4506    10.3288
 1786.5000  -999.2500  -999.2500  -999.2500   109.4451     9.7606   -89.0382  -106.0251     8.9132     9.3810    11.3142
 1787.0000  -999.2500  -999.2500  -999.2500   109.8699     9.7609   -89.0412  -105.2210     9.2844     9.3174    11.7231
 1787.5000  -999.2500  -999.2500  -999.2500   107.6906     9.7612   -89.0441  -104.4169     9.8039     9.1886    11.9715
 1788.0000  -999.2500  -999.2500  -999.2500   103.8812     9.7615   -89.1176  -103.6128     9.5387     9.0612    12.0595
 1788.5000  -999.2500  -999.2500  -999.2500    99.9060     9.7618   -89.3441  -102.8087     9.1549     8.9360    12.1364
 1789.0000  -999.2500  -999.2500  -999.2500    96.4132     9.7620   -89.6412  -102.0046     9.2802     8.8125    12.3037
 1789.5000  -999.2500  -999.2500  -999.2500    93.3085     9.7623   -89.6441  -101.2005     9.5396     8.6907    12.3037
 1790.0000  -999.2500  -999.2500  -999.2500    95.2125     9.7626   -89.6470  -100.3964     9.7973     8.6884    11.9715
 1790.5000  -999.2500  -999.2500  -999.2500   102.1097     9.7629   -89.6500   -99.5923     9.7959     8.6861    11.4899
 1791.0000  -999.2500  -999.2500  -999.2500   109.6084     9.7632   -89.5264   -98.7882     9.7946     8.6837    11.3337
 1791.5000  -999.2500  -999.2500  -999.2500   119.0223     9.7635   -89.3617   -97.9841     9.6605     8.6814    11.1797
 1792.0000  -999.2500  -999.2500  -999.2500   130.1136     9.7638   -89.2197   -97.1800     9.5042     8.6791    11.3337
 1792.5000  -999.2500  -999.2500  -999.2500   136.5424     9.7641   -89.0735   -96.3759     9.2434     8.6767    11.4899
 1793.0000  -999.2500  -999.2500  -999.2500   137.1335     9.7644   -89.0765   -95.5718     9.1438     8.6744    11.6482
 1793.5000  -999.2500  -999.2500  -999.2500   128.8215     9.7647   -88.7853   -94.7677     9.2682     8.6721    11.6482
 1794.0000  -999.2500  -999.2500  -999.2500   118.1360     9.7650   -88.7888   -93.9636     9.3942     8.6697    11.6482
 1794.5000  -999.2500  -999.2500  -999.2500   112.7919     9.7653   -88.4971   -93.1595     9.3499     8.5495    11.6482
 1795.0000  -999.2500  -999.2500  -999.2500   111.6020     9.7656   -88.5005   -92.3554     9.2182     8.3137    11.4899
 1795.5000  -999.2500  -999.2500  -999.2500   112.1925     9.7659   -88.5034   -91.5513     9.0882     8.0913    11.4899
 1796.0000  -999.2500  -999.2500  -999.2500   112.7831     9.7662   -88.5062   -90.7472     8.7881     7.9795    11.4795
 1796.5000  -999.2500  -999.2500  -999.2500   110.9997     9.7664   -88.5091   -89.9431     8.4276     7.7626    11.3183
 1797.0000  -999.2500  -999.2500  -999.2500   108.6229     9.7667   -88.5120   -89.1390     8.0819     7.6395    11.0077
 1797.5000  -999.2500  -999.2500  -999.2500   104.4657     9.7670   -88.5149   -88.3349     7.9118     7.5495    10.7057
 1798.0000  -999.2500  -999.2500  -999.2500   108.0236     9.7673   -88.8119   -87.3155     7.8585     7.6736    10.4119
 1798.5000  -999.2500  -999.2500  -999.2500   115.7358     9.7677   -89.1090   -85.7018     7.9654     7.8869    10.0944
 1799.0000  -999.2500  -999.2500  -999.2500   123.4480     9.7680   -89.4060   -84.0880     8.0737     8.0762     9.8841
 1799.5000  -999.2500  -999.2500  -999.2500   124.6320     9.7683   -89.9971   -82.4742     8.4097     8.2188    10.8650
 1800.0000  -999.2500  -999.2500  -999.2500   123.4421     9.7685   -90.2941   -80.8604     8.7600     8.4092    11.7560
 1800.5000  -999.2500  -999.2500  -999.2500   120.4096     9.7688   -90.2970   -79.2467     9.0011     8.5224    12.3659
 1801.0000  -999.2500  -999.2500  -999.2500   114.9373     9.7691   -90.0058   -77.6329     9.2489     8.4743    12.4732
 1801.5000  -999.2500  -999.2500  -999.2500   109.2620     9.7816   -89.6867   -76.0191     9.3747     8.4019    12.0791
