~VERSION INFORMATION
 VERS.                2.0:   CWLS LOG ASCII STANDARD - VERSION 2.0
 WRAP.                 NO:   ONE LINE PER DEPTH STEP
~WELL INFORMATION
#MNEM.UNIT      DATA TYPE    INFORMATION
#----------   ------------   ------------------------------
 STRT.F            0.0000:   START DEPTH
 STOP.F         5673.0000:   STOP DEPTH
 STEP.F            0.5000:   STEP LENGTH
 NULL.          -999.2500:   NO VALUE
 COMP.       FLUOR DANIEL:   COMPANY
 WELL.   FLUOR "X" #63-10:   WELL
 FLD .             NPR #3:   FIELD
 LOC .      S10 T38N R78W:   LOCATION
 CNTY.            NATRONA:   COUNTY
 STAT.            WYOMING:   STATE
 CTRY. UNITED STATES OF AMERICA:   COUNTRY
 SRVC.      WESTERN ATLAS:   SERVICE COMPANY
 DATE.        02-MAR-1996:   LOGDATE
 API .     49025227690000:   API NUMBER
~CURVE INFORMATION
#MNEM.UNIT       API CODE    CURVE DESCRIPTION
#----------   ------------   ------------------------------
 DEPT.F                  :   
 GRD .GAPI   45 310 01 00:   GAMMA RAY FROM DENSITY LOG
 TEND.LBS    45 635 01 00:   TENSION FROM DENSITY LOG
 CALD.IN     45 280 60 00:   CALIPER FROM DENSITY LOG
 ZCOR.G/C3   45 356 01 00:   DENSITY CORRECTION
 ZDEN.G/C3   45 350 01 00:   BULK DENSITY
 CNC .DEC    42 890 03 00:   COMPENSATED NEUTRON POROSITY SANDSTONE
 SPR .MV     11 010 01 00:   SPONTANEOUS POTENTIAL FROM RESISTIVITY
 RD  .OHMM   11 220 10 00:   RESISTIVITY DEEP
 RS  .OHMM   11 220 09 00:   RESISTIVITY SHALLOW
~PARAMETER INFORMATION
#MNEM.UNIT          VALUE    DESCRIPTION
#----------   ------------   ------------------------------
 EKB .F         5196.0000:   Kelly bushing
 EGL .F         5186.0000:   Ground level
 EDF .F         5195.0000:   Drilling floor
 TD  .F         5674.0000:   Total depth
 CLNT.            A2DTECH:   Client Code
 SL  . 1688' FNL & 1730' FEL:   Surface Location
 PD  .                 GL:   Permanent Datum
 EPD .F              5186:   Elevation Permanent Datum
 LMF .                 KB:   Log Measured From
 DMF .                 KB:   Drilling Measured From
 DAPD.F                10:   Feet Above Permanent Datum
 DATE.        02-MAR-1996:   Date Logged [DD-MMM-YYYY]
 DD  .F              5674:   Depth driller
 DL  .F              5674:   Depth logger
 BLI .F              5663:   Bottom log interval
 CS1 .IN            9.625:   Casing size
 CBD1.      9.625" @ 448':   Casing driller 1
 CBL1.F               448:   Casing logger 1
 BS1 .IN             8.75:   Bit size
 BSD1.F              5674:   Depth drilled with bit1
 DFT .               CHEM:   Type fluid in hole
 DFD .                9.7:   Density
 DFV .                 53:   Viscosity
 DFPH.                9.0:   pH
 DFL .                9.2:   Fluid loss
 MSS .           FLOWLINE:   Source of sample
 RMS .OHMM          0.628:   Rm
 MST .F                71:   Rm Meas. temp.
 RMF .OHMM          0.477:   Rmf
 MFST.F                71:   Rmf Meas. temp.
 MFSS.               MEAS:   Source Rmf.
 RMC .OHMM          0.779:   Rmc
 MCST.F                71:   Rmc Meas. temp.
 MCSS.               MEAS:   Source Rmc.
 RMB .OHMM          0.251:   Rm. at BHT
 BHT .F               178:   BHT.
 TCS .F               4.5:   Time Circ. stopped
 MRT .HRS             178:   Maximum recorded temp.
 LUN .            HL-6530:   Logging unit number
 LUL .             CASPER:   Logging unit location
 ENGI.      PAT RASMUSSEN:   Recorded By
 ORIG.           5" PRINT:   Origin of data
 UWI .     49025227690000:   Unique Well ID
 WITN.         LAFRENIERE:   Witnessed by
 DICO.   A2D TECHNOLOGIES:   Digitizing Company
~OTHER INFORMATION
~A  DEPTH      GRD       TEND       CALD       ZCOR       ZDEN        CNC        SPR         RD         RS
# ...
  438.0000    57.6873  -999.2500  -999.2500  -999.2500  -999.2500     0.4553  -999.2500  -999.2500  -999.2500
  438.5000    58.2954  -999.2500  -999.2500  -999.2500  -999.2500     0.4496  -999.2500  -999.2500  -999.2500
  439.0000    59.5483  -999.2500  -999.2500  -999.2500  -999.2500     0.4433  -999.2500  -999.2500  -999.2500
  439.5000    62.5252  -999.2500  -999.2500  -999.2500  -999.2500     0.4346  -999.2500  -999.2500  -999.2500
  440.0000    62.8307  -999.2500  -999.2500  -999.2500  -999.2500     0.4304  -999.2500  -999.2500  -999.2500
  440.5000    61.3304  -999.2500  -999.2500  -999.2500  -999.2500     0.4292  -999.2500  -999.2500  -999.2500
  441.0000    61.6387  -999.2500  -999.2500  -999.2500  -999.2500     0.4292  -999.2500  -999.2500  -999.2500
  441.5000    62.5482  -999.2500  -999.2500  -999.2500  -999.2500     0.4298  -999.2500  -999.2500  -999.2500
  442.0000    62.8564  -999.2500  -999.2500  -999.2500  -999.2500     0.4325  -999.2500  -999.2500  -999.2500
  442.5000    62.8621  -999.2500  -999.2500  -999.2500  -999.2500     0.4361  -999.2500  -999.2500  -999.2500
  443.0000    62.8679  -999.2500  -999.2500  -999.2500  -999.2500     0.4412  -999.2500  -999.2500  -999.2500
  443.5000    62.8736  -999.2500  -999.2500  -999.2500  -999.2500     0.4451  -999.2500  -999.2500  -999.2500
  444.0000    62.5781  -999.2500  -999.2500  -999.2500  -999.2500     0.4488  -999.2500  -999.2500  -999.2500
  444.5000    62.5853  -999.2500  -999.2500  -999.2500  -999.2500     0.4532  -999.2500  -999.2500  -999.2500
  445.0000    62.5910  -999.2500  -999.2500  -999.2500  -999.2500     0.4562  -999.2500  -999.2500  -999.2500
  445.5000    62.2941  -999.2500  -999.2500  -999.2500  -999.2500     0.4484  -999.2500  -999.2500  -999.2500
  446.0000    59.8916  -999.2500  -999.2500  -999.2500  -999.2500     0.4370  -999.2500  -999.2500  -999.2500
  446.5000    54.7783  -999.2500  -999.2500  -999.2500  -999.2500     0.4394  -999.2500  -999.2500  -999.2500
  447.0000    59.9045  -999.2500  -999.2500  -999.2500  -999.2500     0.4337  -999.2500  -999.2500  -999.2500
  447.5000    68.3439   -10.1199     8.9414     0.1951     2.1877     0.4231  -999.2500     0.3871  -999.2500
  448.0000    75.5786   -10.1199     8.7916     0.2132     2.1824     0.4120  -999.2500     6.8564  -999.2500
  448.5000    80.1245   -10.1199     8.7168     0.2132     2.1899     0.4020  -999.2500  1988.2285  -999.2500
  449.0000    81.9167   -10.1199     8.6871     0.2117     2.2613     0.3910  -999.2500 98179.5391  -999.2500
  449.5000    81.3186   -17.6162     8.7024     0.1982     2.3326     0.3838  -999.2500  2056.7449  -999.2500
  450.0000    81.3258   -17.6162     8.7778     0.1517     2.3911     0.3772  -999.2500     0.2000  1972.6945
  450.5000    81.3284   -17.6162     8.9583     0.1425     2.3874     0.3730  -999.2500  -999.2500  -999.2500
  451.0000    81.3318   -10.1199     9.5742     0.1551     2.3766     0.3738  -999.2500  -999.2500  -999.2500
  451.5000    81.0327     4.8726    10.4003     0.1697     2.3679     0.3892  -999.2500  -999.2500  -999.2500
  452.0000    80.7344    12.3688    11.1814     0.1817     2.3716     0.4060  -999.2500  -999.2500  -999.2500
  452.5000    81.0392    19.8651    11.2417     0.1067     2.4092     0.4189  -999.2500  -999.2500  -999.2500
  453.0000    81.6450    19.8651    11.2571     0.0613     2.4444     0.4087  -999.2500  -999.2500  -999.2500
  453.5000    82.2502    19.8651    11.2574     0.0406     2.4842     0.3966  -999.2500  -999.2500  -999.2500
  454.0000    82.5542    19.8651    11.2577     0.0347     2.5128     0.3820  -999.2500  -999.2500  -999.2500
  454.5000    79.5457    19.8651    11.2580     0.0452     2.5248     0.3687  -999.2500  -999.2500  -999.2500
  455.0000    80.1509    19.8651    11.2583     0.0572     2.5323     0.3609  -999.2500  -999.2500  -999.2500
  455.5000    80.7561    19.8651    11.1985     0.0662     2.5368     0.3558  -999.2500  -999.2500  -999.2500
  456.0000    81.3620    19.8651    10.8385     0.0677     2.5330     0.3516  -999.2500  -999.2500  -999.2500
  456.5000    81.6660    19.8651    10.4033     0.0873     2.4865     0.3486  -999.2500  -999.2500  -999.2500
  457.0000    82.2712    12.3688    10.1634     0.1248     2.4580     0.3449  -999.2500 100379.3594  -999.2500
  457.5000    82.2741    12.3688    10.1187     0.1339     2.4512     0.3360  -999.2500 80420.6953  -999.2500
  458.0000    83.1812    19.8651    10.0589     0.1174     2.4835     0.3180  -999.2500  -999.2500  -999.2500
  458.5000    84.3888    34.8576    10.0291     0.0618     2.5165     0.3024  -999.2500  -999.2500  -999.2500
  459.0000    87.1024    42.3538     9.9994     0.0498     2.5368     0.2892  -999.2500  -999.2500  -999.2500
  459.5000    91.0216    42.3538     9.9997     0.0545     2.5383     0.2838  -999.2500  -999.2500  -999.2500
  460.0000    93.1329    42.3538    10.0000     0.0604     2.5353     0.2808  -999.2500  -999.2500  -999.2500
  460.5000    94.0393    42.3538    10.0003     0.0619     2.5315     0.2850  -999.2500  -999.2500  -999.2500
  461.0000    94.0422    42.3538    10.0007     0.0649     2.5285     0.2856  -999.2500  -999.2500  -999.2500
  461.5000    93.4432    42.3538    10.0159     0.0664     2.5293     0.2847  -999.2500  -999.2500  -999.2500
  462.0000    93.1441    42.3538    10.0012     0.0649     2.5323     0.2832  -999.2500  -999.2500  -999.2500
  462.5000    93.7500    42.3538    10.0015     0.0619     2.5345     0.2799  -999.2500  -999.2500  -999.2500
  463.0000    94.3559    34.8576    10.0019     0.0604     2.5323     0.2754  -999.2500  -999.2500  -999.2500
  463.5000    94.0568    27.3613    10.0021     0.0590     2.5292     0.2709  -999.2500  -999.2500  -999.2500
  464.0000    93.1567    27.3613    10.0024     0.0590     2.5240     0.2666  -999.2500  -999.2500  -999.2500
  464.5000    92.5578    34.8576    10.0027     0.0590     2.5218     0.2616  -999.2500  -999.2500  -999.2500
  465.0000    92.2594    34.8576    10.0031     0.0605     2.5210     0.2595  -999.2500  -999.2500  -999.2500
  465.5000    92.2622    42.3538    10.0033     0.0605     2.5225     0.2580  -999.2500  -999.2500  -999.2500
  466.0000    92.2651    42.3538    10.0036     0.0605     2.5285     0.2565  -999.2500  -999.2500  -999.2500
  466.5000    93.1721    42.3538    10.0189     0.0606     2.5338     0.2571  -999.2500  -999.2500  -999.2500
  467.0000    95.5846    42.3538    10.0343     0.0591     2.5383     0.2598  -999.2500  -999.2500  -999.2500
  467.5000    94.0814    34.8576    10.0496     0.0591     2.5398     0.2592  -999.2500  -999.2500  -999.2500
  468.0000    88.9644    26.6606    10.0649     0.0590     2.5398     0.2592  -999.2500  -999.2500  -999.2500
  468.5000    88.0629   -10.1199    10.1102     0.0486     2.5375     0.2634  -999.2500   238.7560  -999.2500
  469.0000    89.5724     4.8726    10.1256     0.0531     2.5323     0.2736  -999.2500 35466.6172  -999.2500
  469.5000    91.4146    27.3613    10.1259     0.0712     2.5008     0.2790  -999.2500 103961.7812  -999.2500
  470.0000    91.9884    49.8501    10.1261     0.0892     2.4767     0.2925  -999.2500     0.2035  -999.2500
  470.5000    91.0876    64.8426    10.1414     0.1808     2.4242     0.3141  -999.2500 96519.3438  -999.2500
  471.0000    90.1868    79.8351    10.1418     0.2123     2.3378     0.3231  -999.2500 97942.2109  -999.2500
  471.5000    88.3830    94.8276    10.1421     0.1943     2.2928     0.3324  -999.2500 98718.1562  -999.2500
  472.0000    88.0839   102.3238    10.1424     0.1403     2.2385     0.3498  -999.2500 98796.3438  -999.2500
  472.5000    89.5935    87.3313    10.1276     0.0923     2.1697     0.4039  -999.2500 98212.7031  -999.2500
  473.0000    93.2114    42.3538    10.1130     0.0953     2.1194     0.4369  -999.2500 98972.5078  -999.2500
  473.5000    94.1179    19.0904    10.0832     0.1133     2.0983     0.4784  -999.2500 99050.8984  -999.2500
  474.0000    92.0122   -10.1199    10.0684     0.1283     2.1038     0.4895  -999.2500 99148.9766  -999.2500
