~VERSION INFORMATION
 VERS.                2.0:   CWLS LOG ASCII STANDARD - VERSION 2.0
 WRAP.                 NO:   ONE LINE PER DEPTH STEP
~WELL INFORMATION
#MNEM.UNIT      DATA TYPE    INFORMATION
#----------   ------------   ------------------------------
 STRT.F         2185.0000:   START DEPTH
 STOP.F         5688.0000:   STOP DEPTH
 STEP.F            0.5000:   STEP LENGTH
 NULL.          -999.2500:   NO VALUE
 COMP.       FLUOR DANIEL:   COMPANY
 WELL.   FLUOR "X" #53-10:   WELL
 FLD .           N.P.R #3:   FIELD
 LOC .      S10 T38N R78W:   LOCATION
 CNTY.            NATRONA:   COUNTY
 STAT.            WYOMING:   STATE
 CTRY. UNITED STATES OF AMERICA:   COUNTRY
 SRVC.      WESTERN ATLAS:   SERVICE COMPANY
 DATE.        23-MAR-1997:   LOGDATE
 API .     49025228470000:   API NUMBER
~CURVE INFORMATION
#MNEM.UNIT       API CODE    CURVE DESCRIPTION
#----------   ------------   ------------------------------
 DEPT.F                  :   
 CNC .DEC    42 890 03 00:   NEUTRON POROSITY SANDSTONE
 TEND.LBS    45 635 01 00:   TENSION FORM DENSITY LOG
 GRD .GAPI   45 310 01 00:   GAMMA RAY FROM DENSITY LOG
 CALD.IN     45 280 60 00:   CALIPER FROM DENSITY LOG
 ZDEN.G/C3   45 350 01 00:   BULK DENSITY
 ZCOR.G/C3   45 356 01 00:   DENSITY CORRECTION
 PE  .B/E    45 358 01 00:   PHOTOELECTRIC FACTOR
 R4SL.OHMM   07 000 00 00:   RESISTIVITY DEL 4
 R2SL.OHMM   07 000 00 00:   RESISTIVITY DEL 2
~PARAMETER INFORMATION
#MNEM.UNIT          VALUE    DESCRIPTION
#----------   ------------   ------------------------------
 EKB .F         5182.0000:   Kelly bushing
 EGL .F         5172.0000:   Ground level
 EDF .F         5181.0000:   Drilling floor
 EPD .F         5172.0000:   Permanent datum
 TD  .F         5690.0000:   Total depth
 CLNT.            A2DTECH:   Client Code
 SL  . 1183' FNL & 2118' FEL:   Surface Location
 PD  .                 GL:   Permanent Datum
 LMF .                 KB:   Log Measured From
 DMF .                 KB:   Drilling Measured From
 DAPD.F                10:   Feet Above Permanent Datum
 DATE.        23-MAR-1997:   Date Logged [DD-MMM-YYYY]
 DD  .F              5690:   Depth driller
 DL  .F              5688:   Depth logger
 BLI .F              5648:   Bottom log interval
 TLI .F              2200:   Top log interval
 CS1 .IN            9.625:   Casing size
 CBD1.      9.625" @ 446':   Casing driller 1
 CBL1.F               452:   Casing logger 1
 BS1 .IN             8.75:   Bit size
 BSD1.F              5690:   Depth drilled with bit1
 DFT .           GEL CHEM:   Type fluid in hole
 DFD .                9.8:   Density
 DFV .                 66:   Viscosity
 DFPH.                8.5:   pH
 DFL .                8.4:   Fluid loss
 MSS .              CIRC.:   Source of sample
 RMS .OHMM            1.1:   Rm
 MST .F                73:   Rm Meas. temp.
 RMF .OHMM           0.87:   Rmf
 MFST.F                73:   Rmf Meas. temp.
 MFSS.               CALC:   Source Rmf.
 RMC .OHMM           1.35:   Rmc
 MCST.F                73:   Rmc Meas. temp.
 MCSS.               CALC:   Source Rmc.
 RMB .OHMM           0.46:   Rm. at BHT
 BHT .F               174:   BHT.
 TCS .HRS               5:   Time Circ. stopped
 MRT .F               174:   Maximum recorded temp.
 LUN .            HL 6530:   Logging unit number
 LUL .          CASPER WY:   Logging unit location
 ENGI.           BROWNLOW:   Recorded By
 WITN.              HARDY:   Witnessed by
 ORIG.     2.5", 5" PRINT:   Origin of data
 UWI .     49025228470000:   Unique Well ID
 DICO. A2D TECHNOLOGIES, INC.:   Digitizing Company
~OTHER INFORMATION
~A  DEPTH      CNC       TEND        GRD       CALD       ZDEN       ZCOR         PE       R4SL       R2SL
# ...
 4703.5000     0.2114   -15.5043   109.9398     9.0405     2.6769     0.0195     3.3194  -999.2500  -999.2500
 4704.0000     0.2163   -37.7062   112.9518     9.0412     2.6769     0.0225     3.3371  -999.2500  -999.2500
 4704.5000     0.2157   -29.9073   120.1807     9.0418     2.6769     0.0240     3.4398  -999.2500  -999.2500
 4705.0000     0.2042    -7.1215   120.7831     9.0424     2.6739     0.0254     3.5751  -999.2500  -999.2500
 4705.5000     0.1916   -15.0942   116.2651     9.0430     2.6687     0.0269     3.5302  -999.2500  -999.2500
 4706.0000     0.1880   -30.3194   109.9398     9.0436     2.6657     0.0269     3.4553  -999.2500  -999.2500
 4706.5000     0.1873   -36.2249   109.0361     9.0442     2.6642     0.0253     3.4704  -999.2500  -999.2500
 4707.0000     0.1892   -20.8639   110.2410     9.0448     2.6634     0.0195     3.6207  -999.2500  -999.2500
 4707.5000     0.1944    -5.5766   112.9518     9.0605     2.6649     0.0147     3.7387  -999.2500  -999.2500
 4708.0000     0.2013    -5.3223   118.0723     9.0611     2.6702     0.0120     3.7838  -999.2500  -999.2500
 4708.5000     0.2024    -4.9874   121.0843     9.0617     2.6770     0.0195     3.7988  -999.2500  -999.2500
 4709.0000     0.1994    -4.6927   124.0964     9.0623     2.6807     0.0314     3.8138  -999.2500  -999.2500
 4709.5000     0.1901   -11.8942   122.1025     9.0477     2.6814     0.0254     3.7988  -999.2500  -999.2500
 4710.0000     0.1849   -26.5919   114.8795     9.0483     2.6777     0.0105     3.7538  -999.2500  -999.2500
 4710.5000     0.1870   -33.8672   109.1220     9.0489     2.6739     0.0045     3.7688  -999.2500  -999.2500
 4711.0000     0.2012   -26.0027   106.9790     9.0344     2.6687     0.0015     3.7838  -999.2500  -999.2500
 4711.5000     0.2205   -25.7079   110.0795     9.0352     2.6657     0.0105     3.7988  -999.2500  -999.2500
 4712.0000     0.2361   -17.9161   116.1095     9.0358     2.6672     0.0195     3.7988  -999.2500  -999.2500
 4712.5000     0.2416   -17.6163   120.3323     9.0364     2.6664     0.0254     3.7988  -999.2500  -999.2500
 4713.0000     0.2449   -17.3163   123.9527     9.0369     2.6649     0.0314     3.7838  -999.2500  -999.2500
 4713.5000     0.2458   -16.9592   126.3683     9.0375     2.6627     0.0284     3.7988  -999.2500  -999.2500
 4714.0000     0.2434   -24.2345   125.4706     9.0381     2.6597     0.0210     3.7988  -999.2500  -999.2500
 4714.5000     0.2328   -16.3700   123.6693     9.0387     2.6597     0.0195     3.7988  -999.2500  -999.2500
 4715.0000     0.2217   -16.0753   120.3619     9.0544     2.6657     0.0195     3.7988  -999.2500  -999.2500
 4715.5000     0.2169   -15.7805   117.3558     9.0398     2.6724     0.0195     3.7988  -999.2500  -999.2500
 4716.0000     0.2172   -15.4858   115.5545     9.0405     2.6762     0.0210     3.7988  -999.2500  -999.2500
 4716.5000     0.2193   -22.7610   114.9578     9.0411     2.6754     0.0195     3.8138  -999.2500  -999.2500
 4717.0000     0.2202   -29.9625   114.6423     9.0417     2.6714     0.0195     3.7387  -999.2500  -999.2500
 4717.5000     0.2202   -29.5943   116.1747     9.0423     2.6672     0.0180     3.6787  -999.2500  -999.2500
 4718.0000     0.2177   -29.2995   117.1035     9.0429     2.6709     0.0150     3.6336  -999.2500  -999.2500
 4718.5000     0.2035   -29.0048   116.1461     9.0435     2.6769     0.0135     3.6036  -999.2500  -999.2500
 4719.0000     0.1801   -21.2144   113.7843     9.0442     2.6807     0.0105     3.5736  -999.2500  -999.2500
 4719.5000     0.1530   -20.9146   108.0674     9.0448     2.6762     0.0075     3.5886  -999.2500  -999.2500
 4720.0000     0.1355   -13.1184   101.7480     9.0454     2.6717     0.0030     3.6036  -999.2500  -999.2500
 4720.5000     0.1319     2.2327    95.1274     9.0460     2.6717     0.0015     3.6186  -999.2500  -999.2500
 4721.0000     0.1307     2.5274    93.3261     9.0466     2.6732     0.0075     3.6336  -999.2500  -999.2500
 4721.5000     0.1310    -4.6744    92.4284     9.0472     2.6739     0.0135     3.6336  -999.2500  -999.2500
 4722.0000     0.1470   -19.4459    94.2416     9.0478     2.6747     0.0225     3.6336  -999.2500  -999.2500
 4722.5000     0.1590   -26.6474    99.3680     9.0331     2.6747     0.0314     3.6336  -999.2500  -999.2500
 4723.0000     0.1798   -26.2789   104.4944     9.0339     2.6747     0.0299     3.6336  -999.2500  -999.2500
 4723.5000     0.1886   -25.9841   112.0304     9.0496     2.6747     0.0180     3.6486  -999.2500  -999.2500
 4724.0000     0.1919   -25.6896   119.8677     9.0502     2.6747     0.0089     3.6637  -999.2500  -999.2500
 4724.5000     0.1858   -25.3949   118.6688     9.0508     2.6747     0.0060     3.6637  -999.2500  -999.2500
 4725.0000     0.1795   -47.6012   117.4699     9.0514     2.6802     0.0075     3.6637  -999.2500  -999.2500
 4725.5000     0.1777   -54.7977   115.0256     9.0368     2.6912     0.0135     3.6787  -999.2500  -999.2500
 4726.0000     0.1783   -39.5031   112.2826     9.0375     2.6979     0.0180     3.6787  -999.2500  -999.2500
 4726.5000     0.1777   -16.7167   109.3566     9.0382     2.7002     0.0195     3.6937  -999.2500  -999.2500
 4727.0000     0.1717    -8.9204   106.6517     9.0388     2.6957     0.0150     3.7087  -999.2500  -999.2500
 4727.5000     0.1578    -8.6207   102.1395     9.0545     2.6897     0.0120     3.7237  -999.2500  -999.2500
 4728.0000     0.1373   -30.7547    91.6033     9.0551     2.6837     0.0075     3.7387  -999.2500  -999.2500
 4728.5000     0.1283   -30.4600    84.9827     9.0557     2.6769     0.0060     3.7538  -999.2500  -999.2500
 4729.0000     0.1265   -15.1727    81.9766     9.0563     2.6702     0.0075     3.7688  -999.2500  -999.2500
 4729.5000     0.1311   -14.8780    81.3786     9.0569     2.6672     0.0120     3.7838  -999.2500  -999.2500
 4730.0000     0.1575   -37.0720    87.4101     9.0422     2.6664     0.0165     3.7838  -999.2500  -999.2500
 4730.5000     0.1651   -59.3397    91.9341     9.0429     2.6679     0.0180     3.7988  -999.2500  -999.2500
 4731.0000     0.1690    -6.4977    95.8557     9.0435     2.6709     0.0165     3.7988  -999.2500  -999.2500
 4731.5000     0.1726     1.2195   100.3797     9.0441     2.6784     0.0135     3.8438  -999.2500  -999.2500
 4732.0000     0.1777    -5.9220   106.1085     9.0447     2.6859     0.0135     4.2192  -999.2500  -999.2500
 4732.5000     0.1786    -4.7299   110.3313     9.0453     2.6899     0.0150     4.5796  -999.2500  -999.2500
 4733.0000     0.1750   -27.8078   113.3494     9.0459     2.6950     0.0211     4.4595  -999.2500  -999.2500
 4733.5000     0.1642   -35.0093   111.3044     9.0465     2.7016     0.0273     4.1441  -999.2500  -999.2500
 4734.0000     0.1532   -27.2113   103.4229     9.0624     2.7039     0.0267     3.7688  -999.2500  -999.2500
 4734.5000     0.1323   -28.1312    92.2842     9.0629     2.6994     0.0225     3.7838  -999.2500  -999.2500
 4735.0000     0.1277   -56.6138    86.5673     9.0635     2.6912     0.0210     3.8138  -999.2500  -999.2500
 4735.5000     0.1340   -48.7493    83.2599     9.0641     2.6829     0.0254     3.8589  -999.2500  -999.2500
 4736.0000     0.1515   -40.9583    89.8924     9.0647     2.6777     0.0269     3.8739  -999.2500  -999.2500
 4736.5000     0.1952   -24.0429   101.3441     9.0653     2.6754     0.0269     3.8589  -999.2500  -999.2500
 4737.0000     0.2172   -17.8801   115.2054     9.0507     2.6807     0.0254     3.8589  -999.2500  -999.2500
 4737.5000     0.2277   -17.5856   121.2339     9.0514     2.6859     0.0195     3.8589  -999.2500  -999.2500
 4738.0000     0.2307   -24.7871   112.2052     9.0520     2.6829     0.0165     3.8589  -999.2500  -999.2500
 4738.5000     0.2313   -24.4923   110.4024     9.0375     2.6709     0.0135     3.8438  -999.2500  -999.2500
 4739.0000     0.2349   -24.1976   113.4219     9.0079     2.6582     0.0105     3.8589  -999.2500  -999.2500
 4739.5000     0.2392   -31.3991   116.4399     8.9934     2.6537     0.0102     3.8739  -999.2500  -999.2500
