~VERSION INFORMATION
 VERS.                2.0:   CWLS LOG ASCII STANDARD - VERSION 2.0
 WRAP.                 NO:   ONE LINE PER DEPTH STEP
~WELL INFORMATION
#MNEM.UNIT      DATA TYPE    INFORMATION
#----------   ------------   ------------------------------
 STRT.F           36.0000:   START DEPTH
 STOP.F         3488.0000:   STOP DEPTH
 STEP.F            0.5000:   STEP LENGTH
 NULL.          -999.2500:   NO VALUE
 COMP. LAWRENCE - ALLISON  & ASSOCIATE:   COMPANY
 WELL. LAWRENCE "STX" #76-23:   WELL
 FLD .              NPR 3:   FIELD
 LOC .      S23 T38N R78W:   LOCATION
 CNTY.            NATRONA:   COUNTY
 STAT.            WYOMING:   STATE
 CTRY. UNITED STATES OF AMERICA:   COUNTRY
 SRVC.       SCHLUMBERGER:   SERVICE COMPANY
 DATE.        07-MAY-1982:   LOGDATE
 API .     49025108920000:   API NUMBER
~CURVE INFORMATION
#MNEM.UNIT       API CODE    CURVE DESCRIPTION
#----------   ------------   ------------------------------
 DEPT.F                  :   
 CORR.G/C3   45 356 01 00:   DENSITY CORRECTION
 CALD.IN     45 280 60 00:   CALIPER FROM DENSITY LOG
 GRD .GAPI   45 310 01 00:   GAMMA RAY FROM DENSITY LOG
 RHOB.G/C3   45 350 01 00:   BULK DENSITY
 SFL .OHMM   07 220 01 00:   SHALLOW FOCUSED LOG RESISTIVITY
 ILD .OHMM   07 120 46 00:   DEEP INDUCTION RESISTIVITY
 ILM .OHMM   07 120 44 00:   INDUCTION LOG MEDIUM RESISTIVITY
 TENR.LBS    07 635 01 00:   TENSION
 SPR .MV     07 010 01 00:   SPONTANEOUS POTENTIAL
 NPHI.DEC    42 890 03 00:   NEUTRON POROSITY SANDSTONE
 TEND.LBS    45 635 01 00:   TENSION FROM DENSITY LOG
~PARAMETER INFORMATION
#MNEM.UNIT          VALUE    DESCRIPTION
#----------   ------------   ------------------------------
 EKB .F         5441.0000:   Kelly bushing
 EGL .F         5431.0000:   Ground level
 EDF .F            0.0000:   Drilling floor
 EPD .F            0.0000:   Permanent datum
 TD  .F         3788.0000:   Total depth
 DATE.        07-MAY-1982:   Date logged
 CLNT.            A2DTECH:   Client Code
 SL  . 1327' FSL & 1190' FEL:   Surface Location
 PD  .                 GL:   Permanent Datum
 DAPD.F                10:   Feet Above Permanent Datum
 DD  .F              3788:   Depth driller
 DL  .F              3478:   Depth logger
 BLI .F              3471:   Bottom log interval
 TLI .F              1615:   Top log interval
 CS1 .IN            9.625:   Casing size
 CBD1.     9.625" @ 1603':   Casing driller 1
 CBL1.F              1615:   Casing logger 1
 BS1 .IN            7.875:   Bit size
 BSD1.F              3788:   Depth drilled with bit1
 DFT .                AIR:   Type fluid in hole
 TCS .HRS            1230:   Time Circ. stopped
 TLAB.HRS            1500:   Time logger at bottom
 MRT .F               125:   Maximum recorded temp.
 LUN .               8035:   Logging unit number
 LUL .               CSPR:   Logging unit location
 ENGI.              PENNY:   Recorded By
 WITN.    JENNINGS/STRONG:   Witnessed by
 ORIG.       2.5"5" PRINT:   Origin of data
 UWI .     49025108920000:   Unique Well ID
 DICO. A2D TECHNOLOGIES, INC.:   Digitizing Company
~OTHER INFORMATION
~A   DEPT       CORR     CALD        GRD         RHOB      SFL        ILD        ILM       TENR        SPR        NPHI      TEND   
# ...
 2506.5000     0.2470    11.1460   145.7220     2.5700  -999.2500     7.1880     7.4280  2091.4399  -999.2500  -999.2500  -999.2500
 2507.0000     0.2470    11.0620   147.8730     2.5320  -999.2500     7.1870     7.4600  2091.6641  -999.2500  -999.2500  -999.2500
 2507.5000     0.2470    11.0050   149.3030     2.5240  -999.2500     7.1780     7.4300  2091.8879  -999.2500  -999.2500  -999.2500
 2508.0000     0.2460    10.9950   148.2120     2.5080  -999.2500     7.1680     7.4000  2092.1121  -999.2500  -999.2500  -999.2500
 2508.5000     0.2460    10.8920   146.9200     2.4480  -999.2500     7.1580     7.3710  2092.3359  -999.2500  -999.2500  -999.2500
 2509.0000     0.2460    10.8710   145.7140     2.4140  -999.2500     7.1490     7.3420  2092.5610  -999.2500  -999.2500  -999.2500
 2509.5000     0.2450    10.8700   146.8970     2.4260  -999.2500     7.1390     7.3130  2092.7849  -999.2500  -999.2500  -999.2500
 2510.0000     0.2450    10.8690   148.0290     2.4530  -999.2500     7.1300     7.2830  2093.0090  -999.2500  -999.2500  -999.2500
 2510.5000     0.2450    10.9330   146.5230     2.4750  -999.2500     7.1200     7.2540  2093.2329  -999.2500  -999.2500  -999.2500
 2511.0000     0.2440    11.0340   142.1970     2.4950  -999.2500     7.1100     7.2240  2093.4570  -999.2500  -999.2500  -999.2500
 2511.5000     0.2440    11.1360   137.9120     2.5380  -999.2500     7.1010     7.1950  2093.6809  -999.2500  -999.2500  -999.2500
 2512.0000     0.2440    11.0870   136.1790     2.5840  -999.2500     7.0910     7.1650  2093.9050  -999.2500  -999.2500  -999.2500
 2512.5000     0.2430    11.0360   137.8000     2.5570  -999.2500     7.0820     7.1360  2094.1289  -999.2500  -999.2500  -999.2500
 2513.0000     0.2430    11.0710   139.4580     2.5000  -999.2500     7.0720     7.1060  2094.3530  -999.2500  -999.2500  -999.2500
 2513.5000     0.2380    11.0500   139.9300     2.4490  -999.2500     7.0580     7.0620  2094.5769  -999.2500  -999.2500  -999.2500
 2514.0000     0.2340    10.9640   139.9770     2.4880  -999.2500     7.0680     7.0670  2094.8010  -999.2500  -999.2500  -999.2500
 2514.5000     0.2460    10.8760   138.5480     2.5430  -999.2500     7.1190     7.1190  2095.0249  -999.2500  -999.2500  -999.2500
 2515.0000     0.2450    10.8170   136.4900     2.5780  -999.2500     7.1710     7.1700  2095.2490  -999.2500  -999.2500  -999.2500
 2515.5000     0.2440    10.7660   134.4300     2.5480  -999.2500     7.2220     7.2220  2095.4741  -999.2500  -999.2500  -999.2500
 2516.0000     0.2170    10.7160   133.6560     2.4850  -999.2500     7.2730     7.2740  2095.6980  -999.2500  -999.2500  -999.2500
 2516.5000     0.1810    10.6960   134.8580     2.4240  -999.2500     7.3250     7.3250  2095.9221  -999.2500  -999.2500  -999.2500
 2517.0000     0.1450    10.7090   134.9060     2.3830  -999.2500     7.3760     7.3770  2096.1460  -999.2500  -999.2500  -999.2500
 2517.5000     0.1230    10.7230   134.5800     2.4530  -999.2500     7.4300     7.4300  2096.3701  -999.2500  -999.2500  -999.2500
 2518.0000     0.1630    10.7710   134.2460     2.5230  -999.2500     7.4630     7.4630  2096.5940  -999.2500  -999.2500  -999.2500
 2518.5000     0.2160    10.9200   134.0830     2.5470  -999.2500     7.4610     7.4610  2096.8181  -999.2500  -999.2500  -999.2500
 2519.0000     0.2050    11.0110   135.1160     2.4730  -999.2500     7.4600     7.4600  2097.0420  -999.2500  -999.2500  -999.2500
 2519.5000     0.1730    10.9690   136.1610     2.4100  -999.2500     7.4600     7.4600  2097.2661  -999.2500  -999.2500  -999.2500
 2520.0000     0.1470    10.8550   136.5650     2.4300  -999.2500     7.4600     7.4600  2097.4900  -999.2500  -999.2500  -999.2500
 2520.5000     0.1800    10.8560   136.4160     2.4590  -999.2500     7.4600     7.4600  2097.7141  -999.2500  -999.2500  -999.2500
 2521.0000     0.2110    10.8880   139.4110     2.4150  -999.2500     7.4600     7.4600  2097.9380  -999.2500  -999.2500  -999.2500
 2521.5000     0.2040    10.9240   142.6190     2.3660  -999.2500     7.4600     7.4600  2098.1621  -999.2500  -999.2500  -999.2500
 2522.0000     0.1900    10.8670   145.1990     2.3490  -999.2500     7.4600     7.4600  2098.3860  -999.2500  -999.2500  -999.2500
 2522.5000     0.1810    10.7860   142.8000     2.4350  -999.2500     7.4600     7.4600  2098.6111  -999.2500  -999.2500  -999.2500
 2523.0000     0.1790    10.7040   136.6310     2.5040  -999.2500     7.4600     7.4600  2098.8350  -999.2500  -999.2500  -999.2500
 2523.5000     0.1690    10.6650   130.4700     2.5120  -999.2500     7.4840     7.4840  2099.0591  -999.2500  -999.2500  -999.2500
 2524.0000     0.1600    10.6570   127.4110     2.5110  -999.2500     7.5150     7.5150  2099.2830  -999.2500  -999.2500  -999.2500
 2524.5000     0.1540    10.6480   128.3840     2.5230  -999.2500     7.5490     7.5490  2099.5071  -999.2500  -999.2500  -999.2500
 2525.0000     0.1760    10.6400   129.3360     2.5360  -999.2500     7.6000     7.6000  2099.7310  -999.2500  -999.2500  -999.2500
 2525.5000     0.1780    10.6320   128.0070     2.5420  -999.2500     7.5620     7.5620  2099.9551  -999.2500  -999.2500  -999.2500
 2526.0000     0.1750    10.6300   126.6190     2.5270  -999.2500     7.4670     7.4670  2100.1790  -999.2500  -999.2500  -999.2500
 2526.5000     0.1800    10.6300   127.2510     2.5160  -999.2500     7.3730     7.3730  2100.4031  -999.2500  -999.2500  -999.2500
 2527.0000     0.2190    10.6280   130.0630     2.5410  -999.2500     7.2790     7.2790  2100.6270  -999.2500  -999.2500  -999.2500
 2527.5000     0.2470    10.7690   134.4220     2.5760  -999.2500     7.1840     7.1840  2100.8511  -999.2500  -999.2500  -999.2500
 2528.0000     0.2460    11.0750   138.7380     2.5960  -999.2500     7.0900     7.0900  2101.0750  -999.2500  -999.2500  -999.2500
 2528.5000     0.2460    11.4050   142.4770     2.5750  -999.2500     6.9960     6.9960  2101.2991  -999.2500  -999.2500  -999.2500
 2529.0000     0.2460    11.4260   143.9270     2.5300  -999.2500     6.9020     6.9020  2101.5239  -999.2500  -999.2500  -999.2500
 2529.5000     0.2460    11.2880   145.4220     2.4460  -999.2500     6.8070     6.8070  2101.7480  -999.2500  -999.2500  -999.2500
 2530.0000     0.2460    11.2290   145.2680     2.3610  -999.2500     6.7130     6.7130  2101.9719  -999.2500  -999.2500  -999.2500
 2530.5000     0.2440    11.2690   143.9700     2.1060  -999.2500     6.6720     6.6720  2102.1960  -999.2500  -999.2500  -999.2500
 2531.0000     0.2090    11.2890   141.6570     2.1020  -999.2500     6.7000     6.7000  2102.4199  -999.2500  -999.2500  -999.2500
 2531.5000     0.2220    11.1050   140.5840     2.2100  -999.2500     6.7350     6.7350  2102.6440  -999.2500  -999.2500  -999.2500
 2532.0000     0.2380    10.9800   143.1980     2.3460  -999.2500     6.7700     6.7700  2102.8679  -999.2500  -999.2500  -999.2500
 2532.5000     0.2450    11.1190   146.6100     2.3990  -999.2500     6.8060     6.8060  2103.0920  -999.2500  -999.2500  -999.2500
 2533.0000     0.2450    11.2560   149.9640     2.4000  -999.2500     6.8410     6.8410  2103.3159  -999.2500  -999.2500  -999.2500
 2533.5000     0.2450    11.2180   148.0150     2.4130  -999.2500     6.8770     6.8770  2103.5400  -999.2500  -999.2500  -999.2500
 2534.0000     0.2460    11.1190   142.5210     2.4300  -999.2500     6.9120     6.9120  2103.7639  -999.2500  -999.2500  -999.2500
 2534.5000     0.2230    11.0310   136.2680     2.4020  -999.2500     6.9470     6.9470  2103.9880  -999.2500  -999.2500  -999.2500
 2535.0000     0.2370    11.0310   134.7310     2.4120  -999.2500     6.9830     6.9830  2104.2119  -999.2500  -999.2500  -999.2500
 2535.5000     0.2460    11.0310   139.5360     2.4360  -999.2500     7.0180     7.0180  2104.4370  -999.2500  -999.2500  -999.2500
 2536.0000     0.2470    11.1600   144.2330     2.4090  -999.2500     7.0540     7.0540  2104.6609  -999.2500  -999.2500  -999.2500
 2536.5000     0.2470    11.4020   146.4500     2.3510  -999.2500     7.0890     7.0890  2104.8850  -999.2500  -999.2500  -999.2500
