~VERSION INFORMATION
 VERS.                2.0:   CWLS LOG ASCII STANDARD - VERSION 2.0
 WRAP.                 NO:   ONE LINE PER DEPTH STEP
~WELL INFORMATION
#MNEM.UNIT      DATA TYPE    INFORMATION
#----------   ------------   ------------------------------
 STRT.F          517.0000:   START DEPTH
 STOP.F         3222.0000:   STOP DEPTH
 STEP.F            0.5000:   STEP LENGTH
 NULL.          -999.2500:   NO VALUE
 COMP.    FENIX & SCISSON:   COMPANY
 WELL.  FENIX "TX" #53-33:   WELL
 FLD .             NPR #3:   FIELD
 LOC .      S33 T39N R78W:   LOCATION
 CNTY.            NATRONA:   COUNTY
 STAT.            WYOMING:   STATE
 CTRY. UNITED STATES OF AMERICA:   COUNTRY
 SRVC.              WELEX:   SERVICE COMPANY
 DATE.        24-AUG-1980:   LOGDATE
 API .     49025108460000:   API NUMBER
~CURVE INFORMATION
#MNEM.UNIT       API CODE    CURVE DESCRIPTION
#----------   ------------   ------------------------------
 DEPT.F                  :   
 CALD.IN     45 280 60 00:   CALIPER FROM DENSITY LOG
 GRD .GAPI   45 310 01 00:   GAMMA RAY FROM DENSITY LOG
 CORR.G/C3   45 356 01 00:   DENSITY CORRECTION
 RHOB.G/C3   45 350 01 00:   BULK DENSITY
 SPR .MV     07 010 01 00:   SPONTANEOUS POTENTIAL
 ILD .OHMM   07 120 46 00:   DEEP INDUCTION RESISTIVITY
 ILM .OHMM   07 120 44 00:   INDUCTION LOG MEDIUM RESISTIVITY
 SGRD.OHMM   07 220 05 00:   SHALLOW SHORT GUARD RESISTIVITY
~PARAMETER INFORMATION
#MNEM.UNIT          VALUE    DESCRIPTION
#----------   ------------   ------------------------------
 EKB .F         5173.0000:   Kelly bushing
 EGL .F         5163.0000:   Ground level
 EDF .F            0.0000:   Drilling floor
 EPD .F            0.0000:   Permanent datum
 TD  .F         3224.0000:   Total depth
 CLNT.            A2DTECH:   Client Code
 SL  . 1650' FNL & 2500' FEL:   Surface Location
 PD  .                 GL:   Permanent Datum
 DAPD.F                10:   Feet Above Permanent Datum
 DATE.        24-AUG-1980:   Date Logged [DD-MMM-YYYY]
 DD  .F              3190:   Depth driller
 DL  .F              3224:   Depth logger
 BLI .F              3222:   Bottom log interval
 TLI .F               528:   Top log interval
 CS1 .IN            8.625:   Casing size
 CBD1.      8.625" @ 532':   Casing driller 1
 CBL1.F               528:   Casing logger 1
 BS1 .IN            7.875:   Bit size
 BSD1.F              3190:   Depth drilled with bit1
 DFT .     WATER BASE MUD:   Type fluid in hole
 DFD .                8.8:   Density
 DFV .                 45:   Viscosity
 DFL .                9.4:   Fluid loss
 MSS .            MUD PIT:   Source of sample
 RMS .OHMM           2.10:   Rm
 MST .F                65:   Rm Meas. temp.
 RMF .OHMM           1.68:   Rmf
 MFST.F                65:   Rmf Meas. temp.
 MFSS.               CALC:   Source Rmf.
 RMC .OHMM           2.52:   Rmc
 MCST.F                65:   Rmc Meas. temp.
 MCSS.               CALC:   Source Rmc.
 RMB .OHMM           1.14:   Rm. at BHT
 BHT .F               120:   BHT.
 TCS .HRS               3:   Time Circ. stopped
 MRT .F               120:   Maximum recorded temp.
 LUN .               1892:   Logging unit number
 LUL .             CASPER:   Logging unit location
 ENGI.           WACHTEIL:   Recorded By
 ORIG.         2.5" PRINT:   Origin of data
 UWI .     49025108460000:   Unique Well ID
 DICO. A2D TECHNOLOGIES, INC.:   Digitizing Company
~OTHER INFORMATION
~A   DEPT     CALD         GRD      CORR       RHOB        SPR        ILD        ILM       SGRD   
  517.0000  -999.2500    63.8102  -999.2500  -999.2500  -999.2500  -999.2500  -999.2500  -999.2500
  517.5000  -999.2500    62.9049  -999.2500  -999.2500  -999.2500  -999.2500  -999.2500  -999.2500
  518.0000  -999.2500    61.5492  -999.2500  -999.2500  -999.2500  -999.2500  -999.2500  -999.2500
  518.5000  -999.2500    60.6440  -999.2500  -999.2500  -999.2500  -999.2500  -999.2500  -999.2500
  519.0000  -999.2500    61.9910  -999.2500  -999.2500  -999.2500  -999.2500  -999.2500  -999.2500
  519.5000  -999.2500    62.4371  -999.2500  -999.2500  -999.2500  -999.2500  -999.2500  -999.2500
  520.0000  -999.2500    62.4324  -999.2500  -999.2500  -999.2500  -999.2500  -999.2500  -999.2500
  520.5000  -999.2500    62.3363  -999.2500  -999.2500  -999.2500  -999.2500  -999.2500  -999.2500
  521.0000  -999.2500    61.3993  -999.2500  -999.2500  -999.2500  -999.2500  -999.2500  -999.2500
  521.5000  -999.2500    60.3079  -999.2500  -999.2500  -999.2500  -999.2500  -999.2500  -999.2500
  522.0000  -999.2500    58.6246  -999.2500  -999.2500  -999.2500  -999.2500  -999.2500  -999.2500
  522.5000  -999.2500    59.4745  -999.2500  -999.2500  -999.2500  -999.2500  -999.2500  -999.2500
  523.0000  -999.2500    60.6516  -999.2500  -999.2500  -999.2500  -999.2500  -999.2500  -999.2500
  523.5000  -999.2500    62.8505  -999.2500  -999.2500  -999.2500  -999.2500  -999.2500  -999.2500
  524.0000  -999.2500    64.6480  -999.2500  -999.2500  -999.2500  -999.2500  -999.2500  -999.2500
  524.5000  -999.2500    67.3463  -999.2500  -999.2500  -999.2500  -999.2500  -999.2500  -999.2500
  525.0000  -999.2500    70.9456  -999.2500  -999.2500  -999.2500  -999.2500  -999.2500  -999.2500
  525.5000  -999.2500    77.6980  -999.2500  -999.2500  -999.2500  -999.2500  -999.2500  -999.2500
  526.0000  -999.2500    79.9459  -999.2500  -999.2500  -999.2500  -999.2500  -999.2500  -999.2500
  526.5000  -999.2500    81.7433  -999.2500  -999.2500  -999.2500  -999.2500  -999.2500  -999.2500
  527.0000  -999.2500    82.2402  -999.2500  -999.2500  -999.2500  -999.2500  -999.2500  -999.2500
  527.5000  -999.2500    82.6355  -999.2500  -999.2500  -999.2500  -999.2500  -999.2500  -999.2500
  528.0000    11.4415    82.6306     0.1854     2.5469   -16.9575     3.5339    11.0798     6.7181
  528.5000    11.4415    82.4805     0.2013     2.5514   -19.1852     1.4396     1.6223     7.0114
  529.0000    11.4415    82.1712     0.1895     2.5515   -21.3330     0.9355     0.7565     7.1698
  529.5000    11.4415    81.9579     0.1388     2.5494   -22.9619     0.5913     0.5704     7.4276
  530.0000    11.4415    81.7117     0.0901     2.5401   -24.0519     0.5289     0.5273     7.8958
  530.5000    11.4415    81.7063     0.0961     2.5295   -24.9822     0.5214     0.5344     8.0041
  531.0000    11.4193    81.7020     0.1004     2.5263   -25.7727     0.5919     0.6307     8.2266
  531.5000    11.3767    81.6976     0.1063     2.5208   -26.6535     0.9388     1.2442     8.2243
  532.0000    11.3000    80.7924     0.1092     2.5170   -27.2543     1.7827     2.4146     8.3368
  532.5000    11.1935    80.7880     0.1091     2.5275   -27.5558     5.2234     8.1652     8.4509
  533.0000    11.1028    82.1350     0.1090     2.5289   -27.8572     6.3424     8.3906     8.4796
  533.5000    11.1256    83.4820     0.1119     2.5264   -28.4681     7.6165     8.5036     8.5640
  534.0000    11.2101    83.4775     0.1118     2.5219   -29.0590     8.4214     8.6181     8.6169
  534.5000    11.2584    83.3994     0.1117     2.5220   -29.3606     9.5182     8.6136     8.6781
  535.0000    11.1299    82.4624     0.1124     2.5327   -29.6621    11.0113     8.5756     8.6751
  535.5000    10.9378    81.5255     0.1104     2.5267   -29.6642    12.3984     8.4868     8.7940
  536.0000    10.8155    80.4205     0.1009     2.5116   -29.2073    13.3163     8.4826     8.7913
  536.5000    10.6630    79.2012     0.0944     2.5071   -28.4713    13.7684     8.5966     8.9116
  537.0000    10.5709    78.0450     0.1019     2.5235   -27.8745    13.5733     8.5917     9.0418
  537.5000    10.5694    76.6142     0.1140     2.5381   -27.2778    13.0143     8.7074     9.4585
  538.0000    10.7190    75.7830     0.1199     2.5468   -26.3816    12.1364     8.8247    10.1632
  538.5000    10.9005    77.5805     0.1198     2.5445   -25.4854    11.6015     8.9436    10.7144
  539.0000    10.9615    79.8284     0.1167     2.5404   -29.7989    10.7990     9.1964    10.7361
  539.5000    10.9865    81.6258     0.1196     2.5388   -31.5276    10.4043     9.4441    10.3439
  540.0000    10.9245    83.8737     0.1229     2.5365   -33.3761    10.2028     9.4391     9.7994
  540.5000    10.8422    84.7703     0.1345     2.5390   -33.5778     9.9052     9.4344     9.6617
  541.0000    10.7458    83.3814     0.1381     2.5497   -33.4203     9.6938     9.4297     9.6589
  541.5000    10.6782    83.4744     0.1443     2.5474   -33.2827     9.6902     9.2954     9.7911
  542.0000    10.6465    84.8528     0.1463     2.5398   -32.9855     9.6865     9.1622     9.9342
  542.5000    10.6145    85.2033     0.1399     2.5414   -32.6882     9.6828     9.1579    10.3676
  543.0000    10.5829    83.9790     0.1585     2.5491   -32.6904     9.8146     9.2816    10.6318
  543.5000    10.6118    81.8499     0.1612     2.5537   -32.6925     9.9615     9.4062    10.5745
  544.0000    10.6405    82.7028     0.1580     2.5538   -32.6946    10.1113     9.4018    10.4113
  544.5000    10.6692    83.6367     0.1457     2.5417   -32.7666    10.2633     9.6739    10.2506
  545.0000    10.6676    84.2793     0.1365     2.5278   -32.9983    10.4176     9.9806    10.1855
  545.5000    10.6348    84.7252     0.1272     2.5185   -33.0004    10.4997    10.7630    10.1826
  546.0000    10.5978    84.2698     0.1210     2.5115   -33.0026    10.6416    11.2940    10.1797
  546.5000    10.5423    84.2654     0.1212     2.5188   -32.7057    10.6375    11.6208    10.1768
  547.0000    10.5408    83.8106     0.1335     2.5304   -32.7077    10.6335    11.6994    10.3160
  547.5000    10.5393    83.3558     0.1428     2.5315   -32.4104    10.4829    11.5318    10.3129
  548.0000    10.5494    82.4024     0.1470     2.5255   -32.1129    10.4789    11.0573    10.3098
  548.5000    10.5967    81.4339     0.1608     2.5286   -31.8057    10.3302    10.7501    10.4512
  549.0000    10.6413    80.6401     0.1828     2.5396   -31.5183    10.1837    10.5972    10.4476
  549.5000    10.6541    82.2237     0.2174     2.5546   -31.5205    10.1338    10.4464    10.4445
  550.0000    10.6828    83.6336     0.2386     2.5547   -31.5227    10.0352    10.4413    10.4409
  550.5000    10.7115    83.7802     0.2506     2.5533   -31.5248    10.0312    10.4707    10.4379
  551.0000    10.7703    82.2102     0.2536     2.5473   -31.8263    10.0265    10.7738    10.2912
  551.5000    10.7990    83.1141     0.2504     2.5367   -32.1283    10.0227    10.8681    10.1466
  552.0000    10.8882    82.9254     0.2442     2.5307   -32.1303     9.8807    10.7845    10.0039
  552.5000    10.9778    81.6049     0.2410     2.5186   -32.1323     9.8770    10.5598     9.8632
  553.0000    11.0061    80.3604     0.2479     2.5125   -32.1344     9.8732    10.7020     9.8240
  553.5000    11.0395    79.8559     0.2560     2.4988   -32.1364     9.8693    10.9974     9.7215
  554.0000    11.1005    80.7748     0.2528     2.4591   -32.1386     9.7293    11.3009     9.7186
  554.5000    11.1705    81.4099     0.2504     2.4239   -32.1407     9.7254    11.4531     9.7157
  555.0000    11.2420    82.2953     0.2183     2.3860   -32.1429     9.6609    10.9672     9.7124
  555.5000    11.1534    83.1847     0.1704     2.4014   -32.1450     9.6580    10.6483     9.7096
  556.0000    11.0268    83.6206     0.1064     2.4378   -32.1471     9.7138    10.3390     9.7069
  556.5000    10.9304    84.5084     0.1033     2.4659   -31.8499     9.7095     9.9859     9.7041
  557.0000    10.7822    84.9459     0.1092     2.5042   -31.8523     9.7059     9.7461     9.7013
