~VERSION INFORMATION
 VERS.                2.0:   CWLS LOG ASCII STANDARD - VERSION 2.0
 WRAP.                 NO:   ONE LINE PER DEPTH STEP
~WELL INFORMATION
#MNEM.UNIT      DATA TYPE    INFORMATION
#----------   ------------   ------------------------------
 STRT.F            0.0000:   START DEPTH
 STOP.F         4700.0000:   STOP DEPTH
 STEP.F            0.5000:   STEP LENGTH
 NULL.          -999.2500:   NO VALUE
 COMP. LAWRENCE ALLISON & ASSOCIATES:   COMPANY
 WELL. LAWRENCE NPR 3 "X" #33-23:   WELL
 FLD .                NPR:   FIELD
 LOC .      S23 T38N R78W:   LOCATION
 CNTY.            NATRONA:   COUNTY
 STAT.            WYOMING:   STATE
 CTRY. UNITED STATES OF AMERICA:   COUNTRY
 SRVC.      DRESSER ATLAS:   SERVICE COMPANY
 DATE.        12-NOV-1984:   LOGDATE
 API .     49025109930000:   API NUMBER
~CURVE INFORMATION
#MNEM.UNIT       API CODE    CURVE DESCRIPTION
#----------   ------------   ------------------------------
 DEPT.F                  :   
 TEND.LBS    45 635 01 00:   TENSION FROM DENSITY LOG
 CALD.IN     45 280 60 00:   CALIPER FROM DENSITY LOG
 CORR.G/C3   45 356 01 00:   DENSITY CORRECTION
 DEN .G/C3   45 350 01 00:   BULK DENSITY
 CNC .DEC    42 890 03 00:   NEUTRON PORISITY SANDSTONE
 SPR .MV     07 010 01 00:   SPONTANEOUS POTENTIAL
 GRR .GAPI   07 310 01 00:   GAMMA RAY FROM RESISTIVITY
 RFOC.OHMM   07 220 01 00:   RESISTIVITY FOCUSED LOG RES.
 ILM .OHMM   07 120 44 00:   INDUCTION LOG MEDIUM RESISTIVITY
 ILD .OHMM   07 120 46 00:   INDUCTION LOG DEEP RESISTIVITY
 TENS.LBS    60 635 01 00:   TENSION FROM SONIC LOG
 DT  .US/F   60 520 00 00:   DELTA TIME
 TENR.LBS    07 635 01 00:   TENSION
~PARAMETER INFORMATION
#MNEM.UNIT          VALUE    DESCRIPTION
#----------   ------------   ------------------------------
 EKB .F         5308.0000:   Kelly bushing
 EGL .F         5296.0000:   Ground level
 EDF .F            0.0000:   Drilling floor
 EPD .F            0.0000:   Permanent datum
 TD  .F         4695.0000:   Total depth
 DATE.        12-NOV-1984:   Date logged
 CLNT.            A2DTECH:   Client Code
 SL  . 1415' FNL & 1874' FWL:   Surface Location
 PD  .                 GL:   Permanent Datum
 LMF .                 KB:   Log Measured From
 DMF .                 KB:   Drilling Measured From
 DAPD.F                12:   Feet Above Permanent Datum
 DD  .F              4695:   Depth driller
 DL  .F              4694:   Depth logger
 BLI .F              4691:   Bottom log interval
 TLI .F              1205:   Top log interval
 CS1 .IN            8.625:   Casing size
 CBD1.     8.625" @ 1206':   Casing driller 1
 CBL1.F              1205:   Casing logger 1
 BS1 .IN            7.875:   Bit size
 BSD1.F              4695:   Depth drilled with bit1
 DFT .     GFL/KCL/STAFLO:   Type fluid in hole
 DFD .                9.2:   Density
 DFV .                 45:   Viscosity
 DFPH.                  8:   pH
 DFL .                 10:   Fluid loss
 MSS .           FLOWLINE:   Source of sample
 RMS .OHMM            .51:   Rm
 MST .F                72:   Rm Meas. temp.
 RMF .OHMM            .43:   Rmf
 MFST.F                70:   Rmf Meas. temp.
 RMC .OHMM            .64:   Rmc
 MCST.F                72:   Rmc Meas. temp.
 MFSS.               MEAS:   Source Rmf.
 MCSS.               CALC:   Source Rmc.
 RMB .OHMM           .272:   Rm. at BHT
 BHT .F               135:   BHT.
 TCS .HRS               4:   Time Circ. stopped
 MRT .F               135:   Maximum recorded temp.
 LUN .               6274:   Logging unit number
 LUL .               GLTE:   Logging unit location
 ENGI.             RAUTIO:   Recorded By
 ORIG.           5" PRINT:   Origin of data
 UWI .     49025109930000:   Unique Well ID
 DICO. A2D TECHNOLOGIES, INC.:   Digitizing Company
~OTHER INFORMATION
~A    DEPT    TEND       CALD       CORR        DEN        CNC        SPR         GRR      RFOC        ILM        ILD       TENS         DT       TENR   
# ...
 4680.0000   446.4700     7.8660    -0.0060     2.4010     0.1850   -13.2390  -999.2500    10.5260    11.6540    11.3060   480.3540  -999.2500   484.5150
 4680.5000   454.5550     7.8630     0.0060     2.4080     0.1870   -12.9580  -999.2500    11.6220    12.8500    12.2290   484.2610  -999.2500   487.8350
 4681.0000   462.6400     7.8610     0.0340     2.4210     0.1850   -13.0810  -999.2500    12.1510    14.0470    12.7430   488.1670  -999.2500   491.1540
 4681.5000   470.7250     7.8580     0.0590     2.4500     0.1800   -13.1940  -999.2500    12.4070    15.6080    13.0670   492.0740  -999.2500   494.4740
 4682.0000   478.8100     7.8550     0.0680     2.4770     0.1770   -13.3070  -999.2500    15.9710    15.4070    13.2380   495.9810  -999.2500   497.7930
 4682.5000   482.9320     7.8530     0.0640     2.5060     0.1770   -13.4190  -999.2500    19.2330    14.9320    13.2520   499.8870  -999.2500   501.1130
 4683.0000   489.1790     7.8530     0.0610     2.5340     0.1780   -13.5320  -999.2500    20.4720    13.8600    13.2670   503.7940  -999.2500   505.5460
 4683.5000   494.8680     7.8530     0.0580     2.5620  -999.2500   -13.6450  -999.2500    16.9180    12.7880    13.2810   507.7000  -999.2500   511.0510
 4684.0000   500.5580     7.8530     0.0550     2.5710  -999.2500   -13.7580  -999.2500    12.8600    11.7150    13.2960   511.6070  -999.2500   516.5570
 4684.5000   509.3420     7.8530     0.0520     2.5710  -999.2500   -13.8700  -999.2500    10.0920  -999.2500    13.3110   515.5130  -999.2500   522.0630
 4685.0000   520.4730     7.8530     0.0540     2.5640  -999.2500   -13.9830  -999.2500     9.9530  -999.2500    13.3250   519.4200  -999.2500   527.5680
 4685.5000   531.6050     7.8530     0.0590     2.5680  -999.2500   -14.0990  -999.2500     9.8620  -999.2500    13.3400   523.3260  -999.2500   533.0740
 4686.0000   542.7360     7.8530     0.0630     2.5760  -999.2500   -14.1290  -999.2500    10.2190  -999.2500    13.3520   527.2330  -999.2500   538.5790
 4686.5000   553.8680     7.8520     0.0460     2.5900  -999.2500   -14.1300  -999.2500    10.4040  -999.2500    13.2480   531.1390  -999.2500   544.0850
 4687.0000   564.9990     7.8530     0.0310     2.6160  -999.2500   -14.1300  -999.2500    10.1850  -999.2500    13.1570   535.0460  -999.2500   549.5910
 4687.5000   576.1310     7.8520     0.0130     2.6200  -999.2500   -14.1300  -999.2500     9.9530  -999.2500    13.0660   538.9520  -999.2500   555.0960
 4688.0000   587.2620     7.8500     0.0140     2.6080  -999.2500   -14.1300  -999.2500    10.1710  -999.2500    12.9750   542.8590  -999.2500   560.6020
 4688.5000   598.3940     7.8250     0.0190     2.5960  -999.2500   -14.1300  -999.2500    10.3250  -999.2500    12.8840   546.7660  -999.2500   566.1070
 4689.0000   597.7910     7.8050     0.0240     2.5960  -999.2500   -14.1300  -999.2500     9.6350  -999.2500    12.7930   550.6720  -999.2500   571.6130
 4689.5000   587.5500     7.7810     0.0280     2.5960  -999.2500   -14.1300  -999.2500     8.9360  -999.2500    12.7020   554.5790  -999.2500   577.1180
 4690.0000   543.1730  -999.2500     0.0330     2.5740  -999.2500   -14.1300  -999.2500     7.7560  -999.2500    12.6110   558.4850  -999.2500   582.6240
 4690.5000   474.9000  -999.2500     0.0370     2.5530  -999.2500   -14.1300  -999.2500     6.5840  -999.2500    12.5210   562.3920  -999.2500   588.1300
 4691.0000   386.5460  -999.2500     0.0420  -999.2500  -999.2500   -14.1300  -999.2500     6.1670  -999.2500  -999.2500   585.0100  -999.2500   623.0640
 4691.5000   232.9320  -999.2500     0.0470  -999.2500  -999.2500   -14.1300  -999.2500     5.8430  -999.2500  -999.2500   544.7690  -999.2500   502.3620
 4692.0000   101.0410  -999.2500     0.0460  -999.2500  -999.2500   -14.1300  -999.2500  -999.2500  -999.2500  -999.2500   397.6360  -999.2500   381.6600
 4692.5000    26.5610  -999.2500     0.0330  -999.2500  -999.2500   -14.1300  -999.2500  -999.2500  -999.2500  -999.2500   272.9820  -999.2500   260.9570
 4693.0000   -47.9190  -999.2500     0.0220  -999.2500  -999.2500   -14.1300  -999.2500  -999.2500  -999.2500  -999.2500   148.3270  -999.2500   140.2550
 4693.5000  -122.3990  -999.2500     0.0160  -999.2500  -999.2500   -14.1300  -999.2500  -999.2500  -999.2500  -999.2500    23.6730  -999.2500    19.5530
 4694.0000  -199.7990  -999.2500     0.0550  -999.2500  -999.2500   -14.1300  -999.2500     5.8430  -999.2500  -999.2500  -100.9810  -999.2500  -101.1500
 4694.5000  -999.2500  -999.2500     0.0910  -999.2500  -999.2500   -14.1300  -999.2500     5.8430  -999.2500  -999.2500  -239.9400  -999.2500  -215.1050
 4695.0000  -999.2500  -999.2500     0.1010  -999.2500  -999.2500   -14.1300  -999.2500     5.8430  -999.2500  -999.2500  -260.0600  -999.2500  -215.1050
 4695.5000  -999.2500  -999.2500     0.1010  -999.2500  -999.2500   -14.1300  -999.2500     5.8430  -999.2500  -999.2500  -260.0600  -999.2500  -215.1050
 4696.0000  -999.2500  -999.2500     0.0970  -999.2500  -999.2500   -14.1300  -999.2500     5.8430  -999.2500  -999.2500  -260.0600  -999.2500  -215.1050
 4696.5000  -999.2500  -999.2500     0.0960  -999.2500  -999.2500   -14.1300  -999.2500     5.8430  -999.2500  -999.2500  -260.0600  -999.2500  -215.1050
 4697.0000  -999.2500  -999.2500     0.0960  -999.2500  -999.2500   -14.1300  -999.2500     5.8430  -999.2500  -999.2500  -260.0600  -999.2500  -215.1050
 4697.5000  -999.2500  -999.2500     0.0960  -999.2500  -999.2500   -14.1300  -999.2500     5.8430  -999.2500  -999.2500  -260.0600  -999.2500  -215.1050
 4698.0000  -999.2500  -999.2500     0.0960  -999.2500  -999.2500   -14.1300  -999.2500     5.8430  -999.2500  -999.2500  -260.0600  -999.2500  -215.1050
 4698.5000  -999.2500  -999.2500     0.0960  -999.2500  -999.2500  -999.2500  -999.2500  -999.2500  -999.2500  -999.2500  -999.2500  -999.2500  -999.2500
 4699.0000  -999.2500  -999.2500     0.0960  -999.2500  -999.2500  -999.2500  -999.2500  -999.2500  -999.2500  -999.2500  -999.2500  -999.2500  -999.2500
 4699.5000  -999.2500  -999.2500     0.0960  -999.2500  -999.2500  -999.2500  -999.2500  -999.2500  -999.2500  -999.2500  -999.2500  -999.2500  -999.2500
 4700.0000  -999.2500  -999.2500     0.0960  -999.2500  -999.2500  -999.2500  -999.2500  -999.2500  -999.2500  -999.2500  -999.2500  -999.2500  -999.2500
