~VERSION INFORMATION
 VERS.                2.0:   CWLS LOG ASCII STANDARD - VERSION 2.0
 WRAP.                 NO:   ONE LINE PER DEPTH STEP
~WELL INFORMATION
#MNEM.UNIT      DATA TYPE    INFORMATION
#----------   ------------   ------------------------------
 STRT.F          629.0000:   START DEPTH
 STOP.F         4090.0000:   STOP DEPTH
 STEP.F            0.5000:   STEP LENGTH
 NULL.          -999.2500:   NO VALUE
 COMP. LAWRENCE ALLISON & ASSOCIATES:   COMPANY
 WELL. LAWRENCE NPR 3 "SHX" #36-10:   WELL
 FLD .      NPR - WILDCAT:   FIELD
 LOC .      S10 T38N R78W:   LOCATION
 CNTY.            NATRONA:   COUNTY
 STAT.            WYOMING:   STATE
 CTRY. UNITED STATES OF AMERICA:   COUNTRY
 SRVC.      DRESSER ATLAS:   SERVICE COMPANY
 DATE.        24-DEC-1981:   LOGDATE
 API .     49025108310000:   API NUMBER
~CURVE INFORMATION
#MNEM.UNIT       API CODE    CURVE DESCRIPTION
#----------   ------------   ------------------------------
 DEPT.F                  :   
 DT  .US/F   60 520 00 00:   DELTA TIME
 TENS.LBS    60 635 01 00:   TENSION FROM SONIC
 GRR .GAPI   07 310 01 00:   GAMMA RAY FROM RESISTIVITY
 SPR .MV     07 010 01 00:   SPONTANEOUS POTENTIAL
 RFOC.OHMM   07 220 04 00:   RESISTIVITY FOCUSED LOG RES.
 RILM.OHMM   07 120 44 00:   INDUCTION LOG MEDIUM RESISTIVITY
 RILD.OHMM   07 120 46 00:   DEEP INDUCTION RESISTIVITY
 TENR.LBS    07 635 01 00:   TENSION FROM RESISTIVITY
 NPHI.DEC    42 890 03 00:   NEUTRON POROSITY SANDSTONE
 RHOB.G/C3   45 350 01 00:   BULK DENSITY
 CORR.G/C3   45 356 01 00:   DENSITY CORRECTION
 TEND.LBS    45 635 01 00:   TENSION FROM DENSITY LOG
 CALD.IN     45 280 60 00:   CALIPER FROM DENSITY LOG
~PARAMETER INFORMATION
#MNEM.UNIT          VALUE    DESCRIPTION
#----------   ------------   ------------------------------
 EKB .F         5234.0000:   Kelly bushing
 EGL .F         5224.0000:   Ground level
 EDF .F         5233.0000:   Drilling floor
 EPD .F            0.0000:   Permanent datum
 TD  .F         4100.0000:   Total depth
 DATE.        24-DEC-1981:   Date logged
 CLNT.            A2DTECH:   Client Code
 SL  . 1798' FSL & 1455' FWL:   Surface Location
 PD  .                 GL:   Permanent Datum
 DAPD.F                10:   Feet Above Permanent Datum
 DD  .F              4100:   Depth driller
 DL  .F              4082:   Depth logger
 BLI .F              4074:   Bottom log interval
 TLI .F              2300:   Top log interval
 CS1 .IN            9.625:   Casing size
 CBD1.      9.625" @ 650':   Casing driller 1
 BS1 .IN            7.875:   Bit size
 BSD1.F              4100:   Depth drilled with bit1
 DFT .            KCL/GEL:   Type fluid in hole
 DFD .                9.1:   Density
 DFV .                 60:   Viscosity
 DFPH.                  8:   pH
 DFL .                 12:   Fluid loss
 MSS .           FLOWLINE:   Source of sample
 RMS .OHMM           .536:   Rm
 RMF .OHMM           .402:   Rmf
 RMC .OHMM            067:   Rmc
 MFSS.               CALC:   Source Rmf.
 MCSS.               CALC:   Source Rmc.
 RMB .OHMM            .35:   Rm. at BHT
 BHT .F               135:   BHT.
 TCS .HRS               6:   Time Circ. stopped
 MRT .F               141:   Maximum recorded temp.
 LUL .               GLT1:   Logging unit location
 UWI .     49025108310000:   Unique Well ID
 DICO. A2D TECHNOLOGIES, INC.:   Digitizing Company
~OTHER INFORMATION
~A   DEPT       DT       TENS         GRR       SPR       RFOC       RILM       RILD       TENR       NPHI       RHOB       CORR       TEND       CALD   
# ...
 3125.0000    85.4860   -97.3820   122.2310   -32.4300     4.4500     4.0470     3.3860  -103.2010     0.2660     2.4970     0.0890   -70.5590     8.3230
 3125.5000    85.6970   -97.2100   121.6090   -32.6850     4.4500     3.9370     3.3340  -103.1290     0.2730     2.4950     0.0810   -66.5430     8.2990
 3126.0000    85.9080   -97.0380   120.0330   -32.6980     4.4500     3.8280     3.2830  -103.0570     0.2790     2.4920     0.0700   -62.5270     8.2990
 3126.5000    86.1190   -96.8660   117.5440   -32.6970     4.4500     3.7190     3.2320  -102.9850     0.2820     2.4880     0.0590   -58.5110     8.2980
 3127.0000    86.3290   -96.6940   115.4520   -32.6960     4.3530     3.6100     3.1800  -102.9130     0.2830     2.4870     0.0510   -55.3890     8.2960
 3127.5000    87.0950   -96.5220   116.2230   -32.6960     4.2560     3.5020     3.1290  -102.8410     0.2790     2.4890     0.0550   -55.6040     8.2950
 3128.0000    88.1180   -96.3500   120.1310   -32.6960     4.1590     3.4380     3.0770  -102.7690     0.2710     2.4900     0.0580   -55.8140     8.2940
 3128.5000    89.1410   -96.1790   125.0680   -32.6960     4.0620     3.3750     3.0260  -102.6970     0.2680     2.4930     0.0540   -56.0240     8.2920
 3129.0000    90.1650   -96.0070   123.4870   -32.6960     3.9480     3.3440     2.9750  -102.6240     0.2730     2.4970     0.0460   -56.2340     8.2910
 3129.5000    90.1970   -95.8350   121.4540   -32.6960     3.9880     3.3440     2.9230  -102.5520     0.2780     2.4990     0.0440   -56.4440     8.2900
 3130.0000    90.0790   -95.6630   119.3670   -32.6960     4.0370     3.3440     2.8720  -102.4800     0.2750     2.4890     0.0440   -56.6540     8.2880
 3130.5000    89.9600   -95.4910   120.8550   -32.6960     4.0870     3.3440     2.8210  -102.4080     0.2700     2.4750     0.0550   -56.8640     8.2870
 3131.0000    89.8410   -95.3190   120.6770   -32.6960     4.0960     3.3440     2.7790  -102.3360     0.2690     2.4680     0.0680   -57.0740     8.2850
 3131.5000    89.8210   -95.1470   122.6270   -32.6270     4.0790     3.3440     2.7680  -102.2640     0.2780     2.4700     0.0830   -57.2840     8.2840
 3132.0000    89.8550   -94.9750   126.4090   -32.5040     4.0660     3.3440     2.7580  -102.1920     0.2930     2.4710     0.0980   -57.4940     8.2830
 3132.5000    89.8880   -94.8780   127.2120   -32.3810     4.0580     3.3440     2.7480  -102.1200     0.2900     2.4680     0.1020   -57.7040     8.2810
 3133.0000    89.9210   -95.0180   122.7390   -32.2570     4.0580     3.3440     2.7380  -102.0480     0.2840     2.4600     0.0970   -57.9140     8.2800
 3133.5000    89.9540   -95.1570   119.3860   -32.1330     4.0580     3.2870     2.7050  -101.9760     0.2880     2.4420     0.0580   -58.1240     8.2790
 3134.0000    89.9880   -95.2960   116.8290   -32.0100     4.0580     3.2410     2.6600  -101.9040     0.2940     2.4240     0.0210   -58.3340     8.2770
 3134.5000    90.3690   -95.4350   119.3040   -31.8860     4.0210     3.1950     2.6170  -101.8320     0.2970     2.4150    -0.0240   -58.5440     8.2760
 3135.0000    90.9580   -95.5740   121.6840   -31.7630     3.9070     3.1490     2.5740  -101.7600     0.2940     2.4100    -0.0140   -58.7540     8.2740
 3135.5000    91.5470   -95.7130   124.1570   -31.6380     3.7700     3.1020     2.5310  -101.6880     0.2920     2.4110     0.0020   -58.9640     8.2730
 3136.0000    92.1370   -95.8530   129.2450   -31.5070     3.6670     3.0560     2.4880  -101.6160     0.2970     2.4160     0.0160   -59.1740     8.2720
 3136.5000    92.5350   -95.9920   133.0050   -31.7030     3.6790     3.0210     2.4440  -101.5440     0.3010     2.4210     0.0030   -59.3840     8.2700
 3137.0000    92.2110   -96.1310   133.8890   -31.9700     3.6980     3.0210     2.4010  -101.4720     0.3050     2.4260    -0.0130   -59.5940     8.2690
 3137.5000    91.8870   -96.2700   132.7380   -32.2400     3.7170     2.9940     2.3580  -101.4000     0.3080     2.4270    -0.0160   -59.8040     8.2680
 3138.0000    91.5630   -96.4090   131.6230   -32.5090     3.7350     2.9940     2.3150  -101.3270     0.2960     2.4270     0.0050   -60.0140     8.2660
 3138.5000    91.4330   -96.5490   130.5160   -32.7790     3.7350     2.9660     2.2910  -101.2550     0.2930     2.4320     0.0400   -60.2240     8.2650
 3139.0000    92.1190   -96.6880   129.3990   -33.0480     3.6410     2.9660     2.2910  -101.1830     0.2950     2.4400     0.0620   -60.4340     8.2630
 3139.5000    92.8040   -96.8270   128.2440   -33.3170     3.5310     2.9660     2.2910  -101.1110     0.2990     2.4530     0.0640   -60.6440     8.2620
 3140.0000    93.5040   -96.9660   129.0810   -33.5880     3.4060     2.9660     2.3130  -101.0390     0.2950     2.4660     0.0660   -60.8540     8.2610
 3140.5000    93.0560   -97.1050   130.3510   -33.8700     3.4660     2.9780     2.3610  -100.9670     0.2870     2.4800     0.0740   -61.0640     8.2600
 3141.0000    92.5990   -97.2440   128.1200   -33.5540     3.5970     2.9920     2.4060  -100.8950     0.2790     2.4820     0.0810   -61.2740     8.2590
 3141.5000    91.7200   -97.3840   125.3110   -33.1370     3.6670     3.2190     2.5600  -100.8230     0.2760     2.4850     0.0860   -61.4840     8.2580
 3142.0000    90.3540   -97.5230   122.4610   -32.7150     3.7350     3.4810     2.7670  -100.7510     0.2640     2.4940     0.0860   -61.6940     8.2570
 3142.5000    88.8910   -97.6620   119.6260   -32.2940     3.9800     3.7420     2.9740  -100.6790     0.2510     2.5100     0.0730   -61.9040     8.2560
 3143.0000    87.3140   -97.8010   116.7850   -31.8730     4.5000     3.9840     3.1820  -100.6070     0.2420     2.5240     0.0510   -62.1140     8.2550
 3143.5000    84.2230   -97.9400   113.7850   -31.4520     5.0200     4.0210     3.3890  -100.5350     0.2470     2.5230     0.0320   -62.3240     8.2540
 3144.0000    81.4910   -98.0800   114.0460   -31.0310     5.6560     4.0990     3.5970  -100.4630     0.2540     2.4940     0.0390   -62.5340     8.2530
 3144.5000    82.2440   -98.2190   119.0570   -30.6110     5.4650     4.3820     3.8040  -100.3910     0.2490     2.4610     0.0890   -62.7440     8.2520
 3145.0000    83.6220   -98.3580   128.0010   -30.1950     5.0570     4.6660     4.0120  -100.3190     0.2440     2.4420     0.1180   -62.9540     8.2510
 3145.5000    85.0010   -98.4970   141.1630   -29.8330     5.2890     4.9490     4.2190  -100.2470     0.2380     2.4480     0.1060   -63.1640     8.2500
 3146.0000    85.8940   -98.6360   137.6320   -30.0510     5.5990     5.2320     4.4090  -100.1750     0.2300     2.4660     0.0820   -63.3740     8.2490
 3146.5000    83.6110   -98.7750   129.1700   -30.4620     5.9090     5.5150     4.8430  -100.1030     0.2080     2.5110     0.0850   -63.5840     8.2480
 3147.0000    81.3280   -98.9150   120.7900   -30.8820     6.2180     5.7990     5.2420  -100.0300     0.2010     2.5260     0.0750   -63.7940     8.2470
 3147.5000    79.0460   -99.0540   112.7520   -31.3010     6.5280     6.0820     5.6420   -99.9580     0.2010     2.5330     0.0510   -64.0040     8.2460
 3148.0000    77.4260   -99.1930   104.4030   -31.7180     6.8380     6.3650     6.0420   -99.8860     0.2060     2.5360     0.0400   -64.2140     8.2450
 3148.5000    76.8960   -99.3320    98.4010   -32.1940     7.1280     6.6490     6.4410   -99.8140     0.2110     2.5350     0.0350   -64.4240     8.2440
 3149.0000    76.3660   -99.4710    94.5950   -32.6480     7.3710     6.9320     6.8410   -99.7420     0.2170     2.5330     0.0340   -64.6340     8.2430
 3149.5000    75.7860   -99.6110    92.2620   -33.0960     7.6140     7.2150     7.1220   -99.6700     0.2190     2.5320     0.0420   -64.8440     8.2420
 3150.0000    75.8800   -99.7500    93.2250   -33.5410     7.8820     7.5270     7.0550   -99.5980     0.2150     2.5320     0.0500   -65.0540     8.2410
 3150.5000    76.0860   -99.8890    95.9650   -33.9880     7.7220     7.5960     7.0040   -99.5260     0.2090     2.5370     0.0490   -65.2640     8.2400
