~VERSION INFORMATION
 VERS.                2.0:   CWLS LOG ASCII STANDARD - VERSION 2.0
 WRAP.                 NO:   ONE LINE PER DEPTH STEP
~WELL INFORMATION
#MNEM.UNIT      DATA TYPE    INFORMATION
#----------   ------------   ------------------------------
 STRT.F          387.0000:   START DEPTH
 STOP.F         2921.0000:   STOP DEPTH
 STEP.F            0.5000:   STEP LENGTH
 NULL.          -999.2500:   NO VALUE
 COMP.    FENIX & SCISSON:   COMPANY
 WELL.  FENIX  "A" #21-28:   WELL
 FLD .          N.P.R. #3:   FIELD
 LOC .      S28 T39N R78W:   LOCATION
 CNTY.            NATRONA:   COUNTY
 STAT.            WYOMING:   STATE
 CTRY. UNITED STATES OF AMERICA:   COUNTRY
 SRVC.       SCHLUMBERGER:   SERVICE COMPANY
 DATE.        30-APR-1977:   LOGDATE
 API .     49025103550000:   API NUMBER
~CURVE INFORMATION
#MNEM.UNIT       API CODE    CURVE DESCRIPTION
#----------   ------------   ------------------------------
 DEPT.F                  :   
 SPR .MV     07 010 01 00:   SPONTANEOUS POTENTIAL
 ILD .OHMM   07 120 46 00:   DEEP INDUCTION RESISTIVITY
 ILM .OHMM   07 120 44 00:   INDUCTION LOG MEDIUM RESISTIVITY
 LL8 .OHMM   07 220 08 00:   LATEROLOG-8 RES.
 GRD .GAPI   45 310 01 00:   GAMMA RAY FROM DENSITY LOG
 CALD.IN     45 280 60 00:   CALIPER FROM DENSITY LOG
 CORR.G/C3   45 356 01 00:   DENSITY CORRECTION
 RHOB.G/C3   45 350 01 00:   BULK DENSITY
~PARAMETER INFORMATION
#MNEM.UNIT          VALUE    DESCRIPTION
#----------   ------------   ------------------------------
 EKB .F         4977.0000:   Kelly bushing
 EGL .F         4967.0000:   Ground level
 EDF .F            0.0000:   Drilling floor
 TD  .F         2922.0000:   Total depth
 CLNT.            A2DTECH:   Client Code
 SL  . 330' FNL & 990' FWL:   Surface Location
 DATE.        30-APR-1977:   Date Logged [DD-MMM-YYYY]
 DD  .F              2915:   Depth driller
 DL  .F              2922:   Depth logger
 BLI .F              2916:   Bottom log interval
 TLI .F               394:   Top log interval
 CS1 .              8.625:   Casing size
 CBD1.      8.625" @ 390':   Casing driller 1
 CBL1.IN              394:   Casing logger 1
 BS1 .IN            7.875:   Bit size
 BSD1.F              2915:   Depth drilled with bit1
 DFT .            KCL MUD:   Type fluid in hole
 DFD .                8.9:   Density
 DFV .                 87:   Viscosity
 DFPH.                8.5:   pH
 DFL .                9.6:   Fluid loss
 MSS .                PIT:   Source of sample
 RMS .OHMM           0.25:   Rm
 MST .F                70:   Rm Meas. temp.
 RMF .OHMM           0.22:   Rmf
 MFST.F                70:   Rmf Meas. temp.
 MFSS.               MEAS:   Source Rmf.
 RMC .OHMM           0.38:   Rmc
 MCST.F                70:   Rmc Meas. temp.
 MCSS.               CALC:   Source Rmc.
 RMB .OHMM           0.09:   Rm. at BHT
 BHT .F               109:   BHT.
 TCS .HRS            1800:   Time Circ. stopped
 TLAB.HRS            2200:   Time logger at bottom
 MRT .F               109:   Maximum recorded temp.
 LUN .                711:   Logging unit number
 LUL .             CASPER:   Logging unit location
 ENGI.              SYLER:   Recorded By
 WITN.         PETTINGILL:   Witnessed by
 ORIG.           5" PRINT:   Origin of data
 UWI .     49025103550000:   Unique Well ID
 DICO. A2D TECHNOLOGIES, INC.:   Digitizing Company
 PD  .                 GL:   Permanent Datum
 EPD .F              4967:   Elevation Permanent Datum
 LMF .                 KB:   Log Measured From
 DMF .                 KB:   Drilling Measured From
 DAPD.F                10:   Feet Above Permanent Datum
~OTHER INFORMATION
~A   DEPT      SPR        ILD        ILM        LL8         GRD      CALD       CORR       RHOB   
# ...
 1561.5000   -12.1009     8.2357     8.1853     9.2247   126.6944     8.7838     0.0112     2.5522
 1562.0000   -12.0829     8.2395     8.1894     9.1027   128.4102     8.7838     0.0167     2.5568
 1562.5000   -12.0649     8.1298     8.0238     9.0448   128.8822     8.7838     0.0221     2.5630
 1563.0000   -12.0468     7.9113     7.8616     8.7424   129.0437     8.7838     0.0205     2.5762
 1563.5000   -12.0288     7.6987     7.7027     8.5660   129.8263     8.7838     0.0221     2.5676
 1564.0000   -12.0107     7.5954     7.5469     8.3955   132.6275     8.7838     0.0260     2.5506
 1564.5000   -12.1480     7.4943     7.4451     8.3410   134.4970     8.7838     0.0260     2.5633
 1565.0000   -12.2763     7.4460     7.3966     8.2879   135.1243     8.7838     0.0236     2.5700
 1565.5000   -12.2594     7.3988     7.3485     8.2352   134.8199     8.7838     0.0151     2.5674
 1566.0000   -12.2413     7.3510     7.2508     8.2409   133.1181     8.7838     0.0097     2.5551
 1566.5000   -12.2222     7.3544     7.2538     8.3028   132.0373     8.7838     0.0151     2.5490
 1567.0000   -12.3595     7.3578     7.3074     8.3640   132.6646     8.7838     0.0174     2.5583
 1567.5000   -12.4863     7.3611     7.3104     8.2545   132.9814     8.7838     0.0143     2.5591
 1568.0000   -12.4682     7.3646     7.3644     8.2019   132.6523     8.7838     0.0089     2.5505
 1568.5000   -12.4502     7.3170     7.3793     8.1497   128.9452     8.7838     0.0019     2.5288
 1569.0000   -12.4337     7.2698     7.1804     8.0980   129.0066     8.7838     0.0120     2.5342
 1569.5000   -12.5672     7.1243     7.0838     8.1025   130.5571     8.7838     0.0205     2.5482
 1570.0000   -12.5484     7.0776     6.8445     8.1069   132.1429     8.7838     0.0221     2.5629
 1570.5000   -12.5304     6.8406     6.6133     8.1678   133.4845     8.7838     0.0159     2.5753
 1571.0000   -12.5123     6.6579     6.3899     8.1724   132.3499     8.7838     0.0112     2.5745
 1571.5000   -12.6455     6.5362     6.0050     8.1769   130.1760     8.7838     0.0143     2.5598
 1572.0000   -13.0800     6.3919     5.6043     8.1814   129.4655     8.7834     0.0190     2.5350
 1572.5000   -13.3635     5.6064     5.3034     7.9627   129.3164     8.7683     0.0291     2.5256
 1573.0000   -13.4962     5.1617     5.0888     6.6997   129.7900     8.7672     0.0492     2.5303
 1573.5000   -13.4780     4.9539     4.9512     5.2962   130.8831     8.7527     0.0570     2.5311
 1574.0000   -13.4599     4.8874     4.9185     4.8425   131.6657     8.7372     0.0252     2.5062
 1574.5000   -13.5928     4.9584     5.2012     5.3760   131.8256     8.7350     0.0314     2.4946
 1575.0000   -13.4238     5.0298     5.6549     6.5309   131.0569     8.7216     0.0461     2.5721
 1575.5000   -13.4057     5.1734     6.5017     7.3007   129.3550     8.7031     0.0360     2.5752
 1576.0000   -13.2368     5.4706     7.6374     7.9382   127.1873     8.6905     0.0260     2.5512
 1576.5000   -12.9170     6.0722     8.1851     8.3953   116.6345     8.6594     0.0182     2.5535
 1577.0000   -12.8910     7.0259     8.5291     8.6361   106.0816     8.6594     0.0143     2.5504
 1577.5000   -12.5690     7.6912     8.6513    11.1670   103.1360     8.6594     0.0097     2.5419
 1578.0000   -12.3981     8.0769     8.6542    12.6576   106.4046     8.6594     0.0081     2.5364
 1578.5000   -12.2413     8.2502     8.4788    13.1111   111.8455     8.6750     0.0081     2.5318
 1579.0000   -12.2232     8.1970     8.1924    11.4204   120.7026     8.6905     0.0112     2.5286
 1579.5000   -12.2052     8.0233     7.9708     9.6090   128.1622     8.6905     0.0151     2.5286
 1580.0000   -12.1870     7.6564     7.6483     8.4867   131.4293     8.7061     0.0205     2.5317
 1580.5000   -12.1689     7.3992     7.4414     8.0334   132.2119     8.7061     0.0236     2.5395
 1581.0000   -12.1509     7.2504     7.2905     7.6043   132.0628     8.7061     0.0244     2.5480
 1581.5000   -12.1327     7.2028     7.1919     7.3494   131.6031     8.7061     0.0204     2.5488
 1582.0000   -12.1147     7.2069     7.1950     7.8811   126.4851     8.7061     0.0143     2.5472
 1582.5000   -12.2483     7.1596     7.1974     8.2202   126.0239     8.7216     0.0144     2.5464
 1583.0000   -12.5274     7.1637     7.1999     8.5740   128.5161     8.7216     0.0176     2.5464
 1583.5000   -12.5093     7.2167     7.2023     8.6984   131.0067     8.7216     0.0198     2.5472
 1584.0000   -12.6466     7.3207     7.2550     8.7032   131.9446     8.7216     0.0166     2.5480
 1584.5000   -12.6271     7.4262     7.3081     8.6479   132.2613     8.7216     0.0143     2.5495
 1585.0000   -12.7629     7.5332     7.3615     8.4746   133.0439     8.7216     0.0162     2.5503
 1585.5000   -12.8942     7.6417     7.3646     8.3625   133.8265     8.7216     0.0222     2.5526
 1586.0000   -13.0256     7.6452     7.4182     8.5430   134.1432     8.7216     0.0229     2.5627
 1586.5000   -13.0059     7.5959     7.4207     8.7273   134.1494     8.7216     0.0198     2.5658
 1587.0000   -13.1432     7.4948     7.4233     8.9156   134.3109     8.7216     0.0174     2.5595
 1587.5000   -13.1192     7.4465     7.4258     8.9826   135.0934     8.7216     0.0174     2.5533
 1588.0000   -13.1011     7.4507     7.3770     8.9265   135.8760     8.7216     0.0190     2.5494
 1588.5000   -13.0831     7.4018     7.3795     8.8072   131.0685     8.7216     0.0229     2.5556
 1589.0000   -13.0650     7.4055     7.3309     8.6319   129.2113     8.7216     0.0267     2.5665
 1589.5000   -13.0470     7.3583     7.2827     8.5178   129.6834     8.7216     0.0291     2.5657
 1590.0000   -13.0290     7.3616     7.2348     8.4625   130.3107     8.7372     0.0244     2.5711
 1590.5000   -13.0109     7.3133     7.1872     8.4683   131.2485     8.7372     0.0167     2.5626
 1591.0000   -12.9929     7.3174     7.1811     8.4729   132.1864     8.7527     0.0112     2.5510
 1591.5000   -12.9748     7.3208     7.1424     8.4776   133.2795     8.7527     0.0058     2.5409
 1592.0000   -12.9593     7.3241     7.1455     8.4822   131.1059     8.7527     0.0066     2.5277
 1592.5000   -12.9388     7.3274     7.1479     8.4869   129.7153     8.7527     0.0143     2.5253
 1593.0000   -12.9207     7.3308     7.2503     8.4916   129.2608     8.7527     0.0174     2.5571
 1593.5000   -12.9027     7.3341     7.3033     8.4963   129.4336     8.7527     0.0174     2.5657
 1594.0000   -12.8847     7.2868     7.4595     8.5009   130.0642     8.7372     0.0236     2.5711
 1594.5000   -12.8666     7.4763     7.6191     8.5648   130.5218     8.7372     0.0229     2.5641
 1595.0000   -12.8486     7.5852     7.6748     8.5695   130.5279     8.7372     0.0205     2.5571
 1595.5000   -12.8305     7.7486     7.7308     8.6338   130.0444     8.7372     0.0167     2.5532
 1596.0000   -12.9633     7.8634     7.7335     8.8814   125.9025     8.7372     0.0081     2.5485
 1596.5000   -12.9453     7.8656     7.7361     9.3928   125.2668     8.7372     0.0050     2.5408
 1597.0000   -13.2289     7.8699     7.7388     9.7970   129.9329     8.7372     0.0066     2.5377
 1597.5000   -13.2109     7.8197     7.7414     9.4686   139.1006     8.7372     0.0089     2.5361
 1598.0000   -13.3482     7.7699     8.0378     8.7178   140.5043     8.7372     0.0112     2.5361
 1598.5000   -13.3256     7.7215     8.0412     8.2521   139.4235     8.7372     0.0120     2.5376
 1599.0000   -13.3076     7.6183     7.8240     7.9755   136.9685     8.7372     0.0128     2.5400
 1599.5000   -13.2895     7.5698     7.6128     7.9247   134.0239     8.7372     0.0143     2.5423
 1600.0000   -13.2715     7.4616     7.6159     7.9291   130.5911     8.7372     0.0167     2.5454
 1600.5000   -13.2535     7.3644     7.5483     7.9126   129.1998     8.7372     0.0182     2.5469
 1601.0000   -13.2354     7.2673     7.3492     7.8961   127.8084     8.7372     0.0190     2.5461
 1601.5000   -13.2579     6.8409     6.9099     7.8346   125.6331     8.7372     0.0167     2.5406
