~VERSION INFORMATION
 VERS.                2.0:   CWLS LOG ASCII STANDARD - VERSION 2.0
 WRAP.                 NO:   ONE LINE PER DEPTH STEP
~WELL INFORMATION
#MNEM.UNIT      DATA TYPE    INFORMATION
#----------   ------------   ------------------------------
 STRT.F          218.0000:   START DEPTH
 STOP.F         2860.0000:   STOP DEPTH
 STEP.F            0.5000:   STEP LENGTH
 NULL.          -999.2500:   NO VALUE
 COMP.    FENIX & SCISSON:   COMPANY
 WELL.  FENIX "AX" #76-20:   WELL
 FLD . TEAPOT DOME NPR -3:   FIELD
 LOC .      S20 T39N R78W:   LOCATION
 CNTY.            NATRONA:   COUNTY
 STAT.            WYOMING:   STATE
 CTRY. UNITED STATES OF AMERICA:   COUNTRY
 SRVC.           BIRDWELL:   SERVICE COMPANY
 DATE.        21-AUG-1978:   LOGDATE
 API .     49025106920000:   API NUMBER
~CURVE INFORMATION
#MNEM.UNIT       API CODE    CURVE DESCRIPTION
#----------   ------------   ------------------------------
 DEPT.F                  :   
 SPR .MV     05 010 01 00:   SPONTANEOUS POTENTIAL FROM RES.
 ILD .OHMM   05 120 46 00:   INDUCTION LOG DEEP
 SN  .OHMM   05 040 16 00:   SHORT NORMAL 16"
 RHOB.G/C3   45 350 01 00:   BULK DENSITY
 CALD.IN     45 280 60 00:   CALIPER FROM DENSITY LOG
 DCOR.G/C3   45 356 01 00:   DENSITY CORRECTION
 GRD .GAPI   45 310 01 00:   GAMMA RAY FROM DENSITY LOG
~PARAMETER INFORMATION
#MNEM.UNIT          VALUE    DESCRIPTION
#----------   ------------   ------------------------------
 EKB .F         5062.0000:   Kelly bushing
 EGL .F         5052.0000:   Ground level
 EDF .F            0.0000:   Drilling floor
 EPD .F            0.0000:   Permanent datum
 TD  .F         2854.0000:   Total depth
 DATE.        21-AUG-1978:   Date logged
 CLNT.            A2DTECH:   Client Code
 SL  . 1500' FNL & 1200' FEL:   Surface Location
 PD  .                 GL:   Permanent Datum
 DD  .F              2850:   Depth driller
 DL  .F              2854:   Depth logger
 BLI .F              2848:   Bottom log interval
 CS1 .IN            8.625:   Casing size
 CBD1.      8.625" @ 200':   Casing driller 1
 CBL1.F               235:   Casing logger 1
 BS1 .IN            7.875:   Bit size
 DFT .                KCL:   Type fluid in hole
 DFD .                9.2:   Density
 DFV .                 30:   Viscosity
 DFL .                8.4:   Fluid loss
 MSS .           FLOWLINE:   Source of sample
 RMS .OHMM            1.2:   Rm
 MST .F                86:   Rm Meas. temp.
 RMF .OHMM            0.8:   Rmf
 MFST.F                68:   Rmf Meas. temp.
 RMC .OHMM            1.6:   Rmc
 MCST.F                70:   Rmc Meas. temp.
 MFSS.              PRESS:   Source Rmf.
 BHT .F               102:   BHT.
 TCS .HRS               3:   Time Circ. stopped
 MRT .F               102:   Maximum recorded temp.
 LUN .               2968:   Logging unit number
 LUL .             CASPER:   Logging unit location
 ENGI.           REYNOLDS:   Recorded By
 ORIG.           5" PRINT:   Origin of data
 UWI .     49025106920000:   Unique Well ID
 DICO. A2D TECHNOLOGIES, INC.:   Digitizing Company
 DAPD.                 12:   Feet Above Permanent Datum
 BSD1.               2850:   Depth drilled with bit1
 MCSS.               MEAS:   Source Rmc.
 TLI .                230:   Top log interval
~OTHER INFORMATION
~A   DEPT      SPR        ILD         SN       RHOB       CALD       DCOR          GRD 
# ...
 1082.5000   -78.3630     6.4900     6.7130     2.5050     8.9540     0.2510    90.1860
 1083.0000   -78.3020     6.4740     6.6440     2.5270     8.9500     0.2170    88.4110
 1083.5000   -78.2410     6.4590     6.6830     2.5480     8.9460     0.1800    89.2080
 1084.0000   -78.1790     6.4780     6.7510     2.5630     8.9420     0.1600    91.7760
 1084.5000   -78.1180     6.5310     6.8190     2.5290     8.9390     0.1630    94.2020
 1085.0000   -78.0580     6.5850     6.8870     2.5020     8.9350     0.1660    89.4130
 1085.5000   -78.0110     6.6380     6.9550     2.4910     8.9310     0.1690    83.9420
 1086.0000   -78.0290     6.6920     7.0240     2.4970     8.9420     0.1520    80.7760
 1086.5000   -78.0680     6.7450     7.0920     2.5040     8.9610     0.1310    84.4960
 1087.0000   -78.1060     6.7990     7.1610     2.4970     8.9750     0.1350    85.4510
 1087.5000   -78.1450     6.8980     7.1490     2.4890     8.9840     0.1470    87.3190
 1088.0000   -78.1830     6.8870     7.1350     2.4810     8.9930     0.1600    90.2290
 1088.5000   -78.2220     6.8780     7.1220     2.4850     9.0020     0.1640    92.6820
 1089.0000   -78.2610     6.8690     7.1090     2.4950     9.0110     0.1660    92.7250
 1089.5000   -78.2990     6.8590     7.0960     2.5050     9.0200     0.1680    92.7060
 1090.0000   -78.3380     6.8500     7.0820     2.5140     9.0290     0.1740    90.1630
 1090.5000   -78.3760     6.8410     7.0690     2.5240     9.0380     0.1870    85.0540
 1091.0000   -78.4150     6.8320     7.0560     2.5480     9.0470     0.1980    82.4680
 1091.5000   -78.4540     6.8230     7.0430     2.5500     9.0560     0.2010    82.2740
 1092.0000   -78.4920     6.8130     7.0290     2.5470     9.0650     0.2050    81.9850
 1092.5000   -78.5310     6.8040     7.0160     2.5470     9.0740     0.2000    81.8630
 1093.0000   -78.5690     6.7950     7.0030     2.5550     9.0830     0.1950    85.0730
 1093.5000   -78.6080     6.7860     6.9900     2.5620     9.0900     0.1900    90.5780
 1094.0000   -78.6140     6.7760     6.9760     2.5540     9.0860     0.1870    93.8900
 1094.5000   -78.6140     6.7670     6.9630     2.5430     9.0810     0.1950    90.7780
 1095.0000   -78.6090     6.7580     6.9500     2.5320     9.0770     0.1900    87.8400
 1095.5000   -78.6000     6.7490     6.9370     2.5220     9.0720     0.1890    84.8870
 1096.0000   -78.5920     6.7390     6.9230     2.5110     9.0680     0.1950    81.9840
 1096.5000   -78.5830     6.7300     6.9100     2.5080     9.0640     0.1890    87.3590
 1097.0000   -78.5740     6.7210     6.8980     2.5120     9.0590     0.1780    94.6730
 1097.5000   -78.5650     6.7070     6.9410     2.5150     9.0550     0.1710   102.9010
 1098.0000   -78.5560     6.7230     6.9920     2.5090     9.0500     0.1870   100.7810
 1098.5000   -78.5470     6.7630     7.0420     2.5020     9.0460     0.1940    96.8780
 1099.0000   -78.5380     6.8040     7.0930     2.4950     9.0410     0.1810    96.1230
 1099.5000   -78.5290     6.8440     7.1440     2.4960     9.0370     0.2210    96.0680
 1100.0000   -78.5210     6.8840     7.1940     2.5010     9.0330     0.2530    94.7380
 1100.5000   -78.5120     6.9240     7.2450     2.5070     9.0300     0.2830    91.1070
 1101.0000   -78.5030     6.9650     7.2960     2.5080     9.0300     0.2850    91.8130
 1101.5000   -78.4940     7.0050     7.3470     2.5100     9.0310     0.2780    91.8610
 1102.0000   -78.4850     7.0450     7.3660     2.5120     9.0320     0.2510    85.1580
 1102.5000   -78.4760     7.0950     7.3660     2.5150     9.0100     0.2160    80.0010
 1103.0000   -78.4670     7.0280     7.3660     2.5180     9.0110     0.1810    82.4400
 1103.5000   -78.4580     7.0280     7.3550     2.5150     9.0130     0.1770    82.4620
 1104.0000   -78.4500     7.0250     7.3430     2.5110     9.0150     0.1810    84.7740
 1104.5000   -78.4410     7.0130     7.3310     2.5120     9.0170     0.1810    89.2930
 1105.0000   -78.4320     7.0020     7.3190     2.5160     9.0190     0.1790    93.8580
 1105.5000   -78.4220     6.9910     7.3080     2.5210     9.0210     0.1770    96.3100
 1106.0000   -78.4050     6.9790     7.2960     2.5280     9.0230     0.1740    93.0680
 1106.5000   -78.2530     6.9680     7.2840     2.5370     9.0250     0.1740    88.4310
 1107.0000   -78.2090     6.9560     7.2730     2.5450     9.0280     0.1810    84.7820
 1107.5000   -78.2120     6.9450     7.2610     2.5520     9.0300     0.1800    84.8630
 1108.0000   -78.4030     6.9340     7.2490     2.5450     9.0320     0.1700    85.5320
 1108.5000   -78.6200     6.9220     7.2380     2.5290     9.0340     0.1700    86.5690
 1109.0000   -78.8370     6.9110     7.2310     2.5190     9.0360     0.1820    86.9480
 1109.5000   -79.0540     6.9000     7.2240     2.5200     9.0380     0.1810    86.8430
 1110.0000   -79.2700     6.8980     7.3020     2.5250     9.0400     0.1730    86.7450
 1110.5000   -79.4860     6.8980     7.2960     2.5250     9.0420     0.1650    87.0260
 1111.0000   -79.7020     6.8980     7.2760     2.5220     9.0440     0.1580    89.5720
 1111.5000   -79.8180     6.8980     7.2580     2.5190     9.0460     0.1590    92.1340
 1112.0000   -79.8180     6.8980     7.2410     2.5170     9.0480     0.1610    94.6480
 1112.5000   -79.8190     6.8980     7.2290     2.5230     9.0500     0.1640    95.9950
 1113.0000   -79.7640     6.8980     7.2300     2.5290     9.0520     0.1670    89.0430
 1113.5000   -79.6730     6.8980     7.2330     2.5350     9.0550     0.1670    86.6120
 1114.0000   -79.5820     6.8980     7.2360     2.5410     9.0570     0.1610    85.9390
 1114.5000   -79.4910     6.8980     7.2400     2.5470     9.0590     0.1550    85.3610
 1115.0000   -79.3990     6.8980     7.2430     2.5470     9.0610     0.1500    89.2070
 1115.5000   -79.3080     6.8980     7.2460     2.5320     9.0630     0.1480    94.0370
 1116.0000   -79.2160     6.8970     7.2490     2.5160     9.0650     0.1480    95.4180
 1116.5000   -79.1250     6.9650     7.2530     2.5150     9.0670     0.1500    94.6890
 1117.0000   -79.0340     6.9630     7.2560     2.5170     9.0690     0.1530    89.8380
 1117.5000   -78.9420     6.9630     7.2590     2.5130     9.0710     0.1560    84.9640
 1118.0000   -78.8510     6.9630     7.2620     2.5080     9.0710     0.1580    79.9590
 1118.5000   -78.7600     6.9680     7.2660     2.5160     9.0700     0.1580    81.0790
 1119.0000   -78.6690     6.9750     7.2690     2.5240     9.0790     0.1570    82.9730
 1119.5000   -78.6150     6.9810     7.2720     2.5280     9.0920     0.1560    84.9090
 1120.0000   -78.6150     6.9880     7.2750     2.5280     9.1040     0.1550    86.8380
 1120.5000   -78.6260     6.9940     7.2790     2.5250     9.1170     0.1540    88.7140
 1121.0000   -78.6570     7.0010     7.2820     2.5220     9.1300     0.1520    89.2810
 1121.5000   -78.6890     7.0070     7.2850     2.5190     9.1430     0.1550    82.7830
 1122.0000   -78.7200     7.0140     7.2890     2.5160     9.1560     0.1780    93.1340
 1122.5000   -78.7480     7.0200     7.2920     2.5160     9.1690     0.1810    91.1630
 1123.0000   -78.7770     7.0270     7.2950     2.5180     9.1820     0.1790    89.5150
 1123.5000   -78.8950     7.0950     7.2970     2.5210     9.1850     0.1760    88.5330
 1124.0000   -79.1990     7.0730     7.2970     2.5200     9.1550     0.1730    90.0740
 1124.5000   -79.1840     7.0510     7.2910     2.5180     9.1250     0.1740    91.2610
 1125.0000   -79.1440     7.0280     7.2820     2.5160     9.0960     0.1780    90.5230
 1125.5000   -79.1000     7.0060     7.2740     2.5160     9.0660     0.1760    86.7600
 1126.0000   -79.0580     6.9840     7.2650     2.5160     9.0260     0.1620    83.0260
 1126.5000   -79.0150     6.9610     7.2570     2.5170     8.9990     0.1670    79.2990
 1127.0000   -78.9730     6.9390     7.2480     2.5170     9.1050     0.1750    76.1360
 1127.5000   -78.9310     6.9170     7.2400     2.5070     9.2450     0.1750    79.8180
