~VERSION INFORMATION
 VERS.                2.0:   CWLS LOG ASCII STANDARD - VERSION 2.0
 WRAP.                 NO:   ONE LINE PER DEPTH STEP
~WELL INFORMATION
#MNEM.UNIT      DATA TYPE    INFORMATION
#----------   ------------   ------------------------------
 STRT.F          170.5000:   START DEPTH
 STOP.F         3160.0000:   STOP DEPTH
 STEP.F            0.5000:   STEP LENGTH
 NULL.          -999.2500:   NO VALUE
 COMP.  FENIX AND SCISSON:   COMPANY
 WELL.    FENIX "A" #85-3:   WELL
 FLD .       TEA POT DOME:   FIELD
 LOC .       S3 T38N R78W:   LOCATION
 CNTY.            NATRONA:   COUNTY
 STAT.            WYOMING:   STATE
 CTRY. UNITED STATES OF AMERICA:   COUNTRY
 SRVC.           BIRDWELL:   SERVICE COMPANY
 DATE.        20-DEC-1977:   LOGDATE
 API .     49025104450000:   API NUMBER
~CURVE INFORMATION
#MNEM.UNIT       API CODE    CURVE DESCRIPTION
#----------   ------------   ------------------------------
 DEPT.F                  :   
 CALD.IN     45 280 60 00:   CALIPER FROM DENSITY LOG
 GRD .GAPI   45 310 01 00:   GAMMA RAY FROM DENSITY LOG
 RHOB.G/C3   45 350 01 00:   BULK DENSITY
 CORR.G/C3   45 356 01 00:   DENSITY CORRECTION
 SPR .MV     05 010 01 00:   SPONTANEOUS POTENTIAL
 SN  .OHMM   05 040 00 00:   SHORT NORMAL
 ILD .OHMM   05 120 46 00:   DEEP INDUCTION RESISTIVITY
~PARAMETER INFORMATION
#MNEM.UNIT          VALUE    DESCRIPTION
#----------   ------------   ------------------------------
 EKB .F         5165.0000:   Kelly bushing
 EGL .F         5155.0000:   Ground level
 TD  .F         3151.0000:   Total depth
 DATE.        20-DEC-1977:   Date logged
 CLNT.            A2DTECH:   Client Code
 SL  . 2000' FSL & 100'FEL:   Surface Location
 PD  .                 GL:   Permanent Datum
 EPD .F              5155:   Elevation Permanent Datum
 LMF .                 KB:   Log Measured From
 DMF .                 KB:   Drilling Measured From
 DAPD.F                10:   Feet Above Permanent Datum
 DD  .F              3150:   Depth driller
 DL  .F              3151:   Depth logger
 BLI .F              3146:   Bottom log interval
 TLI .F               200:   Top log interval
 CS1 .IN            8.625:   Casing size
 CBD1.      8.625" @ 223':   Casing driller 1
 BS1 .IN            7.875:   Bit size
 BSD1.F              3150:   Depth drilled with bit1
 DFT .                KCL:   Type fluid in hole
 DFD .                8.9:   Density
 DFV .                 40:   Viscosity
 DFPH.                 11:   pH
 DFL .                7.2:   Fluid loss
 MSS .           FLOWLINE:   Source of sample
 RMS .OHMM            0.4:   Rm
 MST .F                62:   Rm Meas. temp.
 RMF .OHMM           0.48:   Rmf
 MFST.F                63:   Rmf Meas. temp.
 RMC .OHMM           0.52:   Rmc
 MCST.F                63:   Rmc Meas. temp.
 MFSS.               MEAS:   Source Rmf.
 MCSS.               MEAS:   Source Rmc.
 TCS .HRS             3.5:   Time Circ. stopped
 MRT .F               118:   Maximum recorded temp.
 LUN .               2958:   Logging unit number
 LUL .             CASPER:   Logging unit location
 ENGI.             MILLER:   Recorded By
 WITN.         HERRINGTON:   Witnessed by
 ORIG.           5" PRINT:   Origin of data
 UWI .     49025104450000:   Unique Well ID
 DICO. A2D TECHNOLOGIES, INC.:   Digitizing Company
~OTHER INFORMATION
~A   DEPT     CALD        GRD       RHOB        CORR       SPR         SN        ILD   
# ...
 2354.5000     9.3307   105.2577     2.5068     0.0071   -73.5580     9.7650     5.9824
 2355.0000     9.3314   102.6647     2.5129     0.0151   -73.5831     9.8442     5.9754
 2355.5000     9.2921   101.2716     2.5169     0.0182   -73.4096    10.0162     5.9685
 2356.0000     9.2727   101.0783     2.5149     0.0142   -73.8317    10.1912     5.9615
 2356.5000     9.2734   100.8850     2.5150     0.0153   -73.2612    10.2738     6.0113
 2357.0000     9.2541   103.2923     2.5170     0.0203   -73.2863    10.5503     6.4651
 2357.5000     9.2548   103.0975     2.5210     0.0243   -73.1128    10.8343     6.4605
 2358.0000     9.2556    97.5085     2.5251     0.0264   -73.7334    10.9222     7.0746
 2358.5000     9.2563    95.1133     2.5151     0.0174   -73.3615    11.0133     7.0713
 2359.0000     9.2770    92.3210     2.4991     0.0074   -73.1880    11.2057     7.3239
 2359.5000     9.2777    90.7297     2.4952     0.0065   -73.2131    11.2966     7.3833
 2360.0000     9.2985    93.3342     2.5052     0.0075   -73.2381    11.4939     7.3747
 2360.5000     9.3192    96.3398     2.5152     0.0176   -72.8661    11.2703     7.5036
 2361.0000     9.3199    97.7459     2.5253     0.0286   -72.6927    11.2572     7.6347
 2361.5000     9.3206    94.1542     2.5434     0.0316   -72.5192    11.2441     7.8402
 2362.0000     9.3013    91.1623     2.5414     0.0337   -72.5443    11.2310     7.8329
 2362.5000     9.3021    88.5704     2.5354     0.0347   -72.5643    11.3220     8.0438
 2363.0000     9.3028    86.5783     2.5314     0.0388   -72.3909    11.5198     8.1052
 2363.5000     9.3035    85.5857     2.5255     0.0408   -71.8354    11.8299     8.0996
 2364.0000     9.2842    85.5926     2.5395     0.0519   -71.8404    11.9258     8.1672
 2364.5000     9.2849    85.9993     2.5516     0.0629   -71.8705    11.9119     8.2315
 2365.0000     9.2856    86.8058     2.5556     0.0760   -72.0941    11.8981     8.2219
 2365.5000     9.2664    88.0120     2.5657     0.0910   -72.1192    11.7749     8.4341
 2366.0000     9.2671    84.2226     2.5637     0.1061   -72.1392    11.6530     8.4282
 2366.5000     9.2678    84.8278     2.5737     0.0921   -72.7749    11.6395     8.2642
 2367.0000     9.2485    85.4344     2.5237     0.0571   -72.7899    11.3080     7.8819
 2367.5000     9.2492    84.8417     2.4937     0.0251   -73.2120    11.1910     7.5871
 2368.0000     9.2500    84.4489     2.4837     0.0181   -73.8326    10.8723     7.4395
 2368.5000     9.2707    85.2539     2.4737     0.0202   -74.0562    10.8597     7.3668
 2369.0000     9.2714    86.2601     2.5018     0.0222   -74.0812    10.6484     7.2905
 2369.5000     9.2721    88.0657     2.5079     0.0242   -74.1063    10.7347     7.2150
 2370.0000     9.2728    88.6721     2.5259     0.0203   -74.1314    10.4291     7.0096
 2370.5000     9.2736    89.6782     2.5360     0.0233   -73.7594    10.3211     6.7473
 2371.0000     9.2743    97.8824     2.4920     0.0193   -73.7844    10.2143     6.6790
 2371.5000     9.2549    99.0841     2.4800     0.0214   -73.6110    10.0155     6.3684
 2372.0000     9.2556   106.8840     2.4840     0.0254   -73.4375     9.7304     6.1302
 2372.5000     9.2563   106.8906     2.4900     0.0275   -73.4626     9.7190     6.0667
 2373.0000     9.2570   107.0969     2.4901     0.0295   -73.4877     9.6184     5.6264
 2373.5000     9.2577   107.5030     2.4961     0.0316   -73.3142     9.5189     5.6199
 2374.0000     9.2785   109.7062     2.5022     0.0356   -73.3393     9.8658     5.7181
 2374.5000     9.2792   106.9166     2.5082     0.0457   -73.3593     9.7660     5.9829
 2375.0000     9.2999   112.5176     2.5083     0.0477   -73.3844    10.3107     6.2553
 2375.5000     9.3006   119.7156     2.5023     0.0487   -73.2109    11.2958     6.4833
 2376.0000     9.3213   123.1196     2.4923     0.0438   -73.2360    11.8162     6.8449
 2376.5000     9.3220   126.5210     2.4843     0.0378   -73.0625    11.9065     7.2266
 2377.0000     9.3028   129.5240     2.4723     0.0478   -73.0876    11.7887     7.8460
 2377.5000     9.3039   131.1283     2.4764     0.0549   -72.9141    11.3477     7.7630
 2378.0000     9.3242   128.1376     2.4924     0.0469   -72.9392    11.0246     7.6182
 2378.5000     9.3249   122.5524     2.4745     0.0309   -72.9642    10.6121     7.5393
 2379.0000     9.3256   123.1542     2.4745     0.0360   -72.7908    10.1235     7.1243
 2379.5000     9.3264   126.5577     2.4805     0.0300   -72.8158     9.7425     6.5480
 2380.0000     9.3271   135.5544     2.4826     0.0300   -72.4439     8.8701     5.7770
 2380.5000     9.3278   140.5532     2.4526     0.0181   -72.6674     8.6976     5.0967
 2381.0000     9.3085   144.3544     2.4466     0.0211   -72.4940     8.2189     4.6331
 2381.5000     9.3092   148.3540     2.4486     0.0302   -72.5190     7.8386     4.5884
 2382.0000     9.3300   149.3584     2.4587     0.0352   -72.3456     7.5454     4.2929
 2382.5000     9.3307   154.1613     2.4867     0.0423   -72.3706     7.3986     4.0943
 2383.0000     9.3314   151.9664     2.4988     0.0323   -72.1922     7.1879     4.0538
 2383.5000     9.3521   149.5751     2.4688     0.0273   -72.2172     7.1795     3.7587
 2384.0000     9.3528   148.5821     2.4688     0.0213   -72.2423     7.1712     3.6856
 2384.5000     9.3335   150.5851     2.4749     0.0174   -72.2674     7.1628     3.6821
 2385.0000     9.3343   145.7973     2.4889     0.0214   -72.0939     7.1545     3.9228
 2385.5000     9.3550   133.8197     2.5070     0.0295   -72.1190     7.2125     3.9564
 2386.0000     9.3557   125.4388     2.5271     0.0215   -72.3425     7.1378     4.0237
 2386.5000     9.3564   121.8501     2.5191     0.0165   -71.9706     7.1957     4.0563
 2387.0000     9.3570   121.4568     2.5191     0.0216   -71.9956     7.1212     4.0892
 2387.5000     9.4177   124.8593     2.5392     0.0246   -71.8222     7.0475     4.0844
 2388.0000     9.4983   124.8630     2.5532     0.0236   -71.6487     6.8468     4.1176
 2388.5000     9.5590   123.0718     2.5513     0.0217   -71.6738     6.8389     4.0749
 2389.0000     9.6197   120.6817     2.5493     0.0227   -71.5003     6.7681     4.0702
 2389.5000     9.6804   115.8966     2.5614     0.0258   -71.3269     6.6980     4.0664
 2390.0000     9.7411   113.9061     2.5674     0.0258   -71.1534     6.5073     4.0617
 2390.5000     9.7618   113.1124     2.5674     0.0268   -70.9799     6.5601     4.0946
 2391.0000     9.7825   111.9207     2.5735     0.0219   -70.4044     6.5524     4.0522
 2391.5000     9.8831   112.5274     2.5715     0.0169   -70.4295     6.5448     4.0851
 2392.0000     9.9038   115.1282     2.5636     0.0149   -70.4545     6.5979     4.1182
 2392.5000     9.9045   116.9353     2.5596     0.0170   -70.0826     6.6514     4.0756
 2393.0000     9.9052   114.3423     2.5536     0.0200   -69.9091     6.5825     4.1086
 2393.5000     9.9059   113.1507     2.5516     0.0190   -69.7356     6.5764     4.0661
 2394.0000     9.9266   113.5563     2.5477     0.0131   -69.7607     6.4485     4.0240
 2394.5000     9.9273   113.9620     2.5397     0.0151   -69.5872     6.3802     3.9823
 2395.0000     9.9280   118.7599     2.5237     0.0232   -69.4138     6.2561     3.9411
 2395.5000     9.9287   116.1708     2.5257     0.0272   -69.2403     6.0779     3.8644
 2396.0000     9.9494   115.7778     2.5418     0.0272   -69.2654     5.9049     3.7184
 2396.5000     9.9501   114.7860     2.5398     0.0253   -68.8934     5.8438     3.5477
 2397.0000     9.9508   114.5927     2.5339     0.0273   -68.7199     5.5734     3.3828
 2397.5000     9.9715   112.8024     2.5499     0.0334   -68.7400     5.5157     3.2562
 2398.0000     9.9722   109.6148     2.5540     0.0354   -68.3680     5.3586     3.1928
 2398.5000     9.9530   108.2239     2.5460     0.0375   -68.5916     5.2544     3.1598
 2399.0000     9.9537   107.8312     2.5460     0.0415   -68.4181     5.1522     3.1561
 2399.5000     9.9743   107.4384     2.5521     0.0425   -68.2447     5.1462     3.1524
