~VERSION INFORMATION
 VERS.                2.0:   CWLS LOG ASCII STANDARD - VERSION 2.0
 WRAP.                 NO:   ONE LINE PER DEPTH STEP
~WELL INFORMATION
#MNEM.UNIT      DATA TYPE    INFORMATION
#----------   ------------   ------------------------------
 STRT.F          298.0000:   START DEPTH
 STOP.F         3084.0000:   STOP DEPTH
 STEP.F            0.5000:   STEP LENGTH
 NULL.          -999.2500:   NO VALUE
 COMP. LAWERNCE ALLISON AND ASSOCIATED:   COMPANY
 WELL. LAWERNCE "TX" #77-20:   WELL
 FLD .        TEAPOT DOME:   FIELD
 LOC .      S20 T39N R78W:   LOCATION
 CNTY.            NATRONA:   COUNTY
 STAT.            WYOMING:   STATE
 CTRY. UNITED STATES OF AMERICA:   COUNTRY
 SRVC.       SCHLUMBERGER:   SERVICE COMPANY
 DATE.        22-JAN-1982:   LOGDATE
 API .     49025108840000:   API NUMBER
~CURVE INFORMATION
#MNEM.UNIT       API CODE    CURVE DESCRIPTION
#----------   ------------   ------------------------------
 DEPT.F                  :   
 CALD.IN     45 280 60 00:   CALIPER FROM DENSITY LOG
 GRD .GAPI   45 310 01 00:   GAMMA RAY FROM DENSITY LOG
 TEND.LBS    45 635 01 00:   TENSION FROM DENSITY LOG
 RHOB.G/C3   45 350 01 00:   BULK DENSITY
 NPHI.DEC    42 890 03 00:   NEUTRON POROSITY SANDSTONE
 CORR.G/C3   45 356 01 00:   DENSITY CORRECTION
 SFLU.OHMM   07 220 01 00:   SPHERICALLY FOCUSED LOG UNAVERAGED RESISTIVITY
 ILD .OHMM   07 120 46 00:   INDUCTION LOG DEEP RESISTIVITY
 ILM .OHMM   07 120 44 00:   INDUCTION LOG MEDIUM RESISTIVITY
 TENR.LBS    07 635 01 00:   TENSION
 SPR .MV     07 010 01 00:   SPONTANEOUS POTENTIAL
~PARAMETER INFORMATION
#MNEM.UNIT          VALUE    DESCRIPTION
#----------   ------------   ------------------------------
 EKB .F         5022.0000:   Kelly bushing
 EGL .F         5012.0000:   Ground level
 EDF .F         5021.0000:   Drilling floor
 TD  .F         3079.0000:   Total depth
 DATE.        22-JAN-1982:   Date logged
 CLNT.            A2DTECH:   Client Code
 SL  . 986' FSL & 779' FEL:   Surface Location
 PD  .                 GL:   Permanent Datum
 EPD .F              5012:   Elevation Permanent Datum
 LMF .                 KB:   Log Measured From
 DMF .                 KB:   Drilling Measured From
 DAPD.F                10:   Feet Above Permanent Datum
 DD  .F              3079:   Depth driller
 DL  .F              3070:   Depth logger
 BLI .F              3064:   Bottom log interval
 TLI .F               328:   Top log interval
 CS1 .IN            9.625:   Casing size
 CBD1.      9.625" @ 300':   Casing driller 1
 CBL1.F               328:   Casing logger 1
 BS1 .IN            7.875:   Bit size
 BSD1.F              3079:   Depth drilled with bit1
 DFT .           CHEM/GEL:   Type fluid in hole
 DFD .                8.9:   Density
 DFV .                 50:   Viscosity
 DFPH.               10.5:   pH
 DFL .                  8:   Fluid loss
 MSS .           FLOWLINE:   Source of sample
 RMS .OHMM           2.53:   Rm
 MST .F                49:   Rm Meas. temp.
 RMF .OHMM           2.04:   Rmf
 MFST.F                49:   Rmf Meas. temp.
 RMC .OHMM           3.80:   Rmc
 MCST.F                49:   Rmc Meas. temp.
 MFSS.               MEAS:   Source Rmf.
 MCSS.               CALC:   Source Rmc.
 RMB .OHMM           1.04:   Rm. at BHT
 BHT .F               119:   BHT.
 TCS .HRS            0330:   Time Circ. stopped
 TLAB.HRS            0800:   Time logger at bottom
 MRT .F               119:   Maximum recorded temp.
 LUN .               8043:   Logging unit number
 LUL .               CSPR:   Logging unit location
 ENGI.            PERAKIS:   Recorded By
 WITN.              SCOTT:   Witnessed by
 ORIG.           5" PRINT:   Origin of data
 UWI .     49025108840000:   Unique Well ID
 DICO. A2D TECHNOLOGIES, INC.:   Digitizing Company
~OTHER INFORMATION
~A   DEPT       CALD       GRD      TEND         RHOB       NPHI     CORR       SFLU        ILD        ILM       TENR        SPR   
# ...
 2128.0000    12.7020   110.4150  1065.9900     2.3120     0.3360     0.0940     3.6490     3.6130     3.8520  1058.8480   -24.0140
 2128.5000    12.2540   106.9950  1065.9900     2.3890     0.3470     0.0850     3.9860     3.8060     4.0850  1056.6281   -24.3380
 2129.0000    12.1930   103.1700  1065.9900     2.4600     0.3410     0.0780     4.5830     4.0000     4.3180  1054.4070   -24.3110
 2129.5000    12.1270    99.2900  1065.9900     2.4880     0.3340     0.0680     5.2840     4.1940     4.5510  1052.1870   -23.8590
 2130.0000    12.0410    95.3960  1065.9900     2.4890     0.3270     0.0400     6.0780     4.2900     4.7230  1049.9670   -23.4140
 2130.5000    11.9660    91.3890  1065.9900     2.4890     0.2990     0.0190     6.0780     4.3510     4.6810  1047.7469   -22.9770
 2131.0000    11.9650    90.6120  1065.9900     2.5040     0.2900     0.0250     5.4480     4.3830     4.5190  1045.5260   -22.6900
 2131.5000    11.9660    91.8460  1064.7469     2.5230     0.2770     0.0430     4.8570     4.3830     4.4240  1043.3060   -23.3990
 2132.0000    11.9790    95.8880  1061.6460     2.5390     0.2740     0.0590     4.1650     4.3830     4.3830  1041.0861   -24.1800
 2132.5000    12.0240    99.7680  1058.5450     2.5180     0.2940     0.0940     3.8100     4.3830     4.5210  1038.8660   -24.1290
 2133.0000    12.0690   102.1940  1055.4440     2.4610     0.3130     0.1040     4.5360     4.3830     4.6480  1036.6450   -23.7490
 2133.5000    12.1120   102.0080  1052.3430     2.3950     0.3330     0.0800     5.3510     4.3830     4.8120  1034.4250   -23.3610
 2134.0000    12.1290   100.1940  1049.2419     2.3390     0.3690     0.0470     6.0780     4.3830     4.7930  1032.2050   -22.9800
 2134.5000    12.0070    98.3660  1046.1410     2.3550     0.3550     0.0130     6.0780     4.5140     4.7680  1029.9850   -22.9220
 2135.0000    11.8880    98.1240  1043.0400     2.4160     0.3250     0.0000     5.3890     4.6970     4.8680  1027.7640   -22.8960
 2135.5000    11.7690    98.2340  1039.9380     2.4760     0.2990     0.0050     5.1380     4.8460     4.9750  1025.3810   -23.0950
 2136.0000    11.7030    97.5980  1036.8370     2.5000     0.3000     0.0110     5.3230     4.7570     5.0900  1028.4330   -23.3040
 2136.5000    11.7070    95.8310  1033.7360     2.5000     0.3010     0.0090     5.5360     4.6670     4.9490  1031.7280   -23.5180
 2137.0000    11.7100    94.0450  1030.6350     2.5010     0.2940     0.0030     5.5880     4.5780     4.7570  1035.0220   -23.5580
 2137.5000    11.7140    94.0650  1027.5341     2.5020     0.2990    -0.0020     5.3080     4.4660     4.5930  1038.3170   -23.5590
 2138.0000    11.7180    94.9900  1045.6851     2.5060     0.2930    -0.0060     4.7940     4.4860     4.6370  1041.6110   -23.5590
 2138.5000    11.7220    95.9510  1044.5710     2.5210     0.2890     0.0070     4.3020     4.5420     4.7610  1044.9060   -23.5580
 2139.0000    11.7270    97.9850  1042.3929     2.5360     0.2900     0.0300     4.7230     4.5990     4.8850  1040.4871   -23.5600
 2139.5000    11.7330   101.6000  1040.2159     2.5740     0.3100     0.0560     5.4690     4.6560     5.0090  1033.6790   -23.5620
 2140.0000    11.7370   104.0240  1038.0389     2.5600     0.3300     0.0720     6.2140     4.7790     5.1330  1026.8700   -23.8790
 2140.5000    11.7160   103.6020  1035.8610     2.5330     0.3000     0.0330     6.7360     4.9510     5.2580  1020.0610   -24.6690
 2141.0000    11.6180   100.5710  1033.6840     2.5130     0.3000     0.0070     6.5440     5.1240     5.3800  1013.2520   -24.9660
 2141.5000    11.5210    98.0440  1031.5070     2.5130     0.2770    -0.0040     6.2170     5.2960     5.5010  1006.4430   -24.6170
 2142.0000    11.4980    98.7010  1029.3290     2.5190     0.2640     0.0020     6.0220     5.4680     5.6220   999.6350   -24.3080
 2142.5000    11.4960   101.0890  1027.1520     2.5240     0.2630     0.0080     6.1700     5.5360     5.7430   992.8260   -23.9930
 2143.0000    11.4940   102.4740  1024.9750     2.5260     0.2720     0.0150     6.5350     5.6350     5.8640   986.0170   -23.7620
 2143.5000    11.4930   101.0240  1022.7970     2.5190     0.2840     0.0120     6.6740     5.6920     5.9390   998.6800   -24.1010
 2144.0000    11.4920    98.8610  1020.6200     2.5090     0.2970     0.0060     6.5440     5.7500     5.9850  1015.7020   -24.4510
 2144.5000    11.4910    96.8130  1018.4430     2.5130     0.2910     0.0010     6.3100     5.8070     6.0300  1025.3810   -24.5500
 2145.0000    11.4890    97.3420  1016.2650     2.5210     0.2770     0.0030     6.4170     5.8640     6.0760  1023.6750   -24.5540
 2145.5000    11.4880    97.9300  1014.0880     2.5280     0.2680     0.0080     6.6620     5.9220     6.1220  1021.6320   -24.5530
 2146.0000    11.4870    97.5520  1011.9110     2.5220     0.2740     0.0080     6.9080     5.9790     6.1680  1019.5900   -24.5540
 2146.5000    11.4850    97.2900  1009.7330     2.5170     0.2810     0.0080     6.9930     6.0220     6.1930  1017.5470   -24.5570
 2147.0000    11.4840    98.2440  1007.5560     2.5210     0.2780     0.0090     6.9930     5.9660     6.1930  1015.5050   -24.5300
 2147.5000    11.4830    99.1460  1005.3790     2.5300     0.2710     0.0130     6.9930     5.8820     6.0870  1013.4620   -23.9610
 2148.0000    11.4810    99.3140  1009.9780     2.5380     0.2650     0.0190     6.9930     5.7970     5.9860  1011.4190   -23.3990
 2148.5000    11.4800    96.8730  1015.6700     2.5470     0.2600     0.0250     6.7140     5.7130     5.8860  1009.3770   -22.8470
 2149.0000    11.4780    94.3990  1021.3630     2.5510     0.2630     0.0270     6.4140     5.6280     5.7860  1007.3340   -22.3670
 2149.5000    11.4800    94.6260  1027.0551     2.5460     0.2690     0.0230     5.8410     5.5430     5.6860  1005.2910   -22.8290
 2150.0000    11.5390    95.8410  1032.7480     2.5390     0.2720     0.0190     4.9490     5.4590     5.5860  1017.5750   -23.2600
 2150.5000    11.5970    97.0890  1038.4399     2.5330     0.2670     0.0240     4.9490     5.3800     5.5360  1031.5460   -23.5650
 2151.0000    11.6540    98.3390  1044.1331     2.5420     0.2770     0.0600     5.6000     5.3040     5.6400  1045.5170   -23.5580
 2151.5000    11.7110    99.0440  1044.2750     2.5270     0.2970     0.1050     6.3100     5.2270     5.6940  1059.4880   -23.5590
 2152.0000    11.7690    99.2660  1042.3370     2.4710     0.3160     0.0870     7.0580     5.1510     5.5430  1062.3350   -23.5600
 2152.5000    11.7520    99.4890  1040.3979     2.4160     0.3450     0.0140     6.7590     5.0740     5.3380  1055.4990   -23.6750
 2153.0000    11.6970    99.7120  1038.4600     2.4040     0.3260    -0.0130     6.0860     4.9980     5.1320  1048.6630   -23.8890
 2153.5000    11.6430   100.2000  1036.5210     2.4710     0.2950    -0.0020     5.4130     4.9490     5.0430  1041.8270   -24.1030
 2154.0000    11.6580   101.1890  1034.5830     2.5290     0.2740     0.0300     4.7400     5.0480     5.2470  1034.9919   -24.3180
 2154.5000    11.6770   102.3680  1032.6440     2.5560     0.2710     0.0630     4.5930     5.1880     5.4590  1028.1560   -24.5350
 2155.0000    11.6960   104.3840  1030.7061     2.5670     0.2970     0.0950     5.2270     5.3280     5.6700  1021.3200   -24.7440
 2155.5000    11.7150   105.4930  1028.7670     2.5550     0.3180     0.1230     6.2480     5.4810     5.8810  1014.4840   -24.6790
 2156.0000    11.6990   103.7150  1026.8290     2.5340     0.3360     0.1240     7.3890     5.6440     6.0920  1007.6480   -24.2570
 2156.5000    11.6630   101.0820  1024.4180     2.5110     0.3540     0.0880     8.1200     5.8010     6.3030  1012.6010   -23.8380
 2157.0000    11.6270   100.3460  1020.6130     2.4980     0.3490     0.0540     8.1200     6.0530     6.5150  1024.6639   -23.4190
 2157.5000    11.5990   102.2320  1016.8080     2.4930     0.2990     0.0210     7.7730     6.2980     6.6880  1036.7271   -23.0080
 2158.0000    11.6010   104.3980  1013.0020     2.5040     0.2750     0.0010     7.4390     6.6740     6.7480  1045.3330   -22.5510
