~VERSION INFORMATION
 VERS.                2.0:   CWLS LOG ASCII STANDARD - VERSION 2.0
 WRAP.                 NO:   ONE LINE PER DEPTH STEP
~WELL INFORMATION
#MNEM.UNIT      DATA TYPE    INFORMATION
#----------   ------------   ------------------------------
 STRT.F          466.5000:   START DEPTH
 STOP.F         3184.0000:   STOP DEPTH
 STEP.F            0.5000:   STEP LENGTH
 NULL.          -999.2500:   NO VALUE
 COMP. LAWRENCE ALLISON AND ASSOCIATES:   COMPANY
 WELL. LAWRENCE 66 "X" #3-28:   WELL
 FLD .              N P R:   FIELD
 LOC .      S28 T39N R78W:   LOCATION
 CNTY.            NATRONA:   COUNTY
 STAT.            WYOMING:   STATE
 CTRY. UNITED STATES OF AMERICA:   COUNTRY
 SRVC.      DRESSER ATLAS:   SERVICE COMPANY
 DATE.        16-APR-1986:   LOGDATE
 API .     49025111340000:   API NUMBER
~CURVE INFORMATION
#MNEM.UNIT       API CODE    CURVE DESCRIPTION
#----------   ------------   ------------------------------
 DEPT.F                  :   
 RHOB.G/C3   45 350 01 00:   BULK DENSITY
 CORR.G/C3   45 356 01 00:   DENSITY CORRECTION
 TEND.LBS    45 635 01 00:   TENSION FROM DENSITY LOG
 NPHI.DEC    42 890 03 00:   NEUTRON POROSITY SANDSTONE
 DT  .US/F   60 520 00 00:   DELTA TIME
 TENS.LBS    51 635 01 00:   TENSION
 CALR.IN     07 280 01 00:   CALIPER FROM RESISTIVITY
 SPR .MV     07 010 01 00:   SPONTANEOUS POTENTIAL
 TENR.LBS    07 635 01 00:   TENSION FROM RESISTIVITY
 RFOC.OHMM   07 220 04 00:   RESISTIVITY FOCUSED LOG RES.
 GRR .GAPI   07 310 01 00:   GAMMA RAY FROM RESISTIVITY
 RILD.OHMM   07 120 46 00:   DEEP INDUCTION RESISTIVITY
 RILM.OHMM   07 120 44 00:   INDUCTION LOG MEDIUM RESISTIVITY
~PARAMETER INFORMATION
#MNEM.UNIT          VALUE    DESCRIPTION
#----------   ------------   ------------------------------
 EKB .F         5071.0000:   Kelly bushing
 EGL .F         5059.0000:   Ground level
 TD  .F         3176.0000:   Total depth
 DATE.        16-APR-1986:   Date logged
 CLNT.            A2DTECH:   Client Code
 SL  . 1685' FEL & 1915'FSL:   Surface Location
 PD  .                 GL:   Permanent Datum
 EPD .F              5059:   Elevation Permanent Datum
 LMF .                 KB:   Log Measured From
 DD  .F              3176:   Depth driller
 DL  .F              3176:   Depth logger
 BLI .F              3174:   Bottom log interval
 TLI .F               480:   Top log interval
 CS1 .IN            8.625:   Casing size
 BS1 .IN            7.875:   Bit size
 DFT .        POLYMER KCL:   Type fluid in hole
 DFD .                  9:   Density
 DFV .                 40:   Viscosity
 DFPH.                8.5:   pH
 DFL .               10.2:   Fluid loss
 MSS .           FLOWLINE:   Source of sample
 RMS .OHMM           .226:   Rm
 MST .F                65:   Rm Meas. temp.
 RMF .OHMM           .169:   Rmf
 MFST.F                65:   Rmf Meas. temp.
 RMC .OHMM           .283:   Rmc
 MCST.F                65:   Rmc Meas. temp.
 MFSS.               CALC:   Source Rmf.
 MCSS.               CALC:   Source Rmc.
 RMB .OHMM           .118:   Rm. at BHT
 BHT .F               125:   BHT.
 TCS .HRS               5:   Time Circ. stopped
 MRT .F               125:   Maximum recorded temp.
 LUN .               6264:   Logging unit number
 LUL .           GILLETTE:   Logging unit location
 ENGI.             MILLER:   Recorded By
 WITN.             STRONG:   Witnessed by
 ORIG.           5" PRINT:   Origin of data
 UWI .     49025111340000:   Unique Well ID
 DICO. A2D TECHNOLOGIES, INC.:   Digitizing Company
 DMF .                 KB:   Drilling Measured From
 DAPD.F                12:   Feet Above Permanent Datum
 CBD1.      8.625" @ 475':   Casing driller 1
 CBL1.F               480:   Casing logger 1
 BSD1.F              3176:   Depth drilled with bit1
~OTHER INFORMATION
~A   DEPT     RHOB       CORR       TEND       NPHI         DT       TENS       CALR        SPR       TENR       RFOC         GRR      RILD       RILM   
# ...
 1896.5000  -999.2500  -999.2500  -999.2500  -999.2500  -999.2500  -999.2500    10.4490   -79.9960   -58.4670     9.4410   117.3110    10.2100    10.0240
 1897.0000  -999.2500  -999.2500  -999.2500  -999.2500  -999.2500  -999.2500    10.4480   -80.0550   -65.0000     9.5430   117.0140    10.2330    10.0460
 1897.5000  -999.2500  -999.2500  -999.2500  -999.2500  -999.2500  -999.2500    10.4450   -79.9520  -105.5000     9.6460   116.7370    10.2550    10.0680
 1898.0000  -999.2500  -999.2500  -999.2500  -999.2500  -999.2500  -999.2500    10.4420   -79.2810  -135.4800     9.7960   116.9520    10.2780    10.0900
 1898.5000  -999.2500  -999.2500  -999.2500  -999.2500  -999.2500  -999.2500    10.4390   -78.6330  -123.7000     9.7620   118.2330    10.3000    10.1120
 1899.0000  -999.2500  -999.2500  -999.2500  -999.2500  -999.2500  -999.2500    10.4360   -77.9880   -84.5500     9.7000   120.6640    10.3220    10.1340
 1899.5000  -999.2500  -999.2500  -999.2500  -999.2500  -999.2500  -999.2500    10.4340   -77.4440   -55.9880     9.6370   123.0670    10.3520    10.1630
 1900.0000  -999.2500  -999.2500  -999.2500  -999.2500  -999.2500  -999.2500    10.4310   -77.2370   -60.0190     9.5550   124.0810    10.2860    10.0980
 1900.5000  -999.2500  -999.2500  -999.2500  -999.2500  -999.2500  -999.2500    10.4270   -77.0270   -64.0500     9.4410   124.3430    10.1870     9.9780
 1901.0000  -999.2500  -999.2500  -999.2500  -999.2500  -999.2500  -999.2500    10.4220   -76.8170   -48.9200     9.5300   122.3730    10.1630     9.9950
 1901.5000  -999.2500  -999.2500  -999.2500  -999.2500  -999.2500  -999.2500    10.4170   -76.6070   -27.8800     9.6860   120.4040    10.1630    10.0240
 1902.0000  -999.2500  -999.2500  -999.2500  -999.2500  -999.2500  -999.2500    10.4120   -76.3960   -35.0000     9.7960   118.1510    10.1630    10.0540
 1902.5000  -999.2500  -999.2500  -999.2500  -999.2500  -999.2500  -999.2500    10.4040   -76.1850   -71.0000     9.7520   115.6520    10.2550    10.0830
 1903.0000  -999.2500  -999.2500  -999.2500  -999.2500  -999.2500  -999.2500    10.3940   -75.9750  -110.4500     9.7130   113.1390    10.3550    10.1130
 1903.5000  -999.2500  -999.2500  -999.2500  -999.2500  -999.2500  -999.2500    10.3830   -75.8900  -135.0000     9.5790   110.6340    10.4550    10.1430
 1904.0000  -999.2500  -999.2500  -999.2500  -999.2500  -999.2500  -999.2500    10.3720   -76.5200  -100.5730     9.4260   108.0920    10.5450    10.1600
 1904.5000  -999.2500  -999.2500  -999.2500  -999.2500  -999.2500  -999.2500    10.3710   -77.3860   -72.5200     9.3550   109.1380    10.3140     9.9120
 1905.0000  -999.2500  -999.2500  -999.2500  -999.2500  -999.2500  -999.2500    10.4010   -78.2690   -45.0000     9.4200   112.8970    10.1060     9.7960
 1905.5000  -999.2500  -999.2500  -999.2500  -999.2500  -999.2500  -999.2500    10.4330   -79.1480   -65.1000     9.4680   116.8420    10.0700     9.8570
 1906.0000  -999.2500  -999.2500  -999.2500  -999.2500  -999.2500  -999.2500    10.4640   -79.9170   -80.2400     9.5290   118.5540    10.2960     9.9000
 1906.5000  -999.2500  -999.2500  -999.2500  -999.2500  -999.2500  -999.2500    10.4940   -79.8630   -81.8000     9.4750   119.6580    10.4520     9.9440
 1907.0000  -999.2500  -999.2500  -999.2500  -999.2500  -999.2500  -999.2500    10.5110   -79.8250   -75.9560     9.3770   118.9690    10.5450     9.9780
 1907.5000  -999.2500  -999.2500  -999.2500  -999.2500  -999.2500  -999.2500    10.5290   -79.7900   -97.0000     9.2790   116.5150    10.4480     9.8410
 1908.0000  -999.2500  -999.2500  -999.2500  -999.2500  -999.2500  -999.2500    10.5470   -79.7550  -105.0000     9.1810   109.7190    10.3880     9.7280
 1908.5000  -999.2500  -999.2500  -999.2500  -999.2500  -999.2500  -999.2500    10.5390   -79.7160   -78.4550     9.1000   111.1510    10.3070     9.6160
 1909.0000  -999.2500  -999.2500  -999.2500  -999.2500  -999.2500  -999.2500    10.5250   -79.5160   -30.6360     9.2690   112.7750    10.1840     9.5230
 1909.5000  -999.2500  -999.2500  -999.2500  -999.2500  -999.2500  -999.2500    10.5100   -79.1020    -5.0000     9.0810   113.4820    10.0610     9.4990
 1910.0000  -999.2500  -999.2500  -999.2500  -999.2500  -999.2500  -999.2500    10.4960   -78.6900    -7.8000     8.9960   114.6500     9.9780     9.4750
 1910.5000  -999.2500  -999.2500  -999.2500  -999.2500  -999.2500  -999.2500    10.4810   -78.2780   -28.8400     8.9340   116.1980     9.9950     9.4410
 1911.0000  -999.2500  -999.2500  -999.2500  -999.2500  -999.2500  -999.2500    10.4670   -77.9210   -45.0000     8.9340   117.8200    10.0070     9.4980
 1911.5000  -999.2500  -999.2500  -999.2500  -999.2500  -999.2500  -999.2500    10.4530   -77.3360   -45.0000     9.0250   118.5420    10.0200     9.5750
 1912.0000  -999.2500  -999.2500  -999.2500  -999.2500  -999.2500  -999.2500    10.4380   -76.7030   -48.4150     9.1640   116.4720    10.0330     9.6450
 1912.5000  -999.2500  -999.2500  -999.2500  -999.2500  -999.2500  -999.2500    10.4300   -76.0680   -72.6920     9.3550   114.2020    10.0460     9.7150
 1913.0000  -999.2500  -999.2500  -999.2500  -999.2500  -999.2500  -999.2500    10.4300   -75.4740   -96.9690     9.2260   113.7000    10.0590     9.7960
 1913.5000  -999.2500  -999.2500  -999.2500  -999.2500  -999.2500  -999.2500    10.4300   -75.1750  -110.8670     9.0470   115.1700    10.0690     9.6700
 1914.0000  -999.2500  -999.2500  -999.2500  -999.2500  -999.2500  -999.2500    10.4300   -74.8980   -87.2000     8.8680   117.6040    10.0390     9.6160
 1914.5000  -999.2500  -999.2500  -999.2500  -999.2500  -999.2500  -999.2500    10.4300   -74.6410   -50.2000     8.6900   120.8220    10.0100     9.5630
 1915.0000  -999.2500  -999.2500  -999.2500  -999.2500  -999.2500  -999.2500    10.4300   -74.7790   -71.5380     8.8070   127.2870     9.9810     9.5090
 1915.5000  -999.2500  -999.2500  -999.2500  -999.2500  -999.2500  -999.2500    10.4210   -75.3430   -91.7690     9.0160   132.9510     9.9780     9.3550
 1916.0000  -999.2500  -999.2500  -999.2500  -999.2500  -999.2500  -999.2500    10.4090   -75.9330  -103.1800     8.9630   137.7510     9.9780     9.3870
 1916.5000  -999.2500  -999.2500  -999.2500  -999.2500  -999.2500  -999.2500    10.3960   -77.2240   -97.9200     8.8640   141.1180     9.9780     9.4470
 1917.0000  -999.2500  -999.2500  -999.2500  -999.2500  -999.2500  -999.2500    10.3840   -78.5320   -85.3650     8.7710   144.5180     9.9780     9.5070
 1917.5000  -999.2500  -999.2500  -999.2500  -999.2500  -999.2500  -999.2500    10.3710   -79.1860   -63.7060     8.7710   147.5930     9.9780     9.5670
 1918.0000  -999.2500  -999.2500  -999.2500  -999.2500  -999.2500  -999.2500    10.3590   -79.3650   -42.0470     9.0990   143.3760     9.9780     9.6270
 1918.5000  -999.2500  -999.2500  -999.2500  -999.2500  -999.2500  -999.2500    10.3370   -79.5330   -25.0000     9.4410   138.6360     9.9780     9.6900
 1919.0000  -999.2500  -999.2500  -999.2500  -999.2500  -999.2500  -999.2500    10.2820   -79.7010   -33.9290     9.3930   133.5950     9.9780     9.7520
 1919.5000  -999.2500  -999.2500  -999.2500  -999.2500  -999.2500  -999.2500    10.2300   -79.8760   -67.9650     9.3170   128.5870     9.9830     9.8250
 1920.0000  -999.2500  -999.2500  -999.2500  -999.2500  -999.2500  -999.2500    10.1770   -79.7520  -102.0000     9.2690   123.5850    10.0020     9.9000
 1920.5000  -999.2500  -999.2500  -999.2500  -999.2500  -999.2500  -999.2500    10.1490   -79.5710  -135.0000    11.0420   121.7130    10.0210     9.9370
 1921.0000  -999.2500  -999.2500  -999.2500  -999.2500  -999.2500  -999.2500    10.1250   -79.3890  -128.6860    10.9400   123.1920    10.0390     9.9740
 1921.5000  -999.2500  -999.2500  -999.2500  -999.2500  -999.2500  -999.2500    10.1000   -79.2070  -121.1710    11.0420   125.1460    10.0580     9.9990
 1922.0000  -999.2500  -999.2500  -999.2500  -999.2500  -999.2500  -999.2500    10.0750   -79.0250  -113.6570    10.4580   127.4210    10.0690    10.0230
