~VERSION INFORMATION
 VERS.                2.0:   CWLS LOG ASCII STANDARD - VERSION 2.0
 WRAP.                 NO:   ONE LINE PER DEPTH STEP
~WELL INFORMATION
#MNEM.UNIT      DATA TYPE    INFORMATION
#----------   ------------   ------------------------------
 STRT.F            0.0000:   START DEPTH
 STOP.F         3040.0000:   STOP DEPTH
 STEP.F            0.5000:   STEP LENGTH
 NULL.          -999.2500:   NO VALUE
 COMP.    FENIX & SCISSON:   COMPANY
 WELL.  FENIX "AX" #43-28:   WELL
 FLD .             TEAPOT:   FIELD
 LOC .      S28 T39N R78W:   LOCATION
 CNTY.            NATRONA:   COUNTY
 STAT.            WYOMING:   STATE
 CTRY. UNITED STATES OF AMERICA:   COUNTRY
 SRVC.              WELEX:   SERVICE COMPANY
 DATE.        20-JUL-1980:   LOGDATE
 API .     49025108450000:   API NUMBER
~CURVE INFORMATION
#MNEM.UNIT       API CODE    CURVE DESCRIPTION
#----------   ------------   ------------------------------
 DEPT.F                  :   
 GRD .GAPI   45 310 01 00:   GAMMA RAY FROM DENSITY LOG
 CALD.IN     45 280 60 00:   CALIPER FROM DENSITY LOG
 RHOB.G/C3   45 350 01 00:   BULK DENSITY
 CORR.G/C3   45 356 01 00:   DENSITY CORRECTION
 SPR .MV     07 010 01 00:   SPONTANEOUS POTENTIAL
 ILD .OHMM   07 120 46 00:   DEEP INDUCTION RESISTIVITY
 ILM .OHMM   07 120 44 00:   INDUCTION LOG MEDIUM RESISTIVITY
 SGRD.OHMM   07 220 05 00:   SHALLOW SHORT GUARD RESISTIVITY
 NEUT.CPS    35 330 30 00:   NEUTRON
~PARAMETER INFORMATION
#MNEM.UNIT          VALUE    DESCRIPTION
#----------   ------------   ------------------------------
 EKB .F         5042.0000:   Kelly bushing
 EGL .F         5032.0000:   Ground level
 EDF .F            0.0000:   Drilling floor
 TD  .F         3038.0000:   Total depth
 DATE.        20-JUL-1980:   Date logged
 CLNT.            A2DTECH:   Client Code
 SL  . 1500' FNL & 2500' FWL:   Surface Location
 PD  .                 GL:   Permanent Datum
 EPD .F              5032:   Elevation Permanent Datum
 LMF .                 KB:   Log Measured From
 DMF .                 KB:   Drilling Measured From
 DD  .F              3000:   Depth driller
 DL  .F              3038:   Depth logger
 BLI .F              3036:   Bottom log interval
 TLI .F               432:   Top log interval
 CS1 .IN            8.625:   Casing size
 CBD1.      8.625" @ 443':   Casing driller 1
 CBL1.F               432:   Casing logger 1
 BS1 .IN            7.875:   Bit size
 BSD1.F              3000:   Depth drilled with bit1
 DFT .     WATER BASE MUD:   Type fluid in hole
 DFD .                9.3:   Density
 DFV .                 45:   Viscosity
 DFPH.                  9:   pH
 DFL .                  8:   Fluid loss
 MSS .                PIT:   Source of sample
 RMS .OHMM           0.85:   Rm
 MST .F                75:   Rm Meas. temp.
 RMF .OHMM           0.68:   Rmf
 MFST.F                75:   Rmf Meas. temp.
 RMC .OHMM           1.02:   Rmc
 MCST.F                75:   Rmc Meas. temp.
 MFSS.               MEAS:   Source Rmf.
 MCSS.               MEAS:   Source Rmc.
 RMB .OHMM           0.57:   Rm. at BHT
 BHT .F               112:   BHT.
 TCS .HRS               3:   Time Circ. stopped
 MRT .F               112:   Maximum recorded temp.
 LUN .               9865:   Logging unit number
 LUL .             CASPER:   Logging unit location
 ENGI.            TOTHILL:   Recorded By
 WITN.           DINSMORE:   Witnessed by
 ORIG.     2.5", 5" PRINT:   Origin of data
 UWI .     49025108450000:   Unique Well ID
 DICO. A2D TECHNOLOGIES, INC.:   Digitizing Company
~OTHER INFORMATION
~A    DEPT     GRD       CALD       RHOB       CORR        SPR        ILD        ILM       SGRD        NEUT  
# ...
 1277.5000    77.5200     9.0870     2.4970    -0.0150   -20.3000     7.1950     7.7280     8.2950   207.6780
 1278.0000    77.5510     9.0920     2.4980    -0.0190   -20.4900     7.1950     7.7060     8.2750   209.8750
 1278.5000    77.5830     9.0560     2.5020    -0.0180   -20.6660     7.1950     7.6830     8.2530   214.7340
 1279.0000    77.6150     9.0210     2.5060    -0.0140   -20.9020     7.1950     7.6620     8.2290   200.2630
 1279.5000    77.6470     9.0080     2.5140    -0.0110   -21.1840     7.1950     7.6390     8.2110   210.7520
 1280.0000    77.6790     9.0190     2.5160    -0.0080   -21.4510     7.1950     7.6040     8.1850   222.9670
 1280.5000    77.7110     9.0300     2.5170    -0.0080   -21.7230     7.1940     7.6660     8.3710   235.4900
 1281.0000    77.7430     9.0410     2.5190    -0.0080   -21.9400     7.1950     7.8200     8.6500   256.0760
 1281.5000    77.7760     9.0470     2.5270     0.0000   -22.0190     7.2000     8.0360     8.4490   247.0280
 1282.0000    77.7980     9.0520     2.5340     0.0070   -22.0920     7.1350     7.9410     8.3390   206.6930
 1282.5000    77.6260     9.0570     2.5340     0.0060   -22.1670     7.0220     7.7820     8.2290   223.6230
 1283.0000    77.4520     9.0620     2.5340     0.0050   -22.2190     6.9350     7.6240     8.1730   219.2840
 1283.5000    77.2780     9.0670     2.5340     0.0030   -22.3320     6.9440     7.4650     8.1520   209.2280
 1284.0000    77.1050     9.0730     2.5340     0.0020   -22.0330     6.9670     7.4880     8.1310   227.8190
 1284.5000    76.9320     9.0780     2.5360     0.0050   -21.3220     6.9900     7.5270     8.1110   250.7740
 1285.0000    76.7590     9.0810     2.5400     0.0120   -21.5710     7.0130     7.5650     8.0900   233.0440
 1285.5000    76.5870     9.0810     2.5440     0.0180   -22.4750     7.0360     7.6040     8.0690   217.4940
 1286.0000    76.4130     9.0700     2.5490     0.0240   -23.1650     7.0640     7.4650     8.0360   199.4630
 1286.5000    76.2400     9.0440     2.5490     0.0250   -22.5270     7.3290     7.4740     8.0740   246.5080
 1287.0000    76.0690     9.0180     2.5490     0.0250   -21.0590     7.3290     7.4810     8.1670   225.4890
 1287.5000    75.9310     9.0100     2.5490     0.0250   -19.6730     7.1860     7.4850     8.2580   203.7070
 1288.0000    75.8050     9.0300     2.5490     0.0250   -20.0090     7.2010     7.4950     8.3480   199.4150
 1288.5000    75.6780     9.0490     2.5490     0.0250   -20.3950     7.1920     7.5020     8.3250   194.0160
 1289.0000    75.5510     9.0690     2.5490     0.0260   -20.7570     7.1940     7.5090     8.1740   226.8720
 1289.5000    75.4250     9.0880     2.5530     0.0280   -20.7430     7.1940     7.5160     8.1940   208.3040
 1290.0000    75.2980     9.1010     2.5570     0.0300   -20.7550     7.1950     7.5230     8.1880   222.1800
 1290.5000    75.1710     9.1000     2.5600     0.0320   -20.7510     7.1950     7.5300     8.1860   220.5360
 1291.0000    75.0440     9.1000     2.5600     0.0330   -20.7500     7.1950     7.5370     8.1850   206.4390
 1291.5000    74.9170     9.1000     2.5600     0.0310   -20.7490     7.1940     7.5440     8.1850   211.2670
 1292.0000    74.7900     9.1000     2.5600     0.0300   -20.7550     7.2060     7.5510     8.1850   196.4540
 1292.5000    74.6650     9.1000     2.5590     0.0300   -20.7400     7.2260     7.5590     8.1740   203.3280
 1293.0000    74.5710     9.1000     2.5580     0.0320   -20.7630     7.2460     7.5650     8.1590   210.5490
 1293.5000    74.6880     9.1000     2.5570     0.0320   -20.7520     7.2660     7.5730     8.1450   217.7500
 1294.0000    74.8010     9.1000     2.5510     0.0280   -20.6360     7.2860     7.5790     8.1310   224.3380
 1294.5000    74.9140     9.1000     2.5470     0.0220   -19.5650     7.3040     7.5870     8.1170   201.3220
 1295.0000    75.0250     9.1000     2.5410     0.0140   -18.4950     7.3270     7.5920     8.1020   215.1570
 1295.5000    75.1540     9.1000     2.5350     0.0070   -18.3780     7.3030     7.5990     8.0880   206.2990
 1296.0000    75.8070     9.1000     2.5310     0.0050   -18.3690     7.2720     7.7430     8.0730   214.5190
 1296.5000    76.5130     9.1000     2.5360     0.0080   -18.3890     7.2410     7.7200     8.0590   227.4800
 1297.0000    77.2200     9.1000     2.5320     0.0060   -18.3760     7.2090     7.6460     8.0440   213.5160
 1297.5000    77.9310     9.0910     2.5250     0.0010   -18.3870     7.1770     7.5880     8.0360   199.0530
 1298.0000    78.6630     9.0720     2.5190    -0.0040   -18.3560     7.1460     7.5550     7.4880   207.5920
 1298.5000    78.9650     9.0530     2.5190    -0.0020   -18.7020     7.1140     7.5220     6.5740   214.9010
 1299.0000    79.2580     9.0340     2.5180    -0.0010   -19.6030     7.0830     7.4870     5.6450   219.5250
 1299.5000    79.5620     9.0100     2.5140     0.0010   -20.4600     7.0390     7.4530     4.7040   215.7490
 1300.0000    79.4720     8.9650     2.5090     0.0000   -21.1170     6.9760     7.4190     3.5730   211.8920
 1300.5000    79.3530     8.9620     2.5100     0.0010   -20.9770     6.9140     7.3840     5.0460   207.1610
 1301.0000    79.2340     8.9990     2.5160     0.0030   -20.8650     6.8520     7.3500     6.8900   212.0500
 1301.5000    79.1170     9.0350     2.5190     0.0040   -20.7250     6.7900     7.1950     8.0360   228.6090
 1302.0000    78.9870     9.0630     2.5200     0.0060   -20.5940     6.7270     7.0900     7.7620   227.1110
 1302.5000    78.4540     9.0870     2.5200     0.0080   -20.4680     6.6650     6.9820     7.2830   219.7350
 1303.0000    77.8650     9.0790     2.5180     0.0060   -20.3730     6.6030     6.8740     6.7040   210.5520
 1303.5000    77.2730     9.0370     2.5080    -0.0010   -20.6660     6.4100     6.7660     6.7430   213.5670
 1304.0000    76.6780     8.9930     2.4970    -0.0080   -20.6210     5.9730     6.6580     6.8210   227.5360
 1304.5000    76.0590     8.9940     2.4870    -0.0150   -20.3280     5.5350     6.5500     6.9000   243.7870
 1305.0000    75.7630     9.0090     2.4810    -0.0200   -20.0590     5.0980     6.4420     6.9780   229.2390
 1305.5000    75.4690     9.0240     2.4800    -0.0240   -19.7880     4.7980     6.3250     7.0640   233.3150
 1306.0000    75.1620     9.0410     2.4800    -0.0210   -19.5150     4.7980     6.5950     7.5710   241.6210
 1306.5000    75.1450     9.0410     2.4860    -0.0140   -19.2450     4.7740     6.7120     8.1850   210.0680
 1307.0000    75.1460     9.0420     2.4920    -0.0070   -18.9620     4.7410     6.7510     7.2910   211.8890
 1307.5000    75.1510     9.0490     2.5000     0.0010   -18.8160     4.7080     6.7910     6.2920   222.6460
 1308.0000    75.2670     9.0790     2.5080     0.0120   -18.9630     4.6750     6.8300     5.2810   217.9930
 1308.5000    75.7240     9.0900     2.5190     0.0180   -19.0790     4.6420     6.8700     5.3750   226.5310
 1309.0000    76.1680     9.1000     2.5230     0.0230   -19.4180     4.6240     6.9090     6.4420   252.4880
 1309.5000    76.6080     9.1170     2.5260     0.0270   -19.9870     4.6240     6.9490     6.4300   235.6010
 1310.0000    76.9210     9.1350     2.5290     0.0320   -20.5520     4.9980     6.9880     6.3810   206.5130
 1310.5000    76.7950     9.1440     2.5330     0.0370   -20.7950     5.9850     7.0280     6.3250   208.9120
 1311.0000    76.6810     9.1500     2.5380     0.0420   -20.8330     6.0840     7.0670     6.4200   217.9680
 1311.5000    76.5670     9.1550     2.5390     0.0480   -20.8860     6.2040     7.1070     6.6430   227.3050
 1312.0000    76.4520     9.1600     2.5390     0.0480   -20.9400     6.3250     7.1470     6.8670   245.5360
 1312.5000    76.3360     9.1490     2.5380     0.0470   -20.9870     6.4450     7.1860     7.0900   233.0460
 1313.0000    76.2330     9.0770     2.5340     0.0390   -21.0450     6.5650     7.2260     7.3130   257.3600
 1313.5000    76.1000     9.0060     2.5320     0.0320   -21.0900     6.6850     7.2650     7.5370   253.8980
