~VERSION INFORMATION
 VERS.                2.0:   CWLS LOG ASCII STANDARD - VERSION 2.0
 WRAP.                 NO:   ONE LINE PER DEPTH STEP
~WELL INFORMATION
#MNEM.UNIT      DATA TYPE    INFORMATION
#----------   ------------   ------------------------------
 STRT.F          176.0000:   START DEPTH
 STOP.F         3442.0000:   STOP DEPTH
 STEP.F            0.5000:   STEP LENGTH
 NULL.          -999.2500:   NO VALUE
 COMP.  FENIX AND SCISSON:   COMPANY
 WELL.  FENIX "AX" #65-15:   WELL
 FLD . NAVAL PETROLEUM RESERVE #3:   FIELD
 LOC .      S15 T38N R78W:   LOCATION
 CNTY.            NATRONA:   COUNTY
 STAT.            WYOMING:   STATE
 CTRY. UNITED STATES OF AMERICA:   COUNTRY
 SRVC.       SCHLUMBERGER:   SERVICE COMPANY
 DATE.        09-APR-1981:   LOGDATE
 API .     49025108710000:   API NUMBER
~CURVE INFORMATION
#MNEM.UNIT       API CODE    CURVE DESCRIPTION
#----------   ------------   ------------------------------
 DEPT.F                  :   
 TENR.LBS    07 635 01 00:   TENSION
 SPR .MV     07 010 01 00:   SPONTANEOUS POTENTIAL
 ILD .OHMM   07 120 46 00:   INDUCTION LOG DEEP RESISTIVITY
 ILM .OHMM   07 120 44 00:   INDUCTION LOG MEDIUM RESISTIVITY
 SFL .OHMM   07 220 01 00:   SHALLOW FOCUSED LOG RESISTIVITY
 TEND.LBS    45 635 01 00:   TENSION FROM DENSITY LOG
 CALD.IN     45 280 60 00:   CALIPER FROM DENSITY LOG
 GRD .GAPI   45 310 01 00:   GAMMA RAY FROM DENSITY LOG
 RHOB.G/C3   45 350 01 00:   BULK DENSITY
 CORR.G/C3   45 356 01 00:   DENSITY CORRECTION
~PARAMETER INFORMATION
#MNEM.UNIT          VALUE    DESCRIPTION
#----------   ------------   ------------------------------
 EKB .F         5287.0000:   Kelly bushing
 EGL .F         5277.0000:   Ground level
 EDF .F            0.0000:   Drilling floor
 TD  .F         5476.0000:   Total depth
 DATE.        09-APR-1981:   Date logged
 CLNT.            A2DTECH:   Client Code
 SL  . 1945' FSL & 1161' FEL:   Surface Location
 PD  .                 GL:   Permanent Datum
 EPD .F              5277:   Elevation Permanent Datum
 LMF .                 KB:   Log Measured From
 DMF .                 KB:   Drilling Measured From
 DAPD.F                10:   Feet Above Permanent Datum
 DD  .F              5476:   Depth driller
 DL  .F              5436:   Depth logger
 BLI .F              5430:   Bottom log interval
 TLI .F               190:   Top log interval
 CS1 .IN            8.625:   Casing size
 CBD1.      8.625" @ 190':   Casing driller 1
 CBL1.F               190:   Casing logger 1
 BS1 .IN            7.875:   Bit size
 BSD1.F              5476:   Depth drilled with bit1
 DFT .           CHEM GEL:   Type fluid in hole
 DFD .                9.1:   Density
 DFV .                 42:   Viscosity
 DFPH.                9.5:   pH
 DFL .                  8:   Fluid loss
 MSS .            MUDTANK:   Source of sample
 RMS .OHMM           1.62:   Rm
 MST .F                71:   Rm Meas. temp.
 RMF .OHMM           1.45:   Rmf
 MFST.F                71:   Rmf Meas. temp.
 MFSS.               MEAS:   Source Rmf.
 RMB .OHMM           1.02:   Rm. at BHT
 BHT .F               116:   BHT.
 TCS .HRS            1600:   Time Circ. stopped
 TLAB.HRS            1830:   Time logger at bottom
 MRT .F               116:   Maximum recorded temp.
 LUN .               8035:   Logging unit number
 LUL .               CSPR:   Logging unit location
 ENGI.            BEATTIE:   Recorded By
 WITN.              EIVAS:   Witnessed by
 ORIG.           5" PRINT:   Origin of data
 UWI .     49025108710000:   Unique Well ID
 DICO. A2D TECHNOLOGIES, INC.:   Digitizing Company
~OTHER INFORMATION
~A   DEPT     TENR        SPR        ILD        ILM        SFL       TEND       CALD         GRD      RHOB       CORR   
# ...
 3191.0000   701.5810   -18.6290     6.4030     6.2890     8.5520   715.5720     8.2650   130.6000     2.5460     0.0050
 3191.5000   701.6450   -18.6330     6.0680     5.9610     8.2430   715.8540     8.2710   133.5130     2.5470     0.0080
 3192.0000   701.8900   -18.7730     5.6310     5.6010     7.9330   716.1360     8.2780   137.0130     2.5460     0.0120
 3192.5000   702.1350   -18.9260     5.1940     5.1840     7.3030   716.4170     8.2920   143.8340     2.5430     0.0180
 3193.0000   702.3800   -19.0830     4.7570     4.7680     6.5160   716.6990     8.3070   150.6840     2.5330     0.0250
 3193.5000   702.6250   -19.2390     4.3200     4.3510     5.6520   716.9810     8.3220   156.2450     2.5190     0.0400
 3194.0000   702.8700   -19.3930     3.8830     3.9340     4.6010   717.2620     8.3380   168.1980     2.5030     0.0570
 3194.5000   703.1150   -19.5480     3.5810     3.5810     3.5490   717.5440     8.4260   180.4790     2.4700     0.0680
 3195.0000   703.3590   -19.7160     3.5810     3.5810     3.0400   717.8260     8.5130   185.1870     2.4260     0.0550
 3195.5000   703.6040   -19.8130     3.7190     3.8520     2.8780   718.1070     8.6000   176.5640     2.4140     0.0300
 3196.0000   703.8490   -19.8020     4.1420     4.2270     3.4480   718.3890     8.5870   160.9630     2.4150     0.0070
 3196.5000   704.0940   -19.8040     4.5650     4.6030     5.2700   718.6710     8.4290   143.5450     2.4830     0.0050
 3197.0000   704.3390   -19.8050     4.9880     4.9780     7.1510   718.9520     8.3390   136.5830     2.5230     0.0050
 3197.5000   704.5840   -19.8040     5.4110     5.3540     7.7700   719.2340     8.3430   129.6610     2.5410     0.0050
 3198.0000   704.8290   -19.8040     5.8340     5.7290     7.9890   719.5160     8.3470   128.3530     2.5460     0.0060
 3198.5000   705.0740   -19.8040     6.2580     6.1050     8.2090   719.7970     8.3520   129.1640     2.5530     0.0110
 3199.0000   705.3190   -19.8040     6.6810     6.4110     8.4280   720.0790     8.3560   130.5290     2.5550     0.0160
 3199.5000   705.5630   -19.8040     6.5200     6.3750     8.6480   720.3600     8.3600   131.4220     2.5560     0.0190
 3200.0000   705.8080   -19.8040     6.4960     6.3440     8.7370   720.6420     8.3650   132.6500     2.5590     0.0210
 3200.5000   706.0530   -19.8040     6.4730     6.3140     8.3930   720.9240     8.3690   134.6090     2.5670     0.0230
 3201.0000   706.2980   -19.8040     6.4490     6.2830     8.1070   721.2050     8.3740   138.0410     2.5700     0.0250
 3201.5000   706.5430   -19.8040     6.4260     6.2520     7.8210   721.4870     8.3790   140.6630     2.5680     0.0220
 3202.0000   706.7880   -19.8040     6.4020     6.2210     7.5340   721.7690     8.3870   142.0670     2.5590     0.0190
 3202.5000   707.0330   -19.8040     6.3780     6.1910     7.2480   722.0500     8.3940   142.0050     2.5340     0.0040
 3203.0000   707.2780   -19.8040     6.3550     6.1600     7.1510   722.3320     8.4020   140.8720     2.5250     0.0000
 3203.5000   707.5230   -19.8040     6.3310     6.1290     7.1510   722.6140     8.4090   139.9130     2.5290     0.0010
 3204.0000   707.7670   -19.8040     6.3080     6.0980     7.2830   722.8950     8.4170   139.4700     2.5400     0.0010
 3204.5000   708.0120   -19.8040     6.2960     6.0710     7.8010   723.1770     8.4240   139.0090     2.5620     0.0080
 3205.0000   708.2570   -19.8040     6.2960     6.0710     8.4240   723.4590     8.4310   138.6400     2.5770     0.0150
 3205.5000   708.5020   -19.8040     6.2960     6.0710     8.4240   724.2730     8.4390   139.9200     2.5790     0.0210
 3206.0000   708.7470   -19.8040     5.8320     5.7480     8.4240   725.8090     8.4460   146.4010     2.5740     0.0270
 3206.5000   708.9920   -19.8040     5.4500     5.4010     8.4240   727.3450     8.4540   150.2230     2.5600     0.0330
 3207.0000   709.2370   -19.8040     5.0690     5.0330     7.8470   728.8820     8.4610   160.5460     2.5470     0.0360
 3207.5000   709.4820   -19.8040     4.6880     4.6660     6.6770   730.4180     8.4690   171.5130     2.5340     0.0380
 3208.0000   709.7270   -19.8050     4.3070     4.2980     5.5060   731.9540     8.4840   182.2760     2.5140     0.0350
 3208.5000   709.9710   -19.8040     3.8510     3.7140     4.3360   733.5330     8.4580   184.6630     2.4990     0.0200
 3209.0000   710.2160   -19.8030     4.1020     3.8730     3.5160   731.8330     8.4090   171.7740     2.5050     0.0060
 3209.5000   710.4610   -19.8110     4.4130     4.2590     4.3630   730.0850     8.3550   159.8580     2.5200    -0.0010
 3210.0000   710.7060   -19.7260     4.7240     4.6460     5.7290   728.3360     8.3340   144.3810     2.5390     0.0010
 3210.5000   710.9510   -19.5510     5.0350     5.0330     7.0940   726.5880     8.3200   137.2500     2.5510     0.0020
 3211.0000   711.1960   -19.3870     5.3460     5.4200     7.8330   724.8400     8.3210   132.9340     2.5500     0.0010
 3211.5000   711.4410   -19.2200     5.6570     5.8070     7.8730   723.5530     8.3230   128.7860     2.5540     0.0050
 3212.0000   711.6860   -19.0560     5.9680     6.1930     7.9340   723.5530     8.3260   128.4410     2.5610     0.0090
 3212.5000   711.9310   -18.8880     6.2790     6.5800     8.1230   723.5530     8.3280   129.3900     2.5640     0.0140
 3213.0000   712.1750   -18.7150     6.5900     6.8960     8.2590   723.5530     8.3300   130.3540     2.5600     0.0110
 3213.5000   712.4200   -18.6300     6.9010     7.0200     8.5270   723.5530     8.3320   130.4580     2.5560     0.0050
 3214.0000   712.6650   -18.8250     7.2120     7.1320     8.7960   723.5530     8.3340   129.8240     2.5700     0.0000
 3214.5000   712.9100   -19.0040     7.4650     7.2440     9.0640   723.5530     8.3360   125.7200     2.5890     0.0050
 3215.0000   713.1550   -19.1940     7.6070     7.3550     9.3330   723.5530     8.3390   121.1630     2.5950     0.0170
 3215.5000   713.4000   -19.3830     7.7490     7.4670     9.4340   723.5530     8.3410   117.9990     2.5880     0.0160
 3216.0000   713.6450   -19.5620     7.8900     7.5790     9.5370   723.5530     8.3430   118.6330     2.5780     0.0140
 3216.5000   713.8900   -19.7540     7.9770     7.6910     9.6400   723.5530     8.3450   123.0630     2.5700     0.0150
 3217.0000   714.1350   -19.6900     7.9540     7.6910     9.7420   723.5530     8.3470   127.6110     2.5730     0.0200
 3217.5000   714.3790   -19.5060     7.8450     7.6060     9.8960   723.5530     8.3490   129.0530     2.5740     0.0210
 3218.0000   714.6240   -19.4020     7.7360     7.5010     9.8430   723.5530     8.3510   129.7600     2.5690     0.0170
 3218.5000   714.8690   -19.4150     7.6270     7.3960     9.4910   723.5530     8.3540   131.2400     2.5620     0.0110
 3219.0000   715.1140   -19.4110     7.5180     7.2910     9.1390   723.5530     8.3560   133.3940     2.5550     0.0080
 3219.5000   715.3590   -19.4110     7.4170     7.1510     8.7880   723.5530     8.3570   135.2530     2.5470     0.0050
 3220.0000   715.6040   -19.4110     7.4170     7.1920     8.4360   723.5530     8.3570   136.8010     2.5400     0.0020
 3220.5000   715.8490   -19.4110     7.4170     7.2510     8.0840   723.5530     8.3570   136.2280     2.5330     0.0000
 3221.0000   716.0940   -19.4140     7.4170     7.3110     7.8330   723.5530     8.3570   133.2040     2.5310    -0.0030
 3221.5000   716.3390   -19.4010     7.4170     7.3710     7.8330   723.5530     8.3570   129.6090     2.5370    -0.0020
 3222.0000   716.5840   -19.5280     7.4170     7.4300     8.7230   723.5530     8.3570   126.0600     2.5540    -0.0050
 3222.5000   716.8280   -19.7980     7.4170     7.4900     9.5210   723.5530     8.3570   121.2420     2.5970    -0.0040
 3223.0000   717.0730   -20.0530     7.5530     7.5530    10.3200   723.5530     8.3570   118.9400     2.6310     0.0010
 3223.5000   717.3180   -20.3090     7.5530     7.5530    10.6730   723.5530     8.3570   118.9200     2.6400     0.0150
 3224.0000   717.5630   -20.5680     7.2890     7.5530    10.6730   723.5530     8.3570   121.7800     2.6080     0.0220
