~VERSION INFORMATION
 VERS.                2.0:   CWLS LOG ASCII STANDARD - VERSION 2.0
 WRAP.                 NO:   ONE LINE PER DEPTH STEP
~WELL INFORMATION
#MNEM.UNIT      DATA TYPE    INFORMATION
#----------   ------------   ------------------------------
 STRT.F           35.5000:   START DEPTH
 STOP.F         6235.5000:   STOP DEPTH
 STEP.F            0.5000:   STEP LENGTH
 NULL.          -999.2500:   NO VALUE
 COMP. LAWRENCE-ALLISON ASSOCIATES:   COMPANY
 WELL. LAWRENCE-ALLISON "X" #62-11:   WELL
 FLD .                NPR:   FIELD
 LOC .      S11 T38N R78W:   LOCATION
 CNTY.            NATRONA:   COUNTY
 STAT.            WYOMING:   STATE
 CTRY. UNITED STATES OF AMERICA:   COUNTRY
 SRVC.      DRESSER ATLAS:   SERVICE COMPANY
 DATE.        18-DEC-1982:   LOGDATE
 API .     49025109020000:   API NUMBER
~CURVE INFORMATION
#MNEM.UNIT       API CODE    CURVE DESCRIPTION
#----------   ------------   ------------------------------
 DEPT.F                  :   
 ILM .OHMM   07 120 44 00:   INDUCTION LOG MEDIUM
 ILD .OHMM   07 120 46 00:   DEEP RESISTIVITY
 RFOC.OHMM   07 220 04 00:   RESISTIVITY FOCUSED LOG RES.
 DT  .US/F   60 520 00 00:   DELTA TIME
 TENS.LBS    60 635 01 00:   TENSION FROM SONIC LOG.
 RS  .OHMM   11 220 09 00:   RESISTIVITY SHALLOW
 RD  .OHMM   11 220 10 00:   RESISTIVITY DEEP
 RLL .OHMM   11 220 00 00:   LATEROLOG RESISTIVITY
 SPR .MV     07 010 01 00:   SPONTANEOUS POTENTIAL
 TENR.LBS    07 635 01 00:   TENSION FROM RES. LOG
 CALD.IN     45 280 60 00:   CALIPER FROM DENSITY LOG
 GRD .GAPI   45 310 01 00:   GAMMA RAY FROM DENSITY LOG
 DEN .G/C3   45 350 01 00:   FORMATION FACTOR DENSITY
 DRHO.G/C3   45 356 01 00:   DENSITY CORRECTION
 TEND.LBS    45 635 01 00:   TENSION FROM DENSITY LOG
 CN  .DEC    42 890 00 00:   NEUTRON POROSITY
~PARAMETER INFORMATION
#MNEM.UNIT          VALUE    DESCRIPTION
#----------   ------------   ------------------------------
 EKB .F         5218.0000:   Kelly bushing
 EGL .F         5208.0000:   Ground level
 EDF .F            0.0000:   Drilling floor
 TD  .F         6232.0000:   Total depth
 DATE.        18-DEC-1982:   Date logged
 CLNT.            A2DTECH:   Client Code
 SL  . 971' FNL & 1898' FEL:   Surface Location
 PD  .                 GL:   Permanent Datum
 EPD .F              5208:   Elevation Permanent Datum
 LMF .                 KB:   Log Measured From
 DMF .                 KB:   Drilling Measured From
 DAPD.F                10:   Feet Above Permanent Datum
 DD  .F              6222:   Depth driller
 DL  .F              6232:   Depth logger
 BLI .F              6230:   Bottom log interval
 CS1 .IN            9.625:   Casing size
 CBD1.     9.625" @ 1002':   Casing driller 1
 CBL1.F              1002:   Casing logger 1
 BS1 .IN             8.75:   Bit size
 BSD1.F              6222:   Depth drilled with bit1
 DFT .                KCL:   Type fluid in hole
 DFD .                  9:   Density
 DFV .                 37:   Viscosity
 DFPH.                  8:   pH
 DFL .                8.4:   Fluid loss
 MSS .           FLOWLINE:   Source of sample
 RMS .OHMM            .25:   Rm
 MST .F                60:   Rm Meas. temp.
 RMF .OHMM            .18:   Rmf
 MFST.F                62:   Rmf Meas. temp.
 RMC .OHMM            .32:   Rmc
 MCST.F                60:   Rmc Meas. temp.
 MFSS.               MEAS:   Source Rmf.
 MCSS.               CALC:   Source Rmc.
 RMB .OHMM            .09:   Rm. at BHT
 BHT .F               166:   BHT.
 TCS .HRS               6:   Time Circ. stopped
 MRT .F               166:   Maximum recorded temp.
 LUN .               6274:   Logging unit number
 LUL .               GLTE:   Logging unit location
 ENGI.             RAUTIO:   Recorded By
 WITN.           JENNINGS:   Witnessed by
 ORIG.           5" PRINT:   Origin of data
 UWI .     49025109020000:   Unique Well ID
 DICO. A2D TECHNOLOGIES, INC.:   Digitizing Company
~OTHER INFORMATION
~A  DEPTH      ILM        ILD       RFOC         DT       TENS         RS         RD        RLL        SPR       TENR       CALD        GRD        DEN       DRHO       TEND         CN
# ...
 4980.5000  -999.2500  -999.2500  -999.2500    65.3013    -4.7905    12.7377    11.9033     8.3582   -74.8503   -73.2399     9.8597    39.3680     2.4575    -0.0056   -18.5029     0.1563
 4981.0000  -999.2500  -999.2500  -999.2500    66.8924    -5.2437    10.4136    10.4955     7.5307   -73.7626   -69.6518     9.8578    39.3386     2.4442    -0.0197   -26.0174     0.1597
 4981.5000  -999.2500  -999.2500  -999.2500    68.4070    -5.6968     8.1096     8.4562     6.3298   -72.8293   -51.0036     9.8561    40.8216     2.4176    -0.0275   -23.9298     0.1659
 4982.0000  -999.2500  -999.2500  -999.2500    71.7325    -6.1500     6.8639     7.1525     4.8949   -71.9680   -62.5054     9.8541    42.6062     2.4066    -0.0322    -9.7959     0.1843
 4982.5000  -999.2500  -999.2500  -999.2500    74.3783    -6.6031     5.6899     5.9657     3.9464   -70.7038   -73.9775     9.8677    41.3701     2.4034    -0.0259     7.2302     0.1949
 4983.0000  -999.2500  -999.2500  -999.2500    75.3660    -7.0563     4.8491     5.2243     3.2039   -69.5197   -70.3895     9.8659    39.5349     2.4276    -0.0088    29.8200     0.2012
 4983.5000  -999.2500  -999.2500  -999.2500    75.3723    -7.5095     4.7477     4.7040     2.7688   -68.6200   -55.5357     9.8638    37.6955     2.4799     0.0223    37.8883     0.2065
 4984.0000  -999.2500  -999.2500  -999.2500    74.6255    -7.9626     4.7791     4.9342     2.8074   -67.8295   -44.4177     9.8775    40.0792     2.4924     0.0363    30.2888     0.2099
 4984.5000  -999.2500  -999.2500  -999.2500    72.2185    -8.4158     6.9960     7.2246     4.3182   -66.8430   -37.0942     9.8755    52.4220     2.4640     0.0347    15.0045     0.1996
 4985.0000  -999.2500  -999.2500  -999.2500    70.4913    -8.3186     8.4926     7.6851    10.7261   -65.7260   -44.8012     9.8888    64.4631     2.3908     0.0285     7.4047     0.1930
 4985.5000  -999.2500  -999.2500  -999.2500    70.7238    -8.0559     6.8951     7.0156    10.2163   -64.8597   -52.5084     9.8866    69.2601     2.3212     0.0238    -0.1520     0.1949
 4986.0000  -999.2500  -999.2500  -999.2500    73.0987    -7.7912     4.8056     4.8179     6.2991   -64.0695   -60.2450     9.8851    50.2303     2.2860     0.0207    -7.6238     0.2217
 4986.5000  -999.2500  -999.2500  -999.2500    78.3072    -7.5264     3.4918     3.9361     2.0818   -63.1801   -64.1872     9.8831    36.6262     2.2735     0.0191    -7.3683     0.2289
 4987.0000  -999.2500  -999.2500  -999.2500    83.1882    -7.2617     3.0808     3.3058     1.5877   -62.4458   -64.3643     9.8815    32.3777     2.2657     0.0238   -11.0156     0.2342
 4987.5000  -999.2500  -999.2500  -999.2500    85.6832    -6.9969     2.6257     2.9973     1.5017   -61.6983   -64.5707     9.8796    31.4432     2.2625     0.0284   -10.7209     0.2364
 4988.0000  -999.2500  -999.2500  -999.2500    86.6709    -6.7322     2.3492     2.8530     1.4912   -60.7784   -61.0123     9.8932    31.7238     2.2617     0.0191   -10.4226     0.2373
 4988.5000  -999.2500  -999.2500  -999.2500    86.7526    -6.4674     2.2682     2.8506     1.4402   -60.0299   -57.4242     9.8911    31.6901     2.2624     0.0081   -10.1953     0.2370
 4989.0000  -999.2500  -999.2500  -999.2500    86.7599    -6.2027     2.2833     2.8485     1.3910   -59.2814   -53.8362     9.8893    31.6648     2.2655    -0.0012    -9.8692     0.2273
 4989.5000  -999.2500  -999.2500  -999.2500    86.5399    -5.9379     2.3144     2.8663     1.4202   -58.6826   -54.0133     9.8873    33.1479     2.2702    -0.0075    -5.7422     0.2310
 4990.0000  -999.2500  -999.2500  -999.2500    85.4160    -5.6732     2.3623     2.9245     1.5117   -58.2187   -54.2198     9.9004    34.6309     2.2811    -0.0106    -5.4517     0.2341
 4990.5000  -999.2500  -999.2500  -999.2500    84.2157    -5.4084     2.4278     3.0253     1.6091   -57.9184   -54.3969     9.8989    35.8080     2.2889    -0.0059    -5.1535     0.2341
 4991.0000  -999.2500  -999.2500  -999.2500    83.6186    -5.1437     2.4953     3.1518     1.6658   -57.7603   -54.3815     9.8971    36.0886     2.2967    -0.0060    -8.8280     0.2341
 4991.5000  -999.2500  -999.2500  -999.2500    83.4730    -4.8789     2.5823     3.3757     1.7487   -57.6022   -54.3661     9.8951    36.3608     2.3005    -0.0091   -12.4975     0.2344
 4992.0000  -999.2500  -999.2500  -999.2500    83.7841    -4.6142     2.6541     3.4442     1.8614   -57.4850   -54.3507     9.8935    36.9347     2.2810    -0.0133   -20.0120     0.2354
 4992.5000  -999.2500  -999.2500  -999.2500    84.8462    -4.3494     2.6532     3.2784     1.9405   -57.4850   -54.3353     9.9068    36.9051     2.2669    -0.0200   -27.5263     0.2372
 4993.0000  -999.2500  -999.2500  -999.2500    86.0602    -4.0847     2.4917     3.1419     1.6424   -57.4850   -54.3199     9.9050    37.1857     2.2590    -0.0247   -31.1771     0.2388
 4993.5000  -999.2500  -999.2500  -999.2500    86.8206    -3.8199     2.3402     3.0115     1.3427   -57.4850   -54.3045     9.9182    36.8504     2.2559    -0.0294   -34.8276     0.2391
 4994.0000  -999.2500  -999.2500  -999.2500    87.1285    -3.5552     2.2597     2.9269     1.4193   -57.4850   -54.2891     9.9463    36.2218     2.2543    -0.0325   -38.4784     0.2391
 4994.5000  -999.2500  -999.2500  -999.2500    87.1359    -3.2904     2.2277     2.9244     1.4694   -57.4850   -54.2737     9.9443    34.6840     2.2535    -0.0310   -38.1801     0.2406
 4995.0000  -999.2500  -999.2500  -999.2500    86.9913    -3.0257     2.1963     2.9223     1.4490   -57.4850   -54.2583     9.9579    32.5471     2.2534    -0.0279   -41.8309     0.2413
 4995.5000  -999.2500  -999.2500  -999.2500    86.3199    -2.7609     2.1956     2.8999     1.4092   -57.4850   -54.2429     9.9560    31.0093     2.2604    -0.0246   -25.8652     0.2378
 4996.0000  -999.2500  -999.2500  -999.2500    83.8375    -2.4962     2.1947     2.8778     1.4288   -57.4850   -54.2275     9.9540    33.0957     2.2823    -0.0155    -9.9847     0.2244
 4996.5000  -999.2500  -999.2500  -999.2500    80.1495    -2.2314     2.2247     2.9564     1.4689   -57.4850   -54.2121     9.9676    35.7811     2.3307    -0.0015    -1.8739     0.2090
 4997.0000  -999.2500  -999.2500  -999.2500    76.8375    -1.9667     2.3183     3.1448     1.5855   -57.4850   -54.1967     9.9657    38.1691     2.3650     0.0094    -1.6185     0.2025
 4997.5000  -999.2500  -999.2500  -999.2500    73.3758    -1.7020     2.5013     3.6869     2.4980   -57.6347   -54.1814     9.9489    40.5529     2.4087     0.0172    -9.1755     0.1956
 4998.0000  -999.2500  -999.2500  -999.2500    71.1950    -1.4372     4.3550     5.2134     5.5731   -57.7844   -54.1660     9.9467    43.8459     2.4337     0.0203   -20.5960     0.1890
 4998.5000  -999.2500  -999.2500  -999.2500    70.5226    -1.1725     6.1152     8.1825     5.9736   -58.0838   -54.1506     9.9450    48.0438     2.4306     0.0203   -39.8718     0.1859
 4999.0000  -999.2500  -999.2500  -999.2500    70.6807    -0.9077     6.3289     9.3301     5.5723   -58.4082   -54.1352     9.9587    48.9278     2.4196     0.0204   -55.2838     0.1853
 4999.5000  -999.2500  -999.2500  -999.2500    70.9143    -0.6430     6.3708     9.5849     5.3445   -58.8989   -54.1198     9.9564    47.0841     2.4102     0.0234   -70.6105     0.1863
 5000.0000  -999.2500  -999.2500  -999.2500    71.1052    -0.3986     6.2807     9.5116     5.2339   -59.5057   -54.1318     9.9550    43.1375     2.4026     0.0226   -76.2078     0.1924
 5000.5000  -999.2500  -999.2500  -999.2500    71.3033    -1.4059     6.0257     8.1660     4.8802   -59.9571   -54.1622     9.9561    43.1132     2.3944     0.0218   -79.1269     0.1984
 5001.0000  -999.2500  -999.2500  -999.2500    71.7607    -2.3409     5.7809     7.9446     4.7115   -60.2453   -54.1926     9.9571    43.0854     2.3836     0.0077   -81.5984     0.2052
 5001.5000  -999.2500  -999.2500  -999.2500    74.0289     1.0401     5.3943     7.6754     4.3324   -60.3338   -54.2169     9.9581    41.5548     2.3656    -0.0063   -77.4218     0.2120
