~VERSION INFORMATION
 VERS.                2.0:   CWLS LOG ASCII STANDARD - VERSION 2.0
 WRAP.                 NO:   ONE LINE PER DEPTH STEP
~WELL INFORMATION
#MNEM.UNIT      DATA TYPE    INFORMATION
#----------   ------------   ------------------------------
 STRT.F         2200.0000:   START DEPTH
 STOP.F         2735.0000:   STOP DEPTH
 STEP.F            0.5000:   STEP LENGTH
 NULL.          -999.2500:   NO VALUE
 COMP.          U.S. NAVY:   COMPANY
 WELL.       U.S. #403-20:   WELL
 FLD .        TEAPOT DOME:   FIELD
 LOC .      S20 T39N R78W:   LOCATION
 CNTY.            NATRONA:   COUNTY
 STAT.            WYOMING:   STATE
 CTRY. UNITED STATES OF AMERICA:   COUNTRY
 SRVC.         MCCULLOUGH:   SERVICE COMPANY
 DATE.        28-SEP-1965:   LOGDATE
 API .     49025095330000:   API NUMBER
~CURVE INFORMATION
#MNEM.UNIT       API CODE    CURVE DESCRIPTION
#----------   ------------   ------------------------------
 DEPT.F                  :   
 GR  .GAPI   30 310 01 00:   GAMMA RAY
 CALI.IN     70 280 01 00:   CALIPER
~PARAMETER INFORMATION
#MNEM.UNIT          VALUE    DESCRIPTION
#----------   ------------   ------------------------------
 EKB .F            0.0000:   Kelly bushing
 EGL .F            0.0000:   Ground level
 EDF .F            0.0000:   Drilling floor
 TD  .F         2749.0000:   Total depth
 DATE.        28-SEP-1965:   Date logged
 CLNT.            A2DTECH:   Client Code
 PD  .                 GL:   Permanent Datum
 EPD .F                 0:   Elevation Permanent Datum
 LMF .                 GL:   Log Measured From
 DMF .                 GL:   Drilling Measured From
 DD  .F              2749:   Depth driller
 DL  .F              2731:   Depth logger
 BLI .F              2729:   Bottom log interval
 TLI .F              2200:   Top log interval
 CS1 .IN           5.3125:   Casing size
 CBD1.    5.3125" @ 2720':   Casing driller 1
 BS1 .IN                5:   Bit size
 BSD1.F              2749:   Depth drilled with bit1
 DFT .              WATER:   Type fluid in hole
 TCS .HRS               1:   Time Circ. stopped
 LUN .               2146:   Logging unit number
 ENGI.        FITZSIMMOMS:   Recorded By
 ORIG.           5" PRINT:   Origin of data
 UWI .     49025095330000:   Unique Well ID
 DICO. A2D TECHNOLOGIES, INC.:   Digitizing Company
~OTHER INFORMATION
~A  DEPT         GR      CALI   
 2200.0000    76.0210  -999.2500
 2200.5000    71.0970     6.6780
 2201.0000    73.1790     6.6800
 2201.5000    70.8730     6.6820
 2202.0000    69.7590     6.6830
 2202.5000    69.8740     6.6850
 2203.0000    71.3520     6.6870
 2203.5000    77.6420     6.6890
 2204.0000    82.7230     6.6900
 2204.5000    82.0870     6.6920
 2205.0000    78.8240     6.6940
 2205.5000    74.2470     6.6960
 2206.0000    67.3900     6.6980
 2206.5000    66.5170     6.7000
 2207.0000    69.2900     6.7020
 2207.5000    70.5420     6.7040
 2208.0000    67.0640     6.7050
 2208.5000    70.3170     6.7070
 2209.0000    70.3030     6.7090
 2209.5000    66.0900     6.7110
 2210.0000    63.8610     6.7130
 2210.5000    68.0600     6.7150
 2211.0000    66.8200     6.7160
 2211.5000    66.9760     6.7160
 2212.0000    66.2280     6.7160
 2212.5000    64.4720     6.7160
 2213.0000    66.2550     6.7160
 2213.5000    65.9660     6.7160
 2214.0000    65.6460     6.7160
 2214.5000    70.0330     6.7160
 2215.0000    69.9910     6.7160
 2215.5000    70.7320     6.7160
 2216.0000    68.9850     6.7160
 2216.5000    64.1360     6.7160
 2217.0000    65.6000     6.7160
 2217.5000    68.4970     6.7160
 2218.0000    70.6170     6.7160
 2218.5000    62.6980     6.7160
 2219.0000    64.1820     6.7160
 2219.5000    66.4530     6.7160
 2220.0000    67.7800     6.7160
 2220.5000    68.4070     6.7160
 2221.0000    68.4510     6.7150
 2221.5000    69.1310     6.7150
 2222.0000    73.1440     6.7140
 2222.5000    75.8980     6.7140
 2223.0000    70.2080     6.7130
 2223.5000    63.4160     6.7130
 2224.0000    66.9490     6.7120
 2224.5000    69.3130     6.7120
 2225.0000    66.7470     6.7110
 2225.5000    68.6190     6.7110
 2226.0000    66.4050     6.7100
 2226.5000    65.0450     6.7100
 2227.0000    65.7260     6.7090
 2227.5000    67.9030     6.7090
 2228.0000    69.2420     6.7080
 2228.5000    69.7130     6.7080
 2229.0000    70.5540     6.7070
 2229.5000    72.9040     6.7070
 2230.0000    75.1330     6.7070
 2230.5000    75.3780     6.7290
 2231.0000    73.8670     6.7450
 2231.5000    71.4760     6.7100
 2232.0000    69.6270     6.6970
 2232.5000    72.2030     6.6970
 2233.0000    72.1260     6.6970
 2233.5000    76.1160     6.6970
 2234.0000    80.0790     6.6970
 2234.5000    75.4850     6.6970
 2235.0000    68.7520     6.6970
 2235.5000    72.9210     6.6970
 2236.0000    71.0820     6.6970
 2236.5000    61.9090     6.6970
 2237.0000    64.0400     6.6970
 2237.5000    60.6690     6.6970
 2238.0000    62.6920     6.6970
 2238.5000    66.2540     6.6970
 2239.0000    67.2260     6.6950
 2239.5000    68.3880     6.6940
 2240.0000    69.8620     6.6930
 2240.5000    70.1140     6.6920
 2241.0000    70.0640     6.6910
 2241.5000    73.8060     6.6900
 2242.0000    73.2150     6.6890
 2242.5000    77.2450     6.6880
 2243.0000    76.3270     6.6870
 2243.5000    73.5660     6.6890
 2244.0000    73.9760     6.6920
 2244.5000    74.6090     6.6960
 2245.0000    71.0880     6.6990
 2245.5000    69.2120     6.7020
 2246.0000    70.2860     6.7050
 2246.5000    72.4890     6.7070
 2247.0000    69.4270     6.7070
 2247.5000    68.7070     6.7090
 2248.0000    70.5190     6.7110
 2248.5000    72.4450     6.7130
 2249.0000    70.9440     6.7160
 2249.5000    72.2660     6.7160
 2250.0000    72.3060     6.7160
 2250.5000    68.9430     6.7160
 2251.0000    72.9870     6.7160
 2251.5000    69.7370     6.7140
 2252.0000    66.1210     6.7070
 2252.5000    68.9160     6.7070
 2253.0000    67.2490     6.7070
 2253.5000    65.0640     6.7070
 2254.0000    66.1750     6.7080
 2254.5000    66.8390     6.7090
 2255.0000    67.1620     6.7100
 2255.5000    68.7460     6.7110
 2256.0000    71.9990     6.7130
 2256.5000    66.8710     6.7140
 2257.0000    66.6910     6.7150
 2257.5000    65.5970     6.7160
 2258.0000    63.8040     6.7160
 2258.5000    72.2090     6.7160
 2259.0000    73.0080     6.7160
 2259.5000    71.8980     6.7160
 2260.0000    74.8670     6.7160
 2260.5000    73.5760     6.7160
 2261.0000    79.1480     6.7160
 2261.5000    79.2780     6.7160
 2262.0000    75.5690     6.7160
 2262.5000    69.4340     6.7160
 2263.0000    68.7870     6.7160
 2263.5000    65.1190     6.7160
 2264.0000    66.3980     6.7160
 2264.5000    68.6550     6.7160
 2265.0000    73.1060     6.7160
 2265.5000    78.7440     6.7160
 2266.0000    75.0830     6.7160
 2266.5000    77.5790     6.7160
 2267.0000    75.2230     6.7160
 2267.5000    67.4560     6.7160
 2268.0000    70.4790     6.7160
 2268.5000    76.5910     6.7160
 2269.0000    76.5130     6.7160
 2269.5000    75.6080     6.7160
 2270.0000    80.9450     6.7160
 2270.5000    74.6510     6.7160
 2271.0000    75.8430     6.7160
 2271.5000    73.3590     6.7160
 2272.0000    72.2500     6.7170
 2272.5000    72.0100     6.7310
 2273.0000    72.1930     6.7450
 2273.5000    71.1770     6.7540
 2274.0000    70.1690     6.7050
 2274.5000    72.7240     6.6970
 2275.0000    74.9300     6.6970
 2275.5000    73.9980     6.6990
 2276.0000    71.2680     6.7030
 2276.5000    66.0440     6.7060
 2277.0000    71.5690     6.7100
 2277.5000    69.3980     6.7130
 2278.0000    66.9310     6.7150
 2278.5000    60.8150     6.7270
 2279.0000    61.8550     6.7260
 2279.5000    62.1180     6.7260
 2280.0000    67.1660     6.7260
 2280.5000    71.8170     6.7250
 2281.0000    72.3740     6.7240
 2281.5000    70.6190     6.7230
 2282.0000    69.4330     6.7220
 2282.5000    74.1820     6.7210
 2283.0000    72.3410     6.7200
 2283.5000    75.2190     6.7190
 2284.0000    73.7980     6.7180
 2284.5000    72.8800     6.7170
 2285.0000    73.1810     6.7160
 2285.5000    73.1040     6.7170
 2286.0000    69.0010     6.7170
 2286.5000    71.8380     6.7180
 2287.0000    70.9150     6.7190
 2287.5000    70.1580     6.7190
 2288.0000    67.6190     6.7200
 2288.5000    65.0270     6.7200
 2289.0000    64.9630     6.7210
 2289.5000    62.2760     6.7220
 2290.0000    61.2900     6.7220
 2290.5000    63.8610     6.7230
 2291.0000    68.3520     6.7240
 2291.5000    65.9420     6.7240
 2292.0000    64.7590     6.7250
 2292.5000    66.0050     6.7250
 2293.0000    68.3390     6.7260
 2293.5000    68.3110     6.7270
 2294.0000    72.5400     6.7350
 2294.5000    71.2240     6.7720
 2295.0000    69.4590     6.7080
 2295.5000    69.6430     6.6970
 2296.0000    71.8260     6.6970
 2296.5000    65.6460     6.6980
 2297.0000    61.6540     6.6980
 2297.5000    56.1690     6.6990
 2298.0000    61.5920     6.7000
 2298.5000    62.2270     6.7000
 2299.0000    61.1160     6.7010
 2299.5000    62.7040     6.7010
 2300.0000    64.7520     6.7020
 2300.5000    66.3280     6.7030
 2301.0000    62.6640     6.7030
 2301.5000    64.3200     6.7040
 2302.0000    67.1280     6.7040
 2302.5000    65.8420     6.7050
 2303.0000    63.6140     6.7050
 2303.5000    61.6440     6.7060
 2304.0000    64.7550     6.6990
 2304.5000    69.5940     6.6960
 2305.0000    69.2190     6.7070
 2305.5000    70.2190     6.7070
 2306.0000    70.3530     6.7080
 2306.5000    68.9020     6.7080
 2307.0000    69.6500     6.7090
 2307.5000    69.9110     6.7100
 2308.0000    67.5430     6.7100
 2308.5000    62.1060     6.7110
 2309.0000    59.6950     6.7110
 2309.5000    66.3940     6.7120
 2310.0000    62.6480     6.7130
 2310.5000    63.8370     6.7130
 2311.0000    65.5870     6.7140
 2311.5000    67.6600     6.7140
 2312.0000    68.3550     6.7150
 2312.5000    69.7990     6.7160
 2313.0000    66.7960     6.7160
 2313.5000    64.1790     6.7170
 2314.0000    63.6760     6.7200
 2314.5000    61.9320     6.7330
 2315.0000    59.5060     6.7440
 2315.5000    60.4720     6.7210
 2316.0000    62.1800     6.6480
 2316.5000    65.3220     6.6470
 2317.0000    62.7790     6.6470
 2317.5000    62.3980     6.6470
 2318.0000    63.2370     6.6450
 2318.5000    60.7620     6.6440
 2319.0000    60.1270     6.6430
 2319.5000    59.9730     6.6410
 2320.0000    59.8330     6.6400
 2320.5000    55.9410     6.6390
 2321.0000    51.1640     6.6370
