~VERSION INFORMATION
 VERS.                2.0:   CWLS LOG ASCII STANDARD - VERSION 2.0
 WRAP.                 NO:   ONE LINE PER DEPTH STEP
~WELL INFORMATION
#MNEM.UNIT      DATA TYPE    INFORMATION
#----------   ------------   ------------------------------
 STRT.F          204.0000:   START DEPTH
 STOP.F         3024.0000:   STOP DEPTH
 STEP.F            0.5000:   STEP LENGTH
 NULL.          -999.2500:   NO VALUE
 COMP.    FENIX & SCISSON:   COMPANY
 WELL. FENIX NPR 3 "AX" #87-33:   WELL
 FLD .      NPR - WILDCAT:   FIELD
 LOC .      S33 T39N R78W:   LOCATION
 CNTY.            NATRONA:   COUNTY
 STAT.            WYOMING:   STATE
 CTRY. UNITED STATES OF AMERICA:   COUNTRY
 SRVC.              WELEX:   SERVICE COMPANY
 DATE.        20-JUN-1977:   LOGDATE
 API .     49025103840000:   API NUMBER
~CURVE INFORMATION
#MNEM.UNIT       API CODE    CURVE DESCRIPTION
#----------   ------------   ------------------------------
 DEPT.F                  :   
 SPR .MV     07 010 01 00:   SPONTANEOUS POTENTIAL
 ILD .OHMM   07 120 46 00:   DEEP INDUCTION RESISTIVITY
 ILM .OHMM   07 120 44 00:   INDUCTION LOG MEDIUM RESISTIVITY
 SGRD.OHMM   07 220 05 00:   SHALLOW SHORT GUARD RESISTIVITY
 CALD.IN     45 280 60 00:   CALIPER FROM DENSITY LOG
 GRD .GAPI   45 310 01 00:   GAMMA RAY FROM DENSITY LOG
 RHOB.G/C3   45 350 01 00:   BULK DENSITY
 CORR.G/C3   45 356 01 00:   DENSITY CORRECTION
~PARAMETER INFORMATION
#MNEM.UNIT          VALUE    DESCRIPTION
#----------   ------------   ------------------------------
 EKB .F         5170.0000:   Kelly bushing
 EGL .F         5160.0000:   Ground level
 TD  .F         3040.0000:   Total depth
 DATE.        20-JUN-1977:   Date logged
 CLNT.            A2DTECH:   Client Code
 SL  . 800' FSL & 100' FEL:   Surface Location
 PD  .                 GL:   Permanent Datum
 EPD .F              5160:   Elevation Permanent Datum
 LMF .                 KB:   Log Measured From
 DMF .                 KB:   Drilling Measured From
 DD  .F              3040:   Depth driller
 DL  .F              3027:   Depth logger
 BLI .F              3025:   Bottom log interval
 TLI .F               200:   Top log interval
 CS1 .IN            8.625:   Casing size
 CBD1.      8.625" @ 230':   Casing driller 1
 CBL1.F               210:   Casing logger 1
 BS1 .IN            7.875:   Bit size
 BSD1.F              3040:   Depth drilled with bit1
 DFT .                KCL:   Type fluid in hole
 DFD .                9.2:   Density
 DFV .                 38:   Viscosity
 DFPH.                7.5:   pH
 DFL .                5.4:   Fluid loss
 MSS .           FLOWLINE:   Source of sample
 RMS .OHMM            .60:   Rm
 MST .F                92:   Rm Meas. temp.
 RMF .OHMM            .29:   Rmf
 MFST.F                92:   Rmf Meas. temp.
 RMC .OHMM            .76:   Rmc
 MCST.F                92:   Rmc Meas. temp.
 MFSS.               MEAS:   Source Rmf.
 MCSS.               MEAS:   Source Rmc.
 RMB .OHMM            .49:   Rm. at BHT
 BHT .F               112:   BHT.
 TCS .HRS               2:   Time Circ. stopped
 MRT .F               112:   Maximum recorded temp.
 LUN .               8611:   Logging unit number
 LUL .           GILLETTE:   Logging unit location
 ENGI.            C. DOAK:   Recorded By
 WITN.      B. HARRINGTON:   Witnessed by
 ORIG.     2.5", 5" PRINT:   Origin of data
 UWI .     49025103840000:   Unique Well ID
 DICO. A2D TECHNOLOGIES, INC.:   Digitizing Company
~OTHER INFORMATION
~A   DEPT      SPR        ILD        ILM       SGRD         CALD       GRD        RHOB      CORR  
# ...
  406.5000   -28.6460    14.0550    15.5240    14.7040    12.9710    66.5580     2.4070     0.0540
  407.0000   -28.6120    13.8980    13.6770    12.6600    13.0790    67.0760     2.3850     0.0510
  407.5000   -28.5810    13.7400    13.2750    10.6160    13.1880    67.3890     2.3570     0.0460
  408.0000   -28.5480    13.5470    12.7730    11.1190    13.2960    67.3870     2.3320     0.0390
  408.5000   -28.5160    13.3300    12.2700    11.6220    13.4040    67.3890     2.3190     0.0320
  409.0000   -28.4830    13.1130    12.2010    11.6980    13.5130    67.1250     2.3060     0.0290
  409.5000   -28.4500    12.8960    12.1330    11.7730    13.6360    66.6930     2.2960     0.0260
  410.0000   -28.4180    12.7220    12.0500    11.8340    13.7840    66.4470     2.2870     0.0240
  410.5000   -28.3850    12.7220    11.8400    11.5020    13.9310    66.2290     2.2830     0.0220
  411.0000   -28.3530    12.7720    11.5770    11.2250    14.0760    66.8040     2.2830     0.0220
  411.5000   -28.3220    12.8550    11.3140    10.9490    14.2950    67.5660     2.2850     0.0220
  412.0000   -28.3210    12.9550    11.0080    10.6160    14.4950    68.3380     2.2910     0.0220
  412.5000   -28.3200    13.1300    11.2330    10.7710    14.5360    69.1050     2.2910     0.0210
  413.0000   -28.3200    13.3490    11.4210    10.9640    14.1510    69.6860     2.2890     0.0210
  413.5000   -28.3200    13.5680    11.6090    11.1580    13.9280    69.1530     2.2850     0.0210
  414.0000   -28.3200    13.7870    11.8340    11.3510    14.4280    68.6130     2.2870     0.0210
  414.5000   -28.3200    14.0060    11.8820    11.5440    14.5930    68.0760     2.2870     0.0200
  415.0000   -28.3200    14.1810    11.9420    11.6750    14.5740    67.5380     2.2850     0.0200
  415.5000   -28.3200    14.3790    12.0020    11.7630    14.5490    67.7350     2.2820     0.0200
  416.0000   -28.3200    14.5440    12.0500    11.8340    14.5380    69.5810     2.2970     0.0210
  416.5000   -28.3200    14.7090    11.8340    10.8100    14.6260    71.5430     2.3140     0.0260
  417.0000   -28.3200    14.9720    12.7840    11.2530    14.7160    73.5840     2.3310     0.0330
  417.5000   -28.3200    14.8760    13.1910    11.6960    14.8200    74.4090     2.3360     0.0420
  418.0000   -28.3210    14.6350    12.9060    12.0500    14.9250    73.6620     2.3290     0.0430
  418.5000   -28.3180    14.3950    12.4300    11.8340    15.0080    71.8350     2.3190     0.0380
  419.0000   -28.3220    14.1540    12.0500    11.0080    15.0250    71.4380     2.3090     0.0320
  419.5000   -28.3300    13.9130    12.0500    11.0080    15.0410    73.2420     2.3000     0.0260
  420.0000   -28.4920    13.6730    12.3330    11.4130    15.0420    74.7870     2.2950     0.0250
  420.5000   -28.6580    13.4320    12.6150    11.2440    15.0420    72.6470     2.3020     0.0270
  421.0000   -28.8310    13.3770    12.9550    10.8190    15.0410    70.4680     2.3150     0.0280
  421.5000   -29.0000    13.3230    12.9550    10.3950    15.0390    70.2410     2.3430     0.0300
  422.0000   -29.1700    13.2680    12.8380    10.0560    15.0250    72.5620     2.3640     0.0330
  422.5000   -29.3380    13.1910    12.6550    10.4880    15.0120    74.9050     2.3780     0.0360
  423.0000   -29.5120    13.2560    12.4870    10.8480    14.9910    75.5470     2.3850     0.0390
  423.5000   -29.6750    13.3640    12.3190    11.2090    14.9420    75.4720     2.3850     0.0410
  424.0000   -29.8690    13.4730    12.0500    11.0840    14.8930    75.1210     2.3790     0.0420
  424.5000   -29.9580    13.5810    12.1930    10.9600    14.8480    75.1910     2.3670     0.0410
  425.0000   -30.0610    13.6890    12.5490    10.8100    14.8030    75.9120     2.3570     0.0360
  425.5000   -30.1550    13.7970    12.9060    11.3220    14.7850    76.7980     2.3540     0.0300
  426.0000   -30.2550    13.9270    13.1910    11.8340    14.7850    78.3490     2.3570     0.0240
  426.5000   -30.3510    13.9270    13.2200    11.6460    14.7830    79.5640     2.3590     0.0190
  427.0000   -30.4510    13.9270    13.2910    11.4900    14.7180    78.7450     2.3540     0.0160
  427.5000   -30.5450    13.9270    13.3630    11.3340    14.6500    77.3500     2.3490     0.0140
  428.0000   -30.6520    13.9270    13.4340    11.2090    14.5810    75.9780     2.3490     0.0170
  428.5000   -30.6940    14.0380    13.5060    11.2090    14.5110    74.6050     2.3590     0.0230
  429.0000   -30.7800    14.1770    13.5770    11.2090    14.4410    73.3410     2.3700     0.0290
  429.5000   -30.8580    14.3160    13.6490    11.2090    14.3710    72.2970     2.3780     0.0320
  430.0000   -30.9430    14.4540    13.7540    11.2090    14.3030    71.2520     2.3750     0.0320
  430.5000   -31.0120    14.5930    13.8810    11.4170    14.2510    70.4570     2.3780     0.0310
  431.0000   -31.1880    14.7040    14.0080    11.6780    14.1390    70.1770     2.3820     0.0280
  431.5000   -31.4460    15.0050    14.1350    11.9430    14.0190    69.8950     2.3850     0.0260
  432.0000   -31.6990    15.2560    14.2620    12.2700    13.8990    69.3970     2.3790     0.0240
  432.5000   -31.9120    15.5070    14.3890    12.3620    13.7790    68.6940     2.3770     0.0220
  433.0000   -32.0720    15.8080    14.4400    12.4770    13.6590    67.9630     2.3760     0.0200
  433.5000   -32.2430    15.9840    14.4400    12.5920    13.5390    67.8580     2.3710     0.0180
  434.0000   -32.4140    16.2050    14.4400    12.7080    13.4170    69.3840     2.3660     0.0180
  434.5000   -32.5830    16.4250    14.4400    12.8230    13.2690    70.5540     2.3630     0.0180
  435.0000   -32.7530    16.6900    14.4400    12.9380    13.1330    71.3790     2.3670     0.0190
  435.5000   -32.9240    16.4490    14.4400    13.0530    13.0270    72.1220     2.3710     0.0190
  436.0000   -33.0900    16.1480    14.4400    13.1910    12.9210    71.6030     2.3740     0.0200
  436.5000   -33.2660    15.8470    14.4080    13.2510    12.8460    70.9870     2.3710     0.0200
  437.0000   -33.4130    15.5470    14.3270    13.3270    12.7760    70.3480     2.3690     0.0200
  437.5000   -33.6140    15.2460    14.2440    13.4320    12.7060    70.0470     2.3720     0.0200
  438.0000   -33.7910    15.1090    14.1780    13.4160    12.6360    69.8650     2.3790     0.0210
  438.5000   -33.9620    14.9720    14.1000    13.3880    12.5560    69.8930     2.3870     0.0220
  439.0000   -34.1620    14.9720    14.0350    13.3610    12.4700    70.1890     2.3910     0.0220
  439.5000   -34.1260    14.9720    13.9690    13.3340    12.3490    70.4800     2.3900     0.0170
  440.0000   -34.0660    14.9720    13.9030    13.3070    12.2420    70.7710     2.3830     0.0130
  440.5000   -33.9960    14.8380    13.8370    13.2790    12.1950    70.7950     2.3760     0.0090
  441.0000   -33.9300    14.7040    13.7700    13.2520    12.1390    70.4230     2.3750     0.0080
  441.5000   -33.8720    14.6060    13.7040    13.2240    12.0580    70.0570     2.3800     0.0090
  442.0000   -33.7990    14.4840    13.6770    13.1920    11.9770    69.7850     2.3850     0.0120
  442.5000   -34.0100    14.3620    13.6010    13.1330    11.8970    70.5280     2.3900     0.0150
  443.0000   -34.2890    14.2400    13.5370    13.0600    11.8310    71.2090     2.3950     0.0180
  443.5000   -34.5720    14.1170    13.4730    12.9860    11.7780    72.3930     2.3950     0.0180
  444.0000   -34.8480    13.9950    13.4090    12.9120    11.7770    73.6050     2.3900     0.0180
  444.5000   -35.1280    13.8730    13.3450    12.8390    11.7740    74.8290     2.3900     0.0180
  445.0000   -35.4070    13.7510    13.2810    12.7650    11.7710    76.0530     2.3910     0.0200
  445.5000   -35.6860    13.6470    13.1930    12.7030    11.7680    76.5130     2.3940     0.0230
  446.0000   -35.9650    13.5700    13.2040    12.6560    11.7650    76.9450     2.4040     0.0260
  446.5000   -36.2450    13.4930    13.2320    12.6080    11.7620    77.3760     2.4070     0.0240
