~VERSION INFORMATION
 VERS.                2.0:   CWLS LOG ASCII STANDARD - VERSION 2.0
 WRAP.                 NO:   ONE LINE PER DEPTH STEP
~WELL INFORMATION
#MNEM.UNIT      DATA TYPE    INFORMATION
#----------   ------------   ------------------------------
 STRT.F           46.5000:   START DEPTH
 STOP.F         3160.0000:   STOP DEPTH
 STEP.F            0.5000:   STEP LENGTH
 NULL.          -999.2500:   NO VALUE
 COMP. LAWRENCE ALLISON & WEST:   COMPANY
 WELL. LAWRENCE NPR 3 "AX" #42-34:   WELL
 FLD .                NPR:   FIELD
 LOC .      S34 T39N R78W:   LOCATION
 CNTY.            NATRONA:   COUNTY
 STAT.            WYOMING:   STATE
 CTRY. UNITED STATES OF AMERICA:   COUNTRY
 SRVC.      WESTERN ATLAS:   SERVICE COMPANY
 DATE.        19-OCT-1987:   LOGDATE
 API .     49025111830000:   API NUMBER
~CURVE INFORMATION
#MNEM.UNIT       API CODE    CURVE DESCRIPTION
#----------   ------------   ------------------------------
 DEPT.F                  :   
 CALD.IN     45 280 60 00:   CALIPER FROM DENSITY LOG
 DEN .LBS    45 635 01 00:   BUCK DENSITY
 CORR.G/C3   45 356 01 00:   DENSITY CORRECTION
 NPOR.DEC    42 890 03 00:   ALPHA PROCESSED NEUTRON POROSITY
 SPR .MV     07 010 01 00:   SPONTANEOUS POTENTIAL
 GRR .GAPI   07 310 01 00:   GAMMA RAY FROM RESISTIVITY
 RFOC.OHMM   07 220 04 00:   RESISTIVITY FOCUSED LOG RES.
 RILD.OHMM   07 120 46 00:   DEEP INDUCTION RESISTIVITY
 RILM.OHMM   07 120 44 00:   INDUCTION LOG MEDIUM RESISTIVITY
 TENR.LBS    07 635 01 00:   TENSION FROM RESISTIVITY
~PARAMETER INFORMATION
#MNEM.UNIT          VALUE    DESCRIPTION
#----------   ------------   ------------------------------
 EKB .F         5088.0000:   Kelly bushing
 EGL .F         5077.0000:   Ground level
 EDF .F         5087.0000:   Drilling floor
 TD  .F         3151.0000:   Total depth
 DATE.        19-OCT-1987:   Date logged
 CLNT.            A2DTECH:   Client Code
 SL  . 1032' FNL & 2316' FWL:   Surface Location
 PD  .                 GL:   Permanent Datum
 EPD .F              5077:   Elevation Permanent Datum
 LMF .                 KB:   Log Measured From
 DMF .                 KB:   Drilling Measured From
 DAPD.F                11:   Feet Above Permanent Datum
 DD  .F              3151:   Depth driller
 DL  .F              3151:   Depth logger
 BLI .F              3149:   Bottom log interval
 TLI .F                50:   Top log interval
 CS1 .IN            8.625:   Casing size
 CBD1.      8.625" @ 693':   Casing driller 1
 CBL1.F               693:   Casing logger 1
 BS1 .IN            7.875:   Bit size
 BSD1.F              3151:   Depth drilled with bit1
 DFT .        KCL/POLYMER:   Type fluid in hole
 DFD .                9.2:   Density
 DFV .                 53:   Viscosity
 DFPH.                9.5:   pH
 DFL .               11.8:   Fluid loss
 MSS .            MUD/PIT:   Source of sample
 RMS .OHMM           .441:   Rm
 MST .F                66:   Rm Meas. temp.
 RMF .OHMM           .336:   Rmf
 MFST.F                66:   Rmf Meas. temp.
 RMC .OHMM           .711:   Rmc
 MCST.F                66:   Rmc Meas. temp.
 MFSS.               MEAS:   Source Rmf.
 MCSS.               MEAS:   Source Rmc.
 RMB .OHMM           .244:   Rm. at BHT
 BHT .F               119:   BHT.
 TCS .HRS               3:   Time Circ. stopped
 MRT .F               119:   Maximum recorded temp.
 LUN .            HL-6343:   Logging unit number
 LUL .               CODY:   Logging unit location
 ENGI.               JULL:   Recorded By
 WITN.             STRONG:   Witnessed by
 ORIG.           5" PRINT:   Origin of data
 UWI .     49025111830000:   Unique Well ID
 DICO. A2D TECHNOLOGIES, INC.:   Digitizing Company
~OTHER INFORMATION
~A   DEPT     CALD        DEN       CORR       NPOR        SPR         GRR      RFOC       RILD       RILM       TENR   
# ...
 1989.5000  -999.2500  -999.2500  -999.2500  -999.2500   -30.0028   137.5756     8.9935     7.2185     6.8904   -93.4932
 1990.0000  -999.2500  -999.2500  -999.2500  -999.2500   -30.0075   137.5644     8.9917     7.2171     6.9537   -83.1430
 1990.5000  -999.2500  -999.2500  -999.2500  -999.2500   -30.0122   149.6744     8.2685     7.1488     6.9520   -92.9969
 1991.0000  -999.2500  -999.2500  -999.2500  -999.2500   -30.0168   154.9184     7.9651     7.1474     6.9506   -82.6468
 1991.5000  -999.2500  -999.2500  -999.2500  -999.2500   -30.0215   154.1007     7.9635     7.1462     6.9495   -92.5005
 1992.0000  -999.2500  -999.2500  -999.2500  -999.2500   -30.0262   153.2830     8.4185     7.1445     6.9478   -92.2523
 1992.5000  -999.2500  -999.2500  -999.2500  -999.2500   -30.0318   146.4020     8.8995     7.1431     7.0763   -92.0042
 1993.0000  -999.2500  -999.2500  -999.2500  -999.2500   -30.0365   145.9885     8.9808     7.1416     7.0751   -91.7064
 1993.5000  -999.2500  -999.2500  -999.2500  -999.2500   -30.0411   145.5750     8.9790     7.1402     7.0743   -91.4582
 1994.0000  -999.2500  -999.2500  -999.2500  -999.2500   -30.0449   142.3329     8.9771     7.2055     7.2055   -91.2101
 1994.5000  -999.2500  -999.2500  -999.2500  -999.2500   -30.0505   137.8787     8.9753     7.2717     7.3393   -90.9619
 1995.0000  -999.2500  -999.2500  -999.2500  -999.2500   -29.8531   130.9986     9.0573     7.3381     7.3376   -90.7137
 1995.5000  -999.2500  -999.2500  -999.2500  -999.2500   -29.8578   131.6270     9.1400     7.4049     7.3364   -90.4656
 1996.0000  -999.2500  -999.2500  -999.2500  -999.2500   -29.8615   138.2548     9.2231     7.5422     7.3349  -100.3188
 1996.5000  -999.2500  -999.2500  -999.2500  -999.2500   -29.8671   138.2455     9.1360     7.5407     7.3334   -89.9197
 1997.0000  -999.2500  -999.2500  -999.2500  -999.2500   -29.8718   128.9427     8.9659     7.5392     7.2638   -89.7211
 1997.5000  -999.2500  -999.2500  -999.2500  -999.2500   -29.8764   128.1254     8.7990     7.5379     7.1284   -89.4730
 1998.0000  -999.2500  -999.2500  -999.2500  -999.2500   -30.2861   130.5386     8.4762     7.5361     7.0604   -99.3260
 1998.5000  -999.2500  -999.2500  -999.2500  -999.2500   -30.0887   131.7416     8.8776     7.4651     7.0592   -99.0778
 1999.0000  -999.2500  -999.2500  -999.2500  -999.2500   -30.0934   134.1566     9.0423     7.3942     7.0579   -88.7286
 1999.5000  -999.2500  -999.2500  -999.2500  -999.2500   -30.0981   134.5513     9.0405     7.3246     7.0567  -108.5832
 2000.0000  -999.2500  -999.2500  -999.2500  -999.2500   -30.1018   134.5420     9.3810     7.2553     7.0556  -128.5865
 2000.5000  -999.2500  -999.2500  -999.2500  -999.2500   -30.2879   137.4205     8.4468     7.2535     7.0538   -94.0884
 2001.0000  -999.2500  -999.2500  -999.2500  -999.2500   -30.7234   138.1559     8.1559     7.1839     7.0515   -87.7820
 2001.5000  -999.2500  -999.2500  -999.2500  -999.2500   -30.7278   135.7205     8.4625     7.1820     6.9847   -87.5818
 2002.0000  -999.2500  -999.2500  -999.2500  -999.2500   -30.7322   131.2650     8.8626     7.1808     7.1127   -87.3815
 2002.5000  -999.2500  -999.2500  -999.2500  -999.2500   -30.7370   124.7935     9.0259     7.1784     7.1109   -97.2827
 2003.0000  -999.2500  -999.2500  -999.2500  -999.2500   -30.9446   134.8786     9.0234     7.2431     7.1091   -97.0825
 2003.5000  -999.2500  -999.2500  -999.2500  -999.2500   -31.1523   142.1395     8.9375     7.3043     7.1076   -96.8824
 2004.0000  -999.2500  -999.2500  -999.2500  -999.2500   -32.1691   143.3442     8.9350     7.3659     7.1061   -96.6822
 2004.5000  -999.2500  -999.2500  -999.2500  -999.2500   -32.7807   141.7106     8.9326     7.3731     7.1034   -86.3801
 2005.0000  -999.2500  -999.2500  -999.2500  -999.2500   -32.9883   140.8913     8.9301     7.3711     7.1018   -86.1798
 2005.5000  -999.2500  -999.2500  -999.2500  -999.2500   -32.9939   141.2925     8.9277     7.3686     7.0995   -85.9395
 2006.0000  -999.2500  -999.2500  -999.2500  -999.2500   -32.7976   148.1404     8.8427     7.3674     7.0979  -105.9436
 2006.5000  -999.2500  -999.2500  -999.2500  -999.2500   -32.3992   150.5529     9.0061     7.3650     7.0960   -95.6412
 2007.0000  -999.2500  -999.2500  -999.2500  -999.2500   -31.5969   150.1375     9.0877     7.3618     7.0268   -95.4410
 2007.5000  -999.2500  -999.2500  -999.2500  -999.2500   -30.9966   149.7221     9.0852     7.3610     7.0252   -85.1383
 2008.0000  -999.2500  -999.2500  -999.2500  -999.2500   -30.8002   148.9067     8.9987     7.3581     7.0236   -95.0405
 2008.5000  -999.2500  -999.2500  -999.2500  -999.2500   -30.6039   146.4715     8.5079     7.3561     7.0218   -94.8403
 2009.0000  -999.2500  -999.2500  -999.2500  -999.2500   -30.0036   143.2284     8.5849     7.3545     7.0855   -84.5373
 2009.5000  -999.2500  -999.2500  -999.2500  -999.2500   -29.6053   142.8131     8.9076     7.3513     7.0835   -84.3370
 2010.0000  -999.2500  -999.2500  -999.2500  -999.2500   -29.4101   140.9626     9.0723     7.3098     7.0160   -63.9307
 2010.5000  -999.2500  -999.2500  -999.2500  -999.2500   -29.2138   138.3408     9.0698     7.2804     6.9499   -83.9363
 2011.0000  -999.2500  -999.2500  -999.2500  -999.2500   -29.2195   133.8861     8.9834     7.2110     6.9475   -93.8392
 2011.5000  -999.2500  -999.2500  -999.2500  -999.2500   -29.2251   130.2394     8.9810     7.2090     6.9451   -83.4956
 2012.0000  -999.2500  -999.2500  -999.2500  -999.2500   -29.6347   128.2085     9.0623     7.0734     6.9442   -83.2952
 2012.5000  -999.2500  -999.2500  -999.2500  -999.2500   -29.6404   126.9855     8.8107     7.0715     6.8776   -93.1984
 2013.0000  -999.2500  -999.2500  -999.2500  -999.2500   -29.8469   132.2254     8.4869     7.0696     6.9385   -92.9981
 2013.5000  -999.2500  -999.2500  -999.2500  -999.2500   -29.8537   135.4456     8.4846     7.0684     6.9368   -92.7979
 2014.0000  -999.2500  -999.2500  -999.2500  -999.2500   -30.0602   140.2814     8.5610     7.0661     6.9362  -102.7014
 2014.5000  -999.2500  -999.2500  -999.2500  -999.2500   -30.2689   139.0583     8.6386     7.0637     6.9338   -92.3974
 2015.0000  -999.2500  -999.2500  -999.2500  -999.2500   -30.4765   144.7018     8.5563     7.0622     6.9316   -92.1971
 2015.5000  -999.2500  -999.2500  -999.2500  -999.2500   -30.4833   144.2843     8.4748     6.9945     6.8655   -91.9968
 2016.0000  -999.2500  -999.2500  -999.2500  -999.2500   -30.6920   141.4456     8.1633     6.9926     6.8640   -91.7965
 2016.5000  -999.2500  -999.2500  -999.2500  -999.2500   -30.7918   141.8381     8.3142     6.9910     6.8622   -81.4919
 2017.0000  -999.2500  -999.2500  -999.2500  -999.2500   -30.8916   141.8268     8.3119     6.9891     6.8603   -71.1470
 2017.5000  -999.2500  -999.2500  -999.2500  -999.2500   -30.9120   141.8155     8.5446     6.9872     6.8580   -81.0511
 2018.0000  -999.2500  -999.2500  -999.2500  -999.2500   -30.9154   140.1886     8.7838     6.9853     6.7676  -101.0600
 2018.5000  -999.2500  -999.2500  -999.2500  -999.2500   -30.9211   139.3695     8.9461     6.9187     6.7279  -100.8598
 2019.0000  -999.2500  -999.2500  -999.2500  -999.2500   -30.9267   137.7427     8.9436     6.9168     6.6641  -100.6596
 2019.5000  -999.2500  -999.2500  -999.2500  -999.2500   -31.1343   138.1353     8.8580     6.9145     6.6616  -100.4594
 2020.0000  -999.2500  -999.2500  -999.2500  -999.2500   -31.5438   138.9318     8.6920     6.9126     6.6601  -130.5743
 2020.5000  -999.2500  -999.2500  -999.2500  -999.2500   -31.7514   142.5553     8.1428     6.8467     6.6586  -110.0840
 2021.0000  -999.2500  -999.2500  -999.2500  -999.2500   -31.9601   145.3710     8.1406     6.7811     6.6565   -99.8587
 2021.5000  -999.2500  -999.2500  -999.2500  -999.2500   -31.9657   148.5882     8.7664     6.7792     6.6543   -79.4478
 2022.0000  -999.2500  -999.2500  -999.2500  -999.2500   -31.7694   150.1922     8.7640     6.7146     6.6524   -79.2474
 2022.5000  -999.2500  -999.2500  -999.2500  -999.2500   -31.1693   153.0078     8.7616     6.6506     6.6510   -79.0069
