~VERSION INFORMATION
 VERS.                2.0:   CWLS LOG ASCII STANDARD - VERSION 2.0
 WRAP.                 NO:   ONE LINE PER DEPTH STEP
~WELL INFORMATION
#MNEM.UNIT      DATA TYPE    INFORMATION
#----------   ------------   ------------------------------
 STRT.F          407.0000:   START DEPTH
 STOP.F         3228.0000:   STOP DEPTH
 STEP.F            0.5000:   STEP LENGTH
 NULL.          -999.2500:   NO VALUE
 COMP.    FENIX & SCISSON:   COMPANY
 WELL.   FENIX "A" #21-34:   WELL
 FLD .             N.P.R.:   FIELD
 LOC .      S34 T39N R78W:   LOCATION
 CNTY.            NATRONA:   COUNTY
 STAT.            WYOMING:   STATE
 CTRY. UNITED STATES OF AMERICA:   COUNTRY
 SRVC.       SCHLUMBERGER:   SERVICE COMPANY
 DATE.        05-MAY-1977:   LOGDATE
 API .     49025103710000:   API NUMBER
~CURVE INFORMATION
#MNEM.UNIT       API CODE    CURVE DESCRIPTION
#----------   ------------   ------------------------------
 DEPT.F                  :   
 SPR .MV     11 010 01 00:   SPONTANEOUS POTENTIAL FROM RES.
 LLS .OHMM   11 220 09 00:   LATEROLOG LOG SHALLOW
 LLD .OHMM   11 220 10 00:   LATEROLOG DEEP
 MSFL.OHMM   11 270 04 00:   MICRO SPHERICALLY FOCUSED
 CALD.IN     45 280 60 00:   CALIPER FROM DENSITY LOG
 NPHI.DEC    42 890 03 00:   NEUTRON POROSITY SANDSTONE
 GRD .GAPI   45 310 01 00:   GAMMA RAY FROM DENSITY LOG
 CORR.G/C3   45 356 01 00:   DENSITY CORRECTION
 RHOB.G/C3   45 350 01 00:   BULK DENSITY
~PARAMETER INFORMATION
#MNEM.UNIT          VALUE    DESCRIPTION
#----------   ------------   ------------------------------
 EKB .F         5086.0000:   Kelly bushing
 EGL .F         5074.0000:   Ground level
 TD  .F         3226.0000:   Total depth
 CLNT.            A2DTECH:   Client Code
 SL  . 990' FWL & 330' FNL:   Surface Location
 PD  .                 GL:   Permanent Datum
 EPD .F              5074:   Elevation Permanent Datum
 LMF .                 KB:   Log Measured From
 DMF .                 KB:   Drilling Measured From
 DAPD.F                12:   Feet Above Permanent Datum
 DATE.        05-MAY-1977:   Date Logged [DD-MMM-YYYY]
 DD  .F              3226:   Depth driller
 DL  .F              3229:   Depth logger
 BLI .F              3227:   Bottom log interval
 TLI .F               430:   Top log interval
 CS1 .IN            8.625:   Casing size
 CBD1.      8.625" @ 424':   Casing driller 1
 CBL1.F               430:   Casing logger 1
 BS1 .IN            7.875:   Bit size
 BSD1.F              3226:   Depth drilled with bit1
 DFT .                KCL:   Type fluid in hole
 DFD .                9.4:   Density
 DFV .                 31:   Viscosity
 DFPH.                  8:   pH
 DFL .                9.6:   Fluid loss
 MSS .           MUD TANK:   Source of sample
 RMS .OHMM          0.202:   Rm
 MST .F                78:   Rm Meas. temp.
 RMF .OHMM          0.191:   Rmf
 MFST.F                76:   Rmf Meas. temp.
 MFSS.               MEAS:   Source Rmf.
 RMC .OHMM           0.30:   Rmc
 MCST.F                78:   Rmc Meas. temp.
 MCSS.               CALC:   Source Rmc.
 RMB .OHMM          0.123:   Rm. at BHT
 BHT .F               128:   BHT.
 TCS .HRS            1400:   Time Circ. stopped
 TLAB.HRS            0300:   Time logger at bottom
 MRT .F               128:   Maximum recorded temp.
 LUN .               5642:   Logging unit number
 LUL .               CSPR:   Logging unit location
 ENGI.                FIX:   Recorded By
 WITN.         HARRINGTON:   Witnessed by
 ORIG.           5" PRINT:   Origin of data
 UWI .     49025103710000:   Unique Well ID
 DICO. A2D TECHNOLOGIES, INC.:   Digitizing Company
~OTHER INFORMATION
~A   DEPT      SPR        LLS        LLD       MSFL       CALD       NPHI         GRD      CORR       RHOB   
# ...
 2633.5000   -66.9406    13.7334    12.3319    14.8631     9.2302     0.2485    93.2287     0.0181     2.5011
 2634.0000   -68.3061    13.5471    12.6922    13.6934     9.2480     0.2403    93.7743     0.0311     2.5253
 2634.5000   -69.3564    13.1154    12.1022    12.3568     9.2659     0.2342    96.2919     0.0418     2.5339
 2635.0000   -69.3421    12.4220    11.5022    12.1123     9.2837     0.2318    87.0716     0.0162     2.4984
 2635.5000   -68.9077    11.6840    10.5633    12.1277     9.3016     0.2316    84.6126     0.0063     2.4962
 2636.0000   -68.5697    10.9141     9.9353    12.1400     9.3194     0.2410    82.5992     0.0338     2.4978
 2636.5000   -68.1594    10.7012     9.6741    11.9760     9.3373     0.2386    88.0405     0.0316     2.4746
 2637.0000   -69.4747    10.7873     9.6845    11.5099     9.3552     0.2425    89.6417     0.0197     2.4611
 2637.5000   -70.7859    11.1022     9.6950    11.5908     9.3730     0.2536    89.2073     0.0236     2.4537
 2638.0000   -71.6026    11.2692     9.7055    11.8271     9.3909     0.2538    89.0040     0.0412     2.4666
 2638.5000   -71.7231    11.3599     9.7159    12.0634     9.4088     0.2513    89.4829     0.0527     2.4938
 2639.0000   -72.4055    11.2936     9.7264    12.2171     9.4267     0.2543    91.0841     0.0505     2.5113
 2639.5000   -72.9766    11.0764     9.7372    12.2294     9.4418     0.2552    96.7454     0.0287     2.5083
 2640.0000   -73.5241    10.9329     9.7501    12.2418     9.4318     0.2536    99.7000     0.0220     2.4896
 2640.5000   -73.5115    10.9477     9.6263    12.2542     9.4221     0.2548   101.3012     0.0146     2.4777
 2641.0000   -73.5237    11.0357     9.5040    12.0979     9.4124     0.2586   101.7746     0.0087     2.4695
 2641.5000   -73.4600    11.3579     9.3808    11.9441     9.4027     0.2631    96.5751     0.0111     2.4666
 2642.0000   -72.7805    11.4492     9.2617    12.0496     9.3931     0.2700    94.8061     0.0180     2.4742
 2642.5000   -71.3142    11.4616     9.1465    12.4785     9.3834     0.2709    95.2785     0.0257     2.4924
 2643.0000   -70.5362    11.4740     9.1564    13.0202     9.3738     0.2642   103.6736     0.0334     2.5038
 2643.5000   -70.5549    11.2502     9.1663    13.2149     9.3641     0.2590   105.0492     0.0358     2.5114
 2644.0000   -70.6489    11.0976     9.2402    13.2283     9.3544     0.2523   106.1993     0.0359     2.5139
 2644.5000   -70.9730    10.8157     9.3251    13.0599     9.3448     0.2481   105.5448     0.0368     2.5056
 2645.0000   -71.4468    10.6814     9.5229    13.0731     9.3351     0.2553    98.5746     0.0339     2.5125
 2645.5000   -72.6730    10.6163     9.6662    13.3606     9.3252     0.2495    96.7867     0.0264     2.5179
 2646.0000   -73.8143    10.7045     9.8800    13.8447     9.3238     0.2443    99.7469     0.0251     2.4856
 2646.5000   -74.4408    11.0936    10.0984    13.9548     9.3264     0.2476    95.0323     0.0283     2.5038
 2647.0000   -74.9877    11.4969    10.3217    13.8727     9.3289     0.2554    89.5987     0.0344     2.5152
 2647.5000   -75.5986    11.9976    10.4771    13.6051     9.3315     0.2550    86.2742     0.0391     2.4927
 2648.0000   -76.2380    12.1781    10.7088    13.1561     9.3340     0.2450    92.3922     0.0453     2.5094
 2648.5000   -77.2615    11.5289    10.7949    12.5472     9.3365     0.2447    94.2190     0.0469     2.5162
 2649.0000   -78.5592    10.9905    10.3583    11.7208     9.3391     0.2471    97.8503     0.0440     2.5144
 2649.5000   -79.8290    10.7143     9.9576    11.3339     9.3416     0.2503   103.7372     0.0411     2.5198
 2650.0000   -80.4388    10.7258     9.4308    10.9599     9.3441     0.2545   105.7895     0.0322     2.5113
 2650.5000   -80.4648    10.7374     8.0499    10.7457     9.3466     0.2590   111.4641     0.0467     2.5335
 2651.0000   -80.8984    10.5280     7.7820    10.7566     9.3492     0.2668   111.1717     0.0748     2.5582
 2651.5000   -80.8465    10.1808     7.7926    10.7675     9.3517     0.2779   107.5848     0.0711     2.5101
 2652.0000   -80.5364     9.5239     7.7450    10.5534     9.3542     0.2793   109.2675     0.0369     2.5012
 2652.5000   -80.1488     8.7561     7.7292    10.2262     9.3568     0.2751   114.0491     0.0242     2.4983
 2653.0000   -80.1048     8.4661     7.5983     9.7916     9.3593     0.2750   115.9731     0.0282     2.5022
 2653.5000   -80.3880     8.2406     7.2957     9.3429     9.3618     0.2834   121.2689     0.0389     2.5136
 2654.0000   -80.8772     7.9145     7.0051     8.9710     9.3614     0.2930   126.0863     0.0488     2.5242
 2654.5000   -82.0885     7.6524     6.6291     8.7339     9.3580     0.2969   127.0152     0.0451     2.5077
 2655.0000   -83.1102     7.5018     6.2172     8.6813     9.3545     0.2917   129.5230     0.0324     2.5161
 2655.5000   -84.7700     7.3040     5.9088     8.6889     9.3511     0.2835   130.4519     0.0499     2.5456
 2656.0000   -86.1878     7.1048     5.7527     8.6351     9.3477     0.2796   128.6740     0.0651     2.5494
 2656.5000   -86.2217     6.8298     5.6397     8.5175     9.3441     0.2828   128.0172     0.0455     2.5172
 2657.0000   -86.2085     6.7422     5.6047     8.3577     9.3433     0.2930   127.1482     0.0502     2.5248
 2657.5000   -86.2029     6.7485     5.5327     8.3074     9.3435     0.2993   123.1147     0.0571     2.5445
 2658.0000   -86.2797     6.8491     5.5008     8.3165     9.3417     0.3101   118.4044     0.0409     2.5355
 2658.5000   -86.5366     6.9512     5.5445     8.3237     9.3142     0.3056   115.7243     0.0225     2.4965
 2659.0000   -87.2056     7.0548     5.5884     8.3888     9.2603     0.2832   114.1719     0.0264     2.4861
 2659.5000   -87.6232     7.0614     5.6338     8.2790     9.2632     0.2747   117.5820     0.0371     2.5058
 2660.0000   -87.4431     7.0193     5.6770     8.0620     9.2248     0.2795   121.9539     0.0462     2.5202
 2660.5000   -87.4012     6.8761     5.5283     7.9532     9.2238     0.2876   124.4340     0.0509     2.5293
 2661.0000   -87.3760     6.6092     5.2351     7.4602     9.2242     0.2894   126.4654     0.0532     2.5325
 2661.5000   -86.3898     6.3461     4.9574     6.6618     9.2242     0.2881   128.7477     0.0480     2.5182
 2662.0000   -85.3540     6.0098     4.7600     6.3967     9.2242     0.2869   129.8954     0.0413     2.5101
 2662.5000   -84.3212     5.8497     4.6341     6.4022     9.2242     0.3097   129.4709     0.0406     2.5180
 2663.0000   -83.2857     5.6966     4.5747     6.8193     9.2242     0.3157   131.5276     0.0521     2.5311
 2663.5000   -82.2653     5.6222     4.6431     7.0654     9.2242     0.3126   124.7939     0.0669     2.5428
 2664.0000   -81.4392     5.6289     4.7133     7.0715     9.2242     0.3183   127.9784     0.0727     2.5489
 2664.5000   -81.8469     5.6754     4.8169     6.9804     9.2242     0.3231   131.6140     0.0721     2.5550
 2665.0000   -82.8722     5.8452     4.8549     6.9867     9.2242     0.3249   126.0016     0.0601     2.5506
 2665.5000   -82.8421     6.0510     4.9961     7.3921     9.2242     0.3164   120.8402     0.0457     2.5191
 2666.0000   -81.1442     6.4017     5.1414     8.3214     9.2243     0.2985   113.6532     0.0156     2.4921
 2666.5000   -80.1688     6.7727     5.4396     9.3676     9.2188     0.2922   104.8828     0.0233     2.4794
 2667.0000   -78.8725     7.2652     6.2542    10.2576     9.2112     0.2966   100.6237     0.0416     2.4712
 2667.5000   -78.2601     8.3523     7.2080    10.7757     9.2036     0.2924    98.8391     0.0522     2.4811
 2668.0000   -78.2748     9.3398     7.9328    11.0876     9.1960     0.2779    98.6402     0.0561     2.4902
 2668.5000   -78.2532    10.0189     8.2202    11.0973     9.1883     0.2622    99.5757     0.0630     2.4806
 2669.0000   -78.6888     9.9525     8.2852    10.8040     9.1807     0.2606   101.4068     0.0669     2.4724
 2669.5000   -79.1222     9.5651     8.1224    10.0157     9.1731     0.2705   103.2379     0.0539     2.4885
