~VERSION INFORMATION
 VERS.                2.0:   CWLS LOG ASCII STANDARD - VERSION 2.0
 WRAP.                 NO:   ONE LINE PER DEPTH STEP
~WELL INFORMATION
#MNEM.UNIT      DATA TYPE    INFORMATION
#----------   ------------   ------------------------------
 STRT.F          196.5000:   START DEPTH
 STOP.F         3202.0000:   STOP DEPTH
 STEP.F            0.5000:   STEP LENGTH
 NULL.          -999.2500:   NO VALUE
 COMP.    FENIX & SCISSON:   COMPANY
 WELL.   FENIX "AX" #26-3:   WELL
 FLD .              NPR-3:   FIELD
 LOC .       S3 T38N R78W:   LOCATION
 CNTY.            NATRONA:   COUNTY
 STAT.            WYOMING:   STATE
 CTRY. UNITED STATES OF AMERICA:   COUNTRY
 SRVC.              WELEX:   SERVICE COMPANY
 DATE.        19-JUN-1977:   LOGDATE
 API .     49025103800000:   API NUMBER
~CURVE INFORMATION
#MNEM.UNIT       API CODE    CURVE DESCRIPTION
#----------   ------------   ------------------------------
 DEPT.F                  :   
 CALD.IN     45 280 60 00:   CALIPER FROM DENSITY LOG
 GRD .GAPI   45 310 01 00:   GAMMA RAY FROM DENSITY LOG
 RHOB.G/C3   45 350 01 00:   BULK DENSITY
 CORR.G/C3   45 356 01 00:   DENSITY CORRECTION
 SPR .MV     07 010 01 00:   SPONTANEOUS POTENTIAL
 ILD .OHMM   07 120 46 00:   DEEP INDUCTION RESISTIVITY
 ILM .OHMM   07 120 44 00:   INDUCTION LOG MEDIUM RESISTIVITY
 SGRD.OHMM   07 220 05 00:   SHALLOW SHORT GUARD RESISTIVITY
~PARAMETER INFORMATION
#MNEM.UNIT          VALUE    DESCRIPTION
#----------   ------------   ------------------------------
 EKB .F         5231.0000:   Kelly bushing
 EGL .F         5221.0000:   Ground level
 EDF .F            0.0000:   Drilling floor
 TD  .F         3204.0000:   Total depth
 CLNT.            A2DTECH:   Client Code
 SL  . 1320' FSL & 740' FWL:   Surface Location
 PD  .                 GL:   Permanent Datum
 EPD .F              5221:   Elevation Permanent Datum
 LMF .                 KB:   Log Measured From
 DMF .                 KB:   Drilling Measured From
 DAPD.F                10:   Feet Above Permanent Datum
 DATE.        19-JUN-1977:   Date Logged [DD-MMM-YYYY]
 DD  .F              3200:   Depth driller
 DL  .F              3204:   Depth logger
 BLI .F              3202:   Bottom log interval
 TLI .F               220:   Top log interval
 CS1 .IN            8.625:   Casing size
 CBD1.      8.625" @ 220':   Casing driller 1
 CBL1.F               220:   Casing logger 1
 BS1 .IN            7.875:   Bit size
 BSD1.F              3200:   Depth drilled with bit1
 DFT .                KCL:   Type fluid in hole
 DFD .                9.1:   Density
 RMS .OHMM           1.19:   Rm
 MST .F                65:   Rm Meas. temp.
 TCS .HRS               4:   Time Circ. stopped
 MRT .F               115:   Maximum recorded temp.
 LUN .               8766:   Logging unit number
 ENGI.          T. JOYNER:   Recorded By
 WITN.         PETTINGILL:   Witnessed by
 ORIG.           5" PRINT:   Origin of data
 UWI .     49025103800000:   Unique Well ID
 DICO. A2D TECHNOLOGIES, INC.:   Digitizing Company
 DFPH.                7.5:   pH
 DFL .                4.2:   Fluid loss
 MSS .            MUD PIT:   Source of sample
 RMF .OHMM           1.19:   Rmf
 MFST.F                65:   Rmf Meas. temp.
 MFSS.               MEAS:   Source Rmf.
 RMC .OHMM           2.01:   Rmc
 MCST.F                65:   Rmc Meas. temp.
 MCSS.               MEAS:   Source Rmc.
 RMB .OHMM            .67:   Rm. at BHT
 BHT .F               115:   BHT.
~OTHER INFORMATION
~A   DEPT     CALD         GRD      RHOB       CORR        SPR        ILD        ILM       SGRD   
# ...
 1411.5000    10.0915    79.5223     2.4348     0.0131   -59.1620     7.4553     8.5972     8.5380
 1412.0000    10.0926    79.2632     2.4372     0.0132   -59.0510     7.4100     8.5862     8.5445
 1412.5000    10.0935    79.0043     2.4396     0.0133   -58.8883     7.3144     8.5744     8.5523
 1413.0000    10.0796    78.4488     2.4427     0.0133   -58.8737     7.2699     8.5568     8.5575
 1413.5000    10.0720    79.3863     2.4450     0.0134   -58.8591     7.2255     8.4513     8.5650
 1414.0000    10.0666    80.3144     2.4451     0.0135   -58.6963     7.1322     8.4588     8.5116
 1414.5000    10.0677    80.0555     2.4429     0.0135   -58.6815     7.0888     8.4648     8.4593
 1415.0000    10.0536    79.5000     2.4394     0.0136   -58.5185     7.0456     8.5295     8.4666
 1415.5000    10.0547    78.0447     2.4395     0.0137   -58.5008     7.0524     8.5947     8.4147
 1416.0000    10.0557    80.4659     2.4418     0.0138   -58.4862     6.9613     8.6008     8.3631
 1416.5000    10.0565    80.8006     2.4442     0.0146   -58.3234     6.9667     8.6069     8.3119
 1417.0000    10.0684    80.8384     2.4465     0.0154   -58.1607     6.9242     8.6727     8.3191
 1417.5000    10.0731    80.8763     2.4489     0.0162   -58.1461     6.9296     8.7391     8.3818
 1418.0000    10.0741    80.6175     2.4497     0.0163   -57.9833     6.8873     8.7454     8.3881
 1418.5000    10.0799    79.1582     2.4483     0.0163   -57.9687     6.8467     8.7529     8.4529
 1419.0000    10.1057    79.5789     2.4469     0.0164   -57.9541     6.8049     8.7591     8.5175
 1419.5000    10.1066    81.9275     2.4471     0.0157   -57.9395     6.8102     8.8260     8.5239
 1420.0000    10.1223    82.5589     2.4494     0.0158   -57.9250     6.8154     8.8929     8.5900
 1420.5000    10.1380    82.5967     2.4525     0.0158   -58.0622     6.8678     8.9211     8.6692
 1421.0000    10.1389    82.6346     2.4564     0.0152   -57.8935     6.9206     9.0300     8.7227
 1421.5000    10.1247    82.6725     2.4557     0.0145   -58.3272     6.9738     9.0990     8.7889
 1422.0000    10.1111    82.4042     2.4543     0.0146   -58.4609     7.0275     9.1686     8.8656
 1422.5000    10.0972    81.8581     2.4537     0.0124   -58.4429     7.0867     9.2389     8.9249
 1423.0000    10.0833    81.3025     2.4538     0.0117   -58.5778     7.1864     9.3110     9.0561
 1423.5000    10.0844    80.4502     2.4531     0.0118   -58.5623     7.2416     9.3822     9.0621
 1424.0000    10.0702    79.8232     2.4517     0.0118   -58.5481     7.2472     9.3888     9.1622
 1424.5000    10.0563    79.0422     2.4496     0.0111   -58.5333     7.3534     9.3954     9.2018
 1425.0000    10.0130    79.3769     2.4475     0.0105   -58.5185     7.4182     9.4021     9.2088
 1425.5000     9.9991    77.8881     2.4446     0.0098   -58.5011     7.4666     9.3423     9.2158
 1426.0000     9.9852    75.0393     2.4409     0.0099   -58.4867     7.4726     9.2222     9.2879
 1426.5000     9.9861    75.3457     2.4387     0.0099   -58.4741     7.4784     9.1652     9.2948
 1427.0000     9.9872    74.7901     2.4357     0.0100   -58.4579     7.4844     9.1085     9.3018
 1427.5000     9.9881    73.6315     2.4330     0.0101   -58.4423     7.4913     8.9914     9.3087
 1428.0000     9.9890    74.5691     2.4316     0.0101   -58.4296     7.4971     8.9978     9.3156
 1428.5000     9.9899    74.3102     2.4317     0.0094   -58.4148     7.5021     8.9406     9.3225
 1429.0000     9.9908    73.1612     2.4310     0.0088   -58.4004     7.5081     8.9477     9.3106
 1429.5000     9.9917    72.0121     2.4281     0.0073   -58.5341     7.5144     8.9950     9.2082
 1430.0000     9.9926    70.5663     2.4267     0.0067   -58.6667     7.4684     9.0233     9.1700
 1430.5000     9.9935    71.4944     2.4261     0.0067   -58.6519     7.4226     9.0296     9.1789
 1431.0000     9.9650    73.3127     2.4254     0.0068   -58.6355     7.4293     8.9738     9.1229
 1431.5000     9.9659    72.4604     2.4271     0.0069   -58.7704     7.4151     8.9183     9.0655
 1432.0000     9.9668    70.4211     2.4302     0.0069   -58.7556     7.3386     8.8536     9.0740
 1432.5000     9.9677    71.0534     2.4333     0.0070   -58.7407     7.3456     8.7493     8.9993
 1433.0000     9.9686    71.3887     2.4364     0.0078   -58.7248     7.3506     8.6936     8.9638
 1433.5000     9.9695    70.2475     2.4380     0.0086   -58.7111     7.3051     8.7013     8.9050
 1434.0000     9.9704    68.5050     2.4381     0.0087   -58.6949     7.3121     8.7678     8.8552
 1434.5000     9.9861    67.6432     2.4382     0.0088   -58.6793     7.2680     8.8349     8.7409
 1435.0000     9.9870    69.4709     2.4329     0.0088   -58.5167     7.2578     8.8411     8.7110
 1435.5000     9.9881    68.6186     2.4279     0.0089   -58.5494     7.2289     8.8474     8.6339
 1436.0000    10.0038    70.7336     2.4280     0.0075   -58.6397     7.1848     8.8536     8.6423
 1436.5000    10.0196    69.8813     2.4304     0.0075   -58.6217     7.1917     8.8601     8.5289
 1437.0000    10.0205    70.2159     2.4335     0.0076   -58.6074     7.1973     8.8677     8.5117
 1437.5000    10.0214    71.7375     2.4373     0.0077   -58.5926     7.2021     8.8113     8.4267
 1438.0000    10.0222    72.6656     2.4389     0.0077   -58.5773     7.2084     8.7568     8.3178
 1438.5000    10.0231    72.4065     2.4375     0.0093   -58.4124     7.2135     8.6428     8.2912
 1439.0000    10.0241    70.6642     2.4361     0.0094   -58.3980     7.2200     8.5893     8.2166
 1439.5000    10.0252    72.5968     2.4362     0.0094   -58.3852     7.2249     8.4190     8.2245
 1440.0000    10.0261    73.7073     2.4386     0.0095   -58.5173     7.2306     8.3106     8.1166
 1440.5000    10.0270    72.8550     2.4410     0.0088   -58.5029     7.2364     8.2025     8.1244
 1441.0000    10.0279    75.8602     2.4426     0.0089   -58.6370     7.1921     8.2085     8.1307
 1441.5000    10.0287    72.9307     2.4412     0.0089   -58.6222     7.1483     8.2156     8.1367
 1442.0000    10.0297    76.8357     2.4368     0.0083   -58.6079     7.1061     8.2214     8.1433
 1442.5000    10.0306    74.4997     2.4346     0.0083   -58.7416     7.0614     8.2272     8.1501
 1443.0000    10.0463    75.4277     2.4362     0.0084   -58.8754     7.0682     8.2331     8.1560
 1443.5000    10.0472    76.0496     2.4410     0.0100   -58.8574     7.0737     8.3535     8.2758
 1444.0000    10.0481    71.0525     2.4455     0.0115   -58.8430     7.0304     8.4758     8.2877
 1444.5000    10.0492    75.8381     2.4493     0.0116   -58.8286     6.9877     8.5998     8.4050
 1445.0000    10.0500    75.5793     2.4517     0.0117   -58.9630     6.9932     8.6655     8.4684
 1445.5000    10.0510    74.4302     2.4540     0.0117   -58.9480     6.9988     8.7318     8.5940
 1446.0000    10.0369    75.6550     2.4518     0.0125   -58.9336     7.0043     8.7382     8.6601
 1446.5000    10.0380    73.6158     2.4505     0.0126   -59.2155     7.0106     8.7457     8.6668
 1447.0000    10.0389    77.5207     2.4498     0.0127   -59.1975     7.0161     8.6900     8.7333
 1447.5000    10.0398    78.7455     2.4500     0.0135   -59.3348     7.0210     8.6977     8.6802
 1448.0000    10.0407    78.1899     2.4523     0.0136   -59.3168     7.0269     8.6424     8.6871
 1448.5000    10.0417    76.4474     2.4547     0.0139   -59.4542     7.0321     8.6293     8.7538
 1449.0000    10.0427    75.2888     2.4563     0.0140   -59.4362     7.0376     8.5359     8.6423
 1449.5000    10.0435    76.2264     2.4579     0.0141   -59.5704     7.0432     8.5434     8.5879
 1450.0000    10.0445    78.4547     2.4587     0.0142   -59.6296     7.0488     8.5494     8.5962
 1450.5000    10.0454    77.5610     2.4573     0.0136   -59.6975     7.0554     8.5556     8.4850
 1451.0000    10.0530    76.7533     2.4559     0.0137   -59.8231     7.0608     8.5630     8.4916
 1451.5000    10.0620    80.6677     2.4545     0.0138   -59.8051     7.0776     8.5691     8.4229
