~VERSION INFORMATION
 VERS.                2.0:   CWLS LOG ASCII STANDARD - VERSION 2.0
 WRAP.                 NO:   ONE LINE PER DEPTH STEP
~WELL INFORMATION
#MNEM.UNIT      DATA TYPE    INFORMATION
#----------   ------------   ------------------------------
 STRT.F          200.0000:   START DEPTH
 STOP.F         3060.0000:   STOP DEPTH
 STEP.F            0.5000:   STEP LENGTH
 NULL.          -999.2500:   NO VALUE
 COMP.    FENIX & SCISSON:   COMPANY
 WELL. FENIX NPR 3 "AX" #58-21:   WELL
 FLD .      NPR - WILDCAT:   FIELD
 LOC .      S21 T39N R78W:   LOCATION
 CNTY.            NATRONA:   COUNTY
 STAT.            WYOMING:   STATE
 CTRY. UNITED STATES OF AMERICA:   COUNTRY
 SRVC.              WELEX:   SERVICE COMPANY
 DATE.        12-JUN-1977:   LOGDATE
 API .     49025103790000:   API NUMBER
~CURVE INFORMATION
#MNEM.UNIT       API CODE    CURVE DESCRIPTION
#----------   ------------   ------------------------------
 DEPT.F                  :   
 CALD.IN     45 280 60 00:   CALIPER FROM DENSITY LOG
 GRD .GAPI   45 310 01 00:   GAMMA RAY FROM DENSITY LOG
 CORR.G/C3   45 356 01 00:   DENSITY CORRECTION
 RHOB.G/C3   45 350 01 00:   BULK DENSITY
 SPR .MV     07 010 01 00:   SPONTANEOUS POTENTIAL
 ILD .OHMM   07 120 46 00:   DEEP INDUCTION RESISTIVITY
 GURD.OHMM   07 220 05 00:   GUARD LOG RESISTIVITY
 ILM .OHMM   07 120 44 00:   INDUCTION LOG MEDIUM RESISTIVITY
 DT  .US/F   60 520 00 00:   DELTA TIME
 SPHI.DEC    60 890 00 00:   SONIC POROSITY
~PARAMETER INFORMATION
#MNEM.UNIT          VALUE    DESCRIPTION
#----------   ------------   ------------------------------
 EKB .F         5016.0000:   Kelly bushing
 EGL .F         5006.0000:   Ground level
 EDF .F            0.0000:   Drilling floor
 EPD .F            0.0000:   Permanent datum
 TD  .F         3062.0000:   Total depth
 DATE.        12-JUN-1977:   Date logged
 CLNT.            A2DTECH:   Client Code
 SL  . 280' FSL & 2160' FEL:   Surface Location
 PD  .                 GL:   Permanent Datum
 DD  .F              3060:   Depth driller
 DL  .F              3062:   Depth logger
 BLI .F              3060:   Bottom log interval
 TLI .F              2450:   Top log interval
 CS1 .IN            8.625:   Casing size
 CBD1.      8.625" @ 200':   Casing driller 1
 CBL1.F               218:   Casing logger 1
 BS1 .IN            7.875:   Bit size
 BSD1.F              3060:   Depth drilled with bit1
 DFT .            KCL/MUD:   Type fluid in hole
 DFD .                8.7:   Density
 DFV .                 33:   Viscosity
 DFPH.                7.5:   pH
 DFL .                 36:   Fluid loss
 MSS .           FLOWLINE:   Source of sample
 TCS .HRS             4.5:   Time Circ. stopped
 MRT .F               110:   Maximum recorded temp.
 LUN .               8611:   Logging unit number
 LUL .           GILLETTE:   Logging unit location
 ENGI.            C. DOAK:   Recorded By
 WITN.            RHOADES:   Witnessed by
 ORIG.           5" PRINT:   Origin of data
 UWI .     49025103790000:   Unique Well ID
 DICO. A2D TECHNOLOGIES, INC.:   Digitizing Company
 DAPD.                 10:   Feet Above Permanent Datum
 RMS .OHMM            1.3:   Rm
 MST .F                84:   Rm Meas. temp.
 RMF .OHMM            .52:   Rmf
 MFST.F                84:   Rmf Meas. temp.
 MFSS.               FANN:   Source Rmf.
 RMC .OHMM           1.43:   Rmc
 MCST.F                84:   Rmc Meas. temp.
 MCSS.                KIT:   Source Rmc.
 RMB .OHMM            .99:   Rm. at BHT
 BHT .F               110:   BHT.
~OTHER INFORMATION
~A   DEPT     CALD         GRD      CORR       RHOB        SPR        ILD       GURD        ILM         DT       SPHI   
# ...
 1908.5000     8.6360   136.8570    -0.0020     2.4200   -65.3770    10.5930    15.3620    11.6060  -999.2500  -999.2500
 1909.0000     8.6340   135.6250    -0.0020     2.4270   -65.3430    10.6260    15.3030    11.5090  -999.2500  -999.2500
 1909.5000     8.6310   134.8550     0.0020     2.4250   -65.3290    10.6590    15.2440    11.4010  -999.2500  -999.2500
 1910.0000     8.6290   136.4670     0.0020     2.4140   -65.2890    10.6910    15.1850    11.4060  -999.2500  -999.2500
 1910.5000     8.6280   138.3330     0.0010     2.4060   -65.2650    10.7240    15.1260    11.3510  -999.2500  -999.2500
 1911.0000     8.6280   140.3730    -0.0020     2.4110   -65.2350    10.7580    15.0680    11.3180  -999.2500  -999.2500
 1911.5000     8.6280   138.9950    -0.0040     2.4190   -65.2060    10.7910    15.0320    11.2830  -999.2500  -999.2500
 1912.0000     8.6280   136.7590    -0.0060     2.4270   -65.1770    10.7380    13.4600    11.2500  -999.2500  -999.2500
 1912.5000     8.6280   134.1890    -0.0060     2.4340   -65.1480    10.6490    13.6650    11.2170  -999.2500  -999.2500
 1913.0000     8.6280   133.9850    -0.0060     2.4420   -65.1180    10.5600    14.1800    11.1840  -999.2500  -999.2500
 1913.5000     8.6280   134.3950    -0.0050     2.4470   -65.0890    10.4720    14.4890    11.1510  -999.2500  -999.2500
 1914.0000     8.6280   135.2000    -0.0050     2.4470   -65.0620    10.4010    13.8450    11.1170  -999.2500  -999.2500
 1914.5000     8.6280   136.2280    -0.0040     2.4450   -65.0260    10.4310    13.4600    11.0840  -999.2500  -999.2500
 1915.0000     8.6280   135.9060    -0.0040     2.4430   -65.0720    10.4690    13.6990    11.0510  -999.2500  -999.2500
 1915.5000     8.6280   135.3520    -0.0030     2.4420   -65.1790    10.5060    13.9370    11.0180  -999.2500  -999.2500
 1916.0000     8.6280   134.7040    -0.0030     2.4470   -65.2770    10.5440    14.2240    10.9910  -999.2500  -999.2500
 1916.5000     8.6280   134.1810    -0.0020     2.4510   -65.3750    10.5820    14.1200    11.0150  -999.2500  -999.2500
 1917.0000     8.6280   134.0420    -0.0020     2.4560   -65.4750    10.6200    13.9650    11.0440  -999.2500  -999.2500
 1917.5000     8.6280   135.5020    -0.0010     2.4550   -65.5730    10.6570    13.9650    11.0730  -999.2500  -999.2500
 1918.0000     8.6280   137.2130    -0.0010     2.4490   -65.6700    10.6950    14.4990    11.1030  -999.2500  -999.2500
 1918.5000     8.6280   137.3800     0.0000     2.4430   -65.7760    10.7330    15.0320    11.1320  -999.2500  -999.2500
 1919.0000     8.6280   135.7510     0.0000     2.4390   -65.7790    10.7710    14.9160    11.1620  -999.2500  -999.2500
 1919.5000     8.6280   137.2740     0.0010     2.4460   -65.7070    10.8090    14.7220    11.1910  -999.2500  -999.2500
 1920.0000     8.6280   139.4370     0.0010     2.4450   -65.6440    10.8470    14.4890    11.2210  -999.2500  -999.2500
 1920.5000     8.6280   138.5800     0.0020     2.4370   -65.5810    10.8850    14.5660    11.2500  -999.2500  -999.2500
 1921.0000     8.6280   136.2740     0.0020     2.4300   -65.5170    10.9230    14.6620    11.2800  -999.2500  -999.2500
 1921.5000     8.6280   134.1720     0.0040     2.4210   -65.4530    10.9610    14.7580    11.3090  -999.2500  -999.2500
 1922.0000     8.6280   131.8280     0.0050     2.4250   -65.3900    10.9910    14.5670    11.3390  -999.2500  -999.2500
 1922.5000     8.6280   131.5850     0.0060     2.4350   -65.3260    10.9140    14.3770    11.3680  -999.2500  -999.2500
 1923.0000     8.6280   132.3050     0.0090     2.4450   -65.2620    10.8180    14.2240    11.4040  -999.2500  -999.2500
 1923.5000     8.6290   134.0000     0.0120     2.4540   -65.1990    10.7220    14.4960    11.3720  -999.2500  -999.2500
 1924.0000     8.6280   133.1610     0.0160     2.4590   -65.1340    10.6270    14.8360    11.2910  -999.2500  -999.2500
 1924.5000     8.6290   131.6840     0.0190     2.4570   -65.0700    10.5310    15.1760    11.2100  -999.2500  -999.2500
 1925.0000     8.6300   131.6470     0.0220     2.4560   -65.0220    10.4350    15.3120    11.1290  -999.2500  -999.2500
 1925.5000     8.6430   131.5470     0.0250     2.4640   -65.0380    10.3390    14.6950    11.0490  -999.2500  -999.2500
 1926.0000     8.6540   132.2980     0.0280     2.4750   -65.0510    10.2430    14.2240    10.9690  -999.2500  -999.2500
 1926.5000     8.6660   133.9200     0.0310     2.4820   -65.0660    10.1470    14.4230    10.8900  -999.2500  -999.2500
 1927.0000     8.6780   135.9030     0.0330     2.4810   -65.0800    10.0520    14.4890    10.7880  -999.2500  -999.2500
 1927.5000     8.6900   137.9210     0.0260     2.4750   -65.0940     9.9560    13.1660    10.7930  -999.2500  -999.2500
 1928.0000     8.7020   139.6880     0.0200     2.4640   -65.1090     9.8410    11.4030    10.8000  -999.2500  -999.2500
 1928.5000     8.7130   140.8080     0.0130     2.4520   -65.1230     9.8410    13.9650    10.8130  -999.2500  -999.2500
 1929.0000     8.7250   137.4420     0.0070     2.4400   -65.1370    10.0240    14.4890    10.8270  -999.2500  -999.2500
 1929.5000     8.7380   133.4070     0.0010     2.4280   -65.1520    10.0900    14.4360    10.8420  -999.2500  -999.2500
 1930.0000     8.7460   131.2930    -0.0060     2.4180   -65.1660    10.1740    14.3700    10.8560  -999.2500  -999.2500
 1930.5000     8.7450   131.7040    -0.0100     2.4190   -65.1800    10.2570    14.3040    10.8710  -999.2500  -999.2500
 1931.0000     8.6880   133.1230    -0.0090     2.4250   -65.1940    10.3400    14.2240    10.8850  -999.2500  -999.2500
 1931.5000     8.6200   134.3580    -0.0060     2.4300   -65.2090    10.4240    14.3400    10.8990  -999.2500  -999.2500
 1932.0000     8.5860   135.5470    -0.0030     2.4350   -65.2230    10.5070    14.6280    10.9130  -999.2500  -999.2500
 1932.5000     8.5900   135.2860     0.0010     2.4290   -65.2370    10.5900    14.9170    10.9280  -999.2500  -999.2500
 1933.0000     8.5890   134.3020     0.0020     2.4240   -65.2520    10.6740    15.0320    10.9420  -999.2500  -999.2500
 1933.5000     8.5890   133.3580     0.0000     2.4180   -65.2660    10.7900    14.4990    10.9560  -999.2500  -999.2500
 1934.0000     8.5890   132.3260    -0.0030     2.4120   -65.2800    10.7650    13.9650    10.9710  -999.2500  -999.2500
 1934.5000     8.5890   131.4930    -0.0060     2.4060   -65.2950    10.7240    14.1390    10.9850  -999.2500  -999.2500
 1935.0000     8.5890   130.6110    -0.0090     2.4060   -65.3090    10.6820    14.4890    10.9910  -999.2500  -999.2500
 1935.5000     8.5890   130.1910    -0.0120     2.4130   -65.3230    10.6400    14.3590    10.9920  -999.2500  -999.2500
 1936.0000     8.5890   130.8770    -0.0140     2.4210   -65.3380    10.5990    14.0340    10.9770  -999.2500  -999.2500
 1936.5000     8.5890   133.0980    -0.0110     2.4250   -65.3520    10.5570    13.7100    10.9500  -999.2500  -999.2500
 1937.0000     8.5890   135.2450    -0.0080     2.4240   -65.3660    10.5150    14.0340    10.9240  -999.2500  -999.2500
 1937.5000     8.5890   137.3870    -0.0060     2.4220   -65.3810    10.4740    14.3590    10.8990  -999.2500  -999.2500
 1938.0000     8.5890   139.3040    -0.0030     2.4290   -65.3950    10.4320    14.4890    10.8740  -999.2500  -999.2500
 1938.5000     8.5890   140.1270     0.0000     2.4390   -65.4100    10.3900    13.7100    10.8480  -999.2500  -999.2500
 1939.0000     8.5890   139.1140     0.0030     2.4490   -65.4150    10.3490    13.8640    10.8230  -999.2500  -999.2500
 1939.5000     8.5890   137.2810     0.0050     2.4600   -65.4150    10.3070    14.2240    10.7970  -999.2500  -999.2500
 1940.0000     8.5890   136.2890     0.0080     2.4660   -65.4150    10.2660    14.0310    10.7720  -999.2500  -999.2500
 1940.5000     8.5890   136.5090     0.0110     2.4700   -65.4150    10.2240    13.7100    10.7460  -999.2500  -999.2500
 1941.0000     8.5890   137.9980     0.0140     2.4750   -65.4150    10.1820    14.1470    10.7210  -999.2500  -999.2500
 1941.5000     8.5890   139.4870     0.0140     2.4810   -65.4150    10.1400    14.5830    10.6950  -999.2500  -999.2500
