~VERSION INFORMATION
 VERS.                2.0:   CWLS LOG ASCII STANDARD - VERSION 2.0
 WRAP.                 NO:   ONE LINE PER DEPTH STEP
~WELL INFORMATION
#MNEM.UNIT      DATA TYPE    INFORMATION
#----------   ------------   ------------------------------
 STRT.F          640.0000:   START DEPTH
 STOP.F         2792.0000:   STOP DEPTH
 STEP.F            0.5000:   STEP LENGTH
 NULL.          -999.2500:   NO VALUE
 COMP.    FENIX & SCISSON:   COMPANY
 WELL.   FENIX SHX #41-11:   WELL
 FLD .        TEAPOT DOME:   FIELD
 LOC .      S11 T38N R78W:   LOCATION
 CNTY.            NATRONA:   COUNTY
 STAT.            WYOMING:   STATE
 CTRY. UNITED STATES OF AMERICA:   COUNTRY
 SRVC.           BIRDWELL:   SERVICE COMPANY
 DATE.        07-JUL-1979:   LOGDATE
 API .     49025107880000:   API NUMBER
~CURVE INFORMATION
#MNEM.UNIT       API CODE    CURVE DESCRIPTION
#----------   ------------   ------------------------------
 DEPT.F                  :   
 CALD.IN     45 280 60 00:   CALIPER FROM DENSITY LOG
 RHOB.G/C3   45 350 01 00:   BULK DENSITY
 CORR.G/C3   45 356 01 00:   DENSITY CORRECTION
 GRD .GAPI   45 310 01 00:   GAMMA RAY FROM DENSITY LOG
~PARAMETER INFORMATION
#MNEM.UNIT          VALUE    DESCRIPTION
#----------   ------------   ------------------------------
 EKB .F         5168.0000:   Kelly bushing
 EGL .F         5158.0000:   Ground level
 EDF .F            0.0000:   Drilling floor
 EPD .F            0.0000:   Permanent datum
 TD  .F         2801.0000:   Total depth
 DATE.        07-JUL-1979:   Date logged
 CLNT.            A2DTECH:   Client Code
 SL  . 95' FNL & 2414' FWL:   Surface Location
 PD  .                 GL:   Permanent Datum
 DAPD.F                10:   Feet Above Permanent Datum
 DD  .F              2801:   Depth driller
 DL  .F              2791:   Depth logger
 BLI .F              2790:   Bottom log interval
 TLI .F               640:   Top log interval
 CS1 .IN            9.625:   Casing size
 CBD1.      9.625" @ 909':   Casing driller 1
 CBL1.F               910:   Casing logger 1
 BS1 .IN             8.75:   Bit size
 BSD1.F              2801:   Depth drilled with bit1
 DFT .                AIR:   Type fluid in hole
 LUN .               2959:   Logging unit number
 LUL .             CASPER:   Logging unit location
 ENGI.         B. RULLINS:   Recorded By
 WITN.           GINSMORE:   Witnessed by
 ORIG.           5" PRINT:   Origin of data
 UWI .     49025107880000:   Unique Well ID
 DICO. A2D TECHNOLOGIES, INC.:   Digitizing Company
~OTHER INFORMATION
~A   DEPT     CALD       RHOB       CORR         GRD  
# ...
 1881.0000    10.1820     2.4770     0.0180   121.0170
 1881.5000    10.1820     2.4880     0.0260   119.0610
 1882.0000    10.1830     2.5060     0.0320   116.9690
 1882.5000    10.1260     2.5200     0.0280   115.5010
 1883.0000    10.0200     2.5210     0.0220   116.9500
 1883.5000     9.9150     2.5190     0.0170   119.4860
 1884.0000     9.8090     2.5170     0.0110   119.1280
 1884.5000     9.7040     2.5180     0.0080   117.4470
 1885.0000     9.6410     2.5260     0.0100   115.7820
 1885.5000     9.6430     2.5350     0.0130   114.1230
 1886.0000     9.6440     2.5340     0.0140   113.2940
 1886.5000     9.6460     2.5280     0.0130   114.9990
 1887.0000     9.6470     2.5230     0.0090   117.4770
 1887.5000     9.6480     2.5180     0.0050   119.9850
 1888.0000     9.6500     2.5130     0.0020   122.4910
 1888.5000     9.6510     2.5130     0.0020   125.0090
 1889.0000     9.6520     2.5170     0.0040   126.3280
 1889.5000     9.6530     2.5210     0.0070   125.1150
 1890.0000     9.6550     2.5220     0.0100   121.2620
 1890.5000     9.6560     2.5280     0.0120   120.5830
 1891.0000     9.6570     2.5350     0.0120   130.4790
 1891.5000     9.6590     2.5410     0.0120   126.2670
 1892.0000     9.6590     2.5420     0.0100   120.6480
 1892.5000     9.6650     2.5350     0.0080   116.8010
 1893.0000     9.7580     2.5260     0.0050   117.9950
 1893.5000     9.8430     2.5180     0.0020   119.9550
 1894.0000     9.8670     2.5170     0.0020   120.9560
 1894.5000     9.8780     2.5290     0.0020   121.5670
 1895.0000     9.8890     2.5330     0.0060   123.3370
 1895.5000     9.9000     2.5330     0.0100   125.1530
 1896.0000     9.9110     2.5330     0.0140   125.0430
 1896.5000     9.9230     2.5330     0.0200   123.0770
 1897.0000     9.9400     2.5370     0.0250   121.1990
 1897.5000     9.9610     2.5450     0.0310   122.1190
 1898.0000     9.9610     2.5530     0.0370   124.0370
 1898.5000     9.9600     2.5560     0.0430   125.9690
 1899.0000     9.9590     2.5510     0.0480   127.1340
 1899.5000     9.9580     2.5360     0.0410   120.5220
 1900.0000     9.9570     2.5200     0.0300   114.2800
 1900.5000     9.9550     2.5060     0.0190   114.0470
 1901.0000     9.9540     2.5060     0.0100   120.4190
 1901.5000     9.9530     2.5040     0.0100   122.6810
 1902.0000     9.9520     2.5010     0.0100   121.7610
 1902.5000     9.9510     2.5000     0.0050   120.5290
 1903.0000     9.9500     2.4990     0.0000   120.4730
 1903.5000     9.9490     2.4990    -0.0030   120.9480
 1904.0000     9.9480     2.4990    -0.0040   120.9420
 1904.5000     9.9470     2.5010     0.0010   120.8140
 1905.0000     9.9450     2.5030     0.0070   120.3890
 1905.5000     9.9440     2.5050     0.0130   119.4670
 1906.0000     9.9430     2.5130     0.0190   117.6390
 1906.5000     9.9420     2.5190     0.0240   117.7100
 1907.0000     9.9480     2.5260     0.0260   119.0140
 1907.5000     9.9560     2.5330     0.0260   116.9040
 1908.0000     9.9640     2.5400     0.0250   115.7420
 1908.5000     9.9710     2.5420     0.0220   116.6070
 1909.0000     9.9780     2.5420     0.0180   117.8060
 1909.5000     9.9810     2.5360     0.0160   119.1080
 1910.0000    10.0170     2.5230     0.0270   118.9050
 1910.5000    10.1000     2.5100     0.0420   116.5640
 1911.0000    10.1820     2.4960     0.0410   115.2940
 1911.5000    10.2630     2.4830     0.0360   117.4400
 1912.0000    10.3150     2.4700     0.0320   121.0010
 1912.5000    10.3420     2.4710     0.0410   124.2220
 1913.0000    10.3080     2.4930     0.0530   123.5190
 1913.5000    10.2100     2.5110     0.0460   122.6060
 1914.0000    10.1140     2.5140     0.0380   122.7380
 1914.5000    10.0170     2.5110     0.0310   122.2520
 1915.0000     9.9200     2.5080     0.0230   121.1300
 1915.5000     9.8230     2.5090     0.0150   120.1080
 1916.0000     9.7240     2.5090     0.0080   120.3450
 1916.5000     9.6830     2.5160     0.0020   121.9990
 1917.0000     9.6560     2.5250     0.0030   122.3780
 1917.5000     9.6310     2.5340     0.0050   118.8270
 1918.0000     9.6050     2.5430     0.0060   112.9830
 1918.5000     9.6080     2.5430     0.0080   111.9330
 1919.0000     9.6150     2.5320     0.0080   116.9220
 1919.5000     9.6230     2.5220     0.0060   122.1130
 1920.0000     9.6310     2.5120     0.0040   124.5140
 1920.5000     9.6380     2.5090     0.0010   124.1630
 1921.0000     9.6460     2.5090     0.0000   124.0600
 1921.5000     9.6540     2.5190     0.0000   124.5590
 1922.0000     9.6610     2.5370     0.0040   124.5610
 1922.5000     9.6690     2.5550     0.0060   125.1210
 1923.0000     9.6770     2.5570     0.0060   126.4410
 1923.5000     9.6840     2.5480     0.0040   125.0280
 1924.0000     9.6920     2.5390     0.0020   121.6260
 1924.5000     9.7010     2.5310     0.0000   120.3740
 1925.0000     9.6980     2.5220     0.0000   120.9300
 1925.5000     9.7240     2.5220     0.0010   121.5080
 1926.0000     9.7510     2.5230     0.0030   121.9780
 1926.5000     9.7780     2.5260     0.0040   121.0640
 1927.0000     9.8050     2.5300     0.0060   120.0480
 1927.5000     9.8320     2.5300     0.0080   119.3380
 1928.0000     9.8600     2.5310     0.0090   120.1940
 1928.5000     9.8870     2.5350     0.0110   122.7440
 1929.0000     9.9140     2.5370     0.0120   124.9600
 1929.5000     9.9410     2.5330     0.0070   125.0300
 1930.0000     9.9680     2.5260     0.0020   122.2710
 1930.5000     9.9950     2.5240     0.0010   119.0870
 1931.0000    10.0220     2.5320     0.0040   119.4240
 1931.5000    10.0490     2.5400     0.0060   122.2090
 1932.0000    10.0770     2.5430     0.0090   122.9530
 1932.5000    10.0820     2.5400     0.0110   122.9500
 1933.0000    10.0820     2.5370     0.0130   122.9410
 1933.5000    10.0820     2.5360     0.0160   122.9500
 1934.0000    10.0820     2.5360     0.0180   123.3840
 1934.5000    10.0820     2.5390     0.0210   125.3920
 1935.0000    10.0820     2.5430     0.0230   127.3390
 1935.5000    10.0820     2.5470     0.0240   129.3340
 1936.0000    10.0790     2.5500     0.0210   130.1130
 1936.5000    10.0620     2.5480     0.0150   130.1760
 1937.0000    10.0440     2.5390     0.0100   129.9050
 1937.5000    10.0260     2.5300     0.0100   127.9820
 1938.0000    10.0080     2.5280     0.0170   126.6510
 1938.5000     9.9910     2.5160     0.0200   125.3170
 1939.0000     9.9820     2.5020     0.0230   123.9870
 1939.5000     9.9820     2.4950     0.0260   122.6340
 1940.0000     9.9820     2.4970     0.0290   123.1310
 1940.5000     9.9820     2.5040     0.0320   125.3180
 1941.0000     9.9810     2.5120     0.0350   127.4980
 1941.5000    10.0430     2.5090     0.0360   129.6610
 1942.0000    10.1350     2.4880     0.0340   130.1840
 1942.5000    10.2090     2.4680     0.0250   129.9180
 1943.0000    10.2220     2.4570     0.0200   127.7030
 1943.5000    10.2230     2.4610     0.0260   125.4680
 1944.0000    10.2210     2.5010     0.0300   123.2390
 1944.5000    10.1620     2.5140     0.0300   122.1340
 1945.0000    10.1000     2.5190     0.0310   123.0350
 1945.5000    10.0380     2.5240     0.0360   124.3580
 1946.0000     9.9760     2.5260     0.0380   124.7910
 1946.5000     9.9150     2.5240     0.0350   124.9910
 1947.0000     9.8530     2.5220     0.0320   126.3550
 1947.5000     9.7910     2.5210     0.0330   128.6270
 1948.0000     9.7290     2.5340     0.0380   129.4670
 1948.5000     9.6660     2.5500     0.0430   124.7890
 1949.0000     9.6560     2.5610     0.0460   120.7590
 1949.5000     9.6420     2.5610     0.0440   116.7350
 1950.0000     9.6410     2.5470     0.0340   113.1420
 1950.5000     9.6410     2.5350     0.0260   112.9900
 1951.0000     9.6410     2.5290     0.0260   118.1010
 1951.5000     9.6410     2.5300     0.0260   121.6690
 1952.0000     9.6410     2.5320     0.0200   124.1240
 1952.5000     9.6410     2.5320     0.0150   124.9710
 1953.0000     9.6410     2.5310     0.0090   122.8260
 1953.5000     9.6620     2.5320     0.0060   120.6540
