~VERSION INFORMATION
 VERS.                2.0:   CWLS LOG ASCII STANDARD - VERSION 2.0
 WRAP.                 NO:   ONE LINE PER DEPTH STEP
~WELL INFORMATION
#MNEM.UNIT      DATA TYPE    INFORMATION
#----------   ------------   ------------------------------
 STRT.F          502.0000:   START DEPTH
 STOP.F         3068.0000:   STOP DEPTH
 STEP.F            0.5000:   STEP LENGTH
 NULL.          -999.2500:   NO VALUE
 COMP. LAWRENCE ALLISON AND ASSOCIATES:   COMPANY
 WELL. LAWRENCE NPR TX #85-33:   WELL
 FLD .              N P R:   FIELD
 LOC .      S33 T39N R78W:   LOCATION
 CNTY.            NATRONA:   COUNTY
 STAT.            WYOMING:   STATE
 CTRY. UNITED STATES OF AMERICA:   COUNTRY
 SRVC.       SCHLUMBERGER:   SERVICE COMPANY
 DATE.        20-JUN-1982:   LOGDATE
 API .     49025107990001:   API NUMBER
~CURVE INFORMATION
#MNEM.UNIT       API CODE    CURVE DESCRIPTION
#----------   ------------   ------------------------------
 DEPT.F                  :   
 RHOB.G/C3   45 350 01 00:   BULK DENSITY
 GRD .GAPI   45 310 01 00:   GAMMA RAY FROM DENSITY LOG
 CALD.IN     45 280 60 00:   CALIPER FROM DENSITY LOG
 CORR.G/C3   45 356 01 00:   DENSITY CORRECTION
 TEND.LBS    45 635 01 00:   TENSION FROM DENSITY LOG
 NPHI.DEC    42 890 03 00:   NEUTRON POROSITY SANDSTONE
 TENR.LBS    07 635 01 00:   TENSION FROM RESISTIVITY
 SPR .MV     07 010 01 00:   SPONTANEOUS POTENTIAL
 ILD .OHMM   07 120 46 00:   DEEP INDUCTION RESISTIVITY
 ILM .OHMM   07 120 44 00:   INDUCTION LOG MEDIUM RESISTIVITY
 SFL .OHMM   07 220 01 00:   SHALLOW FOCUSED LOG RESISTIVITY
~PARAMETER INFORMATION
#MNEM.UNIT          VALUE    DESCRIPTION
#----------   ------------   ------------------------------
 EKB .F         5123.0000:   Kelly bushing
 EGL .F         5113.0000:   Ground level
 EDF .F         5122.0000:   Drilling floor
 EPD .F         5113.0000:   Permanent datum
 TD  .F         3100.0000:   Total depth
 DATE.        20-JUN-1982:   Date logged
 CLNT.            A2DTECH:   Client Code
 SL  . 2263' FSL & 293' FEL:   Surface Location
 PD  .                 GL:   Permanent Datum
 DD  .F              3100:   Depth driller
 DL  .F              3056:   Depth logger
 BLI .F              3050:   Bottom log interval
 CS1 .IN            9.625:   Casing size
 CBD1.      9.625" @ 524':   Casing driller 1
 CBL1.F               520:   Casing logger 1
 BS1 .IN            7.875:   Bit size
 DFT .           POLY/KCL:   Type fluid in hole
 DFD .                8.4:   Density
 DFV .                 40:   Viscosity
 DFPH.                7.6:   pH
 DFL .                 10:   Fluid loss
 MSS .               TANK:   Source of sample
 RMS .OHMM            .92:   Rm
 MST .F                66:   Rm Meas. temp.
 RMF .OHMM           .603:   Rmf
 MFST.F                68:   Rmf Meas. temp.
 MFSS.               MEAS:   Source Rmf.
 RMB .OHMM           .515:   Rm. at BHT
 BHT .F               118:   BHT.
 TCS .HRS             815:   Time Circ. stopped
 MRT .F               118:   Maximum recorded temp.
 LUN .               8035:   Logging unit number
 LUL .               CSPR:   Logging unit location
 ENGI.              PENNY:   Recorded By
 WITN.           JENNINGS:   Witnessed by
 ORIG.           5" PRINT:   Origin of data
 UWI .     49025107990001:   Unique Well ID
 DICO. A2D TECHNOLOGIES, INC.:   Digitizing Company
 DAPD.                 10:   Feet Above Permanent Datum
 BSD1.               3100:   Depth drilled with bit1
 TLI .                520:   Top log interval
 TLAB.               1100:   Time logger at bottom
~OTHER INFORMATION
~A   DEPT     RHOB         GRD      CALD       CORR       TEND       NPHI       TENR        SPR        ILD        ILM        SFL   
# ...
  868.0000     2.4680   154.1210     9.3010     0.0130  1025.1450  -999.2500  1467.0680   -69.8360     7.8560     7.2170     8.1010
  868.5000     2.4670   158.5670     9.3590     0.0130  1026.3170  -999.2500  1466.0580   -69.2530     7.8300     7.2190     8.0880
  869.0000     2.4520   164.2560     9.4170     0.0060  1027.4880  -999.2500  1463.2540   -68.6720     7.8030     7.2230     8.0740
  869.5000     2.4390   167.7350     9.4740    -0.0020  1028.6600  -999.2500  1458.9790   -68.0970     7.7770     7.2280     8.0610
  870.0000     2.4320   171.1540     9.5340    -0.0020  1029.8320  -999.2500  1454.7040   -67.5090     7.7510     7.2320     8.0470
  870.5000     2.4390   174.6120     9.6530     0.0030  1031.0040  -999.2500  1450.4280   -67.1570     7.7250     7.2370     8.0340
  871.0000     2.4510   176.2170    10.1760     0.0060  1032.1760  -999.2500  1446.1530   -62.2160     7.6980     7.2420     8.0200
  871.5000     2.4590   177.3320    10.6240     0.0060  1033.3470  -999.2500  1441.8781   -53.1580     7.6720     7.2460     8.0070
  872.0000     2.4580   179.0340    10.6240     0.0060  1034.5190  -999.2500  1437.6021   -44.7090     7.6460     7.2510     7.9930
  872.5000     2.4520   180.7310    10.6630     0.0100  1035.6910  -999.2500  1433.3270   -38.2790     7.6250     7.2560     7.9800
  873.0000     2.4530   180.1420    10.8600     0.0170  1036.8630  -999.2500  1429.0520   -36.5920     7.6260     7.2600     7.9660
  873.5000     2.4680   177.5370    10.8600     0.0430  1038.0350  -999.2500  1424.7770   -36.0130     7.6260     7.2650     7.9530
  874.0000     2.4910   174.3250    10.6440     0.0830  1039.2061  -999.2500  1420.5010   -35.4760     7.6260     7.2690     7.9390
  874.5000     2.4730   168.8180    10.4020     0.0610  1040.3781  -999.2500  1416.2260   -34.9310     7.6260     7.2740     7.9260
  875.0000     2.4490   163.9820    10.2670     0.0320  1041.6670  -999.2500  1411.9510   -34.3800     7.6260     7.2790     7.9110
  875.5000     2.4360   163.7550    10.1670     0.0130  1040.2410  -999.2500  1407.6750   -33.8290     7.6260     7.2840     7.8390
  876.0000     2.4520   163.1680    10.0980     0.0030  1038.2090  -999.2500  1403.4000   -33.2780     7.6960     7.4340     7.9690
  876.5000     2.4700   161.4450    10.0990     0.0090  1036.1760  -999.2500  1399.1250   -32.7270     7.8680     7.6000     8.2200
  877.0000     2.4630   160.7010    10.0960     0.0130  1034.1429  -999.2500  1394.8490   -32.1760     8.1030     7.7650     8.4710
  877.5000     2.4490   161.2430    10.0930     0.0110  1032.1100  -999.2500  1390.5740   -31.6250     8.3390     7.9300     8.7220
  878.0000     2.4420   161.9310    10.0900     0.0100  1030.0780  -999.2500  1386.2990   -31.0750     8.5740     8.0950     8.9730
  878.5000     2.4480   162.9070    10.0870     0.0100  1028.0450  -999.2500  1382.0229   -30.5280     8.8100     8.2610     9.2360
  879.0000     2.4550   164.9880    10.0840     0.0100  1026.0120  -999.2500  1377.7480   -30.2390     9.0460     8.4260     9.5070
  879.5000     2.4650   166.6170    10.0800     0.0150  1023.9800  -999.2500  1373.4730   -30.4430     9.2810     8.5910     9.7790
  880.0000     2.4690   165.6540    10.1200     0.0260  1021.9470  -999.2500  1369.1970   -30.8640     9.4500     8.7560    10.0440
  880.5000     2.4580   165.5050    10.1800     0.0370  1019.9140  -999.2500  1365.4890   -31.2870     9.5250     8.9210    10.0010
  881.0000     2.4350   167.1830    10.2410     0.0400  1017.8810  -999.2500  1363.6880   -31.7130     9.5990     9.0790     9.9530
  881.5000     2.4170   164.8620    10.3010     0.0190  1015.8490  -999.2500  1361.8860   -32.1460     9.6740     9.0790    10.1550
  882.0000     2.4200   161.5290    10.3620     0.0030  1013.8160  -999.2500  1360.0840   -32.5310     9.7490     9.0790    10.3930
  882.5000     2.4440   160.9060    10.4220     0.0070  1011.7830  -999.2500  1358.2820   -32.3550     9.8230     9.0790    10.6130
  883.0000     2.4670   162.1750    10.4830     0.0140  1009.7510  -999.2500  1356.4810   -31.2700    10.0440     9.0290    10.4390
  883.5000     2.4720   165.1680    10.5430     0.0220  1007.7180  -999.2500  1354.6790   -29.6260     9.9780     8.9560    10.2780
  884.0000     2.4700   166.5890    10.6040     0.0240  1005.6850  -999.2500  1352.8770   -27.9860     9.8450     8.8830    10.1170
  884.5000     2.4710   166.3010    10.6280     0.0250  1003.6520  -999.2500  1351.0750   -26.3370     9.7110     8.8090     9.9560
  885.0000     2.4880   163.3120    10.6060     0.0320  1002.6070  -999.2500  1349.2740   -24.6880     9.5780     8.7360     9.7940
  885.5000     2.5050   160.8990    10.5960     0.0380  1006.0820  -999.2500  1347.4720   -23.0470     9.4450     8.6630     9.6330
  886.0000     2.5030   161.7990    10.5840     0.0400  1009.5560  -999.2500  1345.6700   -21.4110     9.3330     8.5900     9.5850
  886.5000     2.4920   168.1340    10.5720     0.0340  1013.0310  -999.2500  1343.8680   -20.4570     9.3790     8.5160     9.5700
  887.0000     2.4810   169.2250    10.5600     0.0300  1016.5050  -999.2500  1342.0670   -20.2540     9.4190     8.4430     9.5550
  887.5000     2.4780   170.1160    10.5480     0.0370  1019.9800  -999.2500  1340.2650   -19.8530     9.3030     8.3700     9.5390
  888.0000     2.5030   171.8540    10.5360     0.0540  1023.4540  -999.2500  1338.4630   -19.3910     9.1850     8.2960     9.5240
  888.5000     2.5340   173.2880    10.5300     0.0780  1026.9290  -999.2500  1336.6610   -18.9180     9.1630     8.2070     9.5090
  889.0000     2.5410   171.5330    10.5300     0.0770  1030.4030  -999.2500  1334.8600   -18.4330     9.1530     8.1320     9.3870
  889.5000     2.5190   165.3090    10.5360     0.0520  1033.8781  -999.2500  1333.0580   -18.1830     9.1300     8.1320     9.2430
  890.0000     2.4990   159.2660    10.5540     0.0360  1037.3521  -999.2500  1331.2560   -18.0090     9.1060     8.1320     9.0920
  890.5000     2.4920   158.2850    10.5710     0.0330  1040.8270  -999.2500  1329.4540   -17.8400     9.0820     8.1320     9.1800
  891.0000     2.4890   161.5960    10.5880     0.0340  1044.3010  -999.2500  1327.6530   -17.6700     8.9430     8.1320     9.3330
  891.5000     2.4830   165.2380    10.6050     0.0320  1047.7760  -999.2500  1326.0220   -17.4990     8.8330     8.0500     9.2090
  892.0000     2.4740   168.1320    10.6220     0.0240  1051.2500  -999.2500  1326.0220   -17.3240     8.6680     7.9580     9.0770
  892.5000     2.4700   167.9120    10.6500     0.0180  1054.7250  -999.2500  1326.0220   -17.2050     8.6280     7.8660     8.9440
  893.0000     2.4670   167.2790    10.6830     0.0150  1058.2000  -999.2500  1326.0220   -17.0860     8.5880     7.7670     8.8120
  893.5000     2.4610   166.6370    10.7160     0.0110  1061.5081  -999.2500  1326.0220   -16.9670     8.5480     7.7670     8.6720
  894.0000     2.4490   164.2620    10.7490     0.0080  1057.0670  -999.2500  1326.0220   -16.8470     8.5140     7.8530     8.7370
  894.5000     2.4380   161.6590    10.7820     0.0040  1052.8280  -999.2500  1326.0220   -16.7270     8.6260     7.9430     8.9230
  895.0000     2.4310   160.5840    10.8150     0.0070  1048.5900  -999.2500  1326.0220   -16.6090     8.7220     8.0330     9.1090
  895.5000     2.4270   163.7930    10.8480     0.0160  1044.3521  -999.2500  1326.0220   -16.5420     8.8190     8.1220     9.2950
  896.0000     2.4280   167.8550    10.8640     0.0260  1040.1130  -999.2500  1326.0220   -16.3750     8.9150     8.2120     9.3330
  896.5000     2.4340   171.9860    10.8320     0.0320  1035.8750  -999.2500  1326.0220   -16.1790     9.0120     8.3020     9.3330
  897.0000     2.4410   173.8500    10.8010     0.0210  1031.6360  -999.2500  1326.0220   -15.9800     9.1090     8.3920     9.3330
  897.5000     2.4500   171.8380    10.7700     0.0110  1027.3979  -999.2500  1326.0220   -15.7820     9.1630     8.4820     9.3330
  898.0000     2.4570   167.9230    10.7390     0.0010  1023.1590  -999.2500  1326.0220   -15.5850     9.1630     8.5140     9.4150
