~VERSION INFORMATION
 VERS.                2.0:   CWLS LOG ASCII STANDARD - VERSION 2.0
 WRAP.                 NO:   ONE LINE PER DEPTH STEP
~WELL INFORMATION
#MNEM.UNIT      DATA TYPE    INFORMATION
#----------   ------------   ------------------------------
 STRT.F           15.0000:   START DEPTH
 STOP.F         2952.5000:   STOP DEPTH
 STEP.F            0.5000:   STEP LENGTH
 NULL.          -999.2500:   NO VALUE
 COMP.    FENIX & SCISSON:   COMPANY
 WELL.  FENIX "AX" #64-29:   WELL
 FLD .  TEAPOT DOME NPR-3:   FIELD
 LOC .      S29 T39N R78W:   LOCATION
 CNTY.            NATRONA:   COUNTY
 STAT.            WYOMING:   STATE
 CTRY. UNITED STATES OF AMERICA:   COUNTRY
 SRVC.           BIRDWELL:   SERVICE COMPANY
 DATE.        02-MAY-1978:   LOGDATE
 API .     49025106460000:   API NUMBER
~CURVE INFORMATION
#MNEM.UNIT       API CODE    CURVE DESCRIPTION
#----------   ------------   ------------------------------
 DEPT.F                  :   
 SPR .MV     05 010 01 00:   SPONTANEOUS POTENTIAL
 IL  .OHMM   05 120 00 00:   INDUCTION RESISTIVITY
 SN  .OHMM   05 040 16 00:   SHORT NORMAL 16"
 CALD.IN     45 280 60 00:   CALIPER FROM DENSITY LOG
 GRD .GAPI   45 310 01 00:   GAMMA RAY FROM DENSITY LOG
 CORR.G/C3   45 356 01 00:   DENSITY CORRECTION
 RHOB.G/C3   45 350 01 00:   BULK DENSITY
~PARAMETER INFORMATION
#MNEM.UNIT          VALUE    DESCRIPTION
#----------   ------------   ------------------------------
 EKB .F         4993.0000:   Kelly bushing
 EGL .F         4983.0000:   Ground level
 EDF .F            0.0000:   Drilling floor
 TD  .F         2952.0000:   Total depth
 DATE.        02-MAY-1978:   Date logged
 CLNT.            A2DTECH:   Client Code
 SL  . 2150' FNL & 1560' FEL:   Surface Location
 PD  .                 GL:   Permanent Datum
 DD  .F              2950:   Depth driller
 DL  .F              2952:   Depth logger
 BLI .F              2947:   Bottom log interval
 CBL1.F               150:   Casing logger 1
 BS1 .IN            7.875:   Bit size
 DFT .                GEL:   Type fluid in hole
 DFD .                8.7:   Density
 DFV .                 30:   Viscosity
 DFPH.                 10:   pH
 DFL .                7.6:   Fluid loss
 MSS .            MUD PIT:   Source of sample
 RMS .OHMM            1.3:   Rm
 MST .F                62:   Rm Meas. temp.
 RMF .OHMM            .95:   Rmf
 MFST.F                64:   Rmf Meas. temp.
 RMC .OHMM              1:   Rmc
 MCST.F                64:   Rmc Meas. temp.
 MFSS.               MEAS:   Source Rmf.
 RMB .OHMM            .73:   Rm. at BHT
 BHT .F               110:   BHT.
 TCS .HRS               3:   Time Circ. stopped
 MRT .F               110:   Maximum recorded temp.
 LUN .               2958:   Logging unit number
 LUL .               CASP:   Logging unit location
 ENGI.             MILLER:   Recorded By
 WITN.           MCGINLEY:   Witnessed by
 ORIG.         2.5" PRINT:   Origin of data
 UWI .     49025106460000:   Unique Well ID
 DICO. A2D TECHNOLOGIES, INC.:   Digitizing Company
 DAPD.                 10:   Feet Above Permanent Datum
 BSD1.F              2950:   Depth drilled with bit1
 EPD .F              4983:   Elevation Permanent Datum
 LMF .                 KB:   Log Measured From
 DMF .                 KB:   Drilling Measured From
 TLI .F               150:   Top log interval
~OTHER INFORMATION
~A   DEPT      SPR         IL         SN       CALD        GRD       CORR       RHOB   
# ...
 1425.5000   -56.6490     8.2680     9.6200     7.3390    67.2710     0.0030     2.4310
 1426.0000   -56.1640     8.2510     9.5670     7.3780    67.7890     0.0100     2.4240
 1426.5000   -55.9280     8.2340     9.5130     7.4180    68.0940     0.0230     2.4100
 1427.0000   -55.9720     8.2170     9.4600     7.4580    67.8420     0.0350     2.4160
 1427.5000   -55.9680     8.2000     9.4070     7.5010    67.6180     0.0480     2.4310
 1428.0000   -55.9670     8.1830     9.3540     7.5340    67.4130     0.0550     2.4750
 1428.5000   -55.9900     8.1660     9.3010     7.5690    67.2100     0.0540     2.5150
 1429.0000   -55.8150     8.1490     9.2480     7.4650    66.8640     0.0540     2.5410
 1429.5000   -55.4520     8.1250     9.1950     7.5850    67.9480     0.0540     2.5470
 1430.0000   -55.1830     8.4290     9.1420     7.7010    69.8990     0.0530     2.5490
 1430.5000   -55.1840     8.2020     9.0890     7.8280    71.7280     0.0530     2.5500
 1431.0000   -55.1760     8.0110     9.0360     7.9250    72.4170     0.0530     2.5510
 1431.5000   -55.1790     7.8200     8.9830     7.8360    70.6970     0.0520     2.5520
 1432.0000   -55.1790     7.6290     8.9290     7.7240    69.4680     0.0520     2.5550
 1432.5000   -55.1780     7.5490     8.9070     7.6040    68.3240     0.0520     2.5590
 1433.0000   -55.1790     7.5490     8.9070     7.5810    71.3730     0.0510     2.5590
 1433.5000   -55.1790     7.5490     8.9070     7.6300    74.3290     0.0510     2.5570
 1434.0000   -55.1790     7.5490     8.9070     7.6810    77.1820     0.0520     2.5520
 1434.5000   -55.1790     7.5490     8.9070     7.7170    80.1910     0.0520     2.5590
 1435.0000   -55.1790     7.5490     8.9070     7.7600    78.6500     0.0530     2.5550
 1435.5000   -55.1780     7.5490     8.9070     7.5400    76.0130     0.0530     2.5510
 1436.0000   -55.1880     7.5490     8.9070     7.5430    73.3530     0.0540     2.5450
 1436.5000   -55.2030     7.5490     8.9070     7.5490    70.6870     0.0540     2.5550
 1437.0000   -55.2180     7.5490     8.9070     7.5700    71.4800     0.0550     2.5720
 1437.5000   -55.2320     7.5480     8.9070     7.5850    72.4290     0.0530     2.5790
 1438.0000   -55.2460     7.5490     8.9070     7.6000    73.4940     0.0510     2.5810
 1438.5000   -55.2610     7.5500     8.9070     7.6170    74.4070     0.0480     2.5830
 1439.0000   -55.2750     7.5520     8.9070     7.6320    74.2960     0.0480     2.5710
 1439.5000   -55.2890     7.5440     8.9070     7.6480    74.0990     0.0530     2.5660
 1440.0000   -55.3040     7.6700     8.9070     7.6640    74.7290     0.0570     2.5650
 1440.5000   -55.3180     7.6510     8.9070     7.6790    76.9790     0.0620     2.5640
 1441.0000   -55.3330     7.5970     8.9070     7.7360    78.1050     0.0650     2.5690
 1441.5000   -55.3470     7.5500     8.9070     7.8790    77.8500     0.0720     2.5760
 1442.0000   -55.3610     7.5540     8.9070     7.8710    77.7570     0.0810     2.5850
 1442.5000   -55.3760     7.5600     8.9070     7.8570    77.6580     0.0900     2.5970
 1443.0000   -55.3900     7.5660     8.9070     7.8360    77.4970     0.0800     2.6090
 1443.5000   -55.4040     7.5730     8.9070     7.8190    77.4100     0.0680     2.6040
 1444.0000   -55.4190     7.5790     8.9070     7.8010    77.3420     0.0630     2.6000
 1444.5000   -55.4330     7.5850     8.9070     7.7820    78.7020     0.0650     2.5960
 1445.0000   -55.4480     7.5920     8.9070     7.7690    80.6260     0.0670     2.5920
 1445.5000   -55.4620     7.5980     8.9070     7.7690    79.2200     0.0650     2.6010
 1446.0000   -55.4760     7.6040     8.9070     7.7690    77.4440     0.0640     2.6110
 1446.5000   -55.4910     7.6110     8.9070     7.7690    75.3990     0.0620     2.6210
 1447.0000   -55.5050     7.6170     8.9070     7.7690    74.8250     0.0610     2.6230
 1447.5000   -55.5200     7.6240     8.9070     7.7690    76.1570     0.0590     2.6210
 1448.0000   -55.5340     7.6300     8.9070     7.7690    77.2270     0.0570     2.6180
 1448.5000   -55.5490     7.6360     8.9070     7.7690    77.3670     0.0550     2.6120
 1449.0000   -55.5630     7.6430     8.9070     7.7690    77.5400     0.0560     2.6100
 1449.5000   -55.5770     7.6490     8.9040     7.7690    78.7130     0.0590     2.6080
 1450.0000   -55.5780     7.6560     8.9340     7.7690    81.0700     0.0620     2.6070
 1450.5000   -55.5780     7.6620     8.9860     7.7690    78.5540     0.0650     2.6050
 1451.0000   -55.5780     7.6680     9.0380     7.7690    78.7330     0.0680     2.6050
 1451.5000   -55.5780     7.6750     9.0900     7.7690    79.6040     0.0710     2.6100
 1452.0000   -55.5780     7.6810     9.1390     7.7690    80.2650     0.0710     2.6140
 1452.5000   -55.5780     7.6870     9.1870     7.7690    77.4040     0.0710     2.6180
 1453.0000   -55.5780     7.6530     9.2360     7.7680    74.1740     0.0710     2.6230
 1453.5000   -55.5780     7.6070     9.1180     7.7690    74.2210     0.0710     2.6260
 1454.0000   -55.5780     7.5610     8.9950     7.7710    76.2890     0.0690     2.6250
 1454.5000   -55.5780     7.5150     8.8720     7.8040    77.3720     0.0660     2.6250
 1455.0000   -55.5780     7.4680     8.7490     7.8320    77.2020     0.0630     2.6180
 1455.5000   -55.5780     7.4220     8.6260     7.8630    77.2720     0.0600     2.6070
 1456.0000   -55.5780     7.3760     8.4290     7.8920    77.9540     0.0600     2.5970
 1456.5000   -55.5780     7.3300     8.4760     7.9240    78.6950     0.0610     2.5930
 1457.0000   -55.5780     7.2770     8.5920     8.0090    77.0840     0.0630     2.6060
 1457.5000   -55.5780     7.3120     8.7090     8.1090    76.1070     0.0640     2.6160
 1458.0000   -55.5780     7.3530     8.7450     8.2230    76.0410     0.0660     2.6190
 1458.5000   -55.5780     7.3950     8.7450     7.8930    76.0650     0.0670     2.6200
 1459.0000   -55.5780     7.4360     8.7450     7.7050    76.2090     0.0680     2.6250
 1459.5000   -55.5780     7.4770     8.7450     7.7820    78.4120     0.0700     2.6330
 1460.0000   -55.5780     7.5390     8.7450     7.8460    79.0550     0.0710     2.6370
 1460.5000   -55.5780     7.5330     8.7450     7.8630    76.8360     0.0700     2.6430
 1461.0000   -55.5780     7.4710     8.7450     7.9110    75.5570     0.0700     2.6440
 1461.5000   -55.5780     7.4100     8.7450     7.9480    75.6740     0.0690     2.6440
 1462.0000   -55.5780     7.3480     8.7450     7.9880    75.6710     0.0690     2.6410
 1462.5000   -55.5780     7.2870     8.7450     8.0300    75.6320     0.0680     2.6370
 1463.0000   -55.5780     7.2250     8.6350     8.0510    75.3840     0.0680     2.6380
 1463.5000   -55.5780     7.1640     8.5250     8.0530    74.7180     0.0680     2.6430
 1464.0000   -55.5780     7.1400     8.4150     8.0570    74.0560     0.0670     2.6440
 1464.5000   -55.5780     7.1330     8.3040     8.0610    76.7600     0.0670     2.6450
 1465.0000   -55.5780     7.1270     8.1940     8.0640    79.4550     0.0660     2.6410
 1465.5000   -55.5780     7.1210     8.0840     8.0680    79.2660     0.0660     2.6340
 1466.0000   -55.5780     7.1150     7.9770     8.0710    78.5050     0.0650     2.6280
 1466.5000   -55.5780     7.1090     8.0270     8.0750    76.9590     0.0650     2.6220
 1467.0000   -55.5780     7.1020     8.0770     8.0780    78.6750     0.0640     2.6230
 1467.5000   -55.5780     7.0960     8.1270     8.0810    81.5280     0.0640     2.6260
 1468.0000   -55.5780     7.0900     8.1760     8.0860    84.4610     0.0630     2.6210
 1468.5000   -55.5780     7.0840     8.2260     8.0890    83.1980     0.0630     2.6120
 1469.0000   -55.5780     7.0770     8.2750     8.1190    80.2970     0.0630     2.6130
 1469.5000   -55.5780     7.0710     8.3250     8.1500    80.5760     0.0700     2.6160
 1470.0000   -55.5780     7.0650     8.3740     8.1780    81.1130     0.0760     2.6310
 1470.5000   -55.5780     7.0590     8.4240     8.2130    79.9580     0.0830     2.6360
