~VERSION INFORMATION
 VERS.                2.0:   CWLS LOG ASCII STANDARD - VERSION 2.0
 WRAP.                 NO:   ONE LINE PER DEPTH STEP
~WELL INFORMATION
#MNEM.UNIT      DATA TYPE    INFORMATION
#----------   ------------   ------------------------------
 STRT.F            0.0000:   START DEPTH
 STOP.F         4022.0000:   STOP DEPTH
 STEP.F            0.5000:   STEP LENGTH
 NULL.          -999.2500:   NO VALUE
 COMP. LAWRENCE - ALLISON:   COMPANY
 WELL. LAWRENCE NPR 3 "MX" #58-10:   WELL
 FLD .                MPR:   FIELD
 LOC .      S10 T38N R78W:   LOCATION
 CNTY.            NATRONA:   COUNTY
 STAT.            WYOMING:   STATE
 CTRY. UNITED STATES OF AMERICA:   COUNTRY
 SRVC.      DRESSER ATLAS:   SERVICE COMPANY
 DATE.        12-FEB-1984:   LOGDATE
 API .     49025109610000:   API NUMBER
~CURVE INFORMATION
#MNEM.UNIT       API CODE    CURVE DESCRIPTION
#----------   ------------   ------------------------------
 DEPT.F                  :   
 GRR .GAPI   07 310 01 00:   GAMMA RAY FROM RESISTIVITY
 SPR .MV     07 010 01 00:   SPONTANEOUS POTENTIAL
 TENR.LBS    07 635 01 00:   TENSION FROM RESISTIVITY
 ILD .OHMM   07 120 46 00:   DEEP INDUCTION RESISTIVITY
 ILM .OHMM   07 120 44 00:   INDUCTION LOG MEDIUM RESISTIVITY
 SFL .OHMM   07 220 01 00:   SHALLOW FOCUSED LOG RESISTIVITY
 DT  .US/F   60 520 00 00:   DELTA TIME
 TENS.LBS    60 635 01 00:   TENSION FROM SONIC LOG
 CNC .DEC    42 890 03 00:   NEUTRON PORISITY SANDSTONE
 CALD.IN     45 280 60 00:   CALIPER FROM DENSITY LOG
 RHOB.G/C3   45 350 01 00:   BULK DENSITY
 CORR.G/C3   45 356 01 00:   DENSITY CORRECTION
 TEND.LBS    45 635 01 00:   TENSION FROM DENSITY LOG
~PARAMETER INFORMATION
#MNEM.UNIT          VALUE    DESCRIPTION
#----------   ------------   ------------------------------
 EKB .F         5218.0000:   Kelly bushing
 EGL .F         5208.0000:   Ground level
 EDF .F         5217.0000:   Drilling floor
 TD  .F         4014.0000:   Total depth
 DATE.        12-FEB-1984:   Date logged
 CLNT.            A2DTECH:   Client Code
 SL  . 500' FSL & 2150' FEL:   Surface Location
 PD  .                 GL:   Permanent Datum
 EPD .F              5208:   Elevation Permanent Datum
 LMF .                 KB:   Log Measured From
 DMF .                 KB:   Drilling Measured From
 DD  .F              4014:   Depth driller
 DL  .F              4011:   Depth logger
 BLI .F              4009:   Bottom log interval
 CS1 .IN            8.625:   Casing size
 CBD1.      8.625" @ 526':   Casing driller 1
 CBL1.F               525:   Casing logger 1
 BS1 .IN            7.875:   Bit size
 DFT .            GEL/KCL:   Type fluid in hole
 DFD .                8.9:   Density
 DFV .                 48:   Viscosity
 DFPH.                  8:   pH
 DFL .                1.3:   Fluid loss
 MSS .           MUD/TANK:   Source of sample
 RMS .OHMM           .556:   Rm
 MST .F                61:   Rm Meas. temp.
 RMF .OHMM           .423:   Rmf
 MFST.F                61:   Rmf Meas. temp.
 RMC .OHMM           .662:   Rmc
 MCST.F                61:   Rmc Meas. temp.
 MFSS.           MUD/TANK:   Source Rmf.
 RMB .OHMM            .80:   Rm. at BHT
 BHT .F               119:   BHT.
 TCS .HRS               5:   Time Circ. stopped
 MRT .F               119:   Maximum recorded temp.
 LUN .               6302:   Logging unit number
 ENGI.              GETTY:   Recorded By
 ORIG.           5" PRINT:   Origin of data
 UWI .     49025109610000:   Unique Well ID
 DICO. A2D TECHNOLOGIES, INC.:   Digitizing Company
 TLI .F                 0:   Top log interval
~OTHER INFORMATION
~A    DEPT      GRR       SPR       TENR        ILD        ILM        SFL         DT       TENS        CNC       CALD       RHOB       CORR       TEND   
# ...
 2834.0000   103.3130    -7.3010  -123.2880     7.2170     7.2930     8.2830    76.5190  -159.4570     0.1690     8.4740     2.5000    -0.0380  -115.4040
 2834.5000   100.5170    -6.9620  -115.4040     6.9770     7.1550     8.1440    76.5190  -159.4570     0.1650     8.4730     2.5010    -0.0200  -115.4040
 2835.0000    98.2660    -6.7120  -117.6240     6.7680     6.8010     7.7030    77.1730  -159.4570     0.1650     8.4710     2.5010     0.0200  -115.4040
 2835.5000    99.4620    -6.4530  -119.8990     6.4480     6.4480     6.9960    77.9280  -159.4570     0.1700     8.4700     2.4980     0.0550  -115.4040
 2836.0000   102.6550    -6.1930  -122.1740     6.1170     6.1240     6.5080    78.6820  -159.4570     0.1770     8.4690     2.4880     0.0370  -115.4040
 2836.5000   103.5070    -5.9320  -124.4490     5.5590     5.8490     6.2880    79.8390  -159.4570     0.1820     8.4680     2.4790     0.0090  -115.4040
 2837.0000   103.3690    -5.6200  -119.0070     4.9930     5.3660     6.3110    81.6000  -159.4570     0.1860     8.4660     2.4730     0.0120  -115.4040
 2837.5000   103.4850    -5.2760  -108.2820     4.4270     4.7430     6.3330    83.3600  -159.4570     0.1880     8.4650     2.4690     0.0200  -115.4040
 2838.0000   107.4560    -4.9300   -97.5570     3.8620     4.1190     6.3460    87.8030  -159.4570     0.1920     8.4640     2.4680     0.0270  -115.4040
 2838.5000   113.7490    -4.5840  -104.7590     3.4390     3.5740     6.0060    92.2470  -160.3510     0.2020     8.4620     2.4660     0.0210  -115.4040
 2839.0000   124.9370    -4.0550  -116.3090     3.1010     3.3320     5.0330    96.2120  -161.4690     0.2150     8.4610     2.4600     0.0050  -109.4220
 2839.5000   141.9440    -3.4200  -125.3740     3.1140     3.0890     3.4150    99.8590  -162.5870     0.2290     8.4590     2.4300     0.0040   -87.8440
 2840.0000   155.0240    -2.7980  -125.3740     3.1460     3.0160     3.4840   101.0660  -163.7040     0.2430     8.4540     2.3210     0.0240   -66.2650
 2840.5000   168.0110    -2.4660  -125.3740     3.2520     3.2280     3.6290    98.9030  -164.8220     0.2420     8.4490     2.2650     0.0300   -52.1930
 2841.0000   158.7180    -2.8640  -125.7800     3.4290     3.5680     3.7950    92.4140  -165.9400     0.2300     8.4440     2.2610     0.0200   -45.4800
 2841.5000   142.8960    -3.4530  -127.5670     3.6960     3.9860     5.3290    85.3050  -167.0580     0.2110     8.4430     2.3160     0.0090   -38.7670
 2842.0000   130.7400    -3.7130  -129.3550     4.0040     4.6620     6.7680    79.9400  -168.1760     0.1900     8.4560     2.4020    -0.0020   -42.0520
 2842.5000   101.0080    -3.8920  -131.1420     4.4440     5.3380     7.3510    76.9220  -169.2940     0.1770     8.4670     2.4720    -0.0180   -54.0400
 2843.0000    92.3970    -3.9830  -132.9300     5.2050     5.8540     7.3510    76.1170  -170.4110     0.1710     8.4800     2.4720    -0.0370   -66.0280
 2843.5000    88.2370    -4.0740  -134.7170     6.1460     6.2310     7.1200    76.5770  -171.5290     0.1640     8.5140     2.4670    -0.0500   -78.0160
 2844.0000    88.5370    -4.1640  -133.0220     6.4780     6.2110     6.9270    77.2230  -172.6470     0.1550     8.5500     2.4610    -0.0410   -85.8200
 2844.5000    91.2360    -4.2500  -129.4470     6.7060     6.1660     6.7340    77.8700  -173.7650     0.1540     8.5790     2.4550    -0.0320   -86.6880
 2845.0000    94.5170    -4.3290  -125.8720     6.6010     6.1210     6.5700    78.3640  -174.8830     0.1680     8.5700     2.4550    -0.0330   -87.5560
 2845.5000   100.5200    -4.4060  -122.2970     6.4410     6.0770     6.4110    78.7550  -176.0000     0.1790     8.5620     2.4570    -0.0220   -88.4240
 2846.0000   100.5290    -4.4820  -118.7220     6.2820     5.9560     6.2520    79.1460  -177.1180     0.1790     8.5540     2.4600    -0.0060   -89.2920
 2846.5000    96.0720    -4.5580  -115.1470     6.1220     5.7970     6.2310    79.5370  -178.2360     0.1770     8.5460     2.4560    -0.0210   -90.1610
 2847.0000    93.2960    -4.6370  -111.5720     5.9180     5.6380     6.2310    80.1410  -179.5770     0.1790     8.5370     2.4520    -0.0410   -91.0290
 2847.5000    91.3640    -4.8240  -107.9970     5.6000     5.4800     6.1240    80.7440  -177.8950     0.1850     8.5290     2.4470    -0.0610   -91.8970
 2848.0000    94.6050    -4.9860  -106.7820     5.2810     5.1880     5.9650    81.3480  -175.7930     0.1850     8.5210     2.4410    -0.0710   -92.7650
 2848.5000   101.0390    -4.4910  -111.5490     4.9620     4.8340     5.7650    81.9520  -173.6900     0.1790     8.5220     2.4340    -0.0590   -93.6330
 2849.0000   106.6550    -3.9620  -116.3150     4.6270     4.4800     5.5650    81.9520  -171.5880     0.1810     8.5250     2.4280    -0.0450   -94.5010
 2849.5000   109.4080    -3.4340  -121.0820     4.2860     4.1600     5.3650    82.1030  -169.4850     0.1900     8.5280     2.4290    -0.0320   -95.3690
 2850.0000   111.4050    -2.8890  -125.3740     3.8590     3.5460     5.1850    82.1530  -167.3830     0.2040     8.5310     2.4350    -0.0180   -89.3260
 2850.5000   113.3020    -2.9410  -125.3740     3.2300     3.0130     4.9310    84.4840  -165.2800     0.2040     8.5340     2.4400     0.0160   -82.4390
 2851.0000   115.5850    -3.0540  -125.3740     2.8530     2.7080     4.6880    86.7810  -163.1780     0.1990     8.5370     2.4450     0.0200   -75.5520
 2851.5000   125.4160    -2.4110  -125.3740     2.5570     2.3760     4.3200    89.3510  -161.0750     0.1990     8.5420     2.4460    -0.0200   -68.6640
 2852.0000   140.1640    -1.4870  -125.3740     2.3980     2.2480     3.4980    93.0180  -160.5680     0.2240     8.5570     2.4390    -0.0110   -67.9990
 2852.5000   157.0360    -0.5560  -125.3740     2.3760     2.4120     2.6770    98.8280  -165.3970     0.2580     8.5720     2.4050    -0.0010   -72.4590
 2853.0000   182.6770     0.4910  -125.3740     2.3930     2.6390     2.5800   104.4870  -170.2260     0.2910     8.5870     2.3680     0.0090   -76.9190
 2853.5000   176.6840     0.4820  -125.3740     2.5880     3.0060     2.7940   103.3400  -175.0550     0.2990     8.5840     2.3490     0.1000   -81.3790
 2854.0000   151.6110     0.0030  -125.3740     2.8500     3.4250     3.8440   100.4630  -179.8840     0.2730     8.4820     2.3300     0.2420   -85.8400
 2854.5000   135.7450    -0.4800  -125.3740     3.1290     3.8440     6.1740    92.2750  -184.7130     0.2450     8.3810     2.3560     0.2060   -90.3000
 2855.0000   115.8660    -1.1620  -125.3740     3.6780     4.3090     6.5840    85.9460  -189.5420     0.2180     8.3460     2.3760     0.0940   -94.7600
 2855.5000   106.7470    -1.7310  -128.3870     4.2650     4.8600     6.4460    81.5490  -194.3710     0.2000     8.3530     2.3930    -0.0190  -100.6550
 2856.0000   107.8750    -1.8710  -133.9480     4.8510     5.3430     6.2810    80.9460  -199.6980     0.1950     8.3610     2.4450    -0.0380  -106.8200
 2856.5000   108.6000    -1.8790  -127.0130     5.5540     5.4270     6.2330    81.0580  -199.6980     0.1950     8.3680     2.4830     0.0010  -112.9840
 2857.0000   108.6190    -1.8700  -115.4040     5.7680     5.5120     6.1860    81.2840  -199.6980     0.1940     8.3760     2.4810    -0.0200  -119.1490
 2857.5000   110.5570    -2.1770  -117.7300     5.8570     5.5970     6.1470    81.5090  -199.6980     0.1870     8.3790     2.4780    -0.0340  -125.3130
 2858.0000   113.1800    -2.6190  -121.9010     5.9450     5.6840     6.1170    81.7510  -199.6980     0.1870     8.3720     2.4760    -0.0410  -131.4780
 2858.5000   115.3080    -3.1620  -125.3740     6.0340     5.8300     6.1170    82.1040  -199.6980     0.1900     8.3660     2.4760    -0.0280  -137.6420
 2859.0000   116.4520    -3.7100  -125.3740     6.1220     5.9810     6.2380    82.4840  -199.6980     0.1920     8.3590     2.4790    -0.0060  -143.8060
 2859.5000   116.6240    -3.9040  -125.3740     6.2110     6.1320     6.3950    82.8640  -199.6980     0.1890     8.3520     2.4830     0.0150  -134.4040
