~VERSION INFORMATION
 VERS.                2.0:   CWLS LOG ASCII STANDARD - VERSION 2.0
 WRAP.                 NO:   ONE LINE PER DEPTH STEP
~WELL INFORMATION
#MNEM.UNIT      DATA TYPE    INFORMATION
#----------   ------------   ------------------------------
 STRT.F            0.5000:   START DEPTH
 STOP.F         4256.0000:   STOP DEPTH
 STEP.F            0.5000:   STEP LENGTH
 NULL.          -999.2500:   NO VALUE
 COMP. LAWRENCE-ALLISON & ASSOC:   COMPANY
 WELL. LAWRENCE "X" #64-15:   WELL
 FLD .        N.P.R. NO.3:   FIELD
 LOC .      S15 T38N R78W:   LOCATION
 CNTY.            NATRONA:   COUNTY
 STAT.            WYOMING:   STATE
 CTRY. UNITED STATES OF AMERICA:   COUNTRY
 SRVC.      DRESSER ATLAS:   SERVICE COMPANY
 DATE.        13-SEP-1984:   LOGDATE
 API .     49025111610000:   API NUMBER
~CURVE INFORMATION
#MNEM.UNIT       API CODE    CURVE DESCRIPTION
#----------   ------------   ------------------------------
 DEPT.F                  :   
 TENR.LBS    07 635 01 00:   TENSION FROM RESISTIVITY
 GRR .GAPI   07 310 01 00:   GAMMA RAY FROM RESISTIVITY
 RFOC.OHMM   07 220 04 00:   RESISTIVITY FOCUSED LOG RES.
 RILD.OHMM   07 120 46 00:   DEEP INDUCTION RESISTIVITY
 RILM.OHMM   07 120 44 00:   INDUCTION LOG MEDIUM RESISTIVITY
 SPR .MV     07 010 01 00:   SPONTANEOUS POTENTIAL
 DT  .US/F   60 520 00 00:   DELTA TIME
 TENS.LBS    60 635 01 00:   TENSION FROM SONIC
 CALD.IN     45 280 60 00:   CALIPER FROM DENSITY LOG
 TEND.LBS    45 635 01 00:   TENSION FORM DENSITY LOG
 CORR.G/C3   45 356 01 00:   DENSITY CORRECTION
 DEN .G/C3   45 350 01 00:   BULK DENSITY
 CNC .DEC    42 890 03 00:   NEUTRON POROSITY SANDSTONE
~PARAMETER INFORMATION
#MNEM.UNIT          VALUE    DESCRIPTION
#----------   ------------   ------------------------------
 EKB .F         5294.0000:   Kelly bushing
 EGL .F         5282.0000:   Ground level
 TD  .F         4256.0000:   Total depth
 CLNT.            A2DTECH:   Client Code
 SL  . 2299' FNL & 1785' FEL:   Surface Location
 PD  .                 GL:   Permanent Datum
 EPD .F              5282:   Elevation Permanent Datum
 LMF .                 KB:   Log Measured From
 DMF .                 KB:   Drilling Measured From
 DAPD.F                12:   Feet Above Permanent Datum
 DATE.        13-SEP-1984:   Date Logged [DD-MMM-YYYY]
 DD  .F              4256:   Depth driller
 DL  .F              4248:   Depth logger
 BLI .F              4246:   Bottom log interval
 TLI .F                 0:   Top log interval
 CS1 .IN            8.625:   Casing size
 CBD1.      8.625" @ 817':   Casing driller 1
 CBL1.F               814:   Casing logger 1
 BS1 .IN            7.875:   Bit size
 BSD1.F              4256:   Depth drilled with bit1
 DFT .            KCL-GEL:   Type fluid in hole
 DFD .                  9:   Density
 DFV .                 40:   Viscosity
 DFPH.                8.6:   pH
 DFL .               11.8:   Fluid loss
 MSS .            MUDTANK:   Source of sample
 RMS .OHMM           0.38:   Rm
 MST .F                74:   Rm Meas. temp.
 RMF .OHMM           0.31:   Rmf
 MFST.F                72:   Rmf Meas. temp.
 MFSS.               MEAS:   Source Rmf.
 RMC .OHMM           0.48:   Rmc
 MCST.F                74:   Rmc Meas. temp.
 MCSS.               CALC:   Source Rmc.
 RMB .OHMM           0.22:   Rm. at BHT
 BHT .F               134:   BHT.
 TCS .HRS               4:   Time Circ. stopped
 MRT .F               134:   Maximum recorded temp.
 LUN .            HL-6274:   Logging unit number
 LUL .           GILLETTE:   Logging unit location
 ENGI.             RAUTIO:   Recorded By
 WITN.            JOHNSON:   Witnessed by
 ORIG.        2" 5" PRINT:   Origin of data
 UWI .     49025111610000:   Unique Well ID
 DICO. A2D TECHNOLOGIES, INC.:   Digitizing Company
~OTHER INFORMATION
~A    DEPT    TENR         GRR      RFOC       RILD       RILM        SPR         DT       TENS       CALD       TEND       CORR        DEN        CNC   
# ...
 3770.5000   -47.7744   109.1895    12.8861     9.1009     9.4570   -41.1958    89.3592   -45.8167     8.3500   -55.7769     0.0073     2.4463     0.2458
 3771.0000   -47.2976   101.6817    14.3398    10.2165    10.4939   -41.3375    87.1790   -45.8167     8.3500   -55.7769     0.0074     2.4448     0.2431
 3771.5000   -46.8209   106.8129    14.3408    11.4929    11.6446   -41.6299    86.8623   -45.8167     8.3500   -55.7769     0.0151     2.4373     0.2398
 3772.0000   -46.3441   120.6621    14.3417    12.6629    13.0114   -41.7716    87.0218   -45.8167     8.3500   -55.7769     0.0164     2.4268     0.2422
 3772.5000   -45.8673   126.9925    14.3427    13.2002    13.7723   -41.7606    87.3955   -45.8167     8.3500   -55.7769     0.0286     2.4223     0.2491
 3773.0000   -45.3905   125.2656    14.1465    13.4773    14.0418   -41.9046    87.6230   -35.8566     8.3500   -55.7769     0.0346     2.4186     0.2506
 3773.5000   -45.0000   117.1007    14.7472    13.7602    14.1386   -42.0442    87.4599   -35.8566     8.3500   -55.7769     0.0211     2.4134     0.2434
 3774.0000   -45.0000   112.6041    16.8205    13.7602    14.1374   -42.0354    86.7060   -35.8566     8.3500   -63.9774     0.0166     2.4150     0.2416
 3774.5000   -44.9997   116.2278    16.3070    13.7602    14.0387   -42.1793    86.6274   -35.8566     8.3483   -65.7245     0.0136     2.4173     0.2452
 3775.0000   -45.0000   128.5733    14.6993    13.7602    13.8442   -42.3193    86.7737   -45.8167     8.3415   -65.7324     0.0015     2.4151     0.2500
 3775.5000   -45.0000   146.6330    14.2980    13.5615    13.7475   -42.6113    87.3702   -45.8167     8.3349   -64.3275    -0.0096     2.4076     0.2527
 3776.0000   -45.0000   149.6515    14.2980    13.2002    13.4633   -42.9075    88.4168   -45.8167     8.3283   -57.1144    -0.0196     2.4016     0.2567
 3776.5000   -45.0000   142.4518    14.1994    12.9287    13.0927   -43.5154    89.0883   -45.8167     8.3217   -55.7769    -0.0075     2.4036     0.2651
 3777.0000   -45.0000   136.1507    13.9077    12.6629    12.5589   -44.2392    89.1684   -45.8167     8.3151   -55.7769     0.0047     2.4176     0.2732
 3777.5000   -45.0000   133.7593    13.5280    12.4887    12.2140   -44.5338    89.0060   -35.8566     8.3086   -55.7769     0.0228     2.4275     0.2783
 3778.0000   -45.0000   139.0319    13.0679    12.3170    12.2132   -44.2216    89.0773   -43.8579     8.3020   -55.7769     0.0364     2.4351     0.2759
 3778.5000   -45.0000   144.9201    12.7994    12.1475    12.0440   -43.3092    89.3868   -35.8566     8.2954   -45.8167     0.0410     2.4276     0.2643
 3779.0000   -45.0000   146.7393    12.7112    11.8978    12.0432   -42.5473    89.8943   -35.8566     8.2888   -45.4344     0.0456     2.4216     0.2482
 3779.5000   -45.0000   142.8442    12.6235    11.7341    12.1264   -41.7855    90.0416   -35.8566     8.2822   -34.6060     0.0518     2.4265     0.2416
 3780.0000   -45.0000   138.9491    12.7994    11.6532    12.2101   -41.3249    89.2118   -28.7600     8.2754   -28.0088     0.0592     2.4474     0.2350
 3780.5000   -45.0000   141.0690    13.2618    11.6532    12.1246   -40.8642    88.0079   -35.0224     8.2704   -26.0250     0.0638     2.4595     0.2326
 3781.0000   -65.0000   142.2867    14.3438    11.3348    11.7875   -40.4036    87.2540   -35.8566     8.3024   -24.7344     0.0427     2.4596     0.2431
 3781.5000   -39.6333   141.3985    15.3224    11.2566    11.4570   -40.2440    86.8002   -35.8566     8.3370   -37.2825     0.0261     2.4461     0.2504
 3782.0000   -56.4000   142.0152    12.7994    11.1789    11.0761   -40.3860    86.5715   -35.8566     8.3716   -43.2853     0.0216     2.4348     0.2555
 3782.5000   -73.1667   146.2858    11.3005    11.0251    10.9226   -41.1279    88.0682   -46.0402     8.4061   -45.8167     0.0322     2.4357     0.2573
 3783.0000   -85.0000   147.4581    10.7661    10.9490    10.9982   -41.5731    88.7505   -35.1642     8.4405   -25.8964     0.0413     2.4432     0.2567
 3783.5000   -72.8486   143.8674    10.8409    10.8735    11.1510   -41.8655    89.3467   -36.4825     8.4751   -15.9363     0.0413     2.4508     0.2500
 3784.0000   -68.5371   138.1678    11.3005    10.8735    11.2280   -42.0073    89.8568   -45.8167     8.4934   -15.9363     0.0393     2.4569     0.2446
 3784.5000   -64.2257   136.3742    12.0266    10.7984    11.5432   -41.9963    89.4780   -45.8167     8.5311   -15.9363     0.0353     2.4540     0.2428
 3785.0000   -59.9143   140.0016    12.6295    10.8735    11.7853   -41.9874    89.0242   -43.9670     8.5331   -25.8964     0.0369     2.4488     0.2422
 3785.5000   -55.6029   146.3320    13.2767    10.9490    11.8665   -42.1292    88.8705   -40.3884     8.5358   -45.8167     0.0369     2.4450     0.2428
 3786.0000   -51.2914   149.6550    13.6219    11.0251    11.4482   -41.9698    88.7168   -36.8099     8.5384   -52.4474     0.0339     2.4436     0.2410
 3786.5000   -46.9800   149.0681    13.5280    11.0251    10.9166   -41.3584    89.3133   -33.2314     8.5410   -59.6044     0.0339     2.4452     0.2404
 3787.0000   -65.0000   152.0903    13.4347    10.7239    10.4706   -41.1991    89.8348   -29.6528     8.5437   -65.3323     0.0370     2.4460     0.2410
 3787.5000   -65.0000   153.0072    12.9778    10.1460    10.0428   -41.6399    89.9125   -25.8964     8.5463   -76.0231     0.0415     2.4476     0.2466
 3788.0000   -55.0000   152.4204    12.2789     9.5992     9.6996   -41.9345    89.7524   -45.8167     8.5490   -88.1438     0.0482     2.4469     0.2561
 3788.5000   -55.0000   153.6417    11.3005     9.1449     9.3681   -42.0763    89.7487   -45.8167     8.5516   -95.6175     0.0597     2.4394     0.2618
 3789.0000   -55.0000   158.4684     9.8399     8.8337     9.0480   -41.7640    90.1193   -45.8167     8.5542   -95.6175     0.0643     2.4333     0.2666
 3789.5000   -55.0000   166.0018     9.4397     8.6521     8.7997   -41.4540    90.7908   -35.8566     8.5569   -95.6175     0.0613     2.4319     0.2699
 3790.0000   -58.5000   169.3248     9.5231     8.6521     8.7382   -41.4452    91.3873   -35.8566     8.5595   -96.0040     0.0447     2.4350     0.2690
 3790.5000   -45.0000   164.8282    10.1863     8.6521     8.6770   -41.7380    91.3086   -35.8566     8.5622   -85.2701     0.0312     2.4358     0.2584
 3791.0000   -45.0000   155.8203    10.5449     8.6521     8.7370   -41.7288    89.3545   -35.8566     8.5648   -85.4037     0.0236     2.4382     0.2512
 3791.5000   -55.0000   146.2109    10.9920     8.7122     8.7363   -41.7199    86.4251   -35.8566     8.5675   -75.6972     0.0176     2.4427     0.2515
 3792.0000   -55.0000   141.4099    11.3789     8.7727     8.8578   -41.5422    85.1461   -44.1235     8.5699   -71.4001     0.0116     2.4490     0.2494
 3792.5000   -55.0000   142.9112    11.4579     8.9569     8.9810   -41.2483    85.8176   -35.8566     8.5692   -55.7769     0.0101     2.4534     0.2464
 3793.0000   -45.0000   160.9953    10.8409     9.0818     9.1059   -40.9382    87.5394   -45.8167     8.5685   -55.1173     0.0071     2.4475     0.2419
 3793.5000   -45.0000   168.2280    10.7661     9.2725     9.2969   -40.7788    88.3836   -45.8167     8.5677   -47.1639     0.0102     2.4445     0.2368
 3794.0000   -45.0000   170.6487    10.9189     9.3369     9.4919   -40.6194    88.6573   -45.8167     8.5670   -61.1119     0.0163     2.4461     0.2359
 3794.5000   -55.0000   169.1596    11.6375     9.3369     9.4912   -40.4600    87.1524   -45.9176     8.5662   -55.7769     0.0178     2.4491     0.2374
 3795.0000   -55.0000   158.6480    12.3642     9.2725     8.9778   -40.3005    86.4735   -45.8189     8.5655   -55.7769     0.0133     2.4522     0.2380
 3795.5000   -55.0000   153.5498    12.7994     9.0129     8.6111   -40.1411    84.1443   -45.8122     8.5648   -55.7769     0.0088     2.4561     0.2374
 3796.0000   -55.0000   150.8577    13.1587     8.5924     8.2593   -40.1323    82.7903   -45.6829     8.5640   -50.5378     0.0043     2.4591     0.2356
