~VERSION INFORMATION
 VERS.                2.0:   CWLS LOG ASCII STANDARD - VERSION 2.0
 WRAP.                 NO:   ONE LINE PER DEPTH STEP
~WELL INFORMATION
#MNEM.UNIT      DATA TYPE    INFORMATION
#----------   ------------   ------------------------------
 STRT.F          200.0000:   START DEPTH
 STOP.F         3050.0000:   STOP DEPTH
 STEP.F            0.5000:   STEP LENGTH
 NULL.          -999.2500:   NO VALUE
 COMP.     FENIX & SISSON:   COMPANY
 WELL. FENIX & SISSON "AX" #16-28:   WELL
 FLD .              NPR 3:   FIELD
 LOC .      S28 T39N R78W:   LOCATION
 CNTY.            NATRONA:   COUNTY
 STAT.            WYOMING:   STATE
 CTRY. UNITED STATES OF AMERICA:   COUNTRY
 SRVC.      DRESSER ATLAS:   SERVICE COMPANY
 DATE.        01-JUL-1977:   LOGDATE
 API .     49025103930000:   API NUMBER
~CURVE INFORMATION
#MNEM.UNIT       API CODE    CURVE DESCRIPTION
#----------   ------------   ------------------------------
 DEPT.F                  :   
 CALD.IN     45 280 60 00:   CALIPER FROM DENSITY LOG
 GRD .GAPI   45 310 01 00:   GAMMA RAY FROM DENSITY LOG
 CORR.G/C3   45 356 01 00:   DENSITY CORRECTION
 TEND.LBS    45 635 01 00:   TENSION FROM DENSITY LOG
 SPR .MV     07 010 01 00:   SPONTANEOUS POTENTIAL
 ILD .OHMM   07 120 46 00:   DEEP INDUCTION RESISTIVITY
 ILM .OHMM   07 120 44 00:   INDUCTION LOG MEDIUM RESISTIVITY
 SFL .OHMM   07 220 01 00:   SHALLOW FOCUSED LOG RESISTIVITY
 RHOB.G/C3   45 350 01 00:   BULK DENSITY
~PARAMETER INFORMATION
#MNEM.UNIT          VALUE    DESCRIPTION
#----------   ------------   ------------------------------
 EKB .F         5067.0000:   Kelly bushing
 EGL .F         5057.0000:   Ground level
 EDF .F         5066.0000:   Drilling floor
 EPD .F            0.0000:   Permanent datum
 TD  .F         3036.0000:   Total depth
 DATE.        01-JUL-1977:   Date logged
 CLNT.            A2DTECH:   Client Code
 SL  . 1220' FSL & 330' FWL:   Surface Location
 PD  .                 GL:   Permanent Datum
 DAPD.F                10:   Feet Above Permanent Datum
 DD  .F              3034:   Depth driller
 DL  .F              3036:   Depth logger
 BLI .F              3034:   Bottom log interval
 TLI .F               214:   Top log interval
 CS1 .IN            8.625:   Casing size
 CBD1.      8.625" @ 204':   Casing driller 1
 CBL1.F               214:   Casing logger 1
 BS1 .IN            7.875:   Bit size
 BSD1.F              3034:   Depth drilled with bit1
 DFT .                KCL:   Type fluid in hole
 DFD .                  9:   Density
 DFV .                 34:   Viscosity
 DFPH.                7.2:   pH
 DFL .                8.8:   Fluid loss
 MSS .         CIRCULATED:   Source of sample
 RMS .OHMM           .112:   Rm
 MST .F                75:   Rm Meas. temp.
 RMF .OHMM           .085:   Rmf
 MFST.F                75:   Rmf Meas. temp.
 RMC .OHMM           .141:   Rmc
 MCST.F                75:   Rmc Meas. temp.
 MFSS.               MEAS:   Source Rmf.
 MCSS.               MEAS:   Source Rmc.
 RMB .OHMM           .067:   Rm. at BHT
 BHT .F               124:   BHT.
 TCS .HRS               1:   Time Circ. stopped
 MRT .F               124:   Maximum recorded temp.
 LUN .               6134:   Logging unit number
 LUL .              GLTTE:   Logging unit location
 ENGI.              GOULD:   Recorded By
 WITN.         PETTINGILL:   Witnessed by
 ORIG.       2.5"5" PRINT:   Origin of data
 UWI .     49025103930000:   Unique Well ID
 DICO. A2D TECHNOLOGIES, INC.:   Digitizing Company
~OTHER INFORMATION
~A   DEPT     CALD         GRD      CORR       TEND        SPR        ILD        ILM        SFL       RHOB   
# ...
  565.0000     8.0000    87.1410     0.0160   -42.3580   -59.4570     9.9310    14.5370    15.4000     2.4730
  565.5000     7.9690    87.7240     0.0090   -45.3520   -59.3250    10.2010    14.2680    15.0810     2.4530
  566.0000     7.9940    88.6470     0.0110   -44.9070   -59.1580    10.4470    14.0290    16.2290     2.4620
  566.5000     8.0170    87.5010     0.0230   -41.9130   -58.9620    10.4100    13.7890    16.0320     2.4730
  567.0000     8.0400    87.3690     0.0280   -38.9190   -58.7670    10.3770    13.5490    15.3600     2.4830
  567.5000     8.0450    87.7520     0.0250   -35.9250   -58.5750    10.3440    13.3100    15.2490     2.4820
  568.0000     8.0460    88.6030     0.0220   -32.9300   -58.3830    10.3100    13.0700    15.1440     2.4750
  568.5000     8.0450    88.5320     0.0190   -29.9360   -58.1720    10.2770    12.7840    15.0400     2.4780
  569.0000     8.0460    88.6420     0.0180   -26.7860   -58.1010    10.1610    12.7840    14.9350     2.4700
  569.5000     8.0450    89.3320     0.0160   -28.3470   -58.2250     9.9220    12.7840    14.8300     2.4620
  570.0000     8.0350    90.0010     0.0150   -29.9930   -58.3280     9.6830    12.7840    14.5370     2.4590
  570.5000     8.0240    89.8790     0.0170   -31.6400   -58.4350     9.4440    12.7840    14.8610     2.4670
  571.0000     8.0130    89.6660     0.0200   -33.2870   -58.5450     9.1870    12.5490    15.3600     2.4760
  571.5000     8.0020    89.9550     0.0230   -34.9340   -58.6510     9.1550    12.2310    15.0880     2.4830
  572.0000     7.9910    90.3880     0.0270   -36.7060   -58.7590     9.1210    11.8790    14.5650     2.4910
  572.5000     7.9910    89.7900     0.0300   -30.1870   -58.8670     9.0870    11.6630    14.0420     2.5080
  573.0000     8.0010    89.1100     0.0320   -23.1290   -58.9750     9.0530    11.7280    13.5180     2.5180
  573.5000     8.0110    88.6280     0.0320   -16.0710   -59.0830     9.0200    11.9710    13.0210     2.5130
  574.0000     8.0210    88.9120     0.0280    -9.0140   -59.1900     9.0370    12.2140    12.7840     2.4930
  574.5000     8.0310    89.4510     0.0250    -9.1270   -59.3490     9.0540    12.5520    13.7210     2.4840
  575.0000     8.0400    90.0340     0.0210   -12.2150   -59.6040     9.0700    12.4400    14.9830     2.4880
  575.5000     8.0440    90.8050     0.0180   -15.3030   -59.8370     9.0870    12.2580    14.8190     2.4810
  576.0000     8.0400    91.5890     0.0120   -18.3900   -60.0050     9.1030    12.0760    14.4910     2.4670
  576.5000     8.0370    91.6050     0.0140   -21.4780   -59.6530     9.1190    11.8940    14.1620     2.4670
  577.0000     8.0330    91.9230     0.0200   -24.5660   -59.3480     9.1350    11.7120    13.9640     2.4840
  577.5000     8.0300    92.1160     0.0250   -26.4550   -59.2430     9.1520    11.3730    13.8750     2.4850
  578.0000     8.0260    92.0140     0.0170   -25.2790   -59.2520     9.1690    11.1320    13.7850     2.4810
  578.5000     8.0560    91.9940     0.0130   -24.1020   -59.2550     9.1870    10.8920    13.4120     2.4860
  579.0000     8.0920    91.4620     0.0210   -22.9260   -59.2480     8.9190    10.6510    12.9180     2.5040
  579.5000     8.1270    91.0000     0.0270   -21.7500   -59.2540     8.6160    10.4110    12.5520     2.5180
  580.0000     8.1620    91.1720     0.0220   -20.5740   -59.2670     8.3130    10.1700    12.9420     2.5200
  580.5000     8.1970    91.7970     0.0160   -19.3970   -59.4780     8.1050     9.8870    12.8930     2.4900
  581.0000     8.2320    90.3570     0.0110   -18.2210   -59.6850     8.2170     9.8870    12.3310     2.4750
  581.5000     8.2670    89.6240     0.0110   -17.0450   -59.9280     8.3300     9.8870    11.8790     2.4710
  582.0000     8.3020    90.7610     0.0110   -21.2720   -59.9700     8.4420    10.5400    11.9840     2.4690
  582.5000     8.3380    91.9110     0.0130   -26.4720   -59.7240     8.5540    11.0860    12.2600     2.4710
  583.0000     8.3750    91.7490     0.0160   -31.6730   -59.5090     8.6670    11.6320    12.5520     2.4750
  583.5000     8.4120    92.9070     0.0180   -36.7060   -59.2840     8.7790    12.1790    13.2620     2.4660
  584.0000     8.4550    94.1420     0.0160   -25.7790   -59.0580     8.8560    12.5520    13.1700     2.4500
  584.5000     8.5210    93.7370     0.0160   -15.1930   -58.8690     8.8560    12.3260    12.8780     2.4480
  585.0000     8.5870    93.2860     0.0200    -6.9440   -58.8610     8.8310    12.0770    12.5520     2.4590
  585.5000     8.6240    93.8910     0.0230   -17.5540   -58.8510     8.7950    11.8290    12.3890     2.4540
  586.0000     8.6650    93.6410     0.0310   -27.9550   -58.8810     8.7590    11.5810    12.2030     2.4420
  586.5000     8.7100    93.0190     0.0410   -38.3560   -58.6310     8.7230    11.3330    12.0990     2.4360
  587.0000     8.7650    93.1440     0.0600   -46.6270   -58.0520     8.5600    11.0380    12.0990     2.4490
  587.5000     8.9710    92.1990     0.0850   -45.4460   -57.5310     7.9460    10.6500    12.0990     2.4590
  588.0000     9.4520    91.1360     0.1050   -44.2700   -56.8950     7.3320     9.6950    11.9380     2.4340
  588.5000     9.2920    90.4080     0.1140   -43.0930   -56.1790     6.7180     8.7400    10.2690     2.3260
  589.0000     9.3250    90.6450     0.1140   -41.9170   -55.4930     6.1050     7.9320     6.8490     2.2260
  589.5000     9.4660    91.9360     0.1060   -40.7410   -55.1880     5.7000     8.5100     7.0600     2.2030
  590.0000     9.6130    92.0450     0.0880   -39.5640   -55.0080     5.6210    10.2010     7.6770     2.1690
  590.5000     9.4890    91.1780     0.0670   -38.3880   -55.0260     5.8450    11.8920     8.2940     2.1040
  591.0000     9.0540    91.2640     0.0440   -37.2120   -55.3930     6.1920    13.5830     8.8560     2.0910
  591.5000     8.7300    91.1550     0.0200   -36.2260   -55.7630     6.7240    15.2580     8.7700     2.2750
  592.0000     8.6500    90.8700     0.0090   -34.9260   -56.1420     6.6960    16.8940     8.6950     2.4610
  592.5000     8.6140    91.0360     0.0090   -33.6260   -56.9830     6.6020    17.4750     9.5310     2.4630
  593.0000     8.5900    90.5220     0.0100   -32.3260   -57.8060     6.7620    16.1870    11.6050     2.4690
  593.5000     8.5990    90.5110     0.0150   -31.0250   -58.7380     7.1330    14.8980    12.7840     2.4780
  594.0000     8.6540    90.6930     0.0200   -29.7250   -59.9940     7.5070    13.6100    12.5180     2.4880
  594.5000     8.5450    91.2340     0.0280   -28.4250   -60.4600     8.3300    12.5520    12.1880     2.4960
  595.0000     8.4310    91.5180     0.0330   -27.1250   -60.9190     9.0740    13.2190    11.8570     2.5050
  595.5000     8.3810    91.2270     0.0330   -27.8000   -61.3400    10.0700    14.0820    11.5270     2.5130
  596.0000     8.4000    91.7910     0.0270   -29.1720   -61.7820     9.8390    15.3600    11.0380     2.5150
  596.5000     8.4350    91.7960     0.0190   -30.5450   -62.2130     9.1470    15.1490    11.2530     2.5070
  597.0000     8.4730    91.4000     0.0180   -31.9170   -62.6610     8.3810    14.5370    11.6670     2.5130
  597.5000     8.4300    90.6340     0.0260   -33.2890   -63.0750     8.3810    14.7400    11.8790     2.5290
  598.0000     8.3590    89.8390     0.0350   -34.6620   -63.5430     8.2290    15.1560    11.8790     2.5490
  598.5000     8.3710    89.5380     0.0340   -36.0340   -63.4140     8.3820    15.5730    11.8790     2.5510
  599.0000     8.3700    90.1820     0.0290   -36.7060   -63.2250     8.7190    16.2290    11.8790     2.5380
  599.5000     8.4100    91.2400     0.0260   -36.7060   -63.0310     9.0560    15.9980    12.6560     2.5290
  600.0000     8.4620    92.0090     0.0230   -36.7060   -62.8170     9.2240    15.4500    13.5930     2.5190
  600.5000     8.4790    91.5010     0.0210   -36.7060   -62.8740     9.2840    14.9010    14.5370     2.5120
  601.0000     8.2520    90.4790     0.0200   -36.7060   -62.9660     9.3570    14.3530    14.5370     2.5050
