~VERSION INFORMATION
 VERS.                2.0:   CWLS LOG ASCII STANDARD - VERSION 2.0
 WRAP.                 NO:   ONE LINE PER DEPTH STEP
~WELL INFORMATION
#MNEM.UNIT      DATA TYPE    INFORMATION
#----------   ------------   ------------------------------
 STRT.F          200.0000:   START DEPTH
 STOP.F         3014.0000:   STOP DEPTH
 STEP.F            0.5000:   STEP LENGTH
 NULL.          -999.2500:   NO VALUE
 COMP.    FENIX & SCISSON:   COMPANY
 WELL. FENIX NPR 3 "AX" #45-28:   WELL
 FLD .                NPR:   FIELD
 LOC .      S28 T39N R78W:   LOCATION
 CNTY.            NATRONA:   COUNTY
 STAT.            WYOMING:   STATE
 CTRY. UNITED STATES OF AMERICA:   COUNTRY
 SRVC.              WELEX:   SERVICE COMPANY
 DATE.        30-SEP-1977:   LOGDATE
 API .     49025104230000:   API NUMBER
~CURVE INFORMATION
#MNEM.UNIT       API CODE    CURVE DESCRIPTION
#----------   ------------   ------------------------------
 DEPT.F                  :   
 SPR .MV     07 010 01 00:   SPONTANEOUS POTENTIAL
 TENR.LBS    07 635 01 00:   TENSION
 SFL .OHMM   07 220 01 00:   SHALLOW FOCUSED LOG RESISTIVITY
 ILD .OHMM   07 120 46 00:   INDUCTION LOG DEEP RESISTIVITY
 ILM .OHMM   07 120 44 00:   INDUCTION LOG MEDIUM RESISTIVITY
 TEND.LBS    45 635 01 00:   TENSION FROM DENSITY LOG
 CALD.IN     45 280 60 00:   CALIPER FROM DENSITY LOG
 RHOB.G/C3   45 350 01 00:   BULK DENSITY
 CORR.G/C3   45 356 01 00:   DENSITY CORRECTION
 GRD .GAPI   45 310 01 00:   GAMMA RAY FROM DENSITY LOG
~PARAMETER INFORMATION
#MNEM.UNIT          VALUE    DESCRIPTION
#----------   ------------   ------------------------------
 EKB .F         5075.0000:   Kelly bushing
 EGL .F         5065.0000:   Ground level
 EDF .F            0.0000:   Drilling floor
 E TD.F         3008.0000:   Total depth
 DATE.        30-SEP-1977:   Date logged
 CLNT.            A2DTECH:   Client Code
 SL  . 2210' FSL & 2310' FWL:   Surface Location
 PD  .                 GL:   Permanent Datum
 EPD .F              5065:   Elevation Permanent Datum
 LMF .                 KB:   Log Measured From
 DMF .                 KB:   Drilling Measured From
 DAPD.F                10:   Feet Above Permanent Datum
 DD  .F              3005:   Depth driller
 DL  .F              3008:   Depth logger
 BLI .F              3006:   Bottom log interval
 TLI .F               200:   Top log interval
 CS1 .IN            8.625:   Casing size
 CBD1.      8.625" @ 205':   Casing driller 1
 CBL1.F               220:   Casing logger 1
 BS1 .IN            7.875:   Bit size
 BSD1.F              3005:   Depth drilled with bit1
 DFT .            KCL/MUD:   Type fluid in hole
 DFD .                9.1:   Density
 DFV .                 38:   Viscosity
 DFPH.                 11:   pH
 DFL .                6.8:   Fluid loss
 MSS .           FLOWLINE:   Source of sample
 RMS .OHMM            .31:   Rm
 MST .F                78:   Rm Meas. temp.
 RMF .OHMM            .15:   Rmf
 MFST.F                78:   Rmf Meas. temp.
 RMC .OHMM           1.02:   Rmc
 MCST.F                78:   Rmc Meas. temp.
 MFSS.               FANN:   Source Rmf.
 MCSS.                KIT:   Source Rmc.
 RMB .OHMM            .20:   Rm. at BHT
 BHT .F               117:   BHT.
 TCS .HRS               3:   Time Circ. stopped
 MRT .F               117:   Maximum recorded temp.
 LUN .               8611:   Logging unit number
 LUL .             CASPER:   Logging unit location
 ENGI.         G. BENTSEN:   Recorded By
 WITN.         HARRINGTON:   Witnessed by
 ORIG.           5" PRINT:   Origin of data
 UWI .     49025104230000:   Unique Well ID
 DICO. A2D TECHNOLOGIES, INC.:   Digitizing Company
~OTHER INFORMATION
~A   DEPT      SPR        TENR       SFL        ILD        ILM       TEND       CALD       RHOB       CORR        GRD   
# ...
  568.5000   -56.3380   443.2570    11.2440     8.9380     9.5770   651.2170    10.1980     2.5030     0.0060    92.1700
  569.0000   -56.2980   443.3760    12.6660     8.8370     9.5140   650.7050    10.2050     2.4980     0.0070    93.1180
  569.5000   -56.2590   443.4950    12.3660     8.9350     9.6560   650.1940    10.2110     2.5000     0.0080    94.5780
  570.0000   -56.2200   443.6140    11.8610     9.0160     9.7450   649.6820    10.2170     2.5040     0.0080    91.4400
  570.5000   -56.1800   443.7330    11.4430     9.0970     9.8340   649.1710    10.2230     2.5070     0.0090    87.1320
  571.0000   -56.1870   443.8520    11.8080     9.1780     9.9230   648.6590    10.2300     2.5020     0.0100    88.3790
  571.5000   -56.2280   443.9720    12.1190     9.2600    10.0130   648.1480    10.2360     2.4960     0.0100    90.9470
  572.0000   -56.2690   444.0910    12.4290     9.3410    10.1020   647.6370    10.2420     2.5010     0.0110    93.5180
  572.5000   -56.3100   444.2100    12.7400     9.4270    10.1910   647.1250    10.2410     2.5000     0.0120    95.5730
  573.0000   -56.3510   444.3290    13.0510     9.5310    10.2810   646.6140    10.2320     2.4910     0.0120    96.4290
  573.5000   -56.3920   444.4480    13.5110     9.6410    10.3700   646.1020    10.2240     2.4960     0.0110    97.8360
  574.0000   -56.4330   444.5670    13.2800     9.7520    10.4590   645.5910    10.2150     2.4910     0.0100    98.5110
  574.5000   -56.4740   444.6860    12.8340     9.8720    10.5480   645.0790    10.2070     2.4850     0.0090    96.6030
  575.0000   -56.5150   444.8060    12.4340     9.7810    10.6290   644.5680    10.1980     2.4800     0.0080    95.1280
  575.5000   -56.5560   444.9250    12.5350     9.6810    10.5100   644.0570    10.1900     2.4770     0.0060    93.6130
  576.0000   -56.6050   445.0440    12.6470     9.5800    10.4010   643.5450    10.1810     2.4770     0.0050    93.5690
  576.5000   -56.6550   445.1630    12.7590     9.4800    10.2930   643.0340    10.1730     2.4790     0.0040    91.6410
  577.0000   -56.7060   445.2820    12.8710     9.3880    10.1850   642.5220    10.1640     2.4800     0.0020    88.2000
  577.5000   -56.7560   445.4010    13.0210     9.3050    10.0760   642.0110    10.1560     2.4790     0.0010    86.2660
  578.0000   -56.8060   445.5200    12.7720     9.2210     9.9680   641.4990    10.1460     2.4750     0.0020    89.9820
  578.5000   -56.8560   445.6390    12.3920     9.1380     9.8600   640.9880    10.1680     2.4760     0.0060    94.8980
  579.0000   -56.9060   445.7590    12.0130     9.0550     9.7510   640.4770    10.1970     2.4840     0.0090    99.2250
  579.5000   -56.9560   445.8780    11.6330     8.9720     9.6430   639.9650    10.2260     2.4910     0.0120    98.6400
  580.0000   -57.0060   445.9970    11.3380     8.8890     9.5350   639.4540    10.2560     2.4960     0.0140    94.1880
  580.5000   -57.0570   446.1160    11.5880     8.7560     9.4260   638.9420    10.2850     2.4900     0.0130    89.3320
  581.0000   -57.1070   446.2350    11.7920     8.7630     9.3400   638.4310    10.3150     2.4850     0.0120    88.2180
  581.5000   -57.1530   446.3540    11.9150     8.7780     9.4360   637.9190    10.3440     2.4910     0.0100    90.3850
  582.0000   -57.0600   446.4730    11.9840     8.7940     9.5150   637.4080    10.3740     2.5000     0.0090    92.7950
  582.5000   -56.9600   446.5930    12.0530     8.8100     9.5950   636.8960    10.4030     2.5000     0.0080    94.6250
  583.0000   -56.8610   446.7120    12.1220     8.8260     9.6740   636.3850    10.4260     2.4990     0.0060    92.2010
  583.5000   -56.7650   446.8310    12.2070     8.8420     9.7530   635.8740    10.4420     2.4930     0.0050    89.7030
  584.0000   -56.8390   446.9500    12.0890     8.8580     9.8320   635.3620    10.4580     2.4800     0.0040    87.2380
  584.5000   -56.9230   447.0690    11.9340     8.8740     9.9120   634.8510    10.4740     2.4740     0.0020    88.5750
  585.0000   -57.0070   447.1890    11.7800     8.8900     9.9640   634.3390    10.4810     2.4740     0.0010    90.4410
  585.5000   -57.0910   447.3080    11.6250     8.9050     9.8080   633.8280    10.4780     2.4790     0.0000    90.4880
  586.0000   -57.1740   447.4270    11.4710     8.9190     9.6920   633.3160    10.4750     2.4840    -0.0020    89.8490
  586.5000   -57.2580   447.5470    11.3160     8.8060     9.5760   632.8050    10.4710     2.4810    -0.0010    89.1540
  587.0000   -57.3410   447.6660    11.1620     8.6820     9.4600   632.2940    10.4680     2.4720     0.0000    88.8960
  587.5000   -57.4250   447.7850    11.0070     8.5590     9.3440   631.7820    10.4640     2.4800     0.0000    92.1320
  588.0000   -57.5090   447.9040    10.8530     8.4360     9.2270   631.2710    10.4610     2.4820     0.0000    95.4030
  588.5000   -57.5920   448.0240    10.6980     8.3130     9.1110   630.7590    10.4570     2.4780    -0.0010    96.1490
  589.0000   -57.6750   448.1430    10.5440     8.1900     8.9950   630.2480    10.4540     2.4740    -0.0010    95.6180
  589.5000   -57.7590   448.2620    10.3890     8.0670     8.8790   629.7360    10.4500     2.4750    -0.0010    95.0740
  590.0000   -57.9280   448.3820    10.2350     7.9430     8.7630   629.2250    10.4470     2.4830    -0.0010    94.5070
  590.5000   -58.0160   448.5010    10.0800     7.8200     8.6470   628.7140    10.4440     2.4900    -0.0020    94.3370
  591.0000   -58.0900   448.6200     9.9260     7.6970     8.5310   628.2020    10.4400     2.4960    -0.0020    94.3630
  591.5000   -58.1640   448.7400     9.7710     7.5740     8.4150   627.6910    10.4370     2.4970    -0.0020    95.4840
  592.0000   -58.2380   448.8590     9.6170     7.4510     8.2990   627.1790    10.4330     2.4840    -0.0020    97.4000
  592.5000   -58.3120   448.9780     9.4620     7.2950     8.2080   626.6680    10.4300     2.4700    -0.0030    99.3180
  593.0000   -58.3860   449.0970     9.3400     7.3570     8.2890   626.1560    10.4260     2.4630    -0.0030    99.6140
  593.5000   -58.4600   449.2170     9.6850     7.4810     8.3560   625.6450    10.4230     2.4790    -0.0030    98.8430
  594.0000   -58.5330   449.3360     9.9680     7.6060     8.4220   625.1330    10.4230     2.4910    -0.0030    98.0570
  594.5000   -58.6070   449.4550    10.2520     7.7300     8.4880   624.6220    10.4230     2.4880    -0.0040    98.1010
  595.0000   -58.6810   449.5750    10.5350     7.8550     8.5540   624.1110    10.4230     2.4850    -0.0040    98.7420
  595.5000   -58.7550   449.6940    10.8270     7.9790     8.6200   623.5990    10.4230     2.4820    -0.0040    99.3970
  596.0000   -58.8290   449.8130     9.6920     8.1330     8.6760   623.1310    10.4230     2.4710    -0.0040    98.5970
  596.5000   -58.9030   449.9320     9.9220     8.0460     8.5410   623.3710    10.4230     2.4600    -0.0050    96.6300
  597.0000   -58.9770   450.0520    10.2240     7.9310     8.4250   623.5920    10.4230     2.4500    -0.0050    94.3150
  597.5000   -59.0510   450.1710    10.5260     7.8160     8.3090   623.8130    10.4230     2.4470    -0.0050    97.4650
  598.0000   -59.1260   450.2900    10.7270     7.7020     8.1940   624.0350    10.4230     2.4460    -0.0050   100.8520
  598.5000   -59.1770   450.4100    10.1950     7.5870     8.0780   624.2560    10.4230     2.4520    -0.0050   104.2500
  599.0000   -59.2220   450.5290     9.7960     7.4720     7.9620   624.4770    10.4230     2.4570    -0.0040   104.7710
  599.5000   -59.2670   450.6480     9.3970     7.3570     7.8470   624.6990    10.4230     2.4630    -0.0030   102.1460
  600.0000   -59.3110   450.7670     8.9980     7.2430     7.7310   624.9200    10.4230     2.4690    -0.0020   105.4330
  600.5000   -59.3560   450.8870     8.5990     7.1280     7.6150   625.1420    10.4210     2.4750    -0.0010   109.7010
  601.0000   -59.4000   451.0060     8.2000     7.0130     7.5000   625.3630    10.4120     2.4760    -0.0010   107.9290
  601.5000   -59.4450   451.1250     7.8380     6.8990     7.3840   625.5840    10.4040     2.4700     0.0000   104.8010
