~VERSION INFORMATION
 VERS.                2.0:   CWLS LOG ASCII STANDARD - VERSION 2.0
 WRAP.                 NO:   ONE LINE PER DEPTH STEP
~WELL INFORMATION
#MNEM.UNIT      DATA TYPE    INFORMATION
#----------   ------------   ------------------------------
 STRT.F          502.0000:   START DEPTH
 STOP.F         3068.0000:   STOP DEPTH
 STEP.F            0.5000:   STEP LENGTH
 NULL.          -999.2500:   NO VALUE
 COMP. LAWRENCE ALLISON AND ASSOCIATES:   COMPANY
 WELL. LAWRENCE NPR TX #85-33:   WELL
 FLD .              N P R:   FIELD
 LOC .      S33 T39N R78W:   LOCATION
 CNTY.            NATRONA:   COUNTY
 STAT.            WYOMING:   STATE
 CTRY. UNITED STATES OF AMERICA:   COUNTRY
 SRVC.       SCHLUMBERGER:   SERVICE COMPANY
 DATE.        20-JUN-1982:   LOGDATE
 API .     49025107990001:   API NUMBER
~CURVE INFORMATION
#MNEM.UNIT       API CODE    CURVE DESCRIPTION
#----------   ------------   ------------------------------
 DEPT.F                  :   
 RHOB.G/C3   45 350 01 00:   BULK DENSITY
 GRD .GAPI   45 310 01 00:   GAMMA RAY FROM DENSITY LOG
 CALD.IN     45 280 60 00:   CALIPER FROM DENSITY LOG
 CORR.G/C3   45 356 01 00:   DENSITY CORRECTION
 TEND.LBS    45 635 01 00:   TENSION FROM DENSITY LOG
 NPHI.DEC    42 890 03 00:   NEUTRON POROSITY SANDSTONE
 TENR.LBS    07 635 01 00:   TENSION FROM RESISTIVITY
 SPR .MV     07 010 01 00:   SPONTANEOUS POTENTIAL
 ILD .OHMM   07 120 46 00:   DEEP INDUCTION RESISTIVITY
 ILM .OHMM   07 120 44 00:   INDUCTION LOG MEDIUM RESISTIVITY
 SFL .OHMM   07 220 01 00:   SHALLOW FOCUSED LOG RESISTIVITY
~PARAMETER INFORMATION
#MNEM.UNIT          VALUE    DESCRIPTION
#----------   ------------   ------------------------------
 EKB .F         5123.0000:   Kelly bushing
 EGL .F         5113.0000:   Ground level
 EDF .F         5122.0000:   Drilling floor
 EPD .F         5113.0000:   Permanent datum
 TD  .F         3100.0000:   Total depth
 DATE.        20-JUN-1982:   Date logged
 CLNT.            A2DTECH:   Client Code
 SL  . 2263' FSL & 293' FEL:   Surface Location
 PD  .                 GL:   Permanent Datum
 DD  .F              3100:   Depth driller
 DL  .F              3056:   Depth logger
 BLI .F              3050:   Bottom log interval
 CS1 .IN            9.625:   Casing size
 CBD1.      9.625" @ 524':   Casing driller 1
 CBL1.F               520:   Casing logger 1
 BS1 .IN            7.875:   Bit size
 DFT .           POLY/KCL:   Type fluid in hole
 DFD .                8.4:   Density
 DFV .                 40:   Viscosity
 DFPH.                7.6:   pH
 DFL .                 10:   Fluid loss
 MSS .               TANK:   Source of sample
 RMS .OHMM            .92:   Rm
 MST .F                66:   Rm Meas. temp.
 RMF .OHMM           .603:   Rmf
 MFST.F                68:   Rmf Meas. temp.
 MFSS.               MEAS:   Source Rmf.
 RMB .OHMM           .515:   Rm. at BHT
 BHT .F               118:   BHT.
 TCS .HRS             815:   Time Circ. stopped
 MRT .F               118:   Maximum recorded temp.
 LUN .               8035:   Logging unit number
 LUL .               CSPR:   Logging unit location
 ENGI.              PENNY:   Recorded By
 WITN.           JENNINGS:   Witnessed by
 ORIG.           5" PRINT:   Origin of data
 UWI .     49025107990001:   Unique Well ID
 DICO. A2D TECHNOLOGIES, INC.:   Digitizing Company
 DAPD.                 10:   Feet Above Permanent Datum
 BSD1.               3100:   Depth drilled with bit1
 TLI .                520:   Top log interval
 TLAB.               1100:   Time logger at bottom
~OTHER INFORMATION
~A   DEPT     RHOB         GRD      CALD       CORR       TEND       NPHI       TENR        SPR        ILD        ILM        SFL   
# ...
 2210.0000     2.5440   121.9600     8.8320     0.0190  1375.2230     0.2740  1744.9520   -37.7300     4.4480     4.6870     5.0910
 2210.5000     2.5420   119.0230     8.8070     0.0140  1374.2000     0.2800  1745.5120   -37.7550     4.4770     4.7310     5.2670
 2211.0000     2.5350   115.8480     8.8550     0.0080  1373.1780     0.2860  1746.0720   -37.8910     4.3600     4.6110     5.4540
 2211.5000     2.5270   115.6330     8.9140     0.0020  1372.1550     0.2930  1746.6320   -38.0290     4.2590     4.4880     5.5300
 2212.0000     2.5230   122.2070     8.9740     0.0060  1371.1331     0.2990  1747.1910   -38.1660     4.1590     4.3640     5.4790
 2212.5000     2.5360   127.0740     9.0340     0.0170  1370.1110     0.3010  1747.7510   -38.3080     4.0840     4.2410     5.1030
 2213.0000     2.5420   127.4690     9.0420     0.0290  1369.0880     0.3090  1748.3110   -38.4680     4.0840     4.1980     4.7380
 2213.5000     2.5320   124.8910     9.0410     0.0320  1368.0660     0.3170  1748.8710   -38.1730     4.1610     4.3280     4.4770
 2214.0000     2.5180   122.3030     9.0390     0.0130  1367.0430     0.3240  1749.4310   -38.0160     4.2500     4.4310     4.8360
 2214.5000     2.5130   120.4140     9.0380    -0.0040  1366.0210     0.2990  1749.9910   -37.8520     4.3380     4.5340     5.5460
 2215.0000     2.5310   119.0940     9.0360    -0.0040  1364.9980     0.2800  1750.5510   -37.6920     4.4540     4.6370     6.0910
 2215.5000     2.5510   119.3090     9.0350     0.0130  1363.9760     0.2650  1751.1100   -37.5250     4.6200     4.7400     6.2880
 2216.0000     2.5620   121.1360     9.0330     0.0270  1362.9540     0.2660  1751.6700   -37.4770     4.7860     4.8430     6.1630
 2216.5000     2.5550   123.6090     9.0320     0.0240  1361.9310     0.2740  1752.2300   -37.4750     4.9510     4.9540     5.9500
 2217.0000     2.5450   125.4930     9.0300     0.0190  1360.9091     0.2810  1752.7900   -37.5010     5.0500     5.0660     5.7900
 2217.5000     2.5500   123.0010     9.0290     0.0200  1359.8860     0.2810  1753.3500   -37.5300     5.0630     5.1790     5.8650
 2218.0000     2.5580   119.1550     9.0270     0.0250  1359.1270     0.2800  1753.9100   -37.5580     5.0750     5.2820     6.1490
 2218.5000     2.5570   116.1970     9.0260     0.0290  1359.1270     0.2790  1754.4700   -37.5870     5.0880     5.2820     6.3460
 2219.0000     2.5500   117.3080     9.0240     0.0240  1359.1270     0.2820  1755.0291   -37.6160     5.1500     5.3340     6.2890
 2219.5000     2.5360   121.8820     9.0060     0.0190  1359.1270     0.2850  1755.5890   -37.6440     5.2310     5.3920     6.2090
 2220.0000     2.5230   122.4710     8.9480     0.0140  1359.1270     0.2880  1756.1490   -37.6750     5.3130     5.4500     6.1740
 2220.5000     2.5130   118.9510     8.9210     0.0050  1359.1270     0.2880  1756.7090   -37.7820     5.3840     5.5300     6.3630
 2221.0000     2.5170   114.3430     8.9090     0.0000  1359.1270     0.2820  1757.2690   -37.8890     5.4520     5.5230     6.6030
 2221.5000     2.5300   111.4000     8.8970     0.0030  1359.1270     0.2770  1757.8290   -37.9950     5.5200     5.5070     6.6450
 2222.0000     2.5450   111.7650     8.8840     0.0110  1359.1270     0.2700  1758.3890   -38.0580     5.5300     5.4910     6.6090
 2222.5000     2.5550   114.6830     8.8720     0.0190  1359.1270     0.2730  1758.9480   -37.7700     5.3680     5.4510     6.5550
 2223.0000     2.5570   117.9240     8.8600     0.0220  1359.1270     0.2770  1759.5081   -37.4640     5.2170     5.3500     6.5010
 2223.5000     2.5570   121.3710     8.8480     0.0220  1359.1270     0.2780  1760.0680   -37.2810     5.0650     5.2490     6.4310
 2224.0000     2.5490   125.0310     8.8470     0.0140  1359.1270     0.2780  1760.6281   -37.2810     4.9080     5.1480     6.1780
 2224.5000     2.5300   128.9670     8.8470     0.0040  1359.1270     0.2990  1761.1880   -37.2790     4.9080     5.0450     5.7180
 2225.0000     2.5140   133.0630     8.8470     0.0040  1359.1270     0.3030  1761.7480   -37.2790     4.9020     5.0450     5.1940
 2225.5000     2.5100   134.4520     8.8470     0.0050  1359.1270     0.3070  1762.3080   -37.2810     4.8730     5.0450     4.9080
 2226.0000     2.5160   128.6770     8.8470     0.0040  1359.1270     0.3080  1762.8669   -37.3210     4.8450     5.0450     5.2490
 2226.5000     2.5270   122.7770     8.8470     0.0040  1359.1270     0.2880  1763.4270   -37.4650     4.8180     4.9780     5.9320
 2227.0000     2.5390   120.5060     8.8470     0.0110  1359.1270     0.2860  1763.9871   -37.6030     4.7220     4.8760     6.5060
 2227.5000     2.5460   124.0670     8.8470     0.0200  1359.1270     0.2970  1764.5470   -37.7410     4.6320     4.7730     6.6450
 2228.0000     2.5450   130.0660     8.8430     0.0290  1359.1270     0.3150  1765.4740   -37.8800     4.5420     4.6710     5.8990
 2228.5000     2.5350   136.0780     8.8390     0.0380  1359.1270     0.3210  1766.5470   -38.0220     4.4770     4.6440     5.4380
 2229.0000     2.5380   141.5640     8.8360     0.0510  1359.1270     0.3270  1767.6190   -38.0450     4.6330     4.8470     4.8770
 2229.5000     2.5490   143.3520     8.8320     0.0660  1359.1270     0.3370  1768.6920   -37.9770     4.8390     5.0590     4.6440
 2230.0000     2.5510   137.1030     8.8280     0.0570  1359.1270     0.3390  1769.7640   -37.9100     5.0450     5.2710     5.1110
 2230.5000     2.5330   127.2070     8.8240     0.0370  1359.1270     0.3050  1770.8370   -37.8430     5.2500     5.4830     5.8170
 2231.0000     2.5200   120.4000     8.8200     0.0160  1359.1270     0.2860  1771.9100   -37.7770     5.4560     5.6950     6.8280
 2231.5000     2.5270   116.0600     8.8170     0.0110  1359.1270     0.2720  1772.9821   -37.7100     5.6620     5.9080     7.7110
 2232.0000     2.5380   116.2960     8.8130     0.0150  1359.1270     0.2630  1774.0551   -37.6670     5.8670     6.1200     8.2070
 2232.5000     2.5450   116.7260     8.8090     0.0200  1359.1270     0.2680  1775.1270   -37.7870     6.0730     6.3460     7.9970
 2233.0000     2.5470   117.0740     8.8050     0.0230  1359.1270     0.2760  1776.2000   -37.9220     6.2880     6.3460     7.7030
 2233.5000     2.5440   117.4170     8.8010     0.0220  1359.1270     0.2930  1777.2720   -38.0590     6.2880     6.3130     7.4090
 2234.0000     2.5350   117.7000     8.7980     0.0170  1359.1270     0.3050  1778.3450   -38.1960     6.1970     6.2690     7.1140
 2234.5000     2.5260   117.0270     8.7940     0.0130  1359.1270     0.3000  1779.4180   -38.2310     6.1180     6.2250     6.8200
 2235.0000     2.5180   115.4120     8.7900     0.0100  1359.1270     0.2980  1780.4900   -38.0530     6.0400     6.1810     6.7680
 2235.5000     2.5220   118.2640     8.7890     0.0110  1359.1270     0.2940  1781.5630   -37.8730     5.9620     6.0620     6.8810
 2236.0000     2.5360   122.3770     8.8000     0.0220  1359.1270     0.2890  1782.6350   -37.6940     5.9510     6.1390     7.0560
 2236.5000     2.5510   126.0420     8.8100     0.0310  1359.1270     0.2830  1783.7080   -37.5170     5.9750     6.2120     7.2310
 2237.0000     2.5530   125.1110     8.8200     0.0270  1359.1270     0.2780  1784.5100   -37.3350     6.0090     6.2840     7.4190
 2237.5000     2.5440   122.3160     8.8310     0.0200  1359.5601     0.2800  1783.4260   -37.2440     6.0430     6.3460     7.4550
 2238.0000     2.5300   120.2030     8.8410     0.0140  1360.5330     0.2840  1782.3420   -37.1170     6.0770     6.3460     7.4870
 2238.5000     2.5220   118.3860     8.8400     0.0090  1361.5060     0.2880  1781.2581   -37.1550     6.1170     6.3320     7.3800
 2239.0000     2.5210   118.8710     8.7950     0.0080  1362.4790     0.2900  1780.1740   -37.2030     6.0910     6.2930     7.2420
 2239.5000     2.5200   120.3820     8.7520     0.0080  1363.4520     0.2980  1779.0900   -37.2510     6.0570     6.2550     7.1510
 2240.0000     2.5260   122.0790     8.7080     0.0070  1364.4240     0.3090  1778.0060   -37.2660     6.0060     6.2170     7.1510
