~VERSION INFORMATION
 VERS.                2.0:   CWLS LOG ASCII STANDARD - VERSION 2.0
 WRAP.                 NO:   ONE LINE PER DEPTH STEP
~WELL INFORMATION
#MNEM.UNIT      DATA TYPE    INFORMATION
#----------   ------------   ------------------------------
 STRT.F           42.0000:   START DEPTH
 STOP.F         2778.0000:   STOP DEPTH
 STEP.F            0.5000:   STEP LENGTH
 NULL.          -999.2500:   NO VALUE
 COMP.    FENIX & SCISSON:   COMPANY
 WELL. FENIX & SCISSON SHX #56-23:   WELL
 FLD .        TEAPOT DOME:   FIELD
 LOC .      S23 T38N R78W:   LOCATION
 CNTY.            NATRONA:   COUNTY
 STAT.            WYOMING:   STATE
 CTRY. UNITED STATES OF AMERICA:   COUNTRY
 SRVC.           BIRDWELL:   SERVICE COMPANY
 DATE.        29-AUG-1979:   LOGDATE
 API .     49025107920000:   API NUMBER
~CURVE INFORMATION
#MNEM.UNIT       API CODE    CURVE DESCRIPTION
#----------   ------------   ------------------------------
 DEPT.F                  :   
 GRD .GAPI   45 310 01 00:   GAMMA RAY FROM DENSITY LOG
 CALD.IN     45 280 60 00:   CALIPER FROM DENSITY LOG
 RHOB.G/C3   45 350 01 00:   BULK DENSITY
 CORR.G/C3   45 356 01 00:   DENSITY CORRECTION
 ILD .OHMM   07 120 46 00:   DEEP INDUCTION RESISTIVITY
 SFL .OHMM   07 220 01 00:   SHALLOW FOCUSED LOG RESISTIVITY
 SPR .MV     07 010 01 00:   SPONTANEOUS POTENTIAL
~PARAMETER INFORMATION
#MNEM.UNIT          VALUE    DESCRIPTION
#----------   ------------   ------------------------------
 EKB .F         5361.0000:   Kelly bushing
 EGL .F         5351.0000:   Ground level
 EDF .F         5360.0000:   Drilling floor
 TD  .F         1465.0000:   Total depth
 DATE.        29-AUG-1979:   Date logged
 CLNT.            A2DTECH:   Client Code
 PD  .                 GL:   Permanent Datum
 EPD .F              5351:   Elevation Permanent Datum
 LMF .                 KB:   Log Measured From
 DMF .                 KB:   Drilling Measured From
 DAPD.F                 9:   Feet Above Permanent Datum
 DD  .F              1465:   Depth driller
 DL  .F              1462:   Depth logger
 BLI .F              1457:   Bottom log interval
 TLI .F                40:   Top log interval
 CBD1.F                40:   Casing driller 1
 CBL1.F                40:   Casing logger 1
 BS1 .IN            12.25:   Bit size
 BSD1.F              1465:   Depth drilled with bit1
 DFT .            GEL/MUD:   Type fluid in hole
 DFD .                9.5:   Density
 DFV .                 40:   Viscosity
 DFPH.                9.0:   pH
 DFL .                 40:   Fluid loss
 MSS .            MUD PIT:   Source of sample
 RMS .OHMM            2.6:   Rm
 MST .F                68:   Rm Meas. temp.
 RMF .OHMM            1.8:   Rmf
 MFST.F                78:   Rmf Meas. temp.
 RMC .OHMM            2.8:   Rmc
 MCST.F                76:   Rmc Meas. temp.
 MFSS.               MEAS:   Source Rmf.
 MCSS.               MEAS:   Source Rmc.
 RMB .OHMM           1.96:   Rm. at BHT
 BHT .F                90:   BHT.
 TCS .HRS               5:   Time Circ. stopped
 MRT .F                90:   Maximum recorded temp.
 LUN .               2959:   Logging unit number
 LUL .             CASPER:   Logging unit location
 ENGI.         B. ROLLINS:   Recorded By
 WITN.              AMEND:   Witnessed by
 ORIG.           5" PRINT:   Origin of data
 UWI .     49025107920000:   Unique Well ID
 DICO. A2D TECHNOLOGIES, INC.:   Digitizing Company
~OTHER INFORMATION
~A   DEPT       GRD      CALD       RHOB         CORR      ILD        SFL         SPR  
# ...
 2453.5000   143.3480    10.6850     2.6370     0.3620  -999.2500  -999.2500  -999.2500
 2454.0000   144.0330    10.6620     2.6210     0.3450  -999.2500  -999.2500  -999.2500
 2454.5000   144.5180    10.6380     2.6000     0.3290  -999.2500  -999.2500  -999.2500
 2455.0000   145.1640    10.6150     2.5800     0.3200  -999.2500  -999.2500  -999.2500
 2455.5000   146.6420    10.5910     2.5710     0.3250  -999.2500  -999.2500  -999.2500
 2456.0000   149.9980    10.5680     2.6160     0.3290  -999.2500  -999.2500  -999.2500
 2456.5000   149.0480    10.5440     2.5880     0.3240  -999.2500  -999.2500  -999.2500
 2457.0000   148.1510    10.5200     2.5940     0.3170  -999.2500  -999.2500  -999.2500
 2457.5000   143.8540    10.4970     2.5880     0.3100  -999.2500  -999.2500  -999.2500
 2458.0000   140.1630    10.4730     2.5880     0.3030  -999.2500  -999.2500  -999.2500
 2458.5000   136.2040    10.4500     2.5880     0.2910  -999.2500  -999.2500  -999.2500
 2459.0000   132.5970    10.4270     2.5650     0.2690  -999.2500  -999.2500  -999.2500
 2459.5000   131.7470    10.4020     2.5390     0.2550  -999.2500  -999.2500  -999.2500
 2460.0000   131.2330    10.3790     2.5440     0.2580  -999.2500  -999.2500  -999.2500
 2460.5000   143.4830    10.3610     2.6010     0.2930  -999.2500  -999.2500  -999.2500
 2461.0000   150.5720    10.3840     2.5950     0.3010  -999.2500  -999.2500  -999.2500
 2461.5000   150.2880    10.4040     2.6000     0.3110  -999.2500  -999.2500  -999.2500
 2462.0000   147.6030    10.4260     2.5980     0.3190  -999.2500  -999.2500  -999.2500
 2462.5000   139.9200    10.4470     2.6000     0.3160  -999.2500  -999.2500  -999.2500
 2463.0000   136.1920    10.4690     2.5660     0.2970  -999.2500  -999.2500  -999.2500
 2463.5000   136.1570    10.4900     2.5810     0.2930  -999.2500  -999.2500  -999.2500
 2464.0000   137.4630    10.5110     2.5910     0.2970  -999.2500  -999.2500  -999.2500
 2464.5000   143.7610    10.5180     2.6010     0.3060  -999.2500  -999.2500  -999.2500
 2465.0000   148.8280    10.5180     2.6060     0.3160  -999.2500  -999.2500  -999.2500
 2465.5000   149.8220    10.5180     2.6650     0.3270  -999.2500  -999.2500  -999.2500
 2466.0000   148.7920    10.5180     2.6600     0.3240  -999.2500  -999.2500  -999.2500
 2466.5000   144.5590    10.5180     2.6290     0.3150  -999.2500  -999.2500  -999.2500
 2467.0000   148.5860    10.5180     2.6180     0.3070  -999.2500  -999.2500  -999.2500
 2467.5000   150.4570    10.5180     2.6010     0.2980  -999.2500  -999.2500  -999.2500
 2468.0000   152.4980    10.5180     2.6020     0.2930  -999.2500  -999.2500  -999.2500
 2468.5000   162.0470    10.5180     2.6090     0.2960  -999.2500  -999.2500  -999.2500
 2469.0000   156.5070    10.5180     2.6040     0.2970  -999.2500  -999.2500  -999.2500
 2469.5000   149.6070    10.5180     2.5840     0.3000  -999.2500  -999.2500  -999.2500
 2470.0000   149.9250    10.5180     2.5990     0.3070  -999.2500  -999.2500  -999.2500
 2470.5000   149.0650    10.5180     2.6260     0.3540  -999.2500  -999.2500  -999.2500
 2471.0000   147.3210    10.5180     2.6330     0.3480  -999.2500  -999.2500  -999.2500
 2471.5000   145.6830    10.5180     2.6170     0.3430  -999.2500  -999.2500  -999.2500
 2472.0000   147.0530    10.5200     2.5940     0.3350  -999.2500  -999.2500  -999.2500
 2472.5000   151.0550    10.5110     2.6290     0.3410  -999.2500  -999.2500  -999.2500
 2473.0000   148.3630    10.5310     2.6890     0.3730  -999.2500  -999.2500  -999.2500
 2473.5000   146.5190    10.6150     2.7070     0.3820  -999.2500  -999.2500  -999.2500
 2474.0000   147.2750    10.6900     2.6800     0.3520  -999.2500  -999.2500  -999.2500
 2474.5000   147.0330    10.7680     2.6090     0.3320  -999.2500  -999.2500  -999.2500
 2475.0000   142.2710    10.8440     2.6270     0.3240  -999.2500  -999.2500  -999.2500
 2475.5000   138.1980    10.9230     2.6140     0.3180  -999.2500  -999.2500  -999.2500
 2476.0000   134.8470    10.9640     2.5730     0.3120  -999.2500  -999.2500  -999.2500
 2476.5000   144.3060    10.9720     2.5890     0.3180  -999.2500  -999.2500  -999.2500
 2477.0000   146.6760    10.9830     2.6050     0.3270  -999.2500  -999.2500  -999.2500
 2477.5000   150.9470    10.9940     2.5650     0.3210  -999.2500  -999.2500  -999.2500
 2478.0000   154.5880    11.0040     2.5720     0.3180  -999.2500  -999.2500  -999.2500
 2478.5000   159.5200    11.0160     2.5570     0.3430  -999.2500  -999.2500  -999.2500
 2479.0000   161.5930    11.0240     2.5480     0.3750  -999.2500  -999.2500  -999.2500
 2479.5000   163.6670    11.0380     2.5910     0.4270  -999.2500  -999.2500  -999.2500
 2480.0000   151.1720    11.0060     2.7000     0.4750  -999.2500  -999.2500  -999.2500
 2480.5000   153.9810    10.9710     2.6460     0.4420  -999.2500  -999.2500  -999.2500
 2481.0000   150.4420    10.9100     2.6020     0.4130  -999.2500  -999.2500  -999.2500
 2481.5000   146.2100    10.8540     2.5390     0.3760  -999.2500  -999.2500  -999.2500
 2482.0000   147.3410    10.7960     2.5530     0.3680  -999.2500  -999.2500  -999.2500
 2482.5000   150.8600    10.7370     2.5810     0.3710  -999.2500  -999.2500  -999.2500
 2483.0000   150.3080    10.6840     2.6110     0.4080  -999.2500  -999.2500  -999.2500
 2483.5000   147.6770    10.5980     2.6450     0.4390  -999.2500  -999.2500  -999.2500
 2484.0000   150.3900    10.5530     2.6330     0.4600  -999.2500  -999.2500  -999.2500
 2484.5000   148.9690    10.5450     2.5730     0.3940  -999.2500  -999.2500  -999.2500
 2485.0000   145.7840    10.5300     2.5940     0.3730  -999.2500  -999.2500  -999.2500
 2485.5000   141.9000    10.5160     2.5760     0.3710  -999.2500  -999.2500  -999.2500
 2486.0000   137.9430    10.5030     2.5610     0.3530  -999.2500  -999.2500  -999.2500
 2486.5000   136.3400    10.4890     2.5620     0.3490  -999.2500  -999.2500  -999.2500
 2487.0000   142.3610    10.4750     2.5630     0.3530  -999.2500  -999.2500  -999.2500
 2487.5000   147.8070    10.4610     2.5510     0.3590  -999.2500  -999.2500  -999.2500
 2488.0000   154.3150    10.4470     2.5300     0.3640  -999.2500  -999.2500  -999.2500
 2488.5000   157.3390    10.4330     2.5820     0.3790  -999.2500  -999.2500  -999.2500
 2489.0000   155.9700    10.4200     2.5660     0.4140  -999.2500  -999.2500  -999.2500
 2489.5000   154.4030    10.4060     2.5180     0.4040  -999.2500  -999.2500  -999.2500
 2490.0000   152.4690    10.3920     2.4690     0.4070  -999.2500  -999.2500  -999.2500
 2490.5000   136.0740    10.3790     2.3960     0.3800  -999.2500  -999.2500  -999.2500
 2491.0000   137.0300    10.3640     2.4130     0.4010  -999.2500  -999.2500  -999.2500
 2491.5000   137.1430    10.3580     2.4910     0.4350  -999.2500  -999.2500  -999.2500
 2492.0000   141.4040    10.3690     2.5340     0.4430  -999.2500  -999.2500  -999.2500
 2492.5000   145.7840    10.3840     2.5660     0.4510  -999.2500  -999.2500  -999.2500
 2493.0000   144.4410    10.3990     2.5550     0.4600  -999.2500  -999.2500  -999.2500
 2493.5000   142.2640    10.4140     2.5320     0.4210  -999.2500  -999.2500  -999.2500
 2494.0000   142.6720    10.4290     2.5130     0.3970  -999.2500  -999.2500  -999.2500
 2494.5000   150.0830    10.4440     2.5130     0.4100  -999.2500  -999.2500  -999.2500
 2495.0000   149.2050    10.4590     2.6240     0.4370  -999.2500  -999.2500  -999.2500
 2495.5000   143.9900    10.4730     2.5710     0.3990  -999.2500  -999.2500  -999.2500
 2496.0000   142.7910    10.4880     2.5920     0.3570  -999.2500  -999.2500  -999.2500
 2496.5000   144.7950    10.5030     2.6390     0.3770  -999.2500  -999.2500  -999.2500
 2497.0000   143.4730    10.5160     2.6060     0.3560  -999.2500  -999.2500  -999.2500
 2497.5000   140.1240    10.4940     2.5900     0.3280  -999.2500  -999.2500  -999.2500
 2498.0000   139.7870    10.4710     2.6050     0.3430  -999.2500  -999.2500  -999.2500
 2498.5000   145.3540    10.4450     2.6420     0.3630  -999.2500  -999.2500  -999.2500
