~VERSION INFORMATION
 VERS.                2.0:   CWLS LOG ASCII STANDARD - VERSION 2.0
 WRAP.                 NO:   ONE LINE PER DEPTH STEP
~WELL INFORMATION
#MNEM.UNIT      DATA TYPE    INFORMATION
#----------   ------------   ------------------------------
 STRT.F           42.0000:   START DEPTH
 STOP.F         4542.0000:   STOP DEPTH
 STEP.F            0.5000:   STEP LENGTH
 NULL.          -999.2500:   NO VALUE
 COMP. LAWRENCE ALLISON & ASSOC.:   COMPANY
 WELL. ALLISON NPR 3 #86-27:   WELL
 FLD .                NPR:   FIELD
 LOC .      S27 T39N R78W:   LOCATION
 CNTY.            NATRONA:   COUNTY
 STAT.            WYOMING:   STATE
 CTRY. UNITED STATES OF AMERICA:   COUNTRY
 SRVC.      DRESSER ATLAS:   SERVICE COMPANY
 DATE.        20-MAR-1985:   LOGDATE
 API .     49025110190000:   API NUMBER
~CURVE INFORMATION
#MNEM.UNIT       API CODE    CURVE DESCRIPTION
#----------   ------------   ------------------------------
 DEPT.F                  :   
 CALD.IN     45 280 60 00:   CALIPER FROM DENSITY LOG
 TEND.LBS    45 635 01 00:   TENSION FROM DENSITY LOG
 CORR.G/C3   45 356 01 00:   DENSITY CORRECTION
 RHOB.G/C3   45 350 01 00:   BULK DENSITY
 CNC .DEC    42 890 03 00:   NEUTRON PORISITY SANDSTONE
 TENR.LBS    07 635 01 00:   TENSION FROM RESISTIVITY
 GRR .GAPI   07 310 01 00:   GAMMA RAY FROM RESISTIVITY
 SFL .OHMM   07 220 01 00:   SHALLOW FOCUSED LOG RESISTIVITY
 ILD .OHMM   07 120 46 00:   DEEP INDUCTION RESISTIVITY
 ILM .OHMM   07 120 44 00:   INDUCTION LOG MEDIUM RESISTIVITY
 TENS.LBS    60 635 01 00:   TENSION FROM SONIC LOG
 DT  .US/F   60 520 00 00:   DELTA TIME
 CALS.IN     60 280 50 00:   CALIPER FROM SONIC LOG
 GRS .GAPI   60 310 01 00:   GAMMA RAY FROM SONIC LOG
~PARAMETER INFORMATION
#MNEM.UNIT          VALUE    DESCRIPTION
#----------   ------------   ------------------------------
 EKB .F         5095.0000:   Kelly bushing
 EGL .F         5083.0000:   Ground level
 EDF .F            0.0000:   Drilling floor
 TD  .F         4545.0000:   Total depth
 DATE.        20-MAR-1985:   Date logged
 CLNT.            A2DTECH:   Client Code
 SL  . 292' FEL & 1975' FWL:   Surface Location
 PD  .                 GL:   Permanent Datum
 EPD .F              5083:   Elevation Permanent Datum
 LMF .                 KB:   Log Measured From
 DMF .                 KB:   Drilling Measured From
 DAPD.F                12:   Feet Above Permanent Datum
 DD  .F              4545:   Depth driller
 DL  .F              4533:   Depth logger
 BLI .F              4534:   Bottom log interval
 TLI .F              1045:   Top log interval
 CS1 .IN            8.625:   Casing size
 CBD1.     8.625" @ 1033':   Casing driller 1
 CBL1.F              1045:   Casing logger 1
 BS1 .IN            7.875:   Bit size
 BSD1.F              4545:   Depth drilled with bit1
 DFT .    GEL/KCL/STA/FLO:   Type fluid in hole
 DFD .                9.1:   Density
 DFV .                 30:   Viscosity
 DFPH.                  8:   pH
 DFL .                 12:   Fluid loss
 MSS .           MUD/TANK:   Source of sample
 RMS .OHMM            .46:   Rm
 MST .F                74:   Rm Meas. temp.
 RMF .OHMM            .37:   Rmf
 MFST.F                72:   Rmf Meas. temp.
 RMC .OHMM            .58:   Rmc
 MCST.F                74:   Rmc Meas. temp.
 MFSS.               MEAS:   Source Rmf.
 MCSS.               CALC:   Source Rmc.
 RMB .OHMM            .25:   Rm. at BHT
 BHT .F               138:   BHT.
 TCS .HRS             4.5:   Time Circ. stopped
 MRT .F               138:   Maximum recorded temp.
 LUN .            HL-6274:   Logging unit number
 LUL .           GILLETTE:   Logging unit location
 ENGI.             RAUTIO:   Recorded By
 WITN.             STRONG:   Witnessed by
 ORIG.           5" PRINT:   Origin of data
 UWI .     49025110190000:   Unique Well ID
 DICO. A2D TECHNOLOGIES, INC.:   Digitizing Company
~OTHER INFORMATION
~A   DEPT     CALD       TEND       CORR       RHOB        CNC       TENR        GRR        SFL        ILD        ILM       TENS         DT        CALS        GRS  
# ...
 3423.0000     9.0320    -0.4990    -0.0060     2.5160     0.2350    38.2700    88.2440     7.4440     7.2290     7.0790  -999.2500  -999.2500  -999.2500  -999.2500
 3423.5000     9.0320    -0.4990    -0.0140     2.5140     0.2270    38.2700    88.2360     7.5670     7.2950     7.1590  -999.2500  -999.2500  -999.2500  -999.2500
 3424.0000     9.0320    -0.4990    -0.0160     2.5160     0.2220    38.2700    87.1160     7.6890     7.3610     7.2390  -999.2500  -999.2500  -999.2500  -999.2500
 3424.5000     9.0320    -0.4990    -0.0170     2.5260     0.2220    38.2700    85.5110     7.5740     7.4270     7.3200  -999.2500  -999.2500  -999.2500  -999.2500
 3425.0000     9.0310    -5.4890    -0.0190     2.5350     0.2240    38.2700    84.4840     7.5740     7.4930     7.4000  -999.2500  -999.2500  -999.2500  -999.2500
 3425.5000     9.0020   -20.4590    -0.0200     2.5400     0.2340    38.2700    85.0590     7.5740     7.5590     7.4800  -999.2500  -999.2500  -999.2500  -999.2500
 3426.0000     8.9640   -20.4590    -0.0210     2.5430     0.2450    55.1030    86.7920     7.5740     7.6250     7.5740  -999.2500  -999.2500  -999.2500  -999.2500
 3426.5000     8.9280    -7.8340    -0.0090     2.5470     0.2510    71.8030    91.5060     7.6180     7.6910     8.0060  -999.2500  -999.2500  -999.2500  -999.2500
 3427.0000     8.8900    20.2590     0.0040     2.5480     0.2400    88.5020    90.2160     7.7200     8.4420     8.6210  -999.2500  -999.2500  -999.2500  -999.2500
 3427.5000     8.8490    39.4210     0.0180     2.5480     0.2260    86.9780    84.3610     7.8230     9.6000     9.6340  -999.2500  -999.2500  -999.2500  -999.2500
 3428.0000     8.8110    12.0090     0.0300     2.5470     0.2120    61.9280    76.0230     8.8910    10.7570    10.8500  -999.2500  -999.2500  -999.2500  -999.2500
 3428.5000     8.7730   -21.3910     0.0540     2.5380     0.2000    38.2700    64.5610    10.4940    11.9150    12.0650  -999.2500  -999.2500  -999.2500  -999.2500
 3429.0000     8.7320   -40.4190     0.0690     2.5260     0.2070    31.6700    53.9560    12.0980    13.0730    13.0300  -999.2500  -999.2500  -999.2500  -999.2500
 3429.5000     8.7010   -40.4190     0.0730     2.5070     0.2120    21.6500    47.7590    13.4780    13.9990    13.8660  -999.2500  -999.2500  -999.2500  -999.2500
 3430.0000     8.6800   -40.4190     0.0820     2.4900     0.2070    18.8250    45.1860    14.7400    14.7400    14.3260  -999.2500  -999.2500  -999.2500  -999.2500
 3430.5000     8.6580   -40.4190     0.0630     2.4680     0.2060    20.3900    42.0330    14.6400    14.7400    13.8050  -999.2500  -999.2500  -999.2500  -999.2500
 3431.0000     8.6330   -39.1040     0.0170     2.4490     0.1850    21.9560    40.1050    14.5270    14.7400    13.1670  -999.2500  -999.2500  -999.2500  -999.2500
 3431.5000     8.6310   -36.1570    -0.0280     2.4420     0.1890    23.5210    41.2570    14.2100    14.0060    12.2440  -999.2500  -999.2500  -999.2500  -999.2500
 3432.0000     8.6300   -33.2100    -0.0200     2.4350     0.1970    25.0870    42.1390    13.6900    13.1880    11.3200  -999.2500  -999.2500  -999.2500  -999.2500
 3432.5000     8.6310   -30.2630     0.0170     2.4170     0.2050    26.6530    41.6420    12.8690    12.3700    10.3970  -999.2500  -999.2500  -999.2500  -999.2500
 3433.0000     8.6300   -27.3160     0.0350     2.3930     0.2140    28.2180    40.4150    11.7650    11.5520     9.4730  -999.2500  -999.2500  -999.2500  -999.2500
 3433.5000     8.6310   -24.3690     0.0210     2.3730     0.2220    29.7840    39.2260    10.6620    10.7060     8.5500  -999.2500  -999.2500  -999.2500  -999.2500
 3434.0000     8.6300   -21.4220     0.0100     2.3620     0.2410    31.3490    39.6240     9.5580     9.8360     8.0180  -999.2500  -999.2500  -999.2500  -999.2500
 3434.5000     8.6370   -20.4590     0.0060     2.3550     0.2490    32.9150    42.1650     8.6210     8.9660     7.6250  -999.2500  -999.2500  -999.2500  -999.2500
 3435.0000     8.6560   -20.4590     0.0170     2.3570     0.2510    34.4810    48.6190     8.0740     8.0960     7.2330  -999.2500  -999.2500  -999.2500  -999.2500
 3435.5000     8.6740   -20.4590     0.0260     2.3810     0.2530    36.0460    57.9480     7.5980     7.4920     6.9050  -999.2500  -999.2500  -999.2500  -999.2500
 3436.0000     8.6920   -20.4590     0.0110     2.3990     0.2550    37.6120    64.7160     7.1940     7.0940     6.6640  -999.2500  -999.2500  -999.2500  -999.2500
 3436.5000     8.7100   -20.4590     0.0060     2.4070     0.2550    37.9550    62.5980     6.9130     6.6960     6.4570  -999.2500  -999.2500  -999.2500  -999.2500
 3437.0000     8.7100   -20.4590     0.0310     2.3980     0.2550    37.4110    59.2390     6.6320     6.2950     6.3360  -999.2500  -999.2500  -999.2500  -999.2500
 3437.5000     8.7120   -20.4590     0.0470     2.3850     0.2540    36.8670    58.7060     6.2950     6.2950     6.1800  -999.2500  -999.2500  -999.2500  -999.2500
 3438.0000     8.7040   -20.4590     0.0460     2.3700     0.2540    36.3230    57.9990     6.2010     6.3530     6.2260  -999.2500  -999.2500  -999.2500  -999.2500
 3438.5000     8.6900   -20.4590     0.0290     2.3530     0.2500    35.7790    54.5970     6.2120     6.4240     6.3390  -999.2500  -999.2500  -999.2500  -999.2500
 3439.0000     8.6770   -21.8040     0.0290     2.3460     0.2490    35.2350    50.7540     6.3600     6.4960     6.4520  -999.2500  -999.2500  -999.2500  -999.2500
 3439.5000     8.6640   -24.4410     0.0330     2.3360     0.2530    34.6910    46.4930     6.5330     6.5680     6.5660  -999.2500  -999.2500  -999.2500  -999.2500
 3440.0000     8.6510   -27.0770     0.0260     2.3310     0.2590    34.1470    44.1720     6.6200     6.6390     6.6790  -999.2500  -999.2500  -999.2500  -999.2500
 3440.5000     8.6370   -29.7140     0.0100     2.3300     0.2650    33.6030    44.8100     6.7240     6.7110     6.7920  -999.2500  -999.2500  -999.2500  -999.2500
 3441.0000     8.6240   -32.3510     0.0260     2.3380     0.2720    33.0590    45.0520     6.8800     6.7790     6.9060  -999.2500  -999.2500  -999.2500  -999.2500
 3441.5000     8.6120   -34.9880     0.0420     2.3410     0.2720    32.5150    45.4150     6.8050     6.7180     7.0340  -999.2500  -999.2500  -999.2500  -999.2500
 3442.0000     8.5970   -37.6250     0.0600     2.3360     0.2700    31.9710    45.1120     6.4200     6.6600     6.8530  -999.2500  -999.2500  -999.2500  -999.2500
 3442.5000     8.5910   -40.4190     0.0700     2.3270     0.2620    31.4270    44.6350     6.2460     6.6020     6.6440  -999.2500  -999.2500  -999.2500  -999.2500
 3443.0000     8.5960   -40.4190     0.0570     2.3230     0.2530    30.8830    44.2120     6.1800     6.5440     6.4350  -999.2500  -999.2500  -999.2500  -999.2500
 3443.5000     8.6000   -32.2360     0.0450     2.3200     0.2450    30.3390    42.9270     6.0920     6.4860     6.2260  -999.2500  -999.2500  -999.2500  -999.2500
 3444.0000     8.6040   -25.0780     0.0260     2.3110     0.2460    29.7950    41.5770     5.9560     6.4280     5.9840  -999.2500  -999.2500  -999.2500  -999.2500
 3444.5000     8.6080   -20.4590     0.0030     2.2980     0.2550    29.2510    40.8230     5.9720     6.3690     6.0510  -999.2500  -999.2500  -999.2500  -999.2500
 3445.0000     8.6130   -20.4590    -0.0040     2.2890     0.2600    28.7070    41.3740     6.0260     6.3110     6.1870  -999.2500  -999.2500  -999.2500  -999.2500
 3445.5000     8.6170   -20.4590    -0.0120     2.2940     0.2600    28.1630    43.1400     6.0790     6.2950     6.3220  -999.2500  -999.2500  -999.2500  -999.2500
 3446.0000     8.6210   -20.4590    -0.0010     2.2970     0.2580    27.6190    45.0050     6.1330     6.6250     6.4580  -999.2500  -999.2500  -999.2500  -999.2500
 3446.5000     8.6250   -20.4590     0.0290     2.3000     0.2570    27.0750    46.1970     6.1860     6.9800     6.5930  -999.2500  -999.2500  -999.2500  -999.2500
 3447.0000     8.6290   -20.4590     0.0250     2.3030     0.2550    26.5310    46.0260     6.2400     7.3350     6.8810  -999.2500  -999.2500  -999.2500  -999.2500
