~VERSION INFORMATION
 VERS.                2.0:   CWLS LOG ASCII STANDARD - VERSION 2.0
 WRAP.                 NO:   ONE LINE PER DEPTH STEP
~WELL INFORMATION
#MNEM.UNIT      DATA TYPE    INFORMATION
#----------   ------------   ------------------------------
 STRT.F          629.0000:   START DEPTH
 STOP.F         4090.0000:   STOP DEPTH
 STEP.F            0.5000:   STEP LENGTH
 NULL.          -999.2500:   NO VALUE
 COMP. LAWRENCE ALLISON & ASSOCIATES:   COMPANY
 WELL. LAWRENCE NPR 3 "SHX" #36-10:   WELL
 FLD .      NPR - WILDCAT:   FIELD
 LOC .      S10 T38N R78W:   LOCATION
 CNTY.            NATRONA:   COUNTY
 STAT.            WYOMING:   STATE
 CTRY. UNITED STATES OF AMERICA:   COUNTRY
 SRVC.      DRESSER ATLAS:   SERVICE COMPANY
 DATE.        24-DEC-1981:   LOGDATE
 API .     49025108310000:   API NUMBER
~CURVE INFORMATION
#MNEM.UNIT       API CODE    CURVE DESCRIPTION
#----------   ------------   ------------------------------
 DEPT.F                  :   
 DT  .US/F   60 520 00 00:   DELTA TIME
 TENS.LBS    60 635 01 00:   TENSION FROM SONIC
 GRR .GAPI   07 310 01 00:   GAMMA RAY FROM RESISTIVITY
 SPR .MV     07 010 01 00:   SPONTANEOUS POTENTIAL
 RFOC.OHMM   07 220 04 00:   RESISTIVITY FOCUSED LOG RES.
 RILM.OHMM   07 120 44 00:   INDUCTION LOG MEDIUM RESISTIVITY
 RILD.OHMM   07 120 46 00:   DEEP INDUCTION RESISTIVITY
 TENR.LBS    07 635 01 00:   TENSION FROM RESISTIVITY
 NPHI.DEC    42 890 03 00:   NEUTRON POROSITY SANDSTONE
 RHOB.G/C3   45 350 01 00:   BULK DENSITY
 CORR.G/C3   45 356 01 00:   DENSITY CORRECTION
 TEND.LBS    45 635 01 00:   TENSION FROM DENSITY LOG
 CALD.IN     45 280 60 00:   CALIPER FROM DENSITY LOG
~PARAMETER INFORMATION
#MNEM.UNIT          VALUE    DESCRIPTION
#----------   ------------   ------------------------------
 EKB .F         5234.0000:   Kelly bushing
 EGL .F         5224.0000:   Ground level
 EDF .F         5233.0000:   Drilling floor
 EPD .F            0.0000:   Permanent datum
 TD  .F         4100.0000:   Total depth
 DATE.        24-DEC-1981:   Date logged
 CLNT.            A2DTECH:   Client Code
 SL  . 1798' FSL & 1455' FWL:   Surface Location
 PD  .                 GL:   Permanent Datum
 DAPD.F                10:   Feet Above Permanent Datum
 DD  .F              4100:   Depth driller
 DL  .F              4082:   Depth logger
 BLI .F              4074:   Bottom log interval
 TLI .F              2300:   Top log interval
 CS1 .IN            9.625:   Casing size
 CBD1.      9.625" @ 650':   Casing driller 1
 BS1 .IN            7.875:   Bit size
 BSD1.F              4100:   Depth drilled with bit1
 DFT .            KCL/GEL:   Type fluid in hole
 DFD .                9.1:   Density
 DFV .                 60:   Viscosity
 DFPH.                  8:   pH
 DFL .                 12:   Fluid loss
 MSS .           FLOWLINE:   Source of sample
 RMS .OHMM           .536:   Rm
 RMF .OHMM           .402:   Rmf
 RMC .OHMM            067:   Rmc
 MFSS.               CALC:   Source Rmf.
 MCSS.               CALC:   Source Rmc.
 RMB .OHMM            .35:   Rm. at BHT
 BHT .F               135:   BHT.
 TCS .HRS               6:   Time Circ. stopped
 MRT .F               141:   Maximum recorded temp.
 LUL .               GLT1:   Logging unit location
 UWI .     49025108310000:   Unique Well ID
 DICO. A2D TECHNOLOGIES, INC.:   Digitizing Company
~OTHER INFORMATION
~A   DEPT       DT       TENS         GRR       SPR       RFOC       RILM       RILD       TENR       NPHI       RHOB       CORR       TEND       CALD   
# ...
 3697.0000    85.5980  -120.1640   142.9310   -33.4440     6.1450     5.3410     4.3320   -98.8480     0.2760     2.4060     0.0120   -14.2850     8.2400
 3697.5000    87.0640  -120.2780   145.1380   -34.5330     6.0890     5.4510     4.5980   -98.7930     0.2750     2.4170     0.0570   -24.6920     8.2400
 3698.0000    88.5290  -120.3920   143.2590   -35.7030     6.0330     5.5010     4.8350   -98.7380     0.2700     2.4250     0.1210   -35.0990     8.2410
 3698.5000    88.3880  -120.5070   138.6910   -35.9740     6.8720     5.5010     4.8350   -98.6830     0.2520     2.4660     0.0940   -45.5060     8.2410
 3699.0000    88.0360  -120.6210   133.5080   -36.0970     8.0580     5.4510     4.8350   -98.6280     0.2340     2.5220     0.0700   -55.9120     8.2400
 3699.5000    85.5960  -120.7360   125.5060   -36.0790     8.8850     5.3130     4.7500   -98.5730     0.2320     2.5600     0.0560   -65.3690     8.2380
 3700.0000    82.9040  -120.8500   124.4760   -35.2430     7.1710     5.0240     4.6290   -98.5180     0.2320     2.5770     0.0670   -65.3690     8.2360
 3700.5000    80.4380  -120.9650   127.9480   -34.4340     6.0030     4.7350     4.5080   -98.4630     0.2350     2.5760     0.0770   -65.3690     8.2340
 3701.0000    80.0900  -121.0790   131.2600   -33.6310     5.7230     4.4460     4.3870   -98.4080     0.2410     2.5570     0.0660   -65.3690     8.2320
 3701.5000    82.9040  -121.1940   132.2600   -32.8310     5.4430     4.1340     4.1970   -98.3530     0.2660     2.5360     0.0610   -65.3690     8.2300
 3702.0000    85.0580  -121.3080   131.1860   -32.0230     5.2050     4.0040     3.9420   -98.2980     0.2900     2.4960     0.0970   -65.3690     8.2270
 3702.5000    86.0180  -121.4230   132.5270   -31.1680     5.3680     3.8630     3.6860   -98.2440     0.3050     2.4560     0.1920   -65.3690     8.2250
 3703.0000    85.8670  -121.5370   138.4170   -30.0760     5.4510     3.7210     3.5340   -98.1890     0.3200     2.4410     0.1320   -65.3690     8.2230
 3703.5000    85.9960  -121.6520   145.3640   -29.0130     4.9040     3.6150     3.5020   -98.1340     0.3350     2.4400     0.0790   -49.0930     8.2200
 3704.0000    86.5550  -121.7660   160.5600   -27.9580     4.0580     3.8210     3.6240   -98.0790     0.3470     2.4010     0.0540   -21.4930     8.2040
 3704.5000    93.0590  -121.8810   176.1510   -27.3310     4.1470     4.0140     3.7010   -98.0240     0.3510     2.3360     0.0670    -8.1960     8.2420
 3705.0000   101.6020  -121.9950   179.1150   -27.5760     4.3450     4.2070     3.7010   -97.9690     0.3460     2.2740     0.0990   -20.3390     8.2930
 3705.5000   105.8420  -122.1090   165.0700   -27.8030     4.9430     4.3690     3.7010   -97.9140     0.3370     2.2710     0.1000   -32.4830     8.3390
 3706.0000   102.4240  -122.2240   149.9500   -28.0310     5.5410     4.4090     3.6670   -97.8590     0.3230     2.3630     0.0730   -44.6270     8.1900
 3706.5000    95.6600  -122.3380   136.6630   -28.3040     6.0330     4.2460     3.6080   -97.8040     0.3150     2.4100     0.0270   -56.7700     8.0590
 3707.0000    88.5990  -122.4530   131.9050   -28.3640     5.8120     4.0780     3.5490   -97.7490     0.3180     2.4270     0.1380   -64.5490     8.0620
 3707.5000    86.8690  -122.5670   134.9260   -28.2470     5.4330     3.9100     3.5020   -97.6940     0.3200     2.4790     0.2640   -61.7380     8.0610
 3708.0000    84.9950  -122.6820   140.1550   -28.1210     5.0540     3.7000     3.3150   -97.6400     0.3220     2.4700     0.2520   -58.9270     8.0600
 3708.5000    88.6290  -122.7960   145.1080   -27.9910     4.6740     3.4780     3.1270   -97.5850     0.3290     2.4570     0.2350   -56.1160     8.0600
 3709.0000    91.2470  -122.9110   147.9310   -27.8550     4.2950     3.2570     2.9380   -97.5300     0.3490     2.4540     0.2340   -53.3050     8.0590
 3709.5000    93.5210  -123.0250   150.8960   -28.3270     3.9150     3.0350     2.7500   -97.4750     0.3640     2.4330     0.2360   -50.4930     8.0580
 3710.0000    95.7940  -123.1400   150.7170   -28.8880     3.7070     2.8140     2.5610   -97.4200     0.3700     2.4070     0.2420   -47.6820     8.0580
 3710.5000    98.0670  -123.2540   148.8810   -29.4560     3.6050     2.7300     2.3770   -97.3650     0.3800     2.3830     0.2500   -45.4090     8.0570
 3711.0000    99.7850  -123.3690   149.8910   -30.0220     3.5030     2.7050     2.3430   -97.3100     0.3910     2.3760     0.2580   -46.4140     8.0560
 3711.5000   101.1100  -123.4830   150.9920   -30.5880     3.4010     2.7740     2.3090   -97.2550     0.3830     2.3710     0.2670   -51.3100     8.0560
 3712.0000   101.7990  -123.5980   151.8760   -31.1540     3.3440     2.8790     2.2750   -97.2000     0.3590     2.3800     0.2670   -56.2070     8.0550
 3712.5000   101.5120  -123.7120   149.1580   -31.6830     3.4610     2.8570     2.2400   -97.1450     0.3500     2.4010     0.2050   -61.1040     8.0540
 3713.0000    99.4220  -123.8260   146.4050   -31.7800     3.7210     2.8130     2.2080   -97.0900     0.3460     2.4190     0.1260   -66.0000     8.0540
 3713.5000    97.3330  -123.9410   146.7610   -31.8740     3.9820     2.6710     2.1350   -97.0360     0.3300     2.4440     0.0580   -70.8970     8.0530
 3714.0000    95.2430  -124.0550   147.6970   -31.4910     4.2430     2.5130     2.0490   -96.9810     0.3120     2.4770     0.0750   -75.3490     8.0520
 3714.5000    93.8040  -124.1700   150.3600   -30.8960     4.3290     2.3540     1.9630   -96.9260     0.3170     2.4490     0.1050   -75.3490     8.0520
 3715.0000    94.3710  -124.2840   152.2910   -30.2980     3.9330     2.1960     1.8770   -96.8710     0.3250     2.3920     0.1540   -75.3490     8.0510
 3715.5000    95.3430  -124.3990   170.9670   -29.7030     3.3480     2.0510     1.7910   -96.8160     0.3320     2.3570     0.1650   -72.5720     8.0500
 3716.0000    97.1990  -124.5130   191.5730   -29.2650     2.7620     1.9950     1.7050   -96.7610     0.3330     2.3870     0.1570   -64.1380     8.0500
 3716.5000    97.1630  -124.6280   222.3320   -29.2750     2.5540     1.9950     1.6370   -96.7060     0.3340     2.4430     0.1030   -55.7050     8.0490
 3717.0000    97.1270  -124.7420   230.8090   -29.2740     2.5360     2.0280     1.6140   -96.6510     0.3380     2.4690     0.0980   -47.2720     8.0480
 3717.5000    97.4620  -124.8570   238.9750   -29.2830     2.6800     2.1350     1.6720   -96.5960     0.3600     2.4400     0.1080   -46.9860     8.0480
 3718.0000    98.2710  -124.1530   225.1830   -29.5450     3.0910     2.2420     1.7350   -96.5410     0.3790     2.4120     0.2070   -49.0100     8.0470
 3718.5000    99.0810  -123.0280   176.5930   -30.5380     3.5870     2.3490     1.7990   -96.4870     0.3660     2.4000     0.2930   -51.0340     8.0460
 3719.0000    99.8910  -121.9030   165.1290   -31.4950     3.6670     2.4440     1.8630   -96.4320     0.3470     2.3930     0.2920   -53.0580     8.0460
 3719.5000    99.5580  -120.7780   151.8110   -32.4470     3.6150     2.4440     1.9060   -96.3770     0.3550     2.4520     0.2000   -55.0820     8.0450
 3720.0000    99.0270  -119.6530   153.3040   -32.6930     3.5190     2.3930     1.9060   -96.3220     0.3660     2.5220     0.1090   -55.3890     8.0450
 3720.5000    98.4970  -118.5280   155.0790   -32.0050     3.4220     2.3480     1.8720   -96.2670     0.3770     2.5330     0.1520   -55.3890     8.0440
 3721.0000    98.2040  -117.4030   156.8610   -31.3420     3.3250     2.3030     1.8260   -96.2120     0.3890     2.5260     0.2120   -55.3890     8.0430
 3721.5000    98.5630  -116.2780   158.7770   -30.6780     3.2280     2.2580     1.7800   -96.1570     0.4090     2.4680     0.2640   -55.3890     8.0430
 3722.0000    98.9220  -115.1530   160.3090   -30.0120     3.1320     2.2290     1.7340   -96.1020     0.4340     2.4040     0.2740   -55.3890     8.0420
 3722.5000    98.9650  -114.0280   156.9770   -29.3440     3.0350     2.2080     1.6880   -96.0470     0.4580     2.3670     0.2600   -55.3890     8.0390
