~VERSION INFORMATION
 VERS.                2.0:   CWLS LOG ASCII STANDARD - VERSION 2.0
 WRAP.                 NO:   ONE LINE PER DEPTH STEP
~WELL INFORMATION
#MNEM.UNIT      DATA TYPE    INFORMATION
#----------   ------------   ------------------------------
 STRT.F            4.5000:   START DEPTH
 STOP.F         3216.0000:   STOP DEPTH
 STEP.F            0.5000:   STEP LENGTH
 NULL.          -999.2500:   NO VALUE
 COMP. LAWRENCE ALLISON & ASSCOCIATES:   COMPANY
 WELL. LAWRENCE ALLISON #38-34:   WELL
 FLD . NAVAL PET. RES. NO. 3:   FIELD
 LOC .      S34 T39N R78W:   LOCATION
 CNTY.            NATRONA:   COUNTY
 STAT.            WYOMING:   STATE
 CTRY. UNITED STATES OF AMERICA:   COUNTRY
 SRVC.      DRESSER ATLAS:   SERVICE COMPANY
 DATE.        12-OCT-1986:   LOGDATE
 API .     49025111120000:   API NUMBER
~CURVE INFORMATION
#MNEM.UNIT       API CODE    CURVE DESCRIPTION
#----------   ------------   ------------------------------
 DEPT.F                  :   
 CALD.IN     45 280 60 00:   CALIPER FROM DENSITY LOG
 RHOB.G/C3   45 350 01 00:   BULK DENSITY
 CORR.G/C3   45 356 01 00:   DENSITY CORRECTION
 CNC .DEC    42 890 01 00:   NEUTRON POROSITY
 SPR .MV     07 010 01 00:   SPONTANEOUS POTENTIAL
 TENR.LBS    06 635 01 00:   TENSION FROM RESISTIVITY
 GRR .GAPI   07 310 01 00:   GAMMA RAY FROM RESISTIVITY
 ILD .OHMM   07 120 46 00:   DEEP INDUCTION RESISTIVITY
 ILM .OHMM   07 120 44 00:   INDUCTION LOG MEDIUM RESISTIVITY
 SFL .OHMM   07 220 01 00:   SHALLOW FOCUSED LOG RESISITIVITY
~PARAMETER INFORMATION
#MNEM.UNIT          VALUE    DESCRIPTION
#----------   ------------   ------------------------------
 EKB .F         5229.5000:   Kelly bushing
 EGL .F         5217.7000:   Ground level
 TD  .F         3200.0000:   Total depth
 CLNT.            A2DTECH:   Client Code
 SL  . 1338' FWL & 132' FSL:   Surface Location
 PD  .                 GL:   Permanent Datum
 EPD .F            5217.7:   Elevation Permanent Datum
 LMF .                 KB:   Log Measured From
 DMF .                 KB:   Drilling Measured From
 DAPD.F              11.8:   Feet Above Permanent Datum
 DATE.        12-OCT-1986:   Date Logged [DD-MMM-YYYY]
 DD  .F              3200:   Depth driller
 DL  .F              3200:   Depth logger
 BLI .F              3194:   Bottom log interval
 TLI .F                 0:   Top log interval
 CS1 .IN            8.625:   Casing size
 CBD1.      8.625" @ 668':   Casing driller 1
 CBL1.F               668:   Casing logger 1
 BS1 .IN            7.875:   Bit size
 BSD1.F              3200:   Depth drilled with bit1
 DFT .        KCL POLYMER:   Type fluid in hole
 DFD .                  9:   Density
 DFV .                 36:   Viscosity
 DFPH.                9.5:   pH
 MSS .           FLOWLINE:   Source of sample
 RMS .OHMM           0.25:   Rm
 MST .F                70:   Rm Meas. temp.
 RMF .OHMM          0.191:   Rmf
 MFST.F                70:   Rmf Meas. temp.
 MFSS.               MEAS:   Source Rmf.
 RMB .OHMM          0.132:   Rm. at BHT
 BHT .F               132:   BHT.
 TCS .HRS               3:   Time Circ. stopped
 MRT .F               132:   Maximum recorded temp.
 LUN .               6274:   Logging unit number
 ENGI.             RAUTIO:   Recorded By
 ORIG.   1" 2.5" 5" PRINT:   Origin of data
 UWI .     49025111120000:   Unique Well ID
 DICO. A2D TECHNOLOGIES, INC.:   Digitizing Company
 LUL .               CLIT:   Logging unit location
 RMC .OHMM           0.31:   Rmc
 MCST.F                70:   Rmc Meas. temp.
 MCSS.               CALC:   Source Rmc.
~OTHER INFORMATION
~A    DEPT    CALD       RHOB       CORR        CNC        SPR       TENR        GRR        ILD        ILM        SFL   
# ...
 3153.5000     8.1496     2.4718     0.0110     0.2353   -60.3661   130.2500   134.5062     3.2774     3.7146     4.0081
 3154.0000     8.1487     2.4673    -0.0027     0.2337   -60.6453   110.7500   131.5171     3.3233     3.7146     4.5983
 3154.5000     8.1480     2.4612    -0.0165     0.2392   -60.9027   130.2500   130.0663     3.4171     3.7666     4.6273
 3155.0000     8.1622     2.4597    -0.0227     0.2410   -61.1639   130.2500   131.8675     3.4650     3.7666     4.4374
 3155.5000     8.2222     2.4612    -0.0243     0.2379   -61.4286   130.2500   134.9332     3.5135     3.8729     4.6808
 3156.0000     8.2369     2.4749    -0.0260     0.2361   -61.6902   110.7500   135.9523     3.6127     4.0397     4.9551
 3156.5000     8.2360     2.4779    -0.0035     0.2376   -61.9504   110.7500   133.0532     3.8210     4.2182     5.0973
 3157.0000     8.2352     2.4787     0.0055     0.2379   -62.2178   130.2500   130.0353     3.9923     4.3971     5.0965
 3157.5000     8.2343     2.4825     0.0023     0.2343   -62.4763   130.2500   130.0294     4.1605     4.3895     5.1671
 3158.0000     8.2033     2.5023    -0.0054     0.2300   -62.6875   130.2500   131.8307     4.2691     4.4037     5.1662
 3158.5000     8.2025     2.5129     0.0004     0.2300   -62.5770   130.2500   134.2345     4.2534     4.4510     5.2378
 3159.0000     8.2018     2.5191     0.0185     0.2326   -62.4802   149.7500   133.6262     4.0761     4.4303     5.3848
 3159.5000     8.2031     2.5221     0.0243     0.2385   -62.3699   149.7500   130.0059     3.9401     4.2825     5.3840
 3160.0000     8.2155     2.5160     0.0181     0.2385   -62.2633   149.7500   115.5422     3.7728     4.1013     5.3088
 3160.5000     8.2146     2.5038     0.0210     0.2384   -62.1593   164.3750   113.1267     3.5627     3.9002     4.7489
 3161.0000     8.2139     2.4939     0.0374     0.2387   -62.0549   169.2500   119.9279     3.4115     3.7379     4.3679
 3161.5000     8.2132     2.4886     0.0600     0.2390   -61.9348   169.2500   122.7534     3.2321     3.5627     4.3672
 3162.0000     8.2276     2.4871     0.0719     0.2349   -61.9746   169.2500   122.7470     3.1000     3.3699     4.3665
 3162.5000     8.2116     2.4977     0.0903     0.2299   -62.1717   169.2500   122.7410     3.1000     3.2774     4.2968
 3163.0000     8.1957     2.5038     0.0988     0.2305   -62.3523   169.2500   122.7349     3.1000     3.2774     4.1752
 3163.5000     8.1949     2.5046     0.0971     0.2341   -62.5333   188.7500   122.7289     3.1434     3.3699     4.1283
 3164.0000     8.2246     2.5046     0.0803     0.2362   -62.7179   188.7500   122.7229     3.2321     3.4650     4.1452
 3164.5000     8.2238     2.5046     0.0575     0.2365   -62.8997   188.7500   122.7169     3.2774     3.5627     4.3243
 3165.0000     8.2229     2.5046     0.0378     0.2362   -63.0828   208.2500   122.7108     3.3716     3.7146     4.4488
 3165.5000  -999.2500  -999.2500  -999.2500  -999.2500   -63.2657   208.8247   122.7048     3.4650     3.8748     4.5138
 3166.0000  -999.2500  -999.2500  -999.2500  -999.2500   -63.4482   208.4407   122.6988     3.4725     3.9272     4.5470
 3166.5000  -999.2500  -999.2500  -999.2500  -999.2500   -63.6317   208.0452   122.6928     3.5135     3.9272     4.5822
 3167.0000  -999.2500  -999.2500  -999.2500  -999.2500   -63.8129   207.7123   122.6867     3.5135     3.8624     4.8729
 3167.5000  -999.2500  -999.2500  -999.2500  -999.2500   -63.9967   207.5210   122.6807     3.5135     3.7536     4.9406
 3168.0000  -999.2500  -999.2500  -999.2500  -999.2500   -64.1829   227.0208   122.6747     3.5135     3.6479     4.8042
 3168.5000  -999.2500  -999.2500  -999.2500  -999.2500   -64.2952   227.1532   122.6687     3.5135     3.5627     4.5434
 3169.0000  -999.2500  -999.2500  -999.2500  -999.2500   -64.2196   237.5000   122.6626     3.4887     3.5627     4.3570
 3169.5000  -999.2500  -999.2500  -999.2500  -999.2500   -64.1490   247.2500   122.6566     3.4650     3.5627     4.2962
 3170.0000  -999.2500  -999.2500  -999.2500  -999.2500   -64.0731   247.2500   122.6506     3.4171     3.5627     4.2955
 3170.5000  -999.2500  -999.2500  -999.2500  -999.2500   -63.9984   261.8750   122.6446     3.3233     3.5627     4.2949
 3171.0000  -999.2500  -999.2500  -999.2500  -999.2500   -63.9243   266.7500   122.6385     3.2321     3.5135     4.3562
 3171.5000  -999.2500  -999.2500  -999.2500  -999.2500   -63.8497   266.7500   122.6325     3.1434     3.4171     4.4817
 3172.0000  -999.2500  -999.2500  -999.2500  -999.2500   -63.7746   266.7500   122.6265     3.1377     3.3699     4.5386
 3172.5000  -999.2500  -999.2500  -999.2500  -999.2500   -63.7008   286.2500   122.6205     3.2321     3.3233     4.4021
 3173.0000  -999.2500  -999.2500  -999.2500  -999.2500   -63.6268   286.2500   122.6145     3.2321     3.3233     4.3234
 3173.5000  -999.2500  -999.2500  -999.2500  -999.2500   -63.5476   305.7500   122.6084     3.1855     3.2774     4.0991
 3174.0000  -999.2500  -999.2500  -999.2500  -999.2500   -63.5044   325.2500   122.6024     3.0956     3.2774     4.0020
 3174.5000  -999.2500  -999.2500  -999.2500  -999.2500   -63.5088   344.7500   122.5964     3.0503     3.2773     4.0575
 3175.0000  -999.2500  -999.2500  -999.2500  -999.2500   -63.5089   364.2500   122.5904     2.9733     3.2297     4.0568
 3175.5000  -999.2500  -999.2500  -999.2500  -999.2500   -63.5076   383.7500   122.5843     2.9322     3.1827     3.9727
 3176.0000  -999.2500  -999.2500  -999.2500  -999.2500   -63.5079   383.7500   122.5783     2.9462     3.1875     3.8603
 3176.5000  -999.2500  -999.2500  -999.2500  -999.2500   -63.5137   403.2500   122.5723     2.9733     3.1875     3.7300
 3177.0000  -999.2500  -999.2500  -999.2500  -999.2500   -63.4427   413.0000   122.5663     3.0149     3.2321     3.6779
 3177.5000  -999.2500  -999.2500  -999.2500  -999.2500   -63.2572   442.2500   122.5602     3.0149     3.1875     3.6774
 3178.0000  -999.2500  -999.2500  -999.2500  -999.2500   -63.0790   471.5000   122.5542     2.9733     3.1434     3.9417
 3178.5000  -999.2500  -999.2500  -999.2500  -999.2500   -62.8987   442.2500   122.5482     2.8917     3.1000     4.0524
 3179.0000  -999.2500  -999.2500  -999.2500  -999.2500   -62.7178   442.2500   122.5422     2.7735     3.0367     3.9957
 3179.5000  -999.2500  -999.2500  -999.2500  -999.2500   -62.5379   442.2500   122.5361     2.6601     2.9733     3.7267
 3180.0000  -999.2500  -999.2500  -999.2500  -999.2500   -62.3575   481.2500   122.5301     2.5871     2.8517     3.4757
 3180.5000  -999.2500  -999.2500  -999.2500  -999.2500   -62.1771   520.2500   122.5241     2.4813     2.7352     3.3331
 3181.0000  -999.2500  -999.2500  -999.2500  -999.2500   -61.9968   481.2500   122.5181     2.4471     2.7735     3.2865
 3181.5000  -999.2500  -999.2500  -999.2500  -999.2500   -61.8165   484.2174   122.5120     2.4132     2.6601     3.2860
 3182.0000  -999.2500  -999.2500  -999.2500  -999.2500   -61.6359   491.6359   122.5060     2.3799     2.6601     3.2934
 3182.5000  -999.2500  -999.2500  -999.2500  -999.2500   -61.4560   499.0544   122.5000     2.3799     2.6974     3.3414
 3183.0000  -999.2500  -999.2500  -999.2500  -999.2500   -61.2755   506.4728   122.4940     2.3799     2.6601     3.4377
 3183.5000  -999.2500  -999.2500  -999.2500  -999.2500   -61.0941   513.8913   122.4879     2.3799     2.5514     3.4720
 3184.0000  -999.2500  -999.2500  -999.2500  -999.2500   -60.9172   521.3098   122.4819     2.3799     2.5521     3.3880
 3184.5000  -999.2500  -999.2500  -999.2500  -999.2500   -60.7348   528.7283   122.4759     2.3915     2.5871     3.2635
 3185.0000  -999.2500  -999.2500  -999.2500  -999.2500   -60.7214   536.1467   122.4699     2.4132     2.5871     3.2139
 3185.5000  -999.2500  -999.2500  -999.2500  -999.2500   -60.7822   543.5652   122.4639     2.4132     2.5871     3.2608
 3186.0000  -999.2500  -999.2500  -999.2500  -999.2500   -60.8396   550.9837   122.4578     2.4132     2.5871     3.2815
 3186.5000  -999.2500  -999.2500  -999.2500  -999.2500   -60.8949   558.4022   122.4518     2.4471     2.5871     3.2809
