~VERSION INFORMATION
 VERS.                2.0:   CWLS LOG ASCII STANDARD - VERSION 2.0
 WRAP.                 NO:   ONE LINE PER DEPTH STEP
~WELL INFORMATION
#MNEM.UNIT      DATA TYPE    INFORMATION
#----------   ------------   ------------------------------
 STRT.F          590.0000:   START DEPTH
 STOP.F         3123.0000:   STOP DEPTH
 STEP.F            0.5000:   STEP LENGTH
 NULL.          -999.2500:   NO VALUE
 COMP.         U. S. NAVY:   COMPANY
 WELL. U.S. NPR 3 "A" #402-33:   WELL
 FLD .             TEAPOT:   FIELD
 LOC .      S33 T39N R78W:   LOCATION
 CNTY.            NATRONA:   COUNTY
 STAT.            WYOMING:   STATE
 CTRY. UNITED STATES OF AMERICA:   COUNTRY
 SRVC.         MCCULLOUGH:   SERVICE COMPANY
 DATE.        23-OCT-1967:   LOGDATE
 API .     49025104460000:   API NUMBER
~CURVE INFORMATION
#MNEM.UNIT       API CODE    CURVE DESCRIPTION
#----------   ------------   ------------------------------
 DEPT.F                  :   
 GRN .GAPI   35 310 01 00:   GAMMA RAY FROM NEUTRON
 NEUT.NAPI   35 330 01 00:   NEUTRON
~PARAMETER INFORMATION
#MNEM.UNIT          VALUE    DESCRIPTION
#----------   ------------   ------------------------------
 EKB .F            0.0000:   Kelly bushing
 EGL .F         5160.5000:   Ground level
 EDF .F         5162.0000:   Drilling floor
 TD  .F         3123.5000:   Total depth
 CLNT.            A2DTECH:   Client Code
 PD  .                 GL:   Permanent Datum
 EPD .F            5160.5:   Elevation Permanent Datum
 LMF .                 DF:   Log Measured From
 DMF .                 DF:   Drilling Measured From
 DAPD.F               1.5:   Feet Above Permanent Datum
 DATE.        23-OCT-1967:   Date Logged [DD-MMM-YYYY]
 DL  .F            3123.5:   Depth logger
 BLI .F              3122:   Bottom log interval
 TLI .F               600:   Top log interval
 CS1 .IN           5.1875:   Casing size
 DFT .              WATER:   Type fluid in hole
 TCS .HRS             4.5:   Time Circ. stopped
 ENGI.         COWLTHORPE:   Recorded By
 WITN.           THOMASON:   Witnessed by
 ORIG.         2.5" PRINT:   Origin of data
 UWI .     49025104460000:   Unique Well ID
 DICO. A2D TECHNOLOGIES, INC.:   Digitizing Company
 LUN .               1498:   Logging unit number
~OTHER INFORMATION
~A   DEPT       GRN      NEUT   
# ...
 1440.5000    28.7587   384.7619
 1441.0000    28.6131   388.0883
 1441.5000    24.8750   375.7366
 1442.0000    27.3885   378.2070
 1442.5000    32.0868   383.1476
 1443.0000    32.2536   388.0883
 1443.5000    35.2134   368.3257
 1444.0000    32.4759   390.6576
 1444.5000    30.4193   395.4993
 1445.0000    33.3375   385.6180
 1445.5000    33.7543   393.4908
 1446.0000    31.0870   405.3806
 1446.5000    30.1552   391.2199
 1447.0000    35.1301   367.0392
 1447.5000    33.4417   354.4918
 1448.0000    32.2118   344.4133
 1448.5000    34.1086   337.4301
 1449.0000    33.5459   331.2708
 1449.5000    31.4615   346.6538
 1450.0000    30.0024   369.1491
 1450.5000    29.3771   384.9273
 1451.0000    29.4980   382.8859
 1451.5000    30.4380   369.6079
 1452.0000    29.1826   341.1521
 1452.5000    29.8947   377.2247
 1453.0000    34.2418   415.2619
 1453.5000    35.6838   358.4444
 1454.0000    34.9437   375.9052
 1454.5000    32.0184   393.0289
 1455.0000    31.1069   380.0185
 1455.5000    32.9893   369.3463
 1456.0000    32.7206   348.6609
 1456.5000    29.8572   356.1697
 1457.0000    29.2368   379.4262
 1457.5000    28.4283   388.0883
 1458.0000    32.0452   369.7423
 1458.5000    32.6096   371.9163
 1459.0000    32.4074   372.0807
 1459.5000    33.8515   357.0937
 1460.0000    36.6169   340.9871
 1460.5000    36.8038   360.4221
 1461.0000    39.5556   376.1647
 1461.5000    42.6040   358.4444
 1462.0000    44.1175   354.8881
 1462.5000    41.1713   393.0289
 1463.0000    35.7844   407.8509
 1463.5000    34.3395   368.3257
 1464.0000    36.3251   400.4399
 1464.5000    35.8656   355.9740
 1465.0000    33.7328   351.0334
 1465.5000    33.9913   358.4444
 1466.0000    30.6187   346.0927
 1466.5000    31.0418   365.8553
 1467.0000    30.0058   371.4890
 1467.5000    31.0543   333.4112
 1468.0000    26.0087   346.0927
 1468.5000    28.3498   355.9740
 1469.0000    31.4406   363.3850
 1469.5000    32.3849   321.3895
 1470.0000    31.5867   339.3418
 1470.5000    28.7985   356.2038
 1471.0000    25.2616   351.7224
 1471.5000    27.6532   348.5630
 1472.0000    31.1473   338.6818
 1472.5000    32.5757   363.3838
 1473.0000    31.6852   385.6180
 1473.5000    31.5460   338.6818
 1474.0000    31.9701   365.0637
 1474.5000    32.4613   378.2070
 1475.0000    32.8163   354.7383
 1475.5000    31.0091   346.7834
 1476.0000    29.8384   336.7715
 1476.5000    29.2791   332.8859
 1477.0000    28.4630   350.2422
 1477.5000    28.7552   311.3431
 1478.0000    27.0481   334.8651
 1478.5000    28.6067   339.8674
 1479.0000    36.7187   332.1594
 1479.5000    39.1258   322.0822
 1480.0000    38.6735   333.7411
 1480.5000    34.9626   355.9740
 1481.0000    33.4167   385.6180
 1481.5000    32.0639   365.8553
 1482.0000    30.4052   369.0505
 1482.5000    30.8602   328.8004
 1483.0000    28.3805   291.7455
 1483.5000    31.1479   351.0334
 1484.0000    36.3973   363.2238
 1484.5000    33.3853   326.3301
 1485.0000    32.6357   309.0378
 1485.5000    32.2237   336.2114
 1486.0000    31.9117   351.0334
 1486.5000    31.6137   358.4444
 1487.0000    31.2961   346.0927
 1487.5000    33.0769   336.2114
 1488.0000    34.6520   373.4644
 1488.5000    33.6950   388.4808
 1489.0000    33.9418   400.4399
 1489.5000    33.8314   383.5058
 1490.0000    33.4069   347.2478
 1490.5000    32.4475   346.0927
 1491.0000    28.4503   366.3162
 1491.5000    28.2994   353.7029
 1492.0000    26.4257   318.9191
 1492.5000    28.2344   344.2812
 1493.0000    29.2895   362.7882
 1493.5000    32.1720   385.6180
 1494.0000    32.0618   376.4933
 1494.5000    30.5659   362.7958
 1495.0000    30.9833   318.9191
 1495.5000    29.9473   338.3187
 1496.0000    30.5789   337.5621
 1496.5000    31.2104   346.8824
 1497.0000    30.5914   373.2003
 1497.5000    29.8183   359.5976
 1498.0000    30.6038   312.2998
 1498.5000    30.4005   333.5785
 1499.0000    30.6163   337.1668
 1499.5000    31.0394   331.2708
 1500.0000    31.4625   353.5037
 1500.5000    31.7442   358.4444
 1501.0000    29.1821   370.7960
 1501.5000    28.7715   388.0883
 1502.0000    27.8679   372.3441
 1502.5000    27.8504   360.9147
 1503.0000    31.4068   380.6773
 1503.5000    32.3025   368.3257
 1504.0000    33.0373   378.2070
 1504.5000    34.4992   368.3257
 1505.0000    34.0669   373.2663
 1505.5000    33.3191   336.2114
 1506.0000    32.1451   368.3257
 1506.5000    30.8499   343.8457
 1507.0000    30.6993   331.2708
 1507.5000    32.9364   363.6317
 1508.0000    33.9796   368.3257
 1508.5000    33.3553   343.6627
 1509.0000    31.4804   341.0032
 1509.5000    30.6475   372.7076
 1510.0000    34.4006   384.6298
 1510.5000    37.1114   363.4827
 1511.0000    34.8195   348.5630
 1511.5000    31.8322   363.7485
 1512.0000    32.2341   380.9740
 1512.5000    31.4876   372.8552
 1513.0000    29.4042   365.8553
 1513.5000    28.9713   326.3301
 1514.0000    32.7413   338.6818
 1514.5000    33.1592   345.2205
 1515.0000    33.1603   337.9409
 1515.5000    33.1613   368.3257
 1516.0000    33.1679   395.4993
 1516.5000    33.1533   383.1476
 1517.0000    32.9415   358.4444
 1517.5000    32.9570   363.3850
 1518.0000    32.7023   358.4444
 1518.5000    30.0246   348.5630
 1519.0000    27.2670   365.8553
 1519.5000    27.4450   383.1476
 1520.0000    28.5850   363.3850
 1520.5000    28.1690   323.8598
 1521.0000    29.7814   348.5630
 1521.5000    30.8935   358.4444
 1522.0000    32.3716   358.4444
 1522.5000    34.4908   348.5630
 1523.0000    34.7714   350.0172
 1523.5000    37.0764   388.0883
 1524.0000    37.3476   342.4366
 1524.5000    35.2748   333.7411
 1525.0000    33.0943   333.3298
 1525.5000    33.0651   328.3308
 1526.0000    33.1832   330.3815
 1526.5000    33.2846   340.4356
 1527.0000    33.0789   354.8834
 1527.5000    30.3360   360.9147
 1528.0000    27.6151   339.4779
 1528.5000    28.7781   326.3301
 1529.0000    30.3464   343.7701
 1529.5000    31.0131   348.5630
 1530.0000    30.0651   356.4696
 1530.5000    32.9843   353.8831
 1531.0000    30.6925   350.7711
 1531.5000    28.8176   343.6224
 1532.0000    28.6101   373.2004
 1532.5000    28.1943   373.1833
 1533.0000    27.9869   368.3257
 1533.5000    28.1964   335.8990
 1534.0000    30.9071   344.4788
 1534.5000    30.0744   363.3850
 1535.0000    30.2839   355.9740
 1535.5000    30.7018   368.3257
 1536.0000    30.7028   375.7366
 1536.5000    31.3292   346.0927
 1537.0000    30.7049   328.8004
 1537.5000    27.5793   318.9191
 1538.0000    29.0394   323.8598
 1538.5000    30.9167   358.4444
 1539.0000    31.1259   358.4444
 1539.5000    28.8341   358.4444
 1540.0000    29.0991   318.9191
 1540.5000    30.7121   304.0972
 1541.0000    29.7876   296.6862
 1541.5000    27.3404   318.9191
 1542.0000    25.2957   341.1521
 1542.5000    34.2597   328.8004
 1543.0000    34.8824   318.9191
 1543.5000    35.7208   346.1671
 1544.0000    34.5382   337.6272
 1544.5000    30.7556   308.0919
 1545.0000    29.2623   301.6269
 1545.5000    30.5139   322.3044
 1546.0000    29.6175   336.5739
 1546.5000    29.0569   343.6224
 1547.0000    29.5521   315.5717
 1547.5000    29.8928   301.6269
 1548.0000    28.2626   336.2114
 1548.5000    28.2004   313.8467
 1549.0000    30.0502   309.0378
 1549.5000    31.4650   292.0946
 1550.0000    30.5235   284.3346
 1550.5000    29.7995   309.0378
 1551.0000    29.5604   318.3250
 1551.5000    29.1217   326.3301
 1552.0000    32.1952   336.9031
 1552.5000    32.4047   329.5401
 1553.0000    33.0310   295.6488
 1553.5000    32.6152   296.6703
 1554.0000    30.7388   303.8994
 1554.5000    30.9791   284.5481
 1555.0000    31.5761   312.4999
 1555.5000    29.8195   336.6557
 1556.0000    26.7981   306.5675
 1556.5000    24.0753   336.2114
 1557.0000    31.0405   338.7306
 1557.5000    35.2466   306.5675
 1558.0000    38.1566   318.9191
 1558.5000    38.6703   331.2708
 1559.0000    36.0994   338.6818
 1559.5000    33.7296   321.3895
 1560.0000    30.0718   328.8004
 1560.5000    29.2026   334.1778
 1561.0000    26.6799   309.0378
 1561.5000    27.1402   289.2752
