~VERSION INFORMATION
 VERS.                2.0:   CWLS LOG ASCII STANDARD - VERSION 2.0
 WRAP.                 NO:   ONE LINE PER DEPTH STEP
~WELL INFORMATION
#MNEM.UNIT      DATA TYPE    INFORMATION
#----------   ------------   ------------------------------
 STRT.F           10.0000:   START DEPTH
 STOP.F         2950.0000:   STOP DEPTH
 STEP.F            0.5000:   STEP LENGTH
 NULL.          -999.2500:   NO VALUE
 COMP.    FENIX & SCISSON:   COMPANY
 WELL.   PENIX SHX #11-23:   WELL
 FLD .  TEAPOT DOME NPR-3:   FIELD
 LOC .      S23 T38N R78W:   LOCATION
 CNTY.            NATRONA:   COUNTY
 STAT.            WYOMING:   STATE
 CTRY. UNITED STATES OF AMERICA:   COUNTRY
 SRVC.           BIRDWELL:   SERVICE COMPANY
 DATE.        19-MAY-1979:   LOGDATE
 API .     49025107790000:   API NUMBER
~CURVE INFORMATION
#MNEM.UNIT       API CODE    CURVE DESCRIPTION
#----------   ------------   ------------------------------
 DEPT.F                  :   
 ILD .OHMM   05 120 46 00:   INDUCTION LOG DEEP
 SN  .OHMM   05 040 16 00:   SHORT NORMAL 16"
 CALD.IN     45 280 60 00:   CALIPER FROM DENSITY LOG
 GRD .GAPI   45 310 01 00:   GAMMA RAY FROM DENSITY LOG
 RHOB.G/C3   45 350 01 00:   BULK DENSITY
 CORR.G/C3   45 356 01 00:   DENSITY CORRECTION
~PARAMETER INFORMATION
#MNEM.UNIT          VALUE    DESCRIPTION
#----------   ------------   ------------------------------
 EKB .F         5275.0000:   Kelly bushing
 EGL .F         5265.0000:   Ground level
 EDF .F            0.0000:   Drilling floor
 TD  .F         2995.0000:   Total depth
 DATE.        19-MAY-1979:   Date logged
 CLNT.            A2DTECH:   Client Code
 SL  . 337' FNL & 237' FWL:   Surface Location
 PD  .                 GL:   Permanent Datum
 EPD .F              5265:   Elevation Permanent Datum
 LMF .                 KB:   Log Measured From
 DMF .                 KB:   Drilling Measured From
 DAPD.F                10:   Feet Above Permanent Datum
 DD  .F              2995:   Depth driller
 DL  .F              2950:   Depth logger
 BLI .F              2944:   Bottom log interval
 TLI .F              1050:   Top log interval
 CS1 .IN            9.625:   Casing size
 CBD1.     9.625" @ 2050':   Casing driller 1
 CBL1.F              1050:   Casing logger 1
 BS1 .IN             8.75:   Bit size
 BSD1.F              2995:   Depth drilled with bit1
 DFT . AIR/FORRATION FLUIDS:   Type fluid in hole
 TCS .HRS              12:   Time Circ. stopped
 LUN .               3029:   Logging unit number
 LUL .             CASPER:   Logging unit location
 ENGI.         B. ROLLINS:   Recorded By
 ORIG.         2.5" PRINT:   Origin of data
 UWI .     49025107790000:   Unique Well ID
 DICO. A2D TECHNOLOGIES, INC.:   Digitizing Company
~OTHER INFORMATION
~A   DEPT      ILD         SN       CALD        GRD       RHOB         CORR 
# ...
 1518.0000     7.6410  -999.2500     9.4170   162.3310     2.5230     0.0380
 1518.5000     7.6110  -999.2500     9.4180   163.1530     2.5290     0.0340
 1519.0000     7.5810  -999.2500     9.4030   159.6160     2.5120     0.0320
 1519.5000     7.5740  -999.2500     9.3560   152.7410     2.5180     0.0460
 1520.0000     7.5740  -999.2500     9.3070   155.4600     2.5280     0.0510
 1520.5000     8.8150  -999.2500     9.2630   165.6930     2.5370     0.0490
 1521.0000     9.9960  -999.2500     9.2210   169.0950     2.5150     0.0310
 1521.5000     9.9960  -999.2500     9.2960   171.7490     2.4930     0.0190
 1522.0000     9.9960  -999.2500     9.3680   174.4880     2.5020     0.0240
 1522.5000     9.9960  -999.2500     9.4510   177.3430     2.5140     0.0350
 1523.0000     9.9960  -999.2500     9.4370   178.7140     2.5080     0.0340
 1523.5000     9.9960  -999.2500     9.4240   174.2340     2.5060     0.0300
 1524.0000     9.9960  -999.2500     9.3700   168.5480     2.5110     0.0300
 1524.5000     9.9960  -999.2500     9.2720   162.7820     2.5070     0.0300
 1525.0000     9.9960  -999.2500     9.1830   157.0270     2.5140     0.0310
 1525.5000     9.9960  -999.2500     9.0780   151.9810     2.5230     0.0330
 1526.0000     9.9960  -999.2500     9.1190   150.9980     2.5320     0.0350
 1526.5000     9.9960  -999.2500     9.2450   158.3210     2.5410     0.0360
 1527.0000     9.9960  -999.2500     9.3680   168.5920     2.5490     0.0380
 1527.5000     9.9970  -999.2500     9.3690   169.1850     2.5470     0.0350
 1528.0000    10.0000  -999.2500     9.3680   170.8840     2.5460     0.0290
 1528.5000     9.9920  -999.2500     9.3590   174.2200     2.5420     0.0190
 1529.0000     9.9960  -999.2500     9.3540   175.5940     2.5380     0.0290
 1529.5000     9.9960  -999.2500     9.3480   170.6200     2.5340     0.0360
 1530.0000     9.9960  -999.2500     9.3430   163.3550     2.5300     0.0420
 1530.5000     9.4560  -999.2500     9.3370   161.7270     2.5260     0.0360
 1531.0000     9.3810  -999.2500     9.3360   162.5310     2.5250     0.0310
 1531.5000     9.3080  -999.2500     9.3360   167.4880     2.5340     0.0280
 1532.0000     9.0580  -999.2500     9.3360   170.8980     2.5420     0.0440
 1532.5000     8.6940  -999.2500     9.3360   166.7720     2.5480     0.0560
 1533.0000     8.8720  -999.2500     9.3370   165.1910     2.5350     0.0360
 1533.5000     9.4560  -999.2500     9.3340   166.8570     2.5230     0.0160
 1534.0000     9.2060  -999.2500     9.3390   171.8380     2.5100     0.0090
 1534.5000     8.6210  -999.2500     9.3400   171.8920     2.5140     0.0100
 1535.0000     9.4560  -999.2500     9.4060   167.6680     2.5130     0.0100
 1535.5000     9.1520  -999.2500     9.3710   163.9640     2.5110     0.0150
 1536.0000     8.8480  -999.2500     9.3790   159.2750     2.5150     0.0320
 1536.5000     8.6450  -999.2500     9.3760   161.4760     2.5190     0.0530
 1537.0000     8.7370  -999.2500     9.3850   160.9960     2.5160     0.0750
 1537.5000     8.8290  -999.2500     9.4210   171.2900     2.5160     0.0970
 1538.0000     8.9210  -999.2500     9.4130   170.3320     2.5270     0.1100
 1538.5000     8.1560  -999.2500     9.3820   170.2460     2.5360     0.0940
 1539.0000     8.1560  -999.2500     9.3480   169.8670     2.5430     0.0680
 1539.5000     8.4630  -999.2500     9.3120   173.4490     2.5330     0.0380
 1540.0000     8.6210  -999.2500     9.2780   172.3430     2.5110     0.0220
 1540.5000     8.7820  -999.2500     9.2430   165.7570     2.4900     0.0150
 1541.0000     9.2830  -999.2500     9.2170   161.3250     2.4910     0.0240
 1541.5000     7.7160  -999.2500     9.1990   163.4640     2.5030     0.0380
 1542.0000     8.0490  -999.2500     9.1950   166.8590     2.5130     0.0410
 1542.5000     8.5480  -999.2500     9.1830   173.5650     2.4990     0.0350
 1543.0000     9.2830  -999.2500     9.4410   171.0830     2.4770     0.0310
 1543.5000     9.2500  -999.2500     9.4080   173.2700     2.4520     0.0250
 1544.0000     9.1880  -999.2500     9.3630   169.2900     2.4320     0.0440
 1544.5000     9.1260  -999.2500     9.3400   165.4660     2.4610     0.0840
 1545.0000     7.9690  -999.2500     9.3590   174.3380     2.5100     0.1190
 1545.5000     9.2830  -999.2500     9.3660   174.5610     2.5310     0.1670
 1546.0000     9.1130  -999.2500     9.3320   173.1520     2.5360     0.1540
 1546.5000     9.2830  -999.2500     9.3380   169.6820     2.5320     0.1190
 1547.0000     8.6210  -999.2500     9.3370   170.1360     2.5150     0.0850
 1547.5000     9.2830  -999.2500     9.3250   170.8110     2.4970     0.0520
 1548.0000     9.2690  -999.2500     9.3050   167.0920     2.5010     0.0230
 1548.5000     9.2420  -999.2500     9.2860   162.5680     2.5080     0.0150
 1549.0000     9.2150  -999.2500     9.2650   162.4390     2.5140     0.0080
 1549.5000     9.1880  -999.2500     9.2600   163.7780     2.5040     0.0020
 1550.0000     9.1610  -999.2500     9.2780   162.1340     2.4950     0.0130
 1550.5000     9.1340  -999.2500     9.2940   167.5820     2.5050     0.0350
 1551.0000     8.9630  -999.2500     9.3110   169.8540     2.5180     0.0500
 1551.5000     8.3230  -999.2500     9.3270   171.3930     2.5210     0.0520
 1552.0000     7.7160  -999.2500     9.3440   173.9350     2.5040     0.0610
 1552.5000     8.3080  -999.2500     9.3600   179.4600     2.5450     0.0670
 1553.0000     8.3080  -999.2500     9.3770   176.1160     2.5120     0.0210
 1553.5000     6.6550  -999.2500     9.3930   170.9470     2.5040     0.0160
 1554.0000     8.9460  -999.2500     9.4110   164.8380     2.5130     0.0200
 1554.5000     7.2990  -999.2500     9.4180   163.2530     2.5210     0.0190
 1555.0000     7.5010  -999.2500     9.4170   168.4240     2.5090     0.0100
 1555.5000     8.0160  -999.2500     9.4180   172.5260     2.4950     0.0030
 1556.0000     8.4630  -999.2500     9.4050   163.1800     2.5050     0.0050
 1556.5000     7.2990  -999.2500     9.3720   155.1290     2.5300     0.0440
 1557.0000     8.4630  -999.2500     9.3420   162.0060     2.5600     0.0850
 1557.5000     8.1560  -999.2500     9.3110   170.2170     2.5490     0.0470
 1558.0000     8.1560  -999.2500     9.2900   176.7470     2.5180     0.0020
 1558.5000     8.1560  -999.2500     9.3280   177.0110     2.5010    -0.0020
 1559.0000     7.0340  -999.2500     9.3400   176.6760     2.5020     0.0030
 1559.5000     8.3080  -999.2500     9.3490   174.4100     2.5120     0.0030
 1560.0000     9.1130  -999.2500     9.3560   175.4370     2.5270     0.0160
 1560.5000     9.0260  -999.2500     9.3640   169.2740     2.5410     0.0290
 1561.0000     8.7820  -999.2500     9.3730   166.2010     2.5360     0.0290
 1561.5000     9.4560  -999.2500     9.3770   165.5530     2.5250     0.0260
 1562.0000     6.6550  -999.2500     9.3760   165.1610     2.5140     0.0150
 1562.5000     8.0060  -999.2500     9.3770   165.2890     2.5040     0.0100
 1563.0000     7.0340  -999.2500     9.3760   174.5770     2.5120     0.0100
 1563.5000     7.6900  -999.2500     9.3770   172.5120     2.5060     0.0160
 1564.0000     8.3080  -999.2500     9.3780   170.9770     2.4960     0.0280
 1564.5000     7.7560  -999.2500     9.3710   172.2330     2.4950     0.0400
 1565.0000     7.1660  -999.2500     9.4170   170.7650     2.5020     0.0450
 1565.5000     6.5330  -999.2500     9.4000   169.3410     2.4950     0.0350
 1566.0000     7.5460  -999.2500     9.5460   170.8980     2.4960     0.0170
 1566.5000     8.3650  -999.2500     9.5290   170.6720     2.5100     0.0270
 1567.0000     7.8600  -999.2500     9.4880   169.7720     2.5120     0.0370
 1567.5000     8.1560  -999.2500     9.4340   175.1380     2.5140     0.0460
 1568.0000     6.5600  -999.2500     9.3910   177.1810     2.5420     0.0440
 1568.5000     6.8860  -999.2500     9.4050   170.2050     2.5490     0.0380
 1569.0000     7.4360  -999.2500     9.4470   167.4420     2.5230     0.0540
 1569.5000     7.3690  -999.2500     9.4590   169.3140     2.5180     0.0690
