~VERSION INFORMATION
 VERS.                2.0:   CWLS LOG ASCII STANDARD - VERSION 2.0
 WRAP.                 NO:   ONE LINE PER DEPTH STEP
~WELL INFORMATION
#MNEM.UNIT      DATA TYPE    INFORMATION
#----------   ------------   ------------------------------
 STRT.F          206.0000:   START DEPTH
 STOP.F         3218.0000:   STOP DEPTH
 STEP.F            0.5000:   STEP LENGTH
 NULL.          -999.2500:   NO VALUE
 COMP.    FENIX & SCISSON:   COMPANY
 WELL.     FENIX AX #16-2:   WELL
 FLD .              NPR 3:   FIELD
 LOC .       S2 T38N R78W:   LOCATION
 CNTY.            NATRONA:   COUNTY
 STAT.            WYOMING:   STATE
 CTRY. UNITED STATES OF AMERICA:   COUNTRY
 SRVC.       SCHLUMBERGER:   SERVICE COMPANY
 DATE.        10-OCT-1977:   LOGDATE
 API .     49025105780000:   API NUMBER
~CURVE INFORMATION
#MNEM.UNIT       API CODE    CURVE DESCRIPTION
#----------   ------------   ------------------------------
 DEPT.F                  :   
 GRD .GAPI   45 310 01 00:   GAMMA RAY FROM DENSITY LOG
 CALD.IN     45 280 60 00:   CALIPER FROM DENSITY LOG
 RHOB.G/C3   45 350 01 00:   BULK DENSITY
 CORR.G/C3   45 356 01 00:   DENSITY CORRECTION
 SPR .MV     07 010 01 00:   SPONTANEOUS POTENTIAL FROM RES.
 RILD.OHMM   07 120 46 00:   DEEP INDUCTION RESISTIVITY
 RILM.OHMM   07 120 44 00:   INDUCTION LOG MEDIUM RESISTIVITY
 RLL8.OHMM   07 220 08 00:   LATEROLOG-8 RES.
~PARAMETER INFORMATION
#MNEM.UNIT          VALUE    DESCRIPTION
#----------   ------------   ------------------------------
 EKB .F         5123.0000:   Kelly bushing
 EGL .F         5113.0000:   Ground level
 EDF .F            0.0000:   Drilling floor
 TD  .F         3220.0000:   Total depth
 CLNT.            A2DTECH:   Client Code
 SL  . 1772' FSL & 576' FWL:   Surface Location
 PD  .                 GL:   Permanent Datum
 EPD .F              5113:   Elevation Permanent Datum
 LMF .                 KB:   Log Measured From
 DMF .                 KB:   Drilling Measured From
 DAPD.F                10:   Feet Above Permanent Datum
 DATE.        10-OCT-1977:   Date Logged [DD-MMM-YYYY]
 DD  .F              3220:   Depth driller
 DL  .F              3218:   Depth logger
 BLI .F              3212:   Bottom log interval
 TLI .F               223:   Top log interval
 CS1 .IN            8.625:   Casing size
 CBD1.      8.625" @ 222':   Casing driller 1
 CBL1.F               223:   Casing logger 1
 BS1 .IN            7.875:   Bit size
 BSD1.F              3220:   Depth drilled with bit1
 DFT .                KCL:   Type fluid in hole
 DFD .                8.6:   Density
 DFV .                 32:   Viscosity
 DFPH.                 11:   pH
 MSS .            MUD PIT:   Source of sample
 RMS .OHMM           0.29:   Rm
 MST .F                82:   Rm Meas. temp.
 RMF .OHMM          0.228:   Rmf
 MFST.F                81:   Rmf Meas. temp.
 MFSS.               MEAS:   Source Rmf.
 RMB .OHMM           0.21:   Rm. at BHT
 BHT .F               122:   BHT.
 TCS .HRS            0600:   Time Circ. stopped
 MRT .F               122:   Maximum recorded temp.
 LUN .               5642:   Logging unit number
 ENGI. CHALUPSKY PETERSON:   Recorded By
 WITN.     WES PETTINGILL:   Witnessed by
 ORIG.           5" PRINT:   Origin of data
 UWI .     49025105780000:   Unique Well ID
 DICO. A2D TECHNOLOGIES, INC.:   Digitizing Company
 TLAB.HRS            1000:   Time logger at bottom
 LUL .               CSPR:   Logging unit location
~OTHER INFORMATION
~A   DEPT       GRD      CALD       RHOB       CORR        SPR       RILD       RILM       RLL8   
# ...
 2393.0000   132.9514     8.6154     2.4678     0.0217   -35.4326     6.2902     6.3888     7.6946
 2393.5000   140.8049     8.6159     2.4605     0.0180   -34.0881     6.2529     6.2604     7.1866
 2394.0000   148.8095     8.6165     2.4545    -0.0016   -32.6513     6.3980     6.3124     6.6658
 2394.5000   152.4334     8.6021     2.4523     0.0091   -30.7458     6.7825     6.6913     6.9552
 2395.0000   153.0363     8.6027     2.4523     0.0114   -30.0781     7.3459     7.2466     8.5694
 2395.5000   148.8049     8.6034     2.4546     0.0155   -29.5534     8.0705     7.7921    12.9962
 2396.0000   143.2143     8.6040     2.4592     0.0093   -29.5106     8.3741     8.2598    14.7320
 2396.5000   143.8170     8.6046     2.4584    -0.0027   -29.7778     8.2652     8.2691    12.7532
 2397.0000   145.4772     8.6052     2.4495    -0.0042   -30.2346     8.0996     8.0452    11.8291
 2397.5000   151.3531     8.6207     2.4458    -0.0094   -30.9609     7.8247     7.8274    11.3585
 2398.0000   161.3351     8.6363     2.4481     0.0050   -31.7025     7.5591     7.5073     9.8829
 2398.5000   167.2249     8.6519     2.4511    -0.0010   -32.4428     7.1989     7.2004     7.9393
 2399.0000   173.4168     8.6675     2.4496    -0.0062   -33.1759     6.8559     6.9060     7.1624
 2399.5000   176.4365     8.6682     2.4467    -0.0084   -33.9339     6.4366     6.5297     8.8880
 2400.0000   175.5287     8.7137     2.4437    -0.0015   -34.4690     5.9148     6.1299     9.4664
 2400.5000   170.6934     8.6992     2.4445     0.0039   -35.8761     5.4349     5.7388     8.0822
 2401.0000   172.8064     8.7149     2.4482     0.0047   -36.9023     4.9936     5.1110     7.0925
 2401.5000   173.5602     8.7305     2.4565    -0.0081   -37.2854     4.6209     4.4885     5.5901
 2402.0000   167.6675     8.7761     2.4715     0.0086   -37.1197     4.3662     4.0646     4.1854
 2402.5000   161.0195     8.8216     2.4896     0.0071   -36.8750     4.0908     3.8695     3.7884
 2403.0000   154.8247     8.8822     2.5069     0.0012   -36.4894     3.8506     3.8170     4.2671
 2403.5000   149.5362     8.9277     2.4888     0.0080   -35.4919     3.7460     3.7931     4.6416
 2404.0000   145.0151     8.9895     2.4995     0.0255   -34.0194     3.7223     3.7970     4.8422
 2404.5000   142.7493     9.0515     2.4956     0.0225   -32.3544     3.8079     3.8549     4.6189
 2405.0000   140.7855     9.1245     2.4844     0.0035   -31.2578     3.9224     3.9418     4.2549
 2405.5000   140.0302     9.1701     2.4897     0.0148   -30.4010     4.0404     4.0594     3.9458
 2406.0000   139.5770     9.2157     2.4987     0.0088   -30.1131     4.1917     4.2119     4.5377
 2406.5000   138.6707     9.2762     2.5024     0.0066   -30.0924     4.4113     4.3404     4.6699
 2407.0000   136.2538     9.3068     2.4927    -0.0099   -30.5196     4.5766     4.5635     4.7728
 2407.5000   129.9094     9.3374     2.5002    -0.0069   -31.6624     4.7826     4.7674     4.8110
 2408.0000   128.5174     9.3829     2.5017     0.0037   -32.1265     5.0047     4.9805     4.8503
 2408.5000   129.3051     9.4135     2.4995     0.0068   -32.6899     5.2600     5.2403     4.8890
 2409.0000   129.9094     9.4441     2.4935     0.0085   -33.2518     5.4181     5.4355     5.0314
 2409.5000   131.1343     9.4597     2.4868     0.0099   -33.8573     5.5019     5.4400     5.2502
 2410.0000   134.7432     9.4904     2.4943    -0.0104   -34.5129     5.4295     5.2912     5.5549
 2410.5000   135.3474     9.5209     2.4988    -0.0058   -35.6440     5.2821     5.1464     5.1527
 2411.0000   136.1057     9.5215     2.4891     0.0002   -36.9030     5.0296     4.8994     4.7466
 2411.5000   138.8806     9.5371     2.4988     0.0048   -37.4363     4.7552     4.6978     4.3725
 2412.0000   139.5770     9.5527     2.4966    -0.0117   -37.6809     4.4637     4.4699     4.1661
 2412.5000   136.5559     9.5683     2.4929    -0.0125   -37.8798     4.2808     4.2528     4.0320
 2413.0000   137.6133     9.5838     2.4944    -0.0064   -38.1014     4.1055     4.0542     4.2377
 2413.5000   138.0665     9.5844     2.4959     0.0027   -37.3654     3.9914     3.9152     4.3914
 2414.0000   137.6133     9.6000     2.4997     0.0028   -36.5198     3.8865     3.8354     4.4881
 2414.5000   138.0665     9.6156     2.5012    -0.0040   -35.1030     3.7810     3.7572     4.4606
 2415.0000   138.8217     9.6312     2.4982     0.0014   -33.7397     3.5492     3.6284     4.4037
 2415.5000   140.9366     9.6469     2.4937    -0.0054   -33.0522     3.2844     3.3570     4.2888
 2416.0000   145.0151     9.6775     2.4892     0.0030   -32.6601     2.9326     3.0837     3.6904
 2416.5000   149.5297     9.6930     2.4870     0.0106   -32.6744     2.7138     2.8530     3.2228
 2417.0000   153.4743     9.7086     2.4975     0.0219   -32.6975     2.6213     2.6776     2.7429
 2417.5000   157.4042     9.7092     2.4998     0.0348   -32.9389     2.6240     2.6804     2.5442
 2418.0000   157.5529     9.7098     2.4713     0.0220   -33.5204     2.6646     2.7402     2.7294
 2418.5000   153.3155     9.7254     2.4690     0.0115   -34.2881     2.7252     2.8025     3.4856
 2419.0000   146.9789     9.7260     2.4781     0.0032   -34.8990     2.8089     2.8656     3.8473
 2419.5000   142.1450     9.7265     2.4904     0.0108   -35.4855     2.8954     2.9301     3.9255
 2420.0000   138.9728     9.7271     2.5044     0.0199   -36.0558     2.9581     2.9748     3.7177
 2420.5000   139.1455     9.7277     2.5089     0.0230   -36.9174     3.0254     2.9987     3.0444
 2421.0000   140.0302     9.7434     2.5006     0.0173   -37.6813     3.0503     3.0444     3.2887
 2421.5000   143.3535     9.7589     2.4916     0.0050   -38.1108     3.0535     3.0688     3.5526
 2422.0000   143.8066     9.7688     2.4894     0.0065   -38.5022     3.0786     3.0714     3.7061
 2422.5000   143.6556     9.7752     2.4962     0.0081   -38.4460     3.0591     3.0739     3.5598
 2423.0000   144.4109     9.7758     2.5022     0.0051   -38.2935     3.0631     3.0986     3.4660
 2423.5000   146.5257     9.7764     2.5030    -0.0009   -37.7450     3.0663     3.1012     3.4456
 2424.0000   146.6767     9.7769     2.5015    -0.0008   -37.2999     3.0695     3.1039     3.6491
 2424.5000   143.8066     9.7775     2.4976     0.0052   -35.9344     3.0728     3.1070     3.7011
 2425.0000   136.4048     9.7781     2.4922     0.0098   -34.7909     3.0761     3.1097     3.6539
 2425.5000   136.5559     9.7937     2.4880     0.0031   -33.2413     3.0800     3.0895     3.6073
 2426.0000   140.0302     9.7944     2.4903     0.0114   -32.8710     3.0832     3.0927     3.6110
 2426.5000   139.8792     9.8100     2.4948    -0.0007   -32.4424     3.0637     3.1175     3.6650
 2427.0000   138.8217     9.8106     2.4978     0.0013   -32.5467     3.0677     3.1199     3.7199
 2427.5000   137.9154     9.8112     2.4971     0.0153   -32.5090     3.0709     3.1227     3.5970
 2428.0000   137.7643     9.8117     2.4926     0.0086   -32.9128     3.0741     3.1256     3.2906
 2428.5000   139.5825     9.8123     2.4918     0.0049   -33.8607     3.0773     3.1053     3.3881
 2429.0000   139.5770     9.8129     2.4956     0.0057   -34.4943     3.0806     3.1085     3.4918
 2429.5000   139.7281     9.8135     2.5024     0.0057   -35.1215     3.1059     3.1335     3.6883
 2430.0000   141.9940     9.8141     2.5084     0.0156   -35.6728     3.1107     3.1812     3.5912
 2430.5000   143.3535     9.8147     2.5039     0.0028   -36.8428     3.1609     3.2067     3.1291
 2431.0000   142.7493     9.8153     2.4972     0.0126   -37.6539     3.2998     3.2325     3.7046
 2431.5000   139.8070     9.8160     2.4927     0.0074   -38.7971     3.3991     3.2352     4.4908
 2432.0000   137.1601     9.8166     2.4904    -0.0099   -39.0379     3.3305     3.1926     4.8890
 2432.5000   138.9728     9.8322     2.4972    -0.0066   -39.1273     3.1487     3.1052     4.0886
 2433.0000   142.2961     9.8328     2.5032     0.0016   -39.0789     2.9769     2.9988     3.6889
