~VERSION INFORMATION
 VERS.                2.0:   CWLS LOG ASCII STANDARD - VERSION 2.0
 WRAP.                 NO:   ONE LINE PER DEPTH STEP
~WELL INFORMATION
#MNEM.UNIT      DATA TYPE    INFORMATION
#----------   ------------   ------------------------------
 STRT.F            0.0000:   START DEPTH
 STOP.F         3474.0000:   STOP DEPTH
 STEP.F            0.5000:   STEP LENGTH
 NULL.          -999.2500:   NO VALUE
 COMP. LAWRENCE ALLISON & ASSOCIATES:   COMPANY
 WELL. LAWRENCE ALLISON #13-AX-14:   WELL
 FLD .            WILDCAT:   FIELD
 LOC .      S14 T38N R78W:   LOCATION
 CNTY.            NATRONA:   COUNTY
 STAT.            WYOMING:   STATE
 CTRY. UNITED STATES OF AMERICA:   COUNTRY
 SRVC.      DRESSER ATLAS:   SERVICE COMPANY
 DATE.        31-MAR-1986:   LOGDATE
 API .     49025110640000:   API NUMBER
~CURVE INFORMATION
#MNEM.UNIT       API CODE    CURVE DESCRIPTION
#----------   ------------   ------------------------------
 DEPT.F                  :   
 TEND.LBS    45 635 01 00:   TENSION FROM DENSITY LOG
 RHOB.G/C3   45 350 01 00:   BULK DENSITY
 CORR.G/C3   45 356 01 00:   DENSITY CORRECTION
 CALD.IN     45 280 60 00:   CALIPER FROM DENSITY LOG
 NPHI.DEC    42 890 00 00:   NEUTRON POROSITY
 TENR.LBS    07 635 01 00:   TENSION FROM RESISTIVITY
 RFOC.OHMM   07 220 01 00:   RESISTIVITY FOCUSED LOG RES.
 RILD.OHMM   07 120 46 00:   DEEP INDUCTION RESISTIVITY
 RILM.OHMM   07 120 44 00:   INDUCTION LOG MEDIUM RESISTIVITY
 GRR .GAPI   07 310 01 00:   GAMMA RAY FROM RESISTIVITY
 SPR .MV     07 010 01 00:   SPONTANEOUS POTENTIAL
 TENS.LBS    60 635 01 00:   TENSION FROM SONIC LOG
 DT  .US/F   60 520 00 00:   DELTA TIME
~PARAMETER INFORMATION
#MNEM.UNIT          VALUE    DESCRIPTION
#----------   ------------   ------------------------------
 EKB .F         5251.0000:   Kelly bushing
 EGL .F         5239.2000:   Ground level
 EDF .F         5248.1000:   Drilling floor
 TD  .F         3456.0000:   Total depth
 DATE.        31-MAR-1986:   Date logged
 CLNT.            A2DTECH:   Client Code
 SL  . 238' FWL & 1739' FNL:   Surface Location
 PD  .                 GL:   Permanent Datum
 EPD .F            5239.2:   Elevation Permanent Datum
 LMF .                 KB:   Log Measured From
 DMF .                 KB:   Drilling Measured From
 DAPD.F              11.8:   Feet Above Permanent Datum
 DD  .F              3450:   Depth driller
 DL  .F              3456:   Depth logger
 BLI .F              3450:   Bottom log interval
 CS1 .IN            8.625:   Casing size
 CBD1.      8.625" @ 689':   Casing driller 1
 CBL1.F               692:   Casing logger 1
 BS1 .IN            7.875:   Bit size
 BSD1.F              3450:   Depth drilled with bit1
 DFT .        POLYMER/KCL:   Type fluid in hole
 DFD .                9.1:   Density
 DFV .                 38:   Viscosity
 DFPH.                8.5:   pH
 DFL .               11.2:   Fluid loss
 MSS .           FLOWLINE:   Source of sample
 RMS .OHMM            .29:   Rm
 MST .F                65:   Rm Meas. temp.
 RMF .OHMM           .235:   Rmf
 MFST.F                65:   Rmf Meas. temp.
 RMC .OHMM           .378:   Rmc
 MCST.F                65:   Rmc Meas. temp.
 MFSS.               MEAS:   Source Rmf.
 MCSS.               MEAS:   Source Rmc.
 RMB .OHMM           .163:   Rm. at BHT
 BHT .F               115:   BHT.
 TCS .HRS               3:   Time Circ. stopped
 MRT .F               115:   Maximum recorded temp.
 LUN .            HL-6274:   Logging unit number
 LUL .           GILLETTE:   Logging unit location
 ENGI.             RAUTIO:   Recorded By
 WITN.             STRONG:   Witnessed by
 ORIG.           5" PRINT:   Origin of data
 UWI .     49025110640000:   Unique Well ID
 DICO. A2D TECHNOLOGIES, INC.:   Digitizing Company
~OTHER INFORMATION
~A    DEPT    TEND       RHOB       CORR       CALD       NPHI       TENR       RFOC       RILD       RILM          GRR      SPR       TENS         DT   
# ...
 2678.0000   -53.1070     2.4940    -0.0070    10.3630     0.2680   -75.5400     5.8540     5.5890     5.7470   125.3300   -26.3590   -78.9160    86.0960
 2678.5000   -51.2790     2.5030    -0.0100    10.3630     0.2650   -75.1990     6.0180     5.6940     5.7470   121.7090   -26.5600   -75.8450    85.9180
 2679.0000   -49.4510     2.5070    -0.0130    10.3630     0.2580   -74.8580     6.5720     5.8460     6.0070   116.9300   -26.1180   -74.8250    84.9930
 2679.5000   -47.6240     2.5080    -0.0130    10.3630     0.2470   -74.5170     7.0730     6.0640     6.2440   111.2860   -25.8200   -74.8250    83.7920
 2680.0000   -45.7960     2.5060    -0.0110    10.3630     0.2360   -69.6810     7.4690     6.2820     6.4800   107.7110   -25.9540   -74.8250    82.8240
 2680.5000   -55.2370     2.5030    -0.0120    10.3630     0.2360   -64.1870     7.5660     6.5000     6.7170   104.5740   -26.0780   -72.5950    81.9740
 2681.0000   -56.9680     2.5020    -0.0130    10.3630     0.2350   -58.6930     7.8460     6.7180     6.9530   102.5250   -26.1920   -69.8640    81.3910
 2681.5000   -58.7000     2.5030    -0.0110    10.3630     0.2360   -53.1980     8.1590     6.9370     7.0420   100.6400   -26.1960   -67.1340    80.7150
 2682.0000   -60.4310     2.5120    -0.0060    10.3630     0.2440   -47.7040     8.4710     7.0420     7.1180   100.5880   -26.1960   -64.8150    80.0260
 2682.5000   -62.1630     2.5180    -0.0040    10.3640     0.2520   -47.6430     8.2950     7.1500     7.1930   103.4380   -26.1980   -64.8150    79.2890
 2683.0000   -63.8950     2.5190     0.0000    10.3650     0.2520   -55.8840     8.0760     7.2390     7.2390   107.2770   -26.3260   -64.8150    79.5940
 2683.5000   -65.6260     2.5200     0.0080    10.3660     0.2500   -64.4430     7.8570     7.2390     7.2410   108.8160   -26.6790   -64.8150    79.8900
 2684.0000   -67.3580     2.5210     0.0140    10.3680     0.2450   -64.2700     7.5820     7.2390     7.2520   108.7190   -27.0300   -64.8150    80.2490
 2684.5000   -69.0890     2.5220     0.0140    10.3690     0.2370   -64.0890     7.7460     7.2390     7.2620   107.2190   -27.1470   -64.8150    80.4900
 2685.0000   -70.8210     2.5220     0.0100    10.3700     0.2340   -63.9080     7.9660     7.2390     7.2720   106.2630   -26.8470   -64.8150    80.4900
 2685.5000   -72.5520     2.5230     0.0030    10.3710     0.2360   -63.7280     8.1590     7.2390     7.2830   105.9450   -26.4440   -65.1770    80.4900
 2686.0000   -74.2840     2.5230    -0.0110    10.3720     0.2380   -63.5470     8.1180     7.1840     7.2930   108.3110   -26.5920   -65.7480    80.4900
 2686.5000   -64.8150     2.5160    -0.0230    10.3730     0.2470   -63.3660     8.0880     7.1230     7.3030   112.1200   -27.3810   -66.3200    80.4900
 2687.0000   -64.8150     2.5110    -0.0170    10.3740     0.2560   -63.1860     8.0880     7.0620     7.3630   113.2370   -28.0170   -66.8910    80.6640
 2687.5000   -64.8150     2.5100    -0.0050    10.3750     0.2550   -63.0050     7.8000     7.0420     7.4430   111.0190   -28.3850   -67.4630    80.9650
 2688.0000   -74.5930     2.5080    -0.0070    10.3760     0.2350   -62.8240     7.5290     7.1730     7.4430   108.4920   -28.0570   -68.0340    81.2650
 2688.5000   -74.0680     2.5030    -0.0020    10.3770     0.2150   -62.6430     7.3740     7.3740     7.5700   107.1670   -26.6360   -68.6060    81.5920
 2689.0000   -73.5430     2.5070     0.0060    10.3790     0.2150   -62.4630     7.5840     7.3070     7.6620   105.6290   -26.7300   -69.1770    81.1210
 2689.5000   -73.0180     2.5190     0.0090    10.3800     0.2200   -62.2820     8.0900     7.4800     7.7530   102.4460   -27.4650   -69.7490    80.2250
 2690.0000   -72.4930     2.5260     0.0000    10.3810     0.2240   -62.1010     8.5960     7.5720     7.8450    97.9330   -28.1810   -70.3200    79.3290
 2690.5000   -71.9680     2.5200    -0.0080    10.3820     0.2230   -61.9210     8.7090     7.6640     7.9400    97.0750   -28.8040   -70.8920    78.4320
 2691.0000   -71.4430     2.5140    -0.0150    10.3780     0.2210   -61.7400     8.6240     7.7360     7.9400    98.5750   -28.6990   -71.4630    78.0880
 2691.5000   -70.9180     2.5100    -0.0170    10.3710     0.2220   -61.5590     8.5490     7.7710     8.0140   100.2180   -28.7180   -72.0350    78.0880
 2692.0000   -70.3930     2.5100    -0.0120    10.3630     0.2210   -61.3790     8.5490     7.7950     7.9140   100.3690   -29.1850   -72.6060    78.0880
 2692.5000   -69.8680     2.5100    -0.0070    10.3560     0.2210   -61.1980     8.5490     7.6430     7.8070    99.2390   -29.5800   -73.1780    78.1590
 2693.0000   -69.3430     2.5140    -0.0020    10.3480     0.2260   -61.0170     8.4780     7.5290     7.7000    98.2370   -29.6440   -73.7490    78.2820
 2693.5000   -68.8180     2.5170     0.0030    10.3410     0.2240   -60.8370     8.3360     7.4150     7.5930    98.9900   -29.7110   -74.3210    78.4330
 2694.0000   -68.2930     2.5260     0.0120    10.3340     0.2220   -60.6560     8.1940     7.3010     7.4860   101.7520   -29.7780   -74.8920    78.8040
 2694.5000   -67.7680     2.5360     0.0190    10.3260     0.2310   -60.4750     8.0880     7.1870     7.3790   105.8540   -29.8460   -75.4620    79.3870
 2695.0000   -67.2430     2.5410     0.0190    10.3260     0.2420   -60.2950     7.7950     7.0730     7.2730   108.5450   -29.9140   -76.0320    80.3700
 2695.5000   -66.7180     2.5430     0.0180    10.3300     0.2520   -60.1140     7.5170     6.9590     7.1660   109.0600   -29.9780   -76.6020    81.3530
 2696.0000   -66.1930     2.5440     0.0180    10.3340     0.2570   -59.9330     7.3070     6.8450     7.0590   109.5570   -29.9800   -77.1720    82.3360
 2696.5000   -65.6680     2.5410     0.0100    10.3380     0.2550   -59.7530     7.5130     6.7310     6.9520   110.6900   -29.9770   -77.7420    82.8930
 2697.0000   -65.1430     2.5360     0.0010    10.3430     0.2580   -59.5720     7.5820     6.6170     6.8450   112.2130   -29.9810   -78.3130    82.9540
 2697.5000   -64.6180     2.5300    -0.0060    10.3210     0.2620   -59.3910     7.5440     6.5030     6.7380   112.5180   -29.7210   -78.8830    82.7700
 2698.0000   -64.0930     2.5280    -0.0070    10.2850     0.2640   -59.2110     7.4430     6.3610     6.6310   109.8210   -29.4900   -79.4530    82.7210
 2698.5000   -63.5680     2.5270    -0.0070    10.1670     0.2540   -59.0300     7.3420     6.3860     6.5420   106.0190   -29.3840   -80.0230    82.7700
 2699.0000   -63.0430     2.5260    -0.0080    10.0350     0.2470   -58.8490     7.2420     6.4180     6.5590   102.7520   -29.3860   -80.5930    82.8200
 2699.5000   -62.5180     2.5220    -0.0050     9.8730     0.2470   -58.6680     7.1730     6.4510     6.5760   102.1840   -29.3860   -81.1630    82.8690
 2700.0000   -61.9930     2.5240     0.0090     9.8590     0.2470   -58.4880     7.1730     6.4830     6.5920   102.4420   -29.3330   -81.7330    82.7270
 2700.5000   -61.4680     2.5290     0.0120     9.8510     0.2350   -58.3070     7.3130     6.5160     6.6090   102.9440   -29.0340   -82.3030    82.4010
 2701.0000   -60.9430     2.5330     0.0120     9.8440     0.2280   -58.1260     7.4400     6.5400     6.6260   104.1420   -28.9800   -82.8730    81.8120
 2701.5000   -60.4180     2.5380     0.0110     9.8360     0.2350   -57.9460     7.5670     6.5400     6.6420   105.3950   -28.7830   -83.4430    81.2910
 2702.0000   -59.8930     2.5420     0.0130     9.8290     0.2470   -57.7650     7.6940     6.4920     6.6620   107.7130   -28.5570   -84.0130    81.0910
 2702.5000   -59.3680     2.5460     0.0100     9.8210     0.2590   -57.5840     7.7950     6.4160     6.5710   113.3840   -28.3290   -84.5830    81.2930
 2703.0000   -58.8430     2.5470     0.0070     9.8140     0.2660   -57.4040     7.5650     6.3400     6.4600   113.1850   -28.1880   -83.4730    81.4960
 2703.5000   -58.3180     2.5500     0.0080     9.8060     0.2670   -57.2230     7.3750     6.2630     6.3490   110.8740   -28.1910   -81.0360    81.9620
