~VERSION INFORMATION
 VERS.                2.0:   CWLS LOG ASCII STANDARD - VERSION 2.0
 WRAP.                 NO:   ONE LINE PER DEPTH STEP
~WELL INFORMATION
#MNEM.UNIT      DATA TYPE    INFORMATION
#----------   ------------   ------------------------------
 STRT.F          213.5000:   START DEPTH
 STOP.F         3198.0000:   STOP DEPTH
 STEP.F            0.5000:   STEP LENGTH
 NULL.          -999.2500:   NO VALUE
 COMP.    FENIX & SCISSON:   COMPANY
 WELL.   FENIX "AX" #14-2:   WELL
 FLD .              NPR-3:   FIELD
 LOC .       S2 T38N R78W:   LOCATION
 CNTY.            NATRONA:   COUNTY
 STAT.            WYOMING:   STATE
 CTRY. UNITED STATES OF AMERICA:   COUNTRY
 SRVC.              WELEX:   SERVICE COMPANY
 DATE.        14-MAY-1977:   LOGDATE
 API .     49025103620000:   API NUMBER
~CURVE INFORMATION
#MNEM.UNIT       API CODE    CURVE DESCRIPTION
#----------   ------------   ------------------------------
 DEPT.F                  :   
 GRD .GAPI   45 310 01 00:   GAMMA RAY FROM DENSITY LOG
 CALD.IN     45 280 60 00:   CALIPER FROM DENSITY LOG
 CORR.G/C3   45 356 01 00:   DENSITY CORRECTION
 RHOB.G/C3   45 350 01 00:   BULK DENSITY
 SPR .MV     07 010 01 00:   SPONTANEOUS POTENTIAL FROM RES.
 ILD .OHMM   07 120 46 00:   DEEP INDUCTION RESISTIVITY
 ILM .OHMM   07 120 44 00:   INDUCTION LOG MEDIUM RESISTIVITY
 SGRD.OHMM   07 220 05 00:   SHALLOW SHORT GUARD RESISTIVITY
~PARAMETER INFORMATION
#MNEM.UNIT          VALUE    DESCRIPTION
#----------   ------------   ------------------------------
 EKB .F         5119.0000:   Kelly bushing
 EGL .F         5110.0000:   Ground level
 TD  .F         3200.0000:   Total depth
 CLNT.            A2DTECH:   Client Code
 SL  . 2400' FNL & 150' FWL:   Surface Location
 PD  .                 GL:   Permanent Datum
 EPD .F              5110:   Elevation Permanent Datum
 LMF .                 KB:   Log Measured From
 DMF .                 KB:   Drilling Measured From
 DAPD.F                 9:   Feet Above Permanent Datum
 DATE.        14-MAY-1977:   Date Logged [DD-MMM-YYYY]
 DD  .F              3200:   Depth driller
 DL  .F              3199:   Depth logger
 BLI .F              3197:   Bottom log interval
 TLI .F               217:   Top log interval
 CS1 .IN            8.625:   Casing size
 BS1 .IN            7.875:   Bit size
 BSD1.F              3200:   Depth drilled with bit1
 DFT .            KCL MUD:   Type fluid in hole
 DFD .                8.8:   Density
 TCS .HRS             2.5:   Time Circ. stopped
 MRT .F               130:   Maximum recorded temp.
 ENGI.          T. JOYNER:   Recorded By
 WITN.      W. PETTINGILL:   Witnessed by
 ORIG.           5" PRINT:   Origin of data
 UWI .     49025103620000:   Unique Well ID
 DICO. A2D TECHNOLOGIES, INC.:   Digitizing Company
 DFV .                 31:   Viscosity
 DFPH.                7.5:   pH
 DFL .                6.4:   Fluid loss
 MSS .          FLOW LINE:   Source of sample
 RMS .OHMM            .13:   Rm
 MST .F               62.:   Rm Meas. temp.
 RMF .OHMM            .12:   Rmf
 MFST.F                62:   Rmf Meas. temp.
 MFSS.           FANN KIT:   Source Rmf.
 RMC .OHMM            .28:   Rmc
 MCST.F                62:   Rmc Meas. temp.
 RMB .OHMM            .06:   Rm. at BHT
 BHT .F               130:   BHT.
~OTHER INFORMATION
~A   DEPT      GRD       CALD       CORR       RHOB        SPR        ILD        ILM       SGRD   
# ...
 2198.0000   127.8590     8.0401     0.0325     2.4769   -47.2522     6.2164     8.1794    13.0905
 2198.5000   128.1812     8.0429     0.0311     2.4740   -47.2329     6.2670     8.2435    13.0993
 2199.0000   127.6008     8.0457     0.0297     2.4709   -47.2156     6.2753     8.3183    13.1081
 2199.5000   126.7331     8.0485     0.0299     2.4666   -47.1983     6.2837     8.4919    13.4842
 2200.0000   125.8595     8.0513     0.0270     2.4637   -47.0326     6.2918     8.5566    13.7756
 2200.5000   125.9152     8.0541     0.0257     2.4667   -47.0148     6.3102     8.4983    13.8806
 2201.0000   128.6025     8.0569     0.0258     2.4698   -46.9937     6.3286     8.4418    13.6049
 2201.5000   130.4195     8.0597     0.0260     2.4714   -47.1248     6.3471     8.1554    13.2454
 2202.0000   132.5355     8.0625     0.0246     2.4669   -47.1076     6.3655     8.1565    13.1609
 2202.5000   133.4556     8.0615     0.0236     2.4633   -46.9419     6.3839     8.3290    13.1719
 2203.0000   133.1741     8.0558     0.0224     2.4663   -46.9233     6.4023     8.4464    13.1808
 2203.5000   132.0074     8.0502     0.0235     2.4686   -46.9018     6.4136     8.5655    13.4908
 2204.0000   130.5360     8.0445     0.0266     2.4732   -46.8802     6.4185     8.5669    13.7741
 2204.5000   129.3417     8.0389     0.0283     2.4778   -46.8587     6.4243     8.4499    14.1713
 2205.0000   128.0912     8.0333     0.0299     2.4808   -46.8371     6.4544     8.3927    14.3801
 2205.5000   126.6856     8.0276     0.0300     2.4786   -46.8156     6.4787     8.5112    14.3918
 2206.0000   124.6184     8.0220     0.0257     2.4726   -46.7940     6.4835     8.6912    14.4035
 2206.5000   121.0514     8.0198     0.0168     2.4646   -46.7725     6.5450     8.8750    14.5151
 2207.0000   117.4844     8.0208     0.0139     2.4676   -47.0458     6.5970     9.0000    14.7290
 2207.5000   114.8092     8.0219     0.0187     2.4737   -47.1734     6.6345     9.0640    14.7410
 2208.0000   113.9378     8.0230     0.0262     2.4812   -47.1530     6.6395     8.8787    14.8552
 2208.5000   113.9583     8.0241     0.0293     2.4910   -47.4286     6.6442     8.5774    14.4623
 2209.0000   114.5991     8.0251     0.0340     2.5001   -47.5562     6.6034     8.3441    14.1774
 2209.5000   115.1958     8.0262     0.0386     2.5062   -47.6837     6.4726     8.1509    13.8025
 2210.0000   114.9164     8.0273     0.0418     2.5138   -47.6627     6.3445     8.0064    13.3450
 2210.5000   114.6379     8.0284     0.0344     2.5115   -47.6420     6.2862     7.8955    12.6325
 2211.0000   113.7615     8.0294     0.0270     2.5049   -47.6176     6.1775     7.7896    12.1134
 2211.5000   113.1891     8.0305     0.0211     2.5004   -47.5973     6.1422     7.8451    11.3372
 2212.0000   112.0137     8.0316     0.0213     2.4997   -47.5799     6.1479     7.9557    11.7449
 2212.5000   109.6425     8.0327     0.0277     2.5066   -47.7080     6.1089     7.9658    12.5947
 2213.0000   106.6734     8.0338     0.0353     2.5149   -47.6825     6.0634     8.0145    12.7803
 2213.5000   104.0033     8.0348     0.0427     2.5224   -47.6622     5.9923     8.0701    12.7027
 2214.0000   103.1269     8.0359     0.0458     2.5300   -47.6450     5.9815     7.9802    12.7130
 2214.5000   103.1480     8.0370     0.0445     2.5315   -47.6232     5.9482     7.9059    12.5489
 2215.0000   105.5644     8.0381     0.0431     2.5249   -47.6029     5.8834     7.7443    12.6462
 2215.5000   107.9765     8.0391     0.0402     2.5212   -47.5825     5.8472     7.6387    12.7442
 2216.0000   110.9865     8.0402     0.0359     2.5160   -47.5621     5.8516     7.6932    11.9037
 2216.5000   112.8006     8.0413     0.0330     2.5153   -47.5414     5.8558     7.9033    11.4299
 2217.0000   112.8211     8.0429     0.0286     2.5079   -47.5207     5.8607     8.1031    11.1276
 2217.5000   113.4394     8.0440     0.0256     2.4997   -47.4961     5.8647     8.2486    11.3698
 2218.0000   115.2536     8.0446     0.0182     2.4923   -47.4793     5.9111     8.4095    13.1728
 2218.5000   115.3005     8.0453     0.0110     2.4832   -47.4586     5.9827     8.5497    14.0226
 2219.0000   113.1970     8.0459     0.0096     2.4775   -47.4351     6.0434     8.6625    14.1207
 2219.5000   109.8099     8.0466     0.0068     2.4783   -47.4172     6.1307     8.7318    14.3287
 2220.0000   106.9646     8.0472     0.0054     2.4754   -47.1006     6.2225     8.8466    14.5398
 2220.5000   110.5725     8.0479     0.0025     2.4672   -47.0782     6.2810     8.8481    14.7540
 2221.0000   106.4127     8.0485    -0.0033     2.4530   -47.2109     6.3795     8.8192    14.8683
 2221.5000   108.8247     8.0492    -0.0122     2.4366   -47.1855     6.4631     8.7283    14.4751
 2222.0000   110.9378     8.0498    -0.0157     2.4358   -47.1651     6.5520     8.6695    13.9953
 2222.5000   108.8656     8.0505    -0.0047     2.4481   -47.1448     6.6483     8.6105    13.9075
 2223.0000   107.6851     8.0511     0.0062     2.4623   -47.1243     6.7572     8.5522    13.7308
 2223.5000   109.8033     8.0518     0.0184     2.4736   -47.1035     6.7981     8.5774    13.7420
 2224.0000   110.1227     8.0525     0.0230     2.4834   -47.0838     6.8503     8.6743    13.9444
 2224.5000   112.0000     8.0531     0.0246     2.4880   -47.2101     6.8556     8.6755    14.0525
 2225.0000   114.7994     8.0538     0.0248     2.4888   -47.4818     6.7668     8.7370    14.2595
 2225.5000   117.3640     8.0544     0.0249     2.4873   -47.6094     6.6538     8.6778    14.4765
 2226.0000   119.1782     8.0551     0.0250     2.4829   -47.5942     6.5658     8.4926    14.7844
 2226.5000   120.6934     8.0557     0.0254     2.4853   -47.7217     6.4587     8.2617    14.1012
 2227.0000   122.8065     8.0564     0.0298     2.4930   -47.9922     6.4209     8.0444    13.3543
 2227.5000   124.0227     8.0570     0.0330     2.5018   -48.1249     6.2948     7.8256    12.8229
 2228.0000   122.8473     8.0577     0.0361     2.5049   -48.2508     6.2548     7.7081    12.3126
 2228.5000   120.4761     8.0583     0.0317     2.4952   -48.2270     6.1320     7.6134    11.9045
 2229.0000   118.4039     8.0590     0.0229     2.4856   -48.3550     6.1366     7.7747    12.0798
 2229.5000   117.8264     8.0596     0.0140     2.4841   -48.5312     6.0976     7.8544    12.2578
 2230.0000   118.2254     8.0603     0.0216     2.4894   -48.6132     6.1034     7.9953    12.3805
 2230.5000   118.7693     8.0609     0.0219     2.4970   -48.5888     6.0413     8.0521    12.6216
 2231.0000   119.0886     8.0627     0.0204     2.4926   -48.5640     5.9861     7.9976    12.7194
 2231.5000   119.4080     8.0640     0.0174     2.4881   -48.5437     5.9912     7.8341    12.6418
 2232.0000   119.4285     8.0651     0.0117     2.4777   -48.5234     5.9951     7.7273    12.6525
 2232.5000   119.4489     8.0662     0.0058     2.4700   -48.6560     5.9589     7.5694    12.4032
 2233.0000   118.2684     8.0674     0.0029     2.4629   -48.6306     5.9634     7.3873    12.0699
 2233.5000   116.7992     8.0685     0.0046     2.4637   -48.9112     5.9547     7.2850    11.8268
 2234.0000   114.7269     8.0696     0.0092     2.4675   -49.0337     5.9115     7.1640    12.0141
 2234.5000   113.2514     8.0708     0.0153     2.4668   -49.0134     5.8946     7.1651    12.1072
 2235.0000   112.3762     8.0719     0.0200     2.4624   -49.0532     5.8586     7.1661    12.2010
 2235.5000   112.4017     8.0730     0.0246     2.4625   -49.1213     5.8638     7.1177    12.2931
 2236.0000   115.4117     8.0741     0.0277     2.4663   -49.1003     5.8676     7.1681    11.8062
 2236.5000   113.3394     8.0753     0.0309     2.4694   -49.3214     5.8720     7.1692    11.4940
 2237.0000   110.6693     8.0764     0.0340     2.4694   -49.3555     5.8770     7.1700    11.3456
 2237.5000   108.2981     8.0775     0.0342     2.4657   -49.3335     5.8810     7.1710    11.1969
 2238.0000   105.9269     8.0787     0.0343     2.4621   -49.3097     5.8855     7.1226    10.9785
