~VERSION INFORMATION
 VERS.                2.0:   CWLS LOG ASCII STANDARD - VERSION 2.0
 WRAP.                 NO:   ONE LINE PER DEPTH STEP
~WELL INFORMATION
#MNEM.UNIT      DATA TYPE    INFORMATION
#----------   ------------   ------------------------------
 STRT.F           10.0000:   START DEPTH
 STOP.F         3180.0000:   STOP DEPTH
 STEP.F            0.5000:   STEP LENGTH
 NULL.          -999.2500:   NO VALUE
 COMP. LAWRENCE - ALLISON WEST:   COMPANY
 WELL. LAWRENCE ALLISON NPR 3 "AX" #17-2:   WELL
 FLD .                NPR:   FIELD
 LOC .       S2 T38N R78W:   LOCATION
 CNTY.            NATRONA:   COUNTY
 STAT.            WYOMING:   STATE
 CTRY. UNITED STATES OF AMERICA:   COUNTRY
 SRVC.      DRESSER ATLAS:   SERVICE COMPANY
 DATE.        16-FEB-1987:   LOGDATE
 API .     49025111210000:   API NUMBER
~CURVE INFORMATION
#MNEM.UNIT       API CODE    CURVE DESCRIPTION
#----------   ------------   ------------------------------
 DEPT.F                  :   
 DEN .LBS    45 350 01 00:   BULK DENSITY
 CORR.G/C3   45 356 01 00:   DENSITY CORRECTION
 TEND.LBS    45 635 01 00:   TENSION FROM DENSITY LOG
 CNC .DEC    42 890 01 00:   NEUTRON PORISITY LIMESTONE
 CALR.IN     07 280 01 00:   CALIPER FROM RESISTIVITY
 SPR .MV     07 010 01 00:   SPONTANEOUS POTENTIAL
 GRR .GAPI   07 310 01 00:   GAMMA RAY FROM RESISTIVITY
 RFOC.OHMM   07 220 04 00:   RESISTIVITY FOCUSED LOG RES.
 ILD .OHMM   07 120 46 00:   DEEP INDUCTION RESISTIVITY
 ILM .OHMM   07 120 44 00:   INDUCTION LOG MEDIUM RESISTIVITY
 TENR.LBS    07 635 01 00:   TENSION FROM RESISTIVITY
~PARAMETER INFORMATION
#MNEM.UNIT          VALUE    DESCRIPTION
#----------   ------------   ------------------------------
 EKB .F         5141.0000:   Kelly bushing
 EGL .F         5129.0000:   Ground level
 EDF .F            0.0000:   Drilling floor
 EPD .F            0.0000:   Permanent datum
 TD  .F         3161.0000:   Total depth
 DATE.        16-FEB-1987:   Date logged
 CLNT.            A2DTECH:   Client Code
 SL  . 1125' FSL & 220' FWL:   Surface Location
 PD  .                 GL:   Permanent Datum
 DAPD.F                12:   Feet Above Permanent Datum
 DD  .F              3161:   Depth driller
 DL  .F              3158:   Depth logger
 BLI .F              3156:   Bottom log interval
 TLI .F                12:   Top log interval
 CS1 .IN            8.625:   Casing size
 CBD1.      8.625" @ 626':   Casing driller 1
 CBL1.F               626:   Casing logger 1
 BS1 .IN            7.875:   Bit size
 BSD1.F              3161:   Depth drilled with bit1
 DFT .        KCL/POLYMER:   Type fluid in hole
 DFD .                8.8:   Density
 DFV .                 39:   Viscosity
 DFPH.                 10:   pH
 DFL .                8.4:   Fluid loss
 MSS .           FLOWLINE:   Source of sample
 RMS .OHMM           .292:   Rm
 MST .F                82:   Rm Meas. temp.
 RMF .OHMM           .231:   Rmf
 MFST.F                82:   Rmf Meas. temp.
 RMC .OHMM           .365:   Rmc
 MCST.F                82:   Rmc Meas. temp.
 MFSS.               MEAS:   Source Rmf.
 MCSS.               CALC:   Source Rmc.
 RMB .OHMM           .203:   Rm. at BHT
 BHT .F               118:   BHT.
 TCS .HRS               3:   Time Circ. stopped
 MRT .F               118:   Maximum recorded temp.
 LUN .            HL-6274:   Logging unit number
 LUL .           GALLETTE:   Logging unit location
 ENGI.            PANASUK:   Recorded By
 WITN.             STRONG:   Witnessed by
 ORIG.           5" PRINT:   Origin of data
 UWI .     49025111210000:   Unique Well ID
 DICO. A2D TECHNOLOGIES, INC.:   Digitizing Company
~OTHER INFORMATION
~A   DEPT      DEN       CORR       TEND        CNC       CALR        SPR          GRR     RFOC        ILD        ILM       TENR   
# ...
 1779.0000  -999.2500  -999.2500  -999.2500  -999.2500     8.9886   -19.7960   112.6947     7.8943     6.5473     6.9615   -79.2126
 1779.5000  -999.2500  -999.2500  -999.2500  -999.2500     8.9685   -19.7979   115.0764     7.9665     6.5467     6.7090   -79.1046
 1780.0000  -999.2500  -999.2500  -999.2500  -999.2500     8.9683   -19.7999   111.8916     8.1887     6.4861     6.7088   -79.0022
 1780.5000  -999.2500  -999.2500  -999.2500  -999.2500     8.9880   -19.8019   104.3331     8.1127     6.1938     6.2322   -78.9027
 1781.0000  -999.2500  -999.2500  -999.2500  -999.2500     8.9878   -19.6051   101.5451     8.0381     6.0802     6.1749   -78.8018
 1781.5000  -999.2500  -999.2500  -999.2500  -999.2500     8.9677   -19.6071   102.7348     7.3714     5.9688     6.1177   -78.7009
 1782.0000  -999.2500  -999.2500  -999.2500  -999.2500     8.9675   -20.0066   105.5141     6.6243     5.9682     6.1172   -78.6042
 1782.5000  -999.2500  -999.2500  -999.2500  -999.2500     8.9872   -20.0086   109.4862     6.8094     6.0229     6.1166   -78.5047
 1783.0000  -999.2500  -999.2500  -999.2500  -999.2500     8.9671   -19.6130   109.0846     7.1293     6.0780     6.1726   -68.4053
 1783.5000  -999.2500  -999.2500  -999.2500  -999.2500     8.9470   -19.6150   105.5014     7.7440     6.0775     6.2291   -78.3057
 1784.0000  -999.2500  -999.2500  -999.2500  -999.2500     8.9468   -19.6169   103.5094     8.2584     6.0769     6.2286   -78.2062
 1784.5000  -999.2500  -999.2500  -999.2500  -999.2500     8.9864   -19.8177   104.6983     8.0328     6.0762     6.3434   -78.1465
 1785.0000  -999.2500  -999.2500  -999.2500  -999.2500     8.9464   -20.2173   107.4776     7.9585     6.3037     6.4016   -81.7057
 1785.5000  -999.2500  -999.2500  -999.2500  -999.2500     8.9263   -20.2193   108.6664     7.8849     6.4792     6.5796   -85.2649
 1786.0000  -999.2500  -999.2500  -999.2500  -999.2500     8.9263   -20.0225   107.8673     8.0306     6.5389     6.7632   -77.8082
 1786.5000  -999.2500  -999.2500  -999.2500  -999.2500     8.9260   -19.8256   107.0681     8.0299     6.5986     6.7626   -77.7485
 1787.0000  -999.2500  -999.2500  -999.2500  -999.2500     8.9457   -19.6288   106.6665     8.0291     6.5983     6.7621   -81.3340
 1787.5000  -999.2500  -999.2500  -999.2500  -999.2500     8.9255   -19.6308   107.8554     8.1026     6.4177     6.6994   -84.9195
 1788.0000  -999.2500  -999.2500  -999.2500  -999.2500     8.9254   -19.4340   110.2371     8.3286     6.4172     6.5166   -77.4102
 1788.5000  -999.2500  -999.2500  -999.2500  -999.2500     8.9252   -19.6347   111.4259     7.9533     6.2995     6.3972   -87.3106
 1789.0000  -999.2500  -999.2500  -999.2500  -999.2500     8.9251   -19.8355   111.8196     7.8797     6.2412     6.3967   -87.2063
 1789.5000  -999.2500  -999.2500  -999.2500  -999.2500     8.9249   -19.8375   110.6228     7.7354     6.2406     6.3960   -87.1021
 1790.0000  -999.2500  -999.2500  -999.2500  -999.2500     8.9246   -20.0383   109.8236     7.7346     6.2401     6.3956   -77.0122
 1790.5000  -999.2500  -999.2500  -999.2500  -999.2500     8.9443   -20.2391   108.2293     7.5929     6.2395     6.3365   -86.9126
 1791.0000  -999.2500  -999.2500  -999.2500  -999.2500     8.9640   -20.4398   108.6229     7.6624     6.2389     6.3358   -86.8529
 1791.5000  -999.2500  -999.2500  -999.2500  -999.2500     8.9638   -20.4418   105.8357     7.7325     6.2384     6.3354   -86.7110
 1792.0000  -999.2500  -999.2500  -999.2500  -999.2500     8.9636   -20.6426   103.4461     7.8033     6.2378     6.3932   -86.6141
 1792.5000  -999.2500  -999.2500  -999.2500  -999.2500     8.9634   -20.6446   106.2254     7.8747     6.2372     6.5113   -86.5345
 1793.0000  -999.2500  -999.2500  -999.2500  -999.2500     8.9632   -20.2490   107.0167     7.8740     6.2943     6.5709   -86.4214
 1793.5000  -999.2500  -999.2500  -999.2500  -999.2500     8.9630   -19.8533   107.4103     7.8732     6.4701     6.8164   -86.3084
 1794.0000  -999.2500  -999.2500  -999.2500  -999.2500     8.9628   -19.6565   108.9968     8.0187     6.7741     6.9420   -76.2162
 1794.5000  -999.2500  -999.2500  -999.2500  -999.2500     8.9626   -20.0561   111.7760     8.0180     6.7114     7.0058   -86.1166
 1795.0000  -999.2500  -999.2500  -999.2500  -999.2500     8.9624   -19.6605   115.7481     8.6296     6.7729     7.0050   -86.0171
 1795.5000  -999.2500  -999.2500  -999.2500  -999.2500     8.9622   -19.6624   118.1298     8.7086     6.9619     7.0691   -85.9176
 1796.0000  -999.2500  -999.2500  -999.2500  -999.2500     8.9619   -20.0624   118.1259     8.7882     7.0256     7.1996   -75.8182
 1796.5000  -999.2500  -999.2500  -999.2500  -999.2500     8.9618   -20.2632   109.7722     8.7874     6.9606     7.2655   -85.7186
 1797.0000  -999.2500  -999.2500  -999.2500  -999.2500     8.9616   -20.4640   102.6114     8.7866     6.9600     7.2649   -85.6191
 1797.5000  -999.2500  -999.2500  -999.2500  -999.2500     8.9415   -20.4660    98.6298     8.6256     6.8955     7.1978   -85.5196
 1798.0000  -999.2500  -999.2500  -999.2500  -999.2500     8.9413   -20.4679   104.9891     8.3132     6.6457     7.0659   -75.4003
 1798.5000  -999.2500  -999.2500  -999.2500  -999.2500     8.9411   -20.2707   116.9133     7.9387     6.7065     6.9365   -85.3007
 1799.0000  -999.2500  -999.2500  -999.2500  -999.2500     8.9409   -20.2731   124.4622     7.7219     6.6239     6.8094   -85.2012
 1799.5000  -999.2500  -999.2500  -999.2500  -999.2500     8.9407   -20.2751   122.4718     7.6505     6.5626     6.6236   -85.1017
 1800.0000  -999.2500  -999.2500  -999.2500  -999.2500     8.9405   -20.0782   121.6727     7.6498     6.5020     6.4427   -75.0023
 1800.5000  -999.2500  -999.2500  -999.2500  -999.2500     8.9550   -20.0803   113.8804     7.6490     6.3315     6.1635   -74.9003
 1801.0000  -999.2500  -999.2500  -999.2500  -999.2500     8.9605   -19.2808   112.1333     7.6497     6.1522     5.9309   -85.0000
 1801.5000  -999.2500  -999.2500  -999.2500  -999.2500     8.9606   -18.8827   110.9424     7.6497     5.6287     5.4599   -85.0000
 1802.0000  -999.2500  -999.2500  -999.2500  -999.2500     9.0005   -18.6830   109.3539     7.6497     4.9176     4.5011   -75.0000
 1802.5000  -999.2500  -999.2500  -999.2500  -999.2500     9.0205   -18.2881   108.1631     7.6497     4.2963     3.8853   -75.0000
 1803.0000  -999.2500  -999.2500  -999.2500  -999.2500     9.0603   -17.5931   108.9603     7.5102     3.5852     3.4475   -85.0000
 1803.5000  -999.2500  -999.2500  -999.2500  -999.2500     9.0605   -16.8981   109.3603     6.7874     3.5198     2.8684   -85.0000
 1804.0000  -999.2500  -999.2500  -999.2500  -999.2500     9.1202   -16.0941   104.9884     4.6546     3.4240     3.0591   -75.0000
 1804.5000  -999.2500  -999.2500  -999.2500  -999.2500     9.1922   -15.4969   103.0023     2.9929     3.3926     3.2926   -85.0000
 1805.0000  -999.2500  -999.2500  -999.2500  -999.2500     9.2198   -15.6947   103.0043     2.9114     3.3926     3.6431   -85.0000
 1805.5000  -999.2500  -999.2500  -999.2500  -999.2500     9.2000   -16.0913   103.0063     4.1298     3.4556     3.9574   -85.0000
 1806.0000  -999.2500  -999.2500  -999.2500  -999.2500     9.1802   -16.8856   103.4059     6.6636     3.7197     4.1819   -85.0000
 1806.5000  -999.2500  -999.2500  -999.2500  -999.2500     9.1008   -17.6798   104.2031     8.0839     3.9673     4.6697   -65.0000
 1807.0000  -999.2500  -999.2500  -999.2500  -999.2500     9.0611   -19.2984   106.1932     7.9365     4.3100     5.1668   -65.0000
 1807.5000  -999.2500  -999.2500  -999.2500  -999.2500     9.0413   -19.4671   105.7975     7.7918     5.2775     5.5103   -65.0000
 1808.0000  -999.2500  -999.2500  -999.2500  -999.2500     9.0414   -19.4661   106.5947     7.7204     5.8399     5.9309   -65.0000
 1808.5000  -999.2500  -999.2500  -999.2500  -999.2500     9.0415   -19.6640   108.1872     7.7204     6.3443     6.4427   -75.0000
 1809.0000  -999.2500  -999.2500  -999.2500  -999.2500     9.0417   -19.6630   111.3705     7.7204     6.4622     6.7458   -85.0000
