~VERSION INFORMATION
 VERS.                2.0:   CWLS LOG ASCII STANDARD - VERSION 2.0
 WRAP.                 NO:   ONE LINE PER DEPTH STEP
~WELL INFORMATION
#MNEM.UNIT      DATA TYPE    INFORMATION
#----------   ------------   ------------------------------
 STRT.F            0.0000:   START DEPTH
 STOP.F         3358.0000:   STOP DEPTH
 STEP.F            0.5000:   STEP LENGTH
 NULL.          -999.2500:   NO VALUE
 COMP. LAWRENCE ALLISON & ASSOC.:   COMPANY
 WELL. LAWRENCE NPR 3 "X" #14-11:   WELL
 FLD .                NPR:   FIELD
 LOC .      S11 T38N R78W:   LOCATION
 CNTY.            NATRONA:   COUNTY
 STAT.            WYOMING:   STATE
 CTRY. UNITED STATES OF AMERICA:   COUNTRY
 SRVC.      DRESSER ATLAS:   SERVICE COMPANY
 DATE.        25-SEP-1985:   LOGDATE
 API .     49025110470000:   API NUMBER
~CURVE INFORMATION
#MNEM.UNIT       API CODE    CURVE DESCRIPTION
#----------   ------------   ------------------------------
 DEPT.F                  :   
 TENR.LBS    07 635 01 00:   TENSION
 SPR .MV     07 010 01 00:   SPONTANEOUS POTENTIAL
 SFL .OHMM   07 220 01 00:   SHALLOW FOCUSED LOG RESISTIVITY
 ILD .OHMM   07 120 46 00:   DEEP INDUCTION RESISTIVITY
 ILM .OHMM   07 120 44 00:   INDUCTION LOG MEDIUM RESISTIVITY
 TENS.LBS    60 635 01 00:   TENSION FROM SONIC LOG
 DT  .US/F   60 520 00 00:   DELTA TIME
 TEND.LBS    45 635 01 00:   TENSION FROM DENSITY LOG
 RHOB.G/C3   45 350 01 00:   BULK DENSITY
 CORR.G/C3   45 356 01 00:   DENSITY CORRECTION
 NPHI.DEC    42 890 01 00:   NEUTRON POROSITY LIMESTONE
 GRR .GAPI   07 310 01 00:   GAMMA RAY FROM RESISTIVITY
~PARAMETER INFORMATION
#MNEM.UNIT          VALUE    DESCRIPTION
#----------   ------------   ------------------------------
 EKB .F         5184.0000:   Kelly bushing
 EGL .F         5173.0000:   Ground level
 EDF .F            0.0000:   Drilling floor
 TD  .F         3353.0000:   Total depth
 DATE.        25-SEP-1985:   Date logged
 CLNT.            A2DTECH:   Client Code
 SL  . 473' FWL & 2360' FNL:   Surface Location
 PD  .                 GL:   Permanent Datum
 EPD .F              5173:   Elevation Permanent Datum
 LMF .                 KB:   Log Measured From
 DMF .                 KB:   Drilling Measured From
 DAPD.F                11:   Feet Above Permanent Datum
 DD  .F              3353:   Depth driller
 DL  .F              3346:   Depth logger
 BLI .F              3344:   Bottom log interval
 CS1 .IN            8.625:   Casing size
 CBD1.      8.625" @ 586':   Casing driller 1
 CBL1.F               585:   Casing logger 1
 BS1 .IN            7.875:   Bit size
 BSD1.F              3353:   Depth drilled with bit1
 DFT .     GEL/KCL/STAFLO:   Type fluid in hole
 DFD .                8.9:   Density
 DFV .                 39:   Viscosity
 DFPH.                  8:   pH
 DFL .                8.9:   Fluid loss
 MSS .           FLOWLINE:   Source of sample
 RMS .OHMM            .45:   Rm
 MST .F                80:   Rm Meas. temp.
 RMF .OHMM            .33:   Rmf
 MFST.F                80:   Rmf Meas. temp.
 RMC .OHMM            .56:   Rmc
 MCST.F                80:   Rmc Meas. temp.
 MFSS.               CALC:   Source Rmf.
 MCSS.               CALC:   Source Rmc.
 RMB .OHMM            .27:   Rm. at BHT
 BHT .F               130:   BHT.
 TCS .HRS               3:   Time Circ. stopped
 MRT .F               135:   Maximum recorded temp.
 LUN .               6274:   Logging unit number
 LUL .               GLTE:   Logging unit location
 ENGI.               MACK:   Recorded By
 WITN.             STRONG:   Witnessed by
 ORIG.           5" PRINT:   Origin of data
 UWI .     49025110470000:   Unique Well ID
 DICO. A2D TECHNOLOGIES, INC.:   Digitizing Company
~OTHER INFORMATION
~A    DEPT    TENR        SPR        SFL        ILD        ILM       TENS         DT       TEND       RHOB       CORR       NPHI         GRR  
# ...
  784.0000   -88.0150   -52.1050     5.5520     5.4820     5.3820  -999.2500  -999.2500  -999.2500  -999.2500  -999.2500  -999.2500    48.7680
  784.5000   -86.2540   -52.3670     5.5510     5.4700     5.3710  -999.2500  -999.2500  -999.2500  -999.2500  -999.2500  -999.2500    47.8400
  785.0000   -84.4930   -52.6510     5.5510     5.4590     5.3600  -999.2500  -999.2500  -999.2500  -999.2500  -999.2500  -999.2500    48.2580
  785.5000   -82.7320   -52.9130     5.5510     5.4510     5.3520  -999.2500  -999.2500  -999.2500  -999.2500  -999.2500  -999.2500    49.3540
  786.0000   -81.0140   -53.2040     5.5510     5.4630     5.3630  -999.2500  -999.2500  -999.2500  -999.2500  -999.2500  -999.2500    49.4250
  786.5000   -82.7550   -53.4490     5.5510     5.4770     5.3780  -999.2500  -999.2500  -999.2500  -999.2500  -999.2500  -999.2500    49.2260
  787.0000   -84.4550   -53.7540     5.5510     5.4920     5.3930  -999.2500  -999.2500  -999.2500  -999.2500  -999.2500  -999.2500    49.1460
  787.5000   -86.1550   -53.4300     5.5510     5.5070     5.4070  -999.2500  -999.2500  -999.2500  -999.2500  -999.2500  -999.2500    49.8560
  788.0000   -87.8560   -53.6890     5.5510     5.5220     5.4220  -999.2500  -999.2500  -999.2500  -999.2500  -999.2500  -999.2500    50.2230
  788.5000   -89.5560   -53.6640     5.5510     5.5370     5.4360  -999.2500  -999.2500  -999.2500  -999.2500  -999.2500  -999.2500    50.1880
  789.0000   -91.2560   -53.4010     5.5510     5.5520     5.4510  -999.2500  -999.2500  -999.2500  -999.2500  -999.2500  -999.2500    50.1950
  789.5000   -92.9560   -53.1480     5.5510     5.5660     5.4650  -999.2500  -999.2500  -999.2500  -999.2500  -999.2500  -999.2500    50.2060
  790.0000   -94.6560   -52.9140     5.5510     5.5810     5.4800  -999.2500  -999.2500  -999.2500  -999.2500  -999.2500  -999.2500    50.2210
  790.5000   -96.3560   -52.6600     5.5490     5.5960     5.4940  -999.2500  -999.2500  -999.2500  -999.2500  -999.2500  -999.2500    50.7670
  791.0000   -98.0560   -52.5740     5.5520     5.6110     5.5090  -999.2500  -999.2500  -999.2500  -999.2500  -999.2500  -999.2500    51.4690
  791.5000   -99.7570   -52.5860     5.5460     5.6270     5.5240  -999.2500  -999.2500  -999.2500  -999.2500  -999.2500  -999.2500    51.7330
  792.0000  -100.8950   -52.5930     5.6530     5.6420     5.5400  -999.2500  -999.2500  -999.2500  -999.2500  -999.2500  -999.2500    50.9220
  792.5000  -100.8950   -52.8150     5.7350     5.6560     5.5530  -999.2500  -999.2500  -999.2500  -999.2500  -999.2500  -999.2500    50.0330
  793.0000  -100.8950   -53.1270     5.8240     5.7360     5.6320  -999.2500  -999.2500  -999.2500  -999.2500  -999.2500  -999.2500    50.4140
  793.5000  -100.8950   -53.3170     5.9120     5.8070     5.7020  -999.2500  -999.2500  -999.2500  -999.2500  -999.2500  -999.2500    51.8240
  794.0000  -100.8950   -53.7580     5.9730     5.8780     5.7720  -999.2500  -999.2500  -999.2500  -999.2500  -999.2500  -999.2500    51.9850
  794.5000  -100.8950   -54.1300     6.0060     5.9500     5.8420  -999.2500  -999.2500  -999.2500  -999.2500  -999.2500  -999.2500    50.9420
  795.0000  -100.8950   -54.4210     6.0430     5.9730     5.8640  -999.2500  -999.2500  -999.2500  -999.2500  -999.2500  -999.2500    50.2500
  795.5000  -100.8950   -54.5350     6.0790     5.9730     5.8640  -999.2500  -999.2500  -999.2500  -999.2500  -999.2500  -999.2500    50.5880
  796.0000  -100.8950   -54.4300     6.1160     5.9730     5.8640  -999.2500  -999.2500  -999.2500  -999.2500  -999.2500  -999.2500    51.6470
  796.5000  -100.8950   -54.3430     6.1530     5.9730     5.8640  -999.2500  -999.2500  -999.2500  -999.2500  -999.2500  -999.2500    51.1840
  797.0000  -100.8950   -54.2550     6.1960     5.9730     5.8640  -999.2500  -999.2500  -999.2500  -999.2500  -999.2500  -999.2500    50.2950
  797.5000  -100.8950   -54.1780     6.1920     5.9730     5.8640  -999.2500  -999.2500  -999.2500  -999.2500  -999.2500  -999.2500    51.5780
  798.0000  -100.8950   -54.2690     6.1880     5.9730     5.8640  -999.2500  -999.2500  -999.2500  -999.2500  -999.2500  -999.2500    52.0500
  798.5000  -100.8950   -54.3650     6.1830     5.9730     5.8640  -999.2500  -999.2500  -999.2500  -999.2500  -999.2500  -999.2500    51.6080
  799.0000  -100.8950   -54.4670     6.1780     5.9730     5.8640  -999.2500  -999.2500  -999.2500  -999.2500  -999.2500  -999.2500    51.5230
  799.5000  -100.8950   -54.5650     6.1720     5.9730     5.8640  -999.2500  -999.2500  -999.2500  -999.2500  -999.2500  -999.2500    52.5770
  800.0000  -100.8950   -54.6620     6.1670     5.9730     5.8640  -999.2500  -999.2500  -999.2500  -999.2500  -999.2500  -999.2500    53.6160
  800.5000  -100.8950   -54.7640     6.1620     5.9730     5.8640  -999.2500  -999.2500  -999.2500  -999.2500  -999.2500  -999.2500    52.9260
  801.0000  -100.8950   -54.8600     6.1570     5.9730     5.8650  -999.2500  -999.2500  -999.2500  -999.2500  -999.2500  -999.2500    51.8330
  801.5000  -100.8950   -54.9400     6.1510     5.9730     5.8640  -999.2500  -999.2500  -999.2500  -999.2500  -999.2500  -999.2500    50.7290
  802.0000  -100.8950   -54.7680     6.1460     5.9730     5.8640  -999.2500  -999.2500  -999.2500  -999.2500  -999.2500  -999.2500    49.6760
  802.5000  -100.8950   -54.5850     6.1410     5.9730     5.8640  -999.2500  -999.2500  -999.2500  -999.2500  -999.2500  -999.2500    48.7370
  803.0000  -100.8950   -54.3970     6.1360     5.9730     5.8640  -999.2500  -999.2500  -999.2500  -999.2500  -999.2500  -999.2500    49.4340
  803.5000  -100.8950   -54.2090     6.1310     5.9730     5.8640  -999.2500  -999.2500  -999.2500  -999.2500  -999.2500  -999.2500    50.1160
  804.0000  -100.8950   -54.0270     6.1250     5.9730     5.8640  -999.2500  -999.2500  -999.2500  -999.2500  -999.2500  -999.2500    49.9150
  804.5000  -100.8950   -53.8390     6.1200     6.0370     5.9280  -999.2500  -999.2500  -999.2500  -999.2500  -999.2500  -999.2500    49.6070
  805.0000  -100.8950   -53.6840     6.1150     6.1740     6.0620  -999.2500  -999.2500  -999.2500  -999.2500  -999.2500  -999.2500    49.4700
  805.5000  -100.8950   -53.3870     6.1080     6.3120     6.1970  -999.2500  -999.2500  -999.2500  -999.2500  -999.2500  -999.2500    49.7650
  806.0000  -100.8950   -53.4240     6.1040     6.4490     6.3320  -999.2500  -999.2500  -999.2500  -999.2500  -999.2500  -999.2500    50.0200
  806.5000  -100.8950   -53.5030     6.0990     6.5860     6.4660  -999.2500  -999.2500  -999.2500  -999.2500  -999.2500  -999.2500    50.1140
  807.0000  -100.8950   -53.5880     6.0890     6.7230     6.6010  -999.2500  -999.2500  -999.2500  -999.2500  -999.2500  -999.2500    48.5670
  807.5000  -100.8950   -53.6620     6.0940     6.7900     6.6660  -999.2500  -999.2500  -999.2500  -999.2500  -999.2500  -999.2500    46.2990
  808.0000  -100.8950   -53.7440     6.0700     7.0490     6.8950  -999.2500  -999.2500  -999.2500  -999.2500  -999.2500  -999.2500    44.2900
  808.5000  -100.8950   -53.8220     6.5080     7.2800     7.0990  -999.2500  -999.2500  -999.2500  -999.2500  -999.2500  -999.2500    42.1450
  809.0000  -100.8950   -53.9010     6.9660     7.5110     7.3030  -999.2500  -999.2500  -999.2500  -999.2500  -999.2500  -999.2500    41.6730
  809.5000  -100.8950   -53.9810     7.4240     7.7430     7.5080  -999.2500  -999.2500  -999.2500  -999.2500  -999.2500  -999.2500    42.7990
  810.0000  -100.8950   -54.0560     7.7180     7.9740     7.7120  -999.2500  -999.2500  -999.2500  -999.2500  -999.2500  -999.2500    43.6910
  810.5000  -100.8950   -54.1470     7.7180     8.2060     7.9160  -999.2500  -999.2500  -999.2500  -999.2500  -999.2500  -999.2500    44.8580
  811.0000  -100.8950   -54.0650     7.7180     8.4370     8.1200  -999.2500  -999.2500  -999.2500  -999.2500  -999.2500  -999.2500    44.1250
  811.5000  -100.8950   -53.7140     7.7180     8.6680     8.3250  -999.2500  -999.2500  -999.2500  -999.2500  -999.2500  -999.2500    43.3560
