~VERSION INFORMATION
 VERS.                2.0:   CWLS LOG ASCII STANDARD - VERSION 2.0
 WRAP.                 NO:   ONE LINE PER DEPTH STEP
~WELL INFORMATION
#MNEM.UNIT      DATA TYPE    INFORMATION
#----------   ------------   ------------------------------
 STRT.F          388.0000:   START DEPTH
 STOP.F         3166.0000:   STOP DEPTH
 STEP.F            0.5000:   STEP LENGTH
 NULL.          -999.2500:   NO VALUE
 COMP.    PENIX & SCISSON:   COMPANY
 WELL. PENIX NPR 3 "AX" #34-28:   WELL
 FLD .                NPR:   FIELD
 LOC .      S28 T39N R78W:   LOCATION
 CNTY.            NATRONA:   COUNTY
 STAT.            WYOMING:   STATE
 CTRY. UNITED STATES OF AMERICA:   COUNTRY
 SRVC.              WELEX:   SERVICE COMPANY
 DATE.        15-DEC-1978:   LOGDATE
 API .     49025107950000:   API NUMBER
~CURVE INFORMATION
#MNEM.UNIT       API CODE    CURVE DESCRIPTION
#----------   ------------   ------------------------------
 DEPT.F                  :   
 CALD.IN     45 280 60 00:   CALIPER FROM DENSITY LOG
 GRD .GAPI   45 310 01 00:   GAMMA RAY FROM DENSITY LOG
 RHOB.G/C3   45 350 01 00:   BULK DENSITY
 CORR.G/C3   45 356 01 00:   DENSITY CORRECTION
 NPHI.DEC    42 890 03 00:   NEUTRON POROSITY SANDSTONE
 SPR .MV     07 010 01 00:   SPONTANEOUS POTENTIAL
 SGRD.OHMM   07 220 05 00:   SHALLOW GUARD
 ILD .OHMM   07 120 46 00:   DEEP INDUCTION RESISTIVITY
 ILM .OHMM   07 120 44 00:   INDUCTION LOG MEDIUM RESISTIVITY
 TENR.LBS    07 635 01 00:   TENSION FROM RESISTIVITY
~PARAMETER INFORMATION
#MNEM.UNIT          VALUE    DESCRIPTION
#----------   ------------   ------------------------------
 EKB .F         5039.0000:   Kelly bushing
 EGL .F         5029.0000:   Ground level
 EDF .F            0.0000:   Drilling floor
 TD  .F         3159.0000:   Total depth
 DATE.        15-DEC-1978:   Date logged
 CLNT.            A2DTECH:   Client Code
 SL  . 2434' FNL & 1651' FWL:   Surface Location
 PD  .                 GL:   Permanent Datum
 EPD .F              5029:   Elevation Permanent Datum
 LMF .                 KB:   Log Measured From
 DMF .                 KB:   Drilling Measured From
 DAPD.F                10:   Feet Above Permanent Datum
 DD  .F              3155:   Depth driller
 DL  .F              3159:   Depth logger
 BLI .F              3157:   Bottom log interval
 TLI .F               350:   Top log interval
 CS1 .IN            8.625:   Casing size
 CBD1.      8.625" @ 383':   Casing driller 1
 CBL1.F               398:   Casing logger 1
 BS1 .IN            7.875:   Bit size
 BSD1.F              3155:   Depth drilled with bit1
 DFT .           CHEM/GEL:   Type fluid in hole
 DFD .                8.5:   Density
 DFV .                 55:   Viscosity
 DFPH.                 10:   pH
 DFL .               10.8:   Fluid loss
 MSS .           FLOWLINE:   Source of sample
 RMS .OHMM           1.65:   Rm
 MST .F                65:   Rm Meas. temp.
 RMF .OHMM           1.32:   Rmf
 MFST.F                65:   Rmf Meas. temp.
 RMC .OHMM           1.98:   Rmc
 MCST.F                65:   Rmc Meas. temp.
 MFSS.               CALC:   Source Rmf.
 RMB .OHMM              1:   Rm. at BHT
 BHT .F               107:   BHT.
 TCS .HRS               8:   Time Circ. stopped
 MRT .F               107:   Maximum recorded temp.
 LUN .               1892:   Logging unit number
 LUL .             CASPER:   Logging unit location
 ENGI.               REIN:   Recorded By
 WITN.              AMEND:   Witnessed by
 ORIG.           5" PRINT:   Origin of data
 UWI .     49025107950000:   Unique Well ID
 DICO. A2D TECHNOLOGIES, INC.:   Digitizing Company
~OTHER INFORMATION
~A   DEPT     CALD         GRD      RHOB       CORR       NPHI        SPR       SGRD        ILD        ILM       TENR   
# ...
 3135.0000     7.6749   127.6350     2.5247     0.0518     0.2998   -65.7297     6.6854     3.4402     4.1835  1938.2715
 3135.5000     7.6334   121.1556     2.5287     0.0354     0.2998   -65.7256     7.2698     3.5052     4.5501  1938.0513
 3136.0000     7.6322   115.4655     2.4953     0.0272     0.1393   -65.9230     7.9793     3.8481     4.8575  1937.8312
 3136.5000     7.5915   119.4875     2.5044     0.0393     0.1398   -66.1223     7.4084     4.1467     5.0898  1937.6552
 3137.0000     7.5492   124.7170     2.5276     0.0575     0.1394   -66.1183     6.7518     4.3047     5.1868  1957.6179
 3137.5000     7.5478   129.9559     2.5305     0.0553     0.1398   -65.9135     6.3866     4.3863     5.2357  1957.3976
 3138.0000     7.4661   129.7641     2.5143     0.0410     0.1398   -66.1116     6.2699     4.5114     5.2360  1957.1780
 3138.5000     7.5861   132.7374     2.5032     0.0348     0.1394   -65.9068     6.3294     4.5543     5.1401  1977.1840
 3139.0000     7.6857   127.4561     2.5001     0.0367     0.1394   -65.7020     6.6934     4.4708     4.9074  1976.9194
 3139.5000     7.6846   135.5141     2.4930     0.0427     0.1394   -65.6986     6.2147     4.3891     4.7729  1976.6989
 3140.0000     7.6632   132.2533     2.4858     0.0487     0.1398   -66.2996     5.5595     4.1901     4.5989  1996.7924
 3140.5000     7.7024   136.6746     2.4858     0.0507     0.1394   -65.8933     4.7920     4.0372     4.3496  2016.7531
 3141.0000     7.7012  -999.2500     2.4918     0.0587     0.1394   -65.6892     4.4909     3.8186     4.1140  1955.8562
 3141.5000     7.7010  -999.2500     2.5039     0.0688     0.1394   -65.6858     4.2087     3.5450     3.9642  1975.8169
 3142.0000     7.6587  -999.2500     2.5008     0.0646     0.1398   -65.6824     4.2883     3.4159     3.8197  1914.9218
 3142.5000     7.5967  -999.2500     2.4795     0.0421     0.1394   -65.6791     4.1324     3.1711     3.6464  1955.1512
 3143.0000     7.5753  -999.2500     2.4886     0.0441     0.1394   -65.6750     4.2896     3.0273     3.5137  1954.8436
 3143.5000     7.6155  -999.2500     2.4996     0.0521     0.1394   -65.2686     4.2113     2.9997     3.4174  1954.7114
 3144.0000     7.6538  -999.2500     2.5127     0.0642     0.1386   -65.0637     4.2909     3.0001     3.3863  1954.4911
 3144.5000     7.6240  -999.2500     2.5288     0.0661     0.1395   -64.4558     4.7980     3.0005     3.4827  1974.4948
 3145.0000     7.5906  -999.2500     2.5429     0.0762     0.1395   -64.2509     5.5166     3.0010     3.8592  1974.2743
 3145.5000     7.5290  -999.2500     2.5540     0.0984     0.1395   -64.2474     6.2840     3.1154     4.1197  1953.8304
 3146.0000     7.5079  -999.2500     2.5660     0.1166     0.1395   -64.4455     6.7072     3.2041     4.3168  1973.8334
 3146.5000     7.5873  -999.2500     2.5468     0.0962     0.1395   -64.0390     5.8900     3.4207     4.4813  1973.6129
 3147.0000     7.5459  -999.2500     2.5387     0.0798     0.1395   -64.0356     6.1140     3.6861     4.6091  1973.3925
 3147.5000     7.5041  -999.2500     2.5315     0.0675     0.1395   -64.0321     6.5874     3.8621     4.6963  1973.1721
 3148.0000     7.5032  -999.2500     2.5285     0.0613     0.1399   -63.6256     6.0593     3.9351     4.7407  1932.5067
 3148.5000     7.5828  -999.2500     2.5456     0.0775     0.1395   -63.8237     5.8391     4.1236     4.7417  1972.7312
 3149.0000     7.5210  -999.2500     2.5556     0.0936     0.1395   -63.8202     5.7859     4.2018     4.7422  1992.7328
 3149.5000     7.4595  -999.2500     2.5667     0.0854     0.1395   -63.8168     5.8408     4.3216     4.7877  1992.5122
 3150.0000     7.4174  -999.2500     2.5495     0.0813  -999.2500   -63.8133     6.2345     4.3222     4.8785  1992.2717
 3150.5000     7.3763  -999.2500     2.5797     0.0852  -999.2500   -63.6220     7.0008     4.3229     5.0383  1992.0312
 3151.0000     7.4555  -999.2500     2.5898     0.0953  -999.2500   -63.1958     7.7909     4.3225     5.2556  1995.2644
 3151.5000     7.4552  -999.2500     2.5928     0.1033  -999.2500   -63.1892     8.0850     4.3222     5.5058  1996.1414
 3152.0000     7.3927  -999.2500     2.5776     0.0849  -999.2500   -62.9811     8.4686     4.3223     5.6615  1938.6989
 3152.5000     7.2905  -999.2500     2.5543     0.0767  -999.2500   -63.1774     8.0089     4.3222     5.8215  1940.1364
 3153.0000     7.3252  -999.2500     2.5461     0.0745  -999.2500   -63.1708     7.5743     4.3627     5.9307  1941.5623
 3153.5000     7.2879  -999.2500     2.5380     0.0785  -999.2500   -63.3657     7.7155     4.3626     5.9304  1963.5664
 3154.0000     7.1859  -999.2500     2.5410     0.0906  -999.2500   -63.3591     7.7149     4.3626     5.9301  1964.9886
 3154.5000     7.1850  -999.2500     2.5500     0.1027  -999.2500   -62.9497     8.2319     4.3626     6.0411  1987.3406
 3155.0000     7.2238  -999.2500     2.5611     0.1209  -999.2500   -63.3459     8.4635     4.3626     6.0409  2009.3153
 3155.5000     7.2229  -999.2500     2.5701     0.1330  -999.2500   -62.9366     8.2303     4.3626     6.0407  2010.0291
 3156.0000     7.2424  -999.2500     2.5529     0.1247  -999.2500   -62.9300     7.8569     4.3223     6.0457  2011.8013
 3156.5000     7.1214  -999.2500     2.5397     0.1267  -999.2500   -63.3275     9.4569     4.3222     6.0506  2014.2980
 3157.0000     7.0004  -999.2500     2.5356     0.1408  -999.2500   -62.9182    10.1840     4.2426     6.0556  2016.0688
 3157.5000     6.8947  -999.2500     2.5295     0.1509  -999.2500   -63.0065    10.8654     4.2034     6.0606  2017.4948
 3158.0000     6.7723  -999.2500     2.5022     0.1609  -999.2500   -63.2051    12.0299     4.2034     6.0655  2018.9082
 3158.5000     6.6094  -999.2500     2.4981     0.1751  -999.2500   -63.1987    11.3780     4.2034     6.0705  2020.6895
 3159.0000     6.3658  -999.2500     2.4961     0.1871  -999.2500   -63.3933    11.2714     4.2035     6.0755  2022.8145
 3159.5000     6.0616  -999.2500     2.5000     0.1952  -999.2500   -63.5880    11.4805     4.2035     6.0804  2064.9358
 3160.0000     6.0407  -999.2500     2.5050  -999.2500  -999.2500   -63.1804    11.5855     4.2822     6.0854  1986.0385
 3160.5000  -999.2500  -999.2500  -999.2500  -999.2500  -999.2500   -61.4054    11.5836     4.3899     6.0904  1721.4702
 3161.0000  -999.2500  -999.2500  -999.2500  -999.2500  -999.2500   -55.3180    11.5912     4.5277     6.0948  1637.6952
 3161.5000  -999.2500  -999.2500  -999.2500  -999.2500  -999.2500   -48.6937    12.0320     4.6992     6.0955  1635.7102
 3162.0000  -999.2500  -999.2500  -999.2500  -999.2500  -999.2500   -21.5631    11.5965     4.9688     6.2103  1631.7245
 3162.5000  -999.2500  -999.2500  -999.2500  -999.2500  -999.2500  -999.2500    11.4924     5.1572     6.6904  1629.7240
 3163.0000  -999.2500  -999.2500  -999.2500  -999.2500  -999.2500  -999.2500    11.7106     5.2543     7.6929  1626.2314
 3163.5000  -999.2500  -999.2500  -999.2500  -999.2500  -999.2500  -999.2500    11.6054     5.2059     9.7986  1624.7397
 3164.0000  -999.2500  -999.2500  -999.2500  -999.2500  -999.2500  -999.2500    11.5012     5.1101    11.3740  1640.9382
 3164.5000  -999.2500  -999.2500  -999.2500  -999.2500  -999.2500  -999.2500    11.5034     5.1103    11.4826  1637.9434
 3165.0000  -999.2500  -999.2500  -999.2500  -999.2500  -999.2500  -999.2500    11.7221     5.5571    11.4856  1632.9441
 3165.5000  -999.2500  -999.2500  -999.2500  -999.2500  -999.2500  -999.2500    11.8341     6.3313    11.5974  1631.9492
 3166.0000  -999.2500  -999.2500  -999.2500  -999.2500  -999.2500  -999.2500    12.9900     6.3316    11.7068  1518.3757
