~VERSION INFORMATION
 VERS.                2.0:   CWLS LOG ASCII STANDARD - VERSION 2.0
 WRAP.                 NO:   ONE LINE PER DEPTH STEP
~WELL INFORMATION
#MNEM.UNIT      DATA TYPE    INFORMATION
#----------   ------------   ------------------------------
 STRT.F          224.0000:   START DEPTH
 STOP.F         2912.0000:   STOP DEPTH
 STEP.F            0.5000:   STEP LENGTH
 NULL.          -999.2500:   NO VALUE
 COMP.    FENIX & SCISSON:   COMPANY
 WELL. FENIX & SCISSON NPR 34 "A" #3-21:   WELL
 FLD .             NPR #3:   FIELD
 LOC .      S21 T39N R78W:   LOCATION
 CNTY.            NATRONA:   COUNTY
 STAT.            WYOMING:   STATE
 CTRY. UNITED STATES OF AMERICA:   COUNTRY
 SRVC.              WELEX:   SERVICE COMPANY
 DATE.        15-JUL-1977:   LOGDATE
 API .     49025103970000:   API NUMBER
~CURVE INFORMATION
#MNEM.UNIT       API CODE    CURVE DESCRIPTION
#----------   ------------   ------------------------------
 DEPT.F                  :   
 CALD.IN     45 280 60 00:   CALIPER FROM DENSITY LOG
 CORR.G/C3   45 356 01 00:   DENSITY CORRECTION
 RHOB.G/C3   45 350 01 00:   BULK DENSITY
 GRD .GAPI   45 310 01 00:   GAMMA RAY FROM DENSITY LOG
 SPR .MV     07 010 01 00:   SPONTANEOUS POTENTIAL
 ILD .OHMM   07 120 46 00:   DEEP INDUCTION RESISTIVITY
 ILM .OHMM   07 120 44 00:   INDUCTION LOG MEDIUM RESISTIVITY
 SGRD.OHMM   07 220 05 00:   SHALLOW SHORT GUARD RESISTIVITY
~PARAMETER INFORMATION
#MNEM.UNIT          VALUE    DESCRIPTION
#----------   ------------   ------------------------------
 EKB .F         4921.0000:   Kelly bushing
 EGL .F         4911.0000:   Ground level
 TD  .F         2914.0000:   Total depth
 CLNT.            A2DTECH:   Client Code
 SL  . 2310' FNL & 1650' FWL:   Surface Location
 DATE.        15-JUL-1977:   Date Logged [DD-MMM-YYYY]
 DD  .F              2900:   Depth driller
 DL  .F              2914:   Depth logger
 BLI .F              2912:   Bottom log interval
 TLI .F               218:   Top log interval
 CS1 .              8.625:   Casing size
 CBD1.      8.625" @ 230':   Casing driller 1
 CBL1.IN              226:   Casing logger 1
 BS1 .IN            7.875:   Bit size
 BSD1.F              2900:   Depth drilled with bit1
 DFT .                KCL:   Type fluid in hole
 DFD .                8.9:   Density
 DFV .               1.42:   Viscosity
 DFPH.                7.5:   pH
 DFL .               19.6:   Fluid loss
 MSS .            MUD PIT:   Source of sample
 RMS .OHMM           3.75:   Rm
 MST .F                83:   Rm Meas. temp.
 RMF .OHMM           3.40:   Rmf
 MFST.F                83:   Rmf Meas. temp.
 MFSS.           MEASURED:   Source Rmf.
 RMC .OHMM            9.0:   Rmc
 MCST.F                83:   Rmc Meas. temp.
 MCSS.           MEASURED:   Source Rmc.
 RMB .OHMM           2.80:   Rm. at BHT
 BHT .F               111:   BHT.
 TCS .HRS               3:   Time Circ. stopped
 MRT .F               111:   Maximum recorded temp.
 LUN .               8766:   Logging unit number
 LUL .             CASPER:   Logging unit location
 ENGI.          T. JOYNER:   Recorded By
 WITN.     MR. PETTINGILL:   Witnessed by
 ORIG.           5" PRINT:   Origin of data
 UWI .     49025103970000:   Unique Well ID
 DICO. A2D TECHNOLOGIES, INC.:   Digitizing Company
 PD  .                 GL:   Permanent Datum
 EPD .F              4911:   Elevation Permanent Datum
 LMF .                 KB:   Log Measured From
 DMF .                 KB:   Drilling Measured From
 DAPD.F                10:   Feet Above Permanent Datum
~OTHER INFORMATION
~A   DEPT      CALD        CORR       RHOB       GRD       SPR        ILD        ILM       SGRD   
# ...
 2694.5000     8.1711    -0.0040     2.4879   147.3373   -53.1533     4.4917     4.3522     6.6181
 2695.0000     8.1726    -0.0009     2.4916   146.7756   -52.9953     4.5552     4.3830     6.7584
 2695.5000     8.1741     0.0052     2.4924   147.4027   -53.1354     4.6196     4.4446     6.9016
 2696.0000     8.1756     0.0113     2.4910   147.7325   -53.1265     4.7175     4.5071     6.9992
 2696.5000     8.1770     0.0188     2.4910   145.9822   -53.2668     4.8175     4.6021     7.0001
 2697.0000     8.1785     0.0234     2.4941   144.5290   -53.2577     4.9195     4.7317     6.9045
 2697.5000     8.1800     0.0265     2.5046   147.2363   -53.3979     5.0587     4.8650     6.7630
 2698.0000     8.1815     0.0281     2.5106   149.0520   -53.3889     5.1659     5.0020     6.6707
 2698.5000     8.1979     0.0297     2.5047   149.0847   -53.3800     5.2753     5.1786     6.5795
 2699.0000     8.1998     0.0328     2.4995   150.3061   -53.3710     5.3499     5.3244     6.4447
 2699.5000     8.2306     0.0329     2.5145   152.1218   -53.2131     5.3141     5.3992     6.3567
 2700.0000     8.2519     0.0344     2.5179   153.6404   -53.2042     5.0991     5.3259     6.2265
 2700.5000     8.2728     0.0345     2.5201   155.4562   -53.0462     4.8924     5.2173     6.0136
 2701.0000     8.2954     0.0376     2.5199   156.9747   -53.0373     4.7595     5.0061     5.6073
 2701.5000     8.2818     0.0407     2.5185   158.1961   -52.8793     4.5973     4.7050     5.3027
 2702.0000     8.2841     0.0423     2.5200   159.7147   -52.7213     4.3801     4.4834     5.0497
 2702.5000     8.3007     0.0439     2.5201   161.5762   -52.7124     4.1461     4.2429     4.7424
 2703.0000     8.3025     0.0424     2.5179   163.0134   -52.7035     3.9490     4.0153     4.4120
 2703.5000     8.3043     0.0410     2.5141   164.2288   -52.8437     3.6834     3.6963     4.0518
 2704.0000     8.3061     0.0352     2.5059   165.4443   -52.9838     3.4116     3.4027     3.9412
 2704.5000     8.2925     0.0274     2.4916   166.3626   -53.1239     3.2316     3.3104     3.9970
 2705.0000     8.2948     0.0206     2.4776   165.4978   -53.1148     3.1698     3.2880     4.1677
 2705.5000     8.2817     0.0208     2.4673   160.7697   -53.2551     3.1949     3.4041     5.0631
 2706.0000     8.2834     0.0179     2.4629   166.7400   -53.3952     3.2628     3.7503     6.2370
 2706.5000     8.2701     0.0135     2.4633   162.6062   -53.5353     3.3614     4.0200     7.2678
 2707.0000     8.2721     0.0017     2.4884   157.5810   -53.6754     3.5543     4.2813     7.1685
 2707.5000     8.2739    -0.0027     2.5082   153.4473   -53.9867     3.7802     4.5886     7.1196
 2708.0000     8.2757     0.0034     2.5149   148.7192   -54.1280     4.0525     4.7492     7.0224
 2708.5000     8.2775     0.0065     2.5172   144.2883   -54.2448     4.3745     4.8797     6.9267
 2709.0000     8.2793     0.0126     2.5179   142.5319   -54.2355     4.6193     4.8854     6.7848
 2709.5000     8.2810     0.0188     2.5180   141.6672   -54.2266     4.7503     4.9490     6.5541
 2710.0000     8.2828     0.0219     2.5196   144.3685   -54.2158     4.8113     4.9841     6.3751
 2710.5000     8.2846     0.0220     2.5203   146.7727   -54.0578     4.8457     4.9848     6.2015
 2711.0000     8.2864     0.0191     2.5156   145.0163   -54.0489     4.8804     5.0201     6.1168
 2711.5000     8.2882     0.0132     2.5043   141.4770   -53.8910     4.8814     5.0161     6.0751
 2712.0000     8.2750     0.0073     2.4892   140.6122   -53.7330     4.8488     5.0113     6.0761
 2712.5000     8.2769     0.0015     2.4768   147.1768   -53.5751     4.8498     5.0064     6.0770
 2713.0000     8.2786    -0.0044     2.4710   151.9584   -53.4171     4.8508     5.0015     6.0778
 2713.5000     8.2804    -0.0072     2.4684   153.4710   -53.2592     4.8183     4.9966     6.0787
 2714.0000     8.2822    -0.0101     2.4693   151.7147   -53.2503     4.8193     4.9936     5.9956
 2714.5000     8.2840    -0.0100     2.4733   149.9584   -53.2413     4.7868     4.9559     5.8321
 2715.0000     8.2858    -0.0069     2.4798   151.7682   -53.2324     4.7548     4.7952     5.7127
 2715.5000     8.2876    -0.0038     2.4858   155.3611   -53.2235     4.5943     4.6664     5.5184
 2716.0000     8.2893    -0.0006     2.4903   160.4398   -53.2146     4.4083     4.5411     5.2209
 2716.5000     8.2762     0.0025     2.4941   164.9242   -53.0566     4.2299     4.4191     4.9710
 2717.0000     8.2780     0.0056     2.4979   168.5171   -52.8916     4.0308     4.1832     4.6956
 2717.5000     8.2649     0.0087     2.4995   170.6241   -52.7813     3.8410     3.8786     4.4658
 2718.0000     8.2667     0.0148     2.4869   171.8395   -52.6710     3.7111     3.6970     4.2862
 2718.5000     8.2536     0.0209     2.4780   173.3521   -52.5608     3.6356     3.5973     4.3814
 2719.0000     8.2405     0.0255     2.4788   174.8648   -52.5081     3.6364     3.6241     4.8691
 2719.5000     8.2423     0.0271     2.4811   175.7831   -52.3488     3.6371     3.8317     5.6143
 2720.0000     8.2292     0.0273     2.4849   173.4324   -52.3384     3.6379     4.1360     6.4529
 2720.5000     8.2161     0.0274     2.5028   166.9212   -52.1790     3.7408     4.4031     7.0084
 2721.0000     8.2030     0.0275     2.5148   158.3299   -52.0197     3.8732     4.6553     7.2443
 2721.5000     8.1899     0.0276     2.5209   149.1441   -51.8603     4.0663     4.8543     7.3502
 2722.0000     8.1470     0.0277     2.5247   144.4160   -51.5519     4.2987     5.0619     7.4060
 2722.5000     8.1334     0.0264     2.5262   141.1738   -51.2435     4.5606     5.2059     7.4623
 2723.0000     8.1804     0.0250     2.5293   138.8232   -51.0841     4.8856     5.3171     7.5713
 2723.5000     8.1970     0.0221     2.5219   135.8782   -50.6267     5.0580     5.4683     7.6288
 2724.0000     8.1691     0.0162     2.5167   134.4190   -50.4673     5.2382     5.6239     7.5807
 2724.5000     8.1411     0.0089     2.5160   138.0119   -50.3080     5.3503     5.7045     7.4808
 2725.0000     8.1280     0.0045     2.5183   137.7415   -50.2976     5.4648     5.8667     7.4854
 2725.5000     8.1595     0.0181     2.5326   133.9049   -50.4366     5.5817     5.8691     7.7011
 2726.0000     8.1010     0.0287     2.5461   135.4175   -50.7241     5.6228     5.8311     7.9229
 2726.5000     8.1187     0.0348     2.5536   136.3358   -51.3098     5.6642     5.7934     8.0948
 2727.0000     8.1653     0.0394     2.5566   135.7682   -51.7466     5.7058     5.8765     8.0998
 2727.5000     8.1815     0.0410     2.5418   135.7950   -51.7363     5.7478     6.0025     7.7202
 2728.0000     8.1238     0.0352     2.5329   137.6048   -51.7258     5.7901     6.0466     7.3583
 2728.5000     8.1405     0.0323     2.5262   139.4146   -51.7154     5.8327     6.0911     7.2602
 2729.0000     8.1720     0.0294     2.5165   140.9272   -51.7049     5.8756     6.1784     7.2144
 2729.5000     8.1589     0.0265     2.5061   142.7370   -51.6945     5.9189     6.2237     7.4234
 2730.0000     8.1607     0.0251     2.5025   144.8440   -51.6820     5.9624     6.2263     7.5319
 2730.5000     8.1625     0.0238     2.5055   146.9510   -51.8233     6.0480     6.2720     7.5366
 2731.0000     8.1643     0.0239     2.5123   145.4918   -52.1084     6.0925     6.3181     7.4890
 2731.5000     8.1660     0.0240     2.5139   141.6553   -52.2497     6.0950     6.3645     7.2884
 2732.0000     8.1678     0.0241     2.5162   142.8707   -52.2368     6.0975     6.3672     7.0931
 2732.5000     8.1845     0.0243     2.5207   145.2749   -52.3755     6.0162     6.3253     6.8506
 2733.0000     8.1714     0.0244     2.5215   147.6790   -52.3651     5.8950     6.0297     6.4772
 2733.5000     8.1583     0.0275     2.5141   149.7860   -52.3548     5.7757     5.4383     6.0469
 2734.0000     8.1452     0.0306     2.5089   152.7845   -52.3444     5.5780     5.1480     5.6356
 2734.5000     8.1471     0.0322     2.4843   154.0000   -52.1851     5.2770     4.7403     5.2059
