~VERSION INFORMATION
 VERS.                2.0:   CWLS LOG ASCII STANDARD - VERSION 2.0
 WRAP.                 NO:   ONE LINE PER DEPTH STEP
~WELL INFORMATION
#MNEM.UNIT      DATA TYPE    INFORMATION
#----------   ------------   ------------------------------
 STRT.F           15.0000:   START DEPTH
 STOP.F         3245.5000:   STOP DEPTH
 STEP.F            0.5000:   STEP LENGTH
 NULL.          -999.2500:   NO VALUE
 COMP. LAWRENCE ALLISON AND ASSOCIATES:   COMPANY
 WELL. LAWRENCE ALLISON 11 X34 #3-3:   WELL
 FLD .             NPR #3:   FIELD
 LOC .       S3 T38N R78W:   LOCATION
 CNTY.            NATRONA:   COUNTY
 STAT.            WYOMING:   STATE
 CTRY. UNITED STATES OF AMERICA:   COUNTRY
 SRVC.      DRESSER ATLAS:   SERVICE COMPANY
 DATE.        23-MAY-1985:   LOGDATE
 API .     49025110530000:   API NUMBER
~CURVE INFORMATION
#MNEM.UNIT       API CODE    CURVE DESCRIPTION
#----------   ------------   ------------------------------
 DEPT.F                  :   
 SPR .MV     07 010 01 00:   SPONTANEOUS POTENTIAL
 GRR .GAPI   07 310 01 00:   GAMMA RAY FROM RESISTIVITY
 SFL .OHMM   07 220 01 00:   SHALLOW FOCUSED LOG RES.
 ILD .OHMM   07 120 46 00:   INDUCTION LOG DEEP RESISTIVITY
 ILM .OHMM   07 120 44 00:   INDUCTION LOG MEDIUM RESISTIVITY
 TENR.LBS    07 635 01 00:   TENSION
 CALR.IN     07 280 01 00:   CALIPER FROM RESISTIVITY
 RHOB.G/C3   45 350 01 00:   BULK DENSITY
 CORR.G/C3   45 356 01 00:   DENSITY CORRECTION
 CNC .DEC    42 890 03 00:   NEUTRON POROSITY SANDSTONE
~PARAMETER INFORMATION
#MNEM.UNIT          VALUE    DESCRIPTION
#----------   ------------   ------------------------------
 EKB .F         5099.0000:   Kelly bushing
 EGL .F         5087.0000:   Ground level
 EDF .F            0.0000:   Drilling floor
 EPD .F         5087.0000:   Permanent datum
 TD  .F         3240.0000:   Total depth
 DATE.         2-MAY-1985:   Date logged
 CLNT.            A2DTECH:   Client Code
 PD  .                 GL:   Permanent Datum
 DD  .F              3239:   Depth driller
 DL  .F              3242:   Depth logger
 BLI .F              3240:   Bottom log interval
 TLI .F                15:   Top log interval
 CS1 .IN            8.625:   Casing size
 CBD1.      8.625" @ 487':   Casing driller 1
 CBL1.F               487:   Casing logger 1
 BSD1.F              3239:   Depth drilled with bit1
 DFT .            KCL GEL:   Type fluid in hole
 ENGI.      MACK. EDWARDS:   Recorded By
 WITN.         MR. STRONG:   Witnessed by
 ORIG.           5" PRINT:   Origin of data
 UWI .     49025110530000:   Unique Well ID
 DICO. A2D TECHNOLOGIES, INC.:   Digitizing Company
 DAPD.IN               12:   Feet Above Permanent Datum
 BS1 .              7.875:   Bit size
 DFD .                9.1:   Density
 DFV .                 35:   Viscosity
 DFPH.                  8:   pH
 DFL .                9.8:   Fluid loss
 MSS .           FLOWLINE:   Source of sample
 RMS .OHMM            .27:   Rm
 MST .F                68:   Rm Meas. temp.
 RMF .OHMM             .2:   Rmf
 MFST.F                68:   Rmf Meas. temp.
 MFSS.               MEAS:   Source Rmf.
 RMC .OHMM            .34:   Rmc
 MCST.F                68:   Rmc Meas. temp.
 MCSS.               CALC:   Source Rmc.
 RMB .OHMM            .15:   Rm. at BHT
 BHT .F               126:   BHT.
 TCS .HRS               3:   Time Circ. stopped
 MRT .F               126:   Maximum recorded temp.
 LUN .               6274:   Logging unit number
 LUL .               GLTE:   Logging unit location
~OTHER INFORMATION
~A   DEPT      SPR        GRR        SFL        ILD        ILM       TENR       CALR       RHOB       CORR        CNC   
# ...
 3197.5000   -48.5109   107.6789     4.3232     3.2220     3.3427   169.1417     7.0271     2.3592     0.1009     0.3128
 3198.0000   -48.1115   112.4612     4.3232     3.2220     3.2818   169.1417     7.0273     2.4646     0.2451     0.3076
 3198.5000   -48.2324   113.0624     4.2837     3.2220     3.2818   179.1218     6.9898     2.4427     0.2372     0.2889
 3199.0000   -48.3086   112.4657     4.3232     3.2220     3.2818   179.1218     6.9701     2.4327  -999.2500     0.2801
 3199.5000   -48.3076   112.4675     4.3232     3.2818     3.4046   179.1218     6.9702     2.4327  -999.2500     0.2797
 3200.0000   -47.5097   113.0677     4.2057     3.4678     3.4678   179.1218     6.9678     2.4427  -999.2500     0.2749
 3200.5000   -47.7016   113.6635     4.0420     3.5856     3.8153   187.5815     6.9654     2.4442  -999.2500     0.2658
 3201.0000   -47.5080   113.6644     4.2450     4.0174     4.4855   197.4306     6.9629     2.4367  -999.2500     0.2574
 3201.5000   -47.3080   112.4684     4.6538     4.4041     4.9414   199.0683     6.9604     2.4387  -999.2500     0.2442
 3202.0000   -46.9088   110.0778     6.5984     4.8281     5.4437   219.0230     6.9579     2.4427  -999.2500     0.2410
 3202.5000   -46.5102   110.0772     7.6436     5.5930     5.9970   209.0387     6.9553     2.4487  -999.2500     0.2275
 3203.0000   -45.5407   110.6740     8.0771     6.3610     6.6065   209.0341     6.9528  -999.2500  -999.2500     0.2251
 3203.5000   -44.9151   111.2708     8.3799     6.9734     7.2780   209.0294     6.9503  -999.2500  -999.2500     0.2231
 3204.0000   -44.5162   110.3741     8.8552     7.9310     8.0781   209.0248     6.9478  -999.2500  -999.2500     0.2159
 3204.5000   -44.1174   104.4006     9.1872     8.5362     9.0200   218.9993     6.9453  -999.2500  -999.2500     0.2043
 3205.0000   -43.5195   101.7127     9.7082     9.3581     9.3580   218.9945     6.9428  -999.2500  -999.2500     0.2067
 3205.5000   -43.1207   105.8931    10.4492     9.7087     9.5321   228.9688     6.9402  -999.2500  -999.2500     0.2099
 3206.0000   -43.1201   111.2673    10.4497     9.8894     9.5325   228.9639     6.9377  -999.2500  -999.2500     0.2127
 3206.5000   -42.9207  -999.2500    10.0733     9.8898     9.1892   228.9591     6.9352  -999.2500  -999.2500     0.2139
 3207.0000   -42.7793  -999.2500     9.8903     9.7104     8.8580   228.9542     6.9327  -999.2500  -999.2500     0.2151
 3207.5000   -42.7203  -999.2500     9.8910     9.5340     8.3836   238.9279     6.9303  -999.2500  -999.2500     0.2163
 3208.0000   -43.1176  -999.2500    10.0750     9.1907     8.0815   238.9230     6.9895  -999.2500  -999.2500     0.2163
 3208.5000   -43.3160  -999.2500     9.5351     9.0237     7.7904   238.9181     7.0092  -999.2500  -999.2500     0.2167
 3209.0000   -43.7134  -999.2500     9.0242     8.5404     7.3732   238.9131     6.9697  -999.2500  -999.2500     0.2191
 3209.5000   -44.3098  -999.2500     8.2328     7.7914     7.1075   238.9082     6.9697  -999.2500  -999.2500     0.2226
 3210.0000   -44.3091  -999.2500     7.7918     7.3739     6.6044   238.9032     6.9696  -999.2500  -999.2500     0.2266
 3210.5000   -44.9053  -999.2500     7.5111     6.9790     6.2506   248.8762     6.9696  -999.2500  -999.2500     0.2445
 3211.0000   -45.1123  -999.2500     6.9794     6.7275     5.9158   258.8491     6.9498  -999.2500  -999.2500     0.2553
 3211.5000   -45.3018  -999.2500     6.7279     6.2513     5.4971   268.8217     6.9498  -999.2500  -999.2500     0.2082
 3212.0000   -45.5000  -999.2500     6.3676     5.4973     5.1079   268.8165     6.9497  -999.2500  -999.2500     0.1868
 3212.5000   -45.4993  -999.2500     5.8092     4.9239     4.5751   288.7653     6.9497  -999.2500  -999.2500     0.2190
 3213.0000   -45.6974  -999.2500     5.4980     4.5754     4.2512   288.7599     6.9496  -999.2500  -999.2500  -999.2500
 3213.5000   -45.8956  -999.2500     4.6605     4.2515     3.8078   298.7318     6.9496  -999.2500  -999.2500  -999.2500
 3214.0000   -45.8948  -999.2500     4.3305     3.8081     3.5383   298.7263     6.9496  -999.2500  -999.2500  -999.2500
 3214.5000   -45.8941  -999.2500     4.0240     3.4741     3.3488   308.6979     6.9495  -999.2500  -999.2500  -999.2500
 3215.0000   -45.8938  -999.2500     4.0990     3.2880     3.1118   318.6694     6.9495  -999.2500  -999.2500  -999.2500
 3215.5000   -45.8927  -999.2500     4.0992     2.9997     2.9451   328.6406     6.9495  -999.2500  -999.2500  -999.2500
 3216.0000   -45.8919  -999.2500     4.0995     2.5428     2.4976   308.6810     6.9494  -999.2500  -999.2500  -999.2500
 3216.5000   -45.6923  -999.2500     3.9518     2.2776     2.2365   338.6058     6.9494  -999.2500  -999.2500  -999.2500
 3217.0000   -45.2939  -999.2500     3.6053     2.0030     1.9661   348.5765     6.9493  -999.2500  -999.2500  -999.2500
 3217.5000   -44.8957  -999.2500     3.1705     1.9666     1.9304   348.5705     6.9493  -999.2500  -999.2500  -999.2500
 3218.0000   -44.4974  -999.2500     2.7627     1.9668     1.8614   348.5644     6.9493  -999.2500  -999.2500  -999.2500
 3218.5000   -43.5029  -999.2500     2.1169     1.9669     1.9311   358.5348     6.9492  -999.2500  -999.2500  -999.2500
 3219.0000   -43.1049  -999.2500     2.0785     2.0785     2.1170   358.5287     6.9492  -999.2500  -999.2500  -999.2500
 3219.5000   -42.5564  -999.2500     2.4978     2.1564     2.3638   348.5463     6.9492  -999.2500  -999.2500  -999.2500
 3220.0000   -42.3087  -999.2500     3.8110     2.3209     2.6393   358.5164     6.9491  -999.2500  -999.2500  -999.2500
 3220.5000   -42.5069  -999.2500     5.3044     2.6885     2.9471   368.4863     6.9491  -999.2500  -999.2500  -999.2500
 3221.0000   -42.9037  -999.2500     5.2081     3.0575     3.4770   368.4800     6.9490  -999.2500  -999.2500  -999.2500
 3221.5000   -43.1018  -999.2500     4.7515     3.6073     3.9542   378.4496     6.9490  -999.2500  -999.2500  -999.2500
 3222.0000   -43.6972  -999.2500     5.2087     4.1025     4.5804   378.4433     6.9490  -999.2500  -999.2500  -999.2500
 3222.5000   -43.4979  -999.2500     6.2593     4.5806     5.0212   398.3882     6.9489  -999.2500  -999.2500  -999.2500
 3223.0000   -43.6959  -999.2500     6.1457     5.1145     5.3059   408.3572     6.9489  -999.2500  -999.2500  -999.2500
 3223.5000   -43.6953  -999.2500     5.7107     5.7107     5.7107   418.3246     6.9489  -999.2500  -999.2500  -999.2500
 3224.0000   -43.8933  -999.2500     5.9248     5.9247     5.9247   418.3179     6.9488  -999.2500  -999.2500  -999.2500
 3224.5000   -43.8927  -999.2500     6.4950     6.3768     6.3768   428.2863     6.9488  -999.2500  -999.2500  -999.2500
 3225.0000   -43.8921  -999.2500     7.8047     6.6156     6.6156   458.2048     6.9487  -999.2500  -999.2500  -999.2500
 3225.5000   -43.6929  -999.2500     8.2471     6.8636     6.6161   448.2227     6.9487  -999.2500  -999.2500  -999.2500
 3226.0000   -43.6922  -999.2500     8.0976     7.1207     6.6164   448.2199     6.9487  -999.2500  -999.2500  -999.2500
 3226.5000   -43.4933  -999.2500     7.6640     7.2532     6.6168   455.5134     6.9486  -999.2500  -999.2500  -999.2500
 3227.0000   -43.4926  -999.2500     7.2535     7.2535     6.6171   462.8070     6.9486  -999.2500  -999.2500  -999.2500
 3227.5000   -43.4918  -999.2500     6.9924     7.2540     6.4972   470.1006     6.9486  -999.2500  -999.2500  -999.2500
 3228.0000   -43.6897  -999.2500     7.1223     6.9927     6.4975   477.3941     6.9485  -999.2500  -999.2500  -999.2500
 3228.5000   -43.0935  -999.2500     7.6657     6.6183     6.3797   484.6877     6.9485  -999.2500  -999.2500  -999.2500
 3229.0000   -43.0930  -999.2500     7.8081     6.3801     6.2639   491.9813     6.9484  -999.2500  -999.2500  -999.2500
 3229.5000   -42.8939  -999.2500     7.8086     6.1503     6.1503   499.2748     6.9484  -999.2500  -999.2500  -999.2500
 3230.0000   -42.8933  -999.2500     7.3904     5.9288     6.0387   506.5684     6.9484  -999.2500  -999.2500  -999.2500
 3230.5000   -42.8927  -999.2500     6.7425     5.7154     5.7154   513.8620     6.9483  -999.2500  -999.2500  -999.2500
