~VERSION INFORMATION
 VERS.                2.0:   CWLS LOG ASCII STANDARD - VERSION 2.0
 WRAP.                 NO:   ONE LINE PER DEPTH STEP
~WELL INFORMATION
#MNEM.UNIT      DATA TYPE    INFORMATION
#----------   ------------   ------------------------------
 STRT.F          203.5000:   START DEPTH
 STOP.F         3126.0000:   STOP DEPTH
 STEP.F            0.5000:   STEP LENGTH
 NULL.          -999.2500:   NO VALUE
 COMP.    FENIX & SCISSON:   COMPANY
 WELL. FENIX NPR 3 "AX" #88-33:   WELL
 FLD .        TEAPOT DOME:   FIELD
 LOC .      S33 T39N R78W:   LOCATION
 CNTY.            NATRONA:   COUNTY
 STAT.            WYOMING:   STATE
 CTRY. UNITED STATES OF AMERICA:   COUNTRY
 SRVC.       SCHLUMBERGER:   SERVICE COMPANY
 DATE.        23-JAN-1978:   LOGDATE
 API .     49025105610000:   API NUMBER
~CURVE INFORMATION
#MNEM.UNIT       API CODE    CURVE DESCRIPTION
#----------   ------------   ------------------------------
 DEPT.F                  :   
 CALD.IN     45 280 60 00:   CALIPER FROM DENSITY LOG
 GRD .GAPI   45 310 01 00:   GAMMA RAY FROM DENSITY LOG
 RHOB.G/C3   45 350 01 00:   BULK DENSITY
 CORR.G/C3   45 356 01 00:   DENSITY CORRECTION
 SPR .MV     05 010 01 00:   SPONTANEOUS POTENTIAL
 SN  .OHMM   05 040 16 00:   SHORT NORMAL 16"
 ILD .OHMM   05 120 46 00:   DEEP INDUCTION RESISTIVITY
~PARAMETER INFORMATION
#MNEM.UNIT          VALUE    DESCRIPTION
#----------   ------------   ------------------------------
 EKB .F         5174.0000:   Kelly bushing
 EGL .F         5164.0000:   Ground level
 EDF .F            0.0000:   Drilling floor
 TD  .F         3115.0000:   Total depth
 DATE.        23-JAN-1978:   Date logged
 CLNT.            A2DTECH:   Client Code
 PD  .                 GL:   Permanent Datum
 EPD .F              5164:   Elevation Permanent Datum
 LMF .                 KB:   Log Measured From
 DMF .                 KB:   Drilling Measured From
 DD  .F              3115:   Depth driller
 DL  .F              3115:   Depth logger
 BLI .F              3115:   Bottom log interval
 TLI .F               210:   Top log interval
 CS1 .IN            8.625:   Casing size
 CBD1.      9.625" @ 219':   Casing driller 1
 CBL1.F               219:   Casing logger 1
 BS1 .IN            7.875:   Bit size
 BSD1.F              3115:   Depth drilled with bit1
 DFT .                GEL:   Type fluid in hole
 DFD .                8.9:   Density
 DFV .                 36:   Viscosity
 DFPH.                 10:   pH
 DFL .                7.8:   Fluid loss
 MSS .           FLOWLINE:   Source of sample
 RMS .OHMM            2.2:   Rm
 MST .F                62:   Rm Meas. temp.
 RMF .OHMM           1.94:   Rmf
 MFST.F                54:   Rmf Meas. temp.
 RMC .OHMM            3.4:   Rmc
 MCST.F                54:   Rmc Meas. temp.
 MFSS.               MEAS:   Source Rmf.
 MCSS.               MEAS:   Source Rmc.
 RMB .OHMM            1.1:   Rm. at BHT
 BHT .F               114:   BHT.
 TCS .HRS             4.5:   Time Circ. stopped
 MRT .F               114:   Maximum recorded temp.
 LUN .               2958:   Logging unit number
 LUL .             CASPER:   Logging unit location
 ENGI.           REYNOLDS:   Recorded By
 WITN.           MCGINLEY:   Witnessed by
 ORIG.           5" PRINT:   Origin of data
 UWI .     49025105610000:   Unique Well ID
 DICO. A2D TECHNOLOGIES, INC.:   Digitizing Company
 DAPD.F              5164:   Feet Above Permanent Datum
 SL  . 100' FSL & 550' FEL:   Surface Location
~OTHER INFORMATION
~A   DEPT     CALD        GRD       RHOB       CORR        SPR         SN        ILD   
# ...
 2478.5000    10.2076    98.8920     2.5596     0.0373   -38.6889     5.3455     4.9212
 2479.0000    10.2074    98.6915     2.5596     0.0373   -38.8873     5.1998     4.7235
 2479.5000    10.2073    98.7894     2.5586     0.0372   -38.8873     5.1521     4.5531
 2480.0000    10.2468    98.9867     2.5496     0.0412   -38.8873     5.0117     4.4704
 2480.5000    10.2466   100.5757     2.5515     0.0371   -38.6889     4.9657     4.3490
 2481.0000    10.2465   101.3693     2.5515     0.0371   -38.6889     4.9202     4.2309
 2481.5000    10.2462   101.7652     2.5515     0.0330   -38.6889     4.8750     4.0169
 2482.0000    10.2460   101.3654     2.5465     0.0290   -38.8873     4.6557     3.8713
 2482.5000    10.2459   103.1537     2.5385     0.0250   -38.6889     4.5288     3.7656
 2483.0000    10.2456   104.3454     2.5305     0.0249   -38.8873     4.3251     3.7310
 2483.5000    10.2455   103.3497     2.5305     0.0269   -38.6889     4.0927     3.6966
 2484.0000    10.2452   101.5557     2.5314     0.0268   -38.8873     3.9086     3.6966
 2484.5000    10.2451   103.9420     2.5304     0.0308   -38.8873     3.8727     3.7270
 2485.0000    10.2448   107.1236     2.5304     0.0347   -38.8873     3.8372     3.7269
 2485.5000    10.2447   110.1064     2.5254     0.0347   -38.8873     4.0178     3.7614
 2486.0000    10.2445   112.0949     2.5224     0.0446   -39.0857     4.0549     3.8314
 2486.5000    10.2642   112.4913     2.5174     0.0506   -38.8873     4.1301     3.9027
 2487.0000    10.2640   111.0968     2.5264     0.0637   -38.8873     4.1683     4.0869
 2487.5000    10.2837   109.5033     2.5483     0.0637   -39.0857     4.3245     4.2016
 2488.0000    10.2835   106.8135     2.5273     0.0344   -38.8873     4.4048     4.2798
 2488.5000    10.3032   102.8321     2.5313     0.0284   -38.8873     4.4454     4.3194
 2489.0000    10.3031   103.0292     2.5353     0.0264   -38.6889     4.7849     4.3593
 2489.5000    10.3427   102.4306     2.5343     0.0263   -38.4905     4.9188     4.3997
 2490.0000    10.3823   104.0210     2.5313     0.0263   -38.2921     4.9187     4.4816
 2490.5000    10.4020   104.2182     2.5282     0.0302   -38.2921     4.9187     4.5230
 2491.0000    10.3818   105.2117     2.5382     0.0262   -38.2921     4.9186     4.6072
 2491.5000    10.0233   106.7033     2.5332     0.0062   -38.0937     4.7846     4.5694
 2492.0000    10.0232   109.4886     2.5392     0.0061   -38.2921     5.0098     4.6976
 2492.5000    10.0230   108.4915     2.5302     0.0041   -38.6889     5.1028     4.8294
 2493.0000    10.0029   106.6981     2.5182     0.0120   -38.8873     5.2940     4.9192
 2493.5000    10.0027   105.8999     2.5162     0.0160   -38.8873     5.4421     5.0572
 2494.0000    10.0025   104.9026     2.5162     0.0259   -38.8873     5.5943     5.3891
 2494.5000    10.0023   103.7061     2.5171     0.0338   -38.8873     5.8040     5.5402
 2495.0000    10.0021   103.7043     2.5211     0.0338   -38.8873     5.9664     5.6956
 2495.5000    10.0019   103.9015     2.5211     0.0417   -38.6889     6.1333     5.8554
 2496.0000    10.0017   107.2850     2.5251     0.0497   -38.6889     6.4813     6.0754
 2496.5000    10.0015   103.1009     2.5440     0.0696   -38.4905     6.5411     6.0753
 2497.0000    10.0013   107.2816     2.5520     0.0715   -38.4905     6.6625     6.1315
 2497.5000    10.0011   109.8689     2.5530     0.0695   -38.4905     6.6624     6.1314
 2498.0000    10.0009   108.4735     2.5530     0.0635   -38.6889     6.6622     6.1313
 2498.5000    10.0007   107.4756     2.5519     0.0494   -38.4905     6.7237     6.1312
 2499.0000     9.9806   108.8685     2.5499     0.0294   -38.4905     6.7236     6.1311
 2499.5000     9.9804   109.0660     2.5419     0.0114   -38.2921     6.8484     6.1310
 2500.0000     9.9802   108.0684     2.5230     0.0114   -38.2922     6.9116     6.0746
 2500.5000     9.9800   107.1325     2.5177     0.0113   -38.2912     7.1626     6.2440
 2501.0000     9.9199   106.2711     2.5180     0.0174   -38.2902     7.1698     6.3604
 2501.5000     9.9199   109.9522     2.5240     0.0234   -38.2892     7.1694     6.4787
 2502.0000     9.8998   106.8641     2.5409     0.0255   -38.2882     7.7165     7.5083
 2502.5000     9.8597   107.0609     2.5529     0.0255   -38.0888     7.8593     7.7189
 2503.0000     9.9193   106.6603     2.5569     0.0255   -38.2862     8.5373     7.7903
 2503.5000     9.9191   105.8615     2.5579     0.0255   -38.2852     9.7411     8.0822
 2504.0000     9.9189   104.0670     2.5639     0.0256   -38.2842    10.8433     8.0818
 2504.5000     9.9187   103.2683     2.5729     0.0236   -38.4816    14.5543     8.0069
 2505.0000     9.9185   103.8626     2.5749     0.0216   -38.4806    14.5541     7.8600
 2505.5000     9.9183   102.6667     2.5779     0.0156   -38.4796    14.4198     7.3202
 2506.0000     9.9181    99.2797     2.5779     0.0077   -39.2722    12.4448     7.1208
 2506.5000     9.8581    92.7075     2.5799     0.0157   -38.4778    10.4481     6.7379
 2507.0000     9.8380    88.3258     2.6019     0.0157   -38.6752     8.8528     6.3756
 2507.5000     9.8378    79.9628     2.6039     0.0138   -38.8726     7.5705     6.2021
 2508.0000     9.8377    74.1882     2.6029     0.0158   -39.2684     7.0978     6.1456
 2508.5000     9.8375    79.5623     2.5939     0.0218   -38.8706     7.0323     6.2608
 2509.0000     9.8373    87.5235     2.5740     0.0538   -39.0680     7.0969     6.2036
 2509.5000     9.8371   100.6596     2.5620     0.0977   -38.8686     7.0314     6.2041
 2510.0000     9.8369   107.8231     2.5680     0.1117   -39.4628     6.9666     6.2046
 2510.5000     9.9362   116.7777     2.5710     0.1297   -38.8665     7.0955     5.9804
 2511.0000     9.9360   118.5662     2.5800     0.1318   -38.2703     7.0301     5.8716
 2511.5000     9.9358   113.8845     2.5860     0.1278   -38.0709     6.9014     5.8721
 2512.0000     9.9356   115.7746     2.5870     0.1218   -37.8714     6.6516     6.0654
 2512.5000     9.9354   116.9659     2.5840     0.0999   -38.0689     6.1792     6.0650
 2513.0000     9.9352   114.5753     2.5790     0.0879   -38.0681     6.0662     6.0646
 2513.5000     9.9350   112.9798     2.5721     0.0720   -38.0670     6.1219     6.0642
 2514.0000     9.9348   115.5650     2.5681     0.0540   -38.2645     6.2929     6.2341
 2514.5000     9.9346   116.1593     2.5571     0.0441   -38.4619     6.5887     6.3498
 2515.0000     9.9345   117.9472     2.5451     0.0421   -38.4609     7.3307     7.0274
 2515.5000     9.9741   118.7409     2.5401     0.0421   -38.4598     7.7483     7.2242
 2516.0000     9.9739   121.1243     2.5421     0.0442   -38.4588     7.8207     7.3581
 2516.5000     9.9737   120.9236     2.5521     0.0522   -38.4578     7.5381     7.2901
 2517.0000     9.9735   118.7331     2.5651     0.0422   -38.4568     7.4695     7.2227
 2517.5000     9.9733   107.9875     2.5661     0.0262   -38.4558     7.6305     7.0902
 2518.0000     9.9731   102.4156     2.5621     0.0223   -38.2564     7.6302     6.8961
 2518.5000     9.9729   102.2146     2.5551     0.0223   -38.4538     7.6296     6.7506
 2519.0000     9.9727   102.6102     2.5531     0.0243   -38.4528     7.6293     6.6893
 2519.5000     9.9725   103.4037     2.5532     0.0263   -38.4518     7.5589     6.6895
 2520.0000     9.9723   101.8105     2.5602     0.0284   -38.4510     7.4889     6.6290
 2520.5000     9.9721   103.0021     2.5542     0.0264   -38.4500     7.4201     6.6295
 2521.0000     9.9719   103.4961     2.5542     0.0284   -38.4490     7.4198     6.6299
 2521.5000     9.9717   103.8921     2.5622     0.0265   -38.4480     7.4191     6.8932
 2522.0000     9.9715   103.1945     2.5632     0.0285   -38.4470     7.4186     7.0211
 2522.5000    10.0310   102.5958     2.5632     0.0285   -38.4459     7.3502     7.0857
 2523.0000    10.0307   101.0030     2.5642     0.0285   -38.2465     7.3497     7.1509
 2523.5000    10.0107   102.5903     2.5652     0.0286   -38.2455     7.5549     7.1504
