~VERSION INFORMATION
 VERS.                2.0:   CWLS LOG ASCII STANDARD - VERSION 2.0
 WRAP.                 NO:   ONE LINE PER DEPTH STEP
~WELL INFORMATION
#MNEM.UNIT      DATA TYPE    INFORMATION
#----------   ------------   ------------------------------
 STRT.F           35.5000:   START DEPTH
 STOP.F         6235.5000:   STOP DEPTH
 STEP.F            0.5000:   STEP LENGTH
 NULL.          -999.2500:   NO VALUE
 COMP. LAWRENCE-ALLISON ASSOCIATES:   COMPANY
 WELL. LAWRENCE-ALLISON "X" #62-11:   WELL
 FLD .                NPR:   FIELD
 LOC .      S11 T38N R78W:   LOCATION
 CNTY.            NATRONA:   COUNTY
 STAT.            WYOMING:   STATE
 CTRY. UNITED STATES OF AMERICA:   COUNTRY
 SRVC.      DRESSER ATLAS:   SERVICE COMPANY
 DATE.        18-DEC-1982:   LOGDATE
 API .     49025109020000:   API NUMBER
~CURVE INFORMATION
#MNEM.UNIT       API CODE    CURVE DESCRIPTION
#----------   ------------   ------------------------------
 DEPT.F                  :   
 ILM .OHMM   07 120 44 00:   INDUCTION LOG MEDIUM
 ILD .OHMM   07 120 46 00:   DEEP RESISTIVITY
 RFOC.OHMM   07 220 04 00:   RESISTIVITY FOCUSED LOG RES.
 DT  .US/F   60 520 00 00:   DELTA TIME
 TENS.LBS    60 635 01 00:   TENSION FROM SONIC LOG.
 RS  .OHMM   11 220 09 00:   RESISTIVITY SHALLOW
 RD  .OHMM   11 220 10 00:   RESISTIVITY DEEP
 RLL .OHMM   11 220 00 00:   LATEROLOG RESISTIVITY
 SPR .MV     07 010 01 00:   SPONTANEOUS POTENTIAL
 TENR.LBS    07 635 01 00:   TENSION FROM RES. LOG
 CALD.IN     45 280 60 00:   CALIPER FROM DENSITY LOG
 GRD .GAPI   45 310 01 00:   GAMMA RAY FROM DENSITY LOG
 DEN .G/C3   45 350 01 00:   FORMATION FACTOR DENSITY
 DRHO.G/C3   45 356 01 00:   DENSITY CORRECTION
 TEND.LBS    45 635 01 00:   TENSION FROM DENSITY LOG
 CN  .DEC    42 890 00 00:   NEUTRON POROSITY
~PARAMETER INFORMATION
#MNEM.UNIT          VALUE    DESCRIPTION
#----------   ------------   ------------------------------
 EKB .F         5218.0000:   Kelly bushing
 EGL .F         5208.0000:   Ground level
 EDF .F            0.0000:   Drilling floor
 TD  .F         6232.0000:   Total depth
 DATE.        18-DEC-1982:   Date logged
 CLNT.            A2DTECH:   Client Code
 SL  . 971' FNL & 1898' FEL:   Surface Location
 PD  .                 GL:   Permanent Datum
 EPD .F              5208:   Elevation Permanent Datum
 LMF .                 KB:   Log Measured From
 DMF .                 KB:   Drilling Measured From
 DAPD.F                10:   Feet Above Permanent Datum
 DD  .F              6222:   Depth driller
 DL  .F              6232:   Depth logger
 BLI .F              6230:   Bottom log interval
 CS1 .IN            9.625:   Casing size
 CBD1.     9.625" @ 1002':   Casing driller 1
 CBL1.F              1002:   Casing logger 1
 BS1 .IN             8.75:   Bit size
 BSD1.F              6222:   Depth drilled with bit1
 DFT .                KCL:   Type fluid in hole
 DFD .                  9:   Density
 DFV .                 37:   Viscosity
 DFPH.                  8:   pH
 DFL .                8.4:   Fluid loss
 MSS .           FLOWLINE:   Source of sample
 RMS .OHMM            .25:   Rm
 MST .F                60:   Rm Meas. temp.
 RMF .OHMM            .18:   Rmf
 MFST.F                62:   Rmf Meas. temp.
 RMC .OHMM            .32:   Rmc
 MCST.F                60:   Rmc Meas. temp.
 MFSS.               MEAS:   Source Rmf.
 MCSS.               CALC:   Source Rmc.
 RMB .OHMM            .09:   Rm. at BHT
 BHT .F               166:   BHT.
 TCS .HRS               6:   Time Circ. stopped
 MRT .F               166:   Maximum recorded temp.
 LUN .               6274:   Logging unit number
 LUL .               GLTE:   Logging unit location
 ENGI.             RAUTIO:   Recorded By
 WITN.           JENNINGS:   Witnessed by
 ORIG.           5" PRINT:   Origin of data
 UWI .     49025109020000:   Unique Well ID
 DICO. A2D TECHNOLOGIES, INC.:   Digitizing Company
~OTHER INFORMATION
~A  DEPTH      ILM        ILD       RFOC         DT       TENS         RS         RD        RLL        SPR       TENR       CALD        GRD        DEN       DRHO       TEND         CN
# ...
 2916.5000  -999.2500  -999.2500  -999.2500    84.6194   -33.1351     5.6212     6.1843     5.4703   -83.9820   -17.7746    10.5166    94.9054     2.5167     0.1096   -33.8984     0.2478
 2917.0000  -999.2500  -999.2500  -999.2500    84.3213   -33.2182     5.9008     6.0962     5.4670   -83.9910   -29.2099    10.5155    92.7697     2.5166     0.1033   -31.9524     0.2565
 2917.5000  -999.2500  -999.2500  -999.2500    84.0992   -33.2894     6.1943     6.0517     5.5792   -84.0000   -40.6685    10.4992    88.5404     2.5181     0.0954   -29.6875     0.2587
 2918.0000  -999.2500  -999.2500  -999.2500    84.0267   -29.5785     6.4129     5.9655     5.7734   -84.0090   -40.8008    10.4978    86.7135     2.5227     0.0906   -29.5313     0.2481
 2918.5000  -999.2500  -999.2500  -999.2500    83.8052   -25.8795     6.6392     5.9631     6.0574   -84.0181   -40.9720    10.4817    88.7862     2.5297     0.0952   -29.3750     0.2440
 2919.0000  -999.2500  -999.2500  -999.2500    83.7327   -25.9508     6.5933     5.9196     6.1390   -84.0276   -41.1121    10.4805    91.8262     2.5351     0.1029   -29.2188     0.2434
 2919.5000  -999.2500  -999.2500  -999.2500    83.5854   -26.0212     6.3686     5.9581     5.4519   -84.0367   -45.0406    10.4792    96.2393     2.5397     0.1138   -29.0390     0.2471
 2920.0000  -999.2500  -999.2500  -999.2500    83.8164   -26.0968     6.1090     5.9766     3.0404   -84.0465   -47.0633    10.4781    99.5186     2.5381     0.1230   -28.9063     0.2459
 2920.5000  -999.2500  -999.2500  -999.2500    83.9968   -26.1764     6.1515     6.2064     2.6261   -84.0541   -49.0858    10.4620   103.6923     2.5334     0.1261   -27.1036     0.2371
 2921.0000  -999.2500  -999.2500  -999.2500    83.8241   -26.2595     6.4575     6.5585     2.5352   -83.9128   -49.2493    10.4457   107.5711     2.5315     0.1104   -24.6742     0.2318
 2921.5000  -999.2500  -999.2500  -999.2500    83.2997   -26.3307     6.7788     6.9789     3.2764   -83.9218   -45.6322    10.4295   108.1507     2.5301     0.1026   -24.5295     0.2346
 2922.0000  -999.2500  -999.2500  -999.2500    83.4547   -26.4139     7.0668     7.5296     6.8065   -83.9308   -45.7878    10.4131   104.2133     2.5347     0.0994   -28.2812     0.2443
 2922.5000  -999.2500  -999.2500  -999.2500    85.3436   -26.4750     7.2154     7.7387     6.9295   -83.9398   -49.6930    10.3968    99.0788     2.5394     0.0962   -30.6203     0.2505
 2923.0000  -999.2500  -999.2500  -999.2500    86.5537   -26.5507     7.2656     7.8439     6.7825   -83.9493   -47.9622    10.3958    97.5522     2.5440     0.0977   -31.8750     0.2533
 2923.5000  -999.2500  -999.2500  -999.2500    87.0858   -26.6276     7.1655     7.3142     6.5023   -84.1083   -42.4663    10.3944    97.5271     2.5471     0.1132   -31.6904     0.2480
 2924.0000  -999.2500  -999.2500  -999.2500    87.2401   -26.7107     6.7788     6.7262     6.4087   -84.1179   -38.8414    10.3782   100.2004     2.5423     0.1271   -29.5669     0.2452
 2924.5000  -999.2500  -999.2500  -999.2500    87.2443   -26.7776     6.4129     6.3602     6.3610   -84.1276   -27.7097    10.3769   102.5777     2.5344     0.1348   -27.4945     0.2514
 2925.0000  -999.2500  -999.2500  -999.2500    86.7199   -26.8651     6.0668     6.0560     5.9724   -84.1367   -24.0847    10.3759   103.7538     2.5219     0.1207   -27.3438     0.2533
 2925.5000  -999.2500  -999.2500  -999.2500    85.8185   -26.9364     5.7393     5.8061     4.7462   -84.1444   -24.2481    10.3747   102.5232     2.5148     0.1066   -27.1688     0.2439
 2926.0000  -999.2500  -999.2500  -999.2500    84.3143   -26.5084     5.6603     5.7238     4.0999   -84.1535   -24.3882    10.3734    96.7882     2.5100     0.1019   -27.0313     0.2371
 2926.5000  -999.2500  -999.2500  -999.2500    83.2620   -25.7387     5.6603     5.6820     3.9575   -84.1633   -39.6119    10.3572    92.2585     2.5045     0.1080   -22.9609     0.2327
 2927.0000  -999.2500  -999.2500  -999.2500    82.7377   -24.9690     5.9418     5.7990     4.2400   -84.1714   -51.0472    10.3409    90.7277     2.4935     0.1033   -14.9795     0.2483
 2927.5000  -999.2500  -999.2500  -999.2500    82.8926   -24.1993     6.9695     6.0855     5.6335   -84.0290   -43.6806    10.4601    90.7057     2.4825     0.0907    24.2278     0.2492
 2928.0000  -999.2500  -999.2500  -999.2500    83.5749   -23.4296     7.7874     6.7040     6.7451   -84.0381   -43.8206    10.8798    90.6774     2.4770     0.0751    79.0842     0.2467
 2928.5000  -999.2500  -999.2500  -999.2500    85.6152   -22.6599     7.8962     7.3858     7.5340   -83.8961   -43.9841    10.9691    90.9568     2.4738     0.0641    71.3924     0.2452
 2929.0000  -999.2500  -999.2500  -999.2500    87.8058   -21.8902     7.4700     7.8042     7.8499   -83.7549   -44.1241    10.9830    91.8283     2.4729     0.0593    57.1106     0.2620
 2929.5000  -999.2500  -999.2500  -999.2500    89.8461   -21.1205     6.7319     7.5874     6.9720   -83.7660   -44.2643    10.9665    94.7978     2.4744     0.0935    42.3869     0.2683
 2930.0000  -999.2500  -999.2500  -999.2500    89.6234   -20.3508     5.9418     6.9292     4.2551   -83.7744   -36.8976    10.9955    99.2772     2.4775     0.1059    28.9304     0.2617
 2930.5000  -999.2500  -999.2500  -999.2500    87.7416   -20.1083     5.2810     6.1979     1.4694   -83.6318   -25.7425    10.9942   102.5511     2.4774     0.1152    17.3323     0.2564
 2931.0000  -999.2500  -999.2500  -999.2500    84.3520   -20.2033     4.5970     5.3176     0.9885   -83.7933    -7.0807    10.9177   104.6281     2.4797     0.0980     9.6646     0.2454
 2931.5000  -999.2500  -999.2500  -999.2500    82.3948   -20.2746     4.2593     4.4062     0.8077   -83.8031   -18.5159    10.7812   104.9075     2.4867     0.0870     2.0312     0.2320
 2932.0000  -999.2500  -999.2500  -999.2500    79.1561   -20.3577     4.1428     4.2247     0.6072   -83.6602   -37.5047    10.5243   102.7718     2.5046     0.0869    -5.5984     0.2245
 2932.5000  -999.2500  -999.2500  -999.2500    79.0076   -20.4236     4.3188     4.3117     0.5902   -83.8206   -41.4099    10.3878    97.9377     2.5287     0.0915    -9.3841     0.2176
 2933.0000  -999.2500  -999.2500  -999.2500    79.9927   -20.5121     5.2083     5.0919     0.6411   -83.8297   -37.8082    10.3717    95.5102     2.5431     0.0977   -13.1455     0.2214
 2933.5000  -999.2500  -999.2500  -999.2500    81.2035   -20.5749     6.2374     6.2257     1.4070   -83.8388   -30.4182    10.3704    94.8844     2.5544     0.1058   -12.9525     0.2257
 2934.0000  -999.2500  -999.2500  -999.2500    81.8103   -24.4367     7.1655     7.5589     4.2069   -83.8466   -23.0281    10.3845    92.7530     2.5590     0.1146   -12.7836     0.2288
 2934.5000  -999.2500  -999.2500  -999.2500    81.5128   -28.3020     7.5220     7.7688     7.0792   -83.8556   -23.1916    10.3680    89.1242     2.5644     0.1239   -12.6387     0.2295
 2935.0000  -999.2500  -999.2500  -999.2500    80.6868   -32.1482     7.5743     7.3968     7.1745   -83.7143   -27.0968    10.3668    83.9898     2.5667     0.1300   -12.4940     0.2288
 2935.5000  -999.2500  -999.2500  -999.2500    80.3881   -32.2266     7.5743     7.2414     7.0712   -83.7233   -32.9078    10.3655    81.2620     2.5635     0.1331   -12.3438     0.2282
 2936.0000  -999.2500  -999.2500  -999.2500    81.8257   -36.0919     7.5220     7.2890     7.0186   -83.7339   -38.6955    10.3796    80.6320     2.5564     0.1315   -12.1875     0.2288
 2936.5000  -999.2500  -999.2500  -999.2500    82.9604   -32.3810     7.4183     7.3876     6.9658   -83.5910   -38.8589    10.3781    82.1084     2.5470     0.1267   -12.0114     0.2357
 2937.0000  -999.2500  -999.2500  -999.2500    83.4170   -32.4641     7.3671     7.4881     7.0596   -83.4496   -38.9990    10.4071    84.4815     2.5422     0.1157   -11.8545     0.2410
 2937.5000  -999.2500  -999.2500  -999.2500    83.1943   -32.5265     7.3162     7.4847     7.2039   -83.2956   -39.1624    10.4212    87.4593     2.5406     0.1110   -11.7188     0.2432
