~VERSION INFORMATION
 VERS.                2.0:   CWLS LOG ASCII STANDARD - VERSION 2.0
 WRAP.                 NO:   ONE LINE PER DEPTH STEP
~WELL INFORMATION
#MNEM.UNIT      DATA TYPE    INFORMATION
#----------   ------------   ------------------------------
 STRT.F            0.0000:   START DEPTH
 STOP.F         3040.0000:   STOP DEPTH
 STEP.F            0.5000:   STEP LENGTH
 NULL.          -999.2500:   NO VALUE
 COMP.    FENIX & SCISSON:   COMPANY
 WELL.  FENIX "AX" #43-28:   WELL
 FLD .             TEAPOT:   FIELD
 LOC .      S28 T39N R78W:   LOCATION
 CNTY.            NATRONA:   COUNTY
 STAT.            WYOMING:   STATE
 CTRY. UNITED STATES OF AMERICA:   COUNTRY
 SRVC.              WELEX:   SERVICE COMPANY
 DATE.        20-JUL-1980:   LOGDATE
 API .     49025108450000:   API NUMBER
~CURVE INFORMATION
#MNEM.UNIT       API CODE    CURVE DESCRIPTION
#----------   ------------   ------------------------------
 DEPT.F                  :   
 GRD .GAPI   45 310 01 00:   GAMMA RAY FROM DENSITY LOG
 CALD.IN     45 280 60 00:   CALIPER FROM DENSITY LOG
 RHOB.G/C3   45 350 01 00:   BULK DENSITY
 CORR.G/C3   45 356 01 00:   DENSITY CORRECTION
 SPR .MV     07 010 01 00:   SPONTANEOUS POTENTIAL
 ILD .OHMM   07 120 46 00:   DEEP INDUCTION RESISTIVITY
 ILM .OHMM   07 120 44 00:   INDUCTION LOG MEDIUM RESISTIVITY
 SGRD.OHMM   07 220 05 00:   SHALLOW SHORT GUARD RESISTIVITY
 NEUT.CPS    35 330 30 00:   NEUTRON
~PARAMETER INFORMATION
#MNEM.UNIT          VALUE    DESCRIPTION
#----------   ------------   ------------------------------
 EKB .F         5042.0000:   Kelly bushing
 EGL .F         5032.0000:   Ground level
 EDF .F            0.0000:   Drilling floor
 TD  .F         3038.0000:   Total depth
 DATE.        20-JUL-1980:   Date logged
 CLNT.            A2DTECH:   Client Code
 SL  . 1500' FNL & 2500' FWL:   Surface Location
 PD  .                 GL:   Permanent Datum
 EPD .F              5032:   Elevation Permanent Datum
 LMF .                 KB:   Log Measured From
 DMF .                 KB:   Drilling Measured From
 DD  .F              3000:   Depth driller
 DL  .F              3038:   Depth logger
 BLI .F              3036:   Bottom log interval
 TLI .F               432:   Top log interval
 CS1 .IN            8.625:   Casing size
 CBD1.      8.625" @ 443':   Casing driller 1
 CBL1.F               432:   Casing logger 1
 BS1 .IN            7.875:   Bit size
 BSD1.F              3000:   Depth drilled with bit1
 DFT .     WATER BASE MUD:   Type fluid in hole
 DFD .                9.3:   Density
 DFV .                 45:   Viscosity
 DFPH.                  9:   pH
 DFL .                  8:   Fluid loss
 MSS .                PIT:   Source of sample
 RMS .OHMM           0.85:   Rm
 MST .F                75:   Rm Meas. temp.
 RMF .OHMM           0.68:   Rmf
 MFST.F                75:   Rmf Meas. temp.
 RMC .OHMM           1.02:   Rmc
 MCST.F                75:   Rmc Meas. temp.
 MFSS.               MEAS:   Source Rmf.
 MCSS.               MEAS:   Source Rmc.
 RMB .OHMM           0.57:   Rm. at BHT
 BHT .F               112:   BHT.
 TCS .HRS               3:   Time Circ. stopped
 MRT .F               112:   Maximum recorded temp.
 LUN .               9865:   Logging unit number
 LUL .             CASPER:   Logging unit location
 ENGI.            TOTHILL:   Recorded By
 WITN.           DINSMORE:   Witnessed by
 ORIG.     2.5", 5" PRINT:   Origin of data
 UWI .     49025108450000:   Unique Well ID
 DICO. A2D TECHNOLOGIES, INC.:   Digitizing Company
~OTHER INFORMATION
~A    DEPT     GRD       CALD       RHOB       CORR        SPR        ILD        ILM       SGRD        NEUT  
# ...
 2153.5000    91.9670     9.2190     2.4880     0.0490   -21.6540     4.6210     5.0120     6.9350   295.3060
 2154.0000    91.6800     9.2190     2.4840     0.0370   -21.4260     4.7100     4.9780     6.9350   303.4020
 2154.5000    91.3940     9.2190     2.4880     0.0380   -21.1590     4.7420     5.0550     7.7450   317.1640
 2155.0000    91.1100     9.2190     2.4920     0.0410   -21.0370     4.7710     5.1250     7.4400   290.0000
 2155.5000    90.8260     9.2190     2.4920     0.0440   -20.9300     4.8000     5.1950     7.1950   258.1790
 2156.0000    90.5410     9.2190     2.4960     0.0490   -20.7560     4.8300     5.2610     7.1950   226.6170
 2156.5000    90.2490     9.2190     2.5010     0.0580   -21.0900     4.8590     5.2220     8.0360   256.9650
 2157.0000    90.4180     9.2190     2.5050     0.0640   -21.6250     4.8870     5.1630     7.4650   258.9550
 2157.5000    90.6710     9.2180     2.5090     0.0690   -22.2920     4.8300     5.1050     6.2440   266.1190
 2158.0000    90.9270     9.2180     2.5100     0.0730   -22.5810     4.7980     5.0700     5.0700   302.5160
 2158.5000    91.1800     9.2140     2.5030     0.0700   -22.9380     4.8430     5.5620     6.5470   290.9980
 2159.0000    91.3500     9.2110     2.4900     0.0660   -23.2440     4.9180     5.6630     8.0360   264.5100
 2159.5000    91.0960     9.2070     2.4780     0.0570   -23.4870     4.9920     5.5590     8.8110   277.0310
 2160.0000    90.8510     9.2030     2.4610     0.0360   -23.1950     5.0700     5.2760     8.0300   292.4790
 2160.5000    90.6070     9.2000     2.4440     0.0130   -22.9430     5.0700     5.0700     7.2770   268.2210
 2161.0000    90.3630     9.2020     2.4350     0.0100   -22.6730     4.9290     4.9460     7.6040   253.6420
 2161.5000    90.1780     9.2060     2.4310     0.0120   -22.4060     4.7390     4.7790     7.2750   242.4080
 2162.0000    90.0120     9.2110     2.4270     0.0150   -22.3250     4.5490     4.6130     6.6540   244.9400
 2162.5000    89.8440     9.2160     2.4230     0.0170   -22.3480     4.3600     4.4460     6.0960   268.5290
 2163.0000    89.6760     9.2200     2.4190     0.0200   -22.0590     4.1700     4.2790     5.9460   287.7980
 2163.5000    89.5090     9.2250     2.4150     0.0230   -21.0530     3.9800     4.0290     5.4270   265.6090
 2164.0000    89.3410     9.2300     2.4110     0.0280   -20.7340     3.7760     4.0740     3.9910   249.9230
 2164.5000    89.1730     9.2350     2.4070     0.0320   -20.7540     3.7760     4.3870     5.4590   275.1510
 2165.0000    88.9890     9.2390     2.4030     0.0330   -20.7550     3.7760     4.6240     7.7590   296.9330
 2165.5000    88.6890     9.2440     2.4040     0.0330   -20.7460     3.7760     4.5710     7.2250   269.6950
 2166.0000    88.3870     9.2490     2.4130     0.0260   -20.7560     3.7760     4.4480     6.9350   276.8040
 2166.5000    88.0860     9.2540     2.4340     0.0160   -20.7730     3.5920     4.1620     8.3370   285.6420
 2167.0000    87.7850     9.2580     2.4540     0.0200   -21.1100     3.3670     3.6400     6.5620   274.4730
 2167.5000    87.4840     9.2580     2.4620     0.0320   -21.4570     3.2100     3.3190     5.2210   261.7650
 2168.0000    87.1830     9.2580     2.4630     0.0450   -21.8270     3.0720     3.1320     3.3810   254.5320
 2168.5000    86.8820     9.2580     2.4620     0.0600   -22.1490     2.9340     3.0170     3.5620   303.3100
 2169.0000    86.5810     9.2580     2.4620     0.0720   -22.5830     2.7970     2.9180     3.9910   292.0170
 2169.5000    86.2700     9.2580     2.4560     0.0750   -22.4150     2.7310     2.9790     3.4140   278.0810
 2170.0000    85.9620     9.2580     2.4470     0.0740   -21.9540     2.6900     3.1410     2.9720   264.6940
 2170.5000    85.6560     9.2580     2.4470     0.0650   -21.5080     2.6490     2.9470     6.2090   252.9530
 2171.0000    85.5140     9.2580     2.4600     0.0640   -21.0600     2.6120     2.8120     4.6490   258.4190
 2171.5000    85.6500     9.2580     2.4480     0.0590   -20.7810     2.6120     2.9040     3.3190   247.5230
 2172.0000    85.7830     9.2570     2.4430     0.0360   -20.9210     2.6120     2.9880     4.3770   255.9410
 2172.5000    85.9170     9.2530     2.4550     0.0480   -21.0220     2.6120     3.0830     5.2610   285.1640
 2173.0000    86.0440     9.2490     2.4650     0.0520   -21.1140     2.6120     3.0830     3.7070   292.4690
 2173.5000    86.5740     9.2450     2.4600     0.0550   -20.6160     2.6120     3.0830     3.1990   278.4710
 2174.0000    87.3720     9.2410     2.4700     0.0580   -20.1700     2.6120     3.0830     3.1990   287.7450
 2174.5000    88.1730     9.2380     2.4780     0.0610   -19.6110     2.6980     3.0830     3.9070   296.5130
 2175.0000    88.9690     9.2400     2.4750     0.0530   -19.7290     2.7820     3.0830     6.0960   308.9710
 2175.5000    89.7210     9.2410     2.4710     0.0450   -19.9150     2.8660     3.0830     5.5620   301.5310
 2176.0000    90.1560     9.2420     2.4690     0.0350   -20.2710     2.9180     3.1410     4.6660   282.8340
 2176.5000    90.6060     9.2440     2.4690     0.0160   -20.6550     3.1250     3.5500     3.9180   303.6680
 2177.0000    91.0590     9.2450     2.4770     0.0130   -21.0490     3.3380     3.9910     5.6020   287.1240
 2177.5000    91.5140     9.2460     2.4840     0.0160   -21.4410     3.5510     4.0930     7.0640   267.9800
 2178.0000    91.9620     9.2470     2.4920     0.0190   -21.8230     3.7630     4.2010     6.8870   295.1560
 2178.5000    91.9760     9.2490     2.5000     0.0180   -22.2190     3.9760     4.2960     6.3540   328.1620
 2179.0000    91.9770     9.2500     2.5070     0.0170   -22.2430     4.1890     4.5250     5.9850   314.2260
 2179.5000    91.5590     9.2510     2.5140     0.0210   -22.0900     4.3480     4.7300     5.9850   296.1960
 2180.0000    91.2660     9.2530     2.5210     0.0250   -21.9550     4.4530     4.9350     6.7790   310.6710
 2180.5000    90.9660     9.2540     2.5270     0.0290   -21.8110     4.5590     5.1400     7.5050   320.5510
 2181.0000    90.6610     9.2550     2.5280     0.0270   -21.6750     4.6640     5.3450     8.3370   306.7300
 2181.5000    90.3560     9.2560     2.5220     0.0230   -21.5720     4.7690     5.4580     8.5990   295.6130
 2182.0000    90.3010     9.2580     2.5150     0.0200   -21.8860     4.8750     5.4580     8.5080   246.6470
 2182.5000    90.4760     9.2580     2.5120     0.0180   -22.1920     4.9780     5.4580     7.9010   269.0870
 2183.0000    90.6500     9.2580     2.5130     0.0210   -22.5720     5.0450     5.4580     7.2930   286.9840
 2183.5000    90.8260     9.2580     2.5130     0.0170   -22.5550     5.1110     5.4580     6.6840   303.5420
 2184.0000    91.0000     9.2580     2.5120     0.0120   -22.0340     5.1770     5.4580     6.6840   299.6960
 2184.5000    91.0360     9.2580     2.5130     0.0130   -21.5650     5.2430     5.5590     6.8620   289.2970
 2185.0000    90.8240     9.2580     2.5150     0.0150   -21.0310     5.3090     6.0090     7.0890   278.8120
 2185.5000    90.7950     9.2580     2.5170     0.0170   -20.7740     5.3740     6.4720     7.3290   265.4380
 2186.0000    90.3960     9.2870     2.5130     0.0150   -20.9650     5.4400     7.1960     8.2300   307.3150
 2186.5000    89.9390     9.3260     2.5100     0.0120   -21.1060     5.6580     8.1390     9.1810   303.7350
 2187.0000    89.4790     9.3690     2.5130     0.0110   -21.2490     5.9300     8.9750    10.0240   291.4610
 2187.5000    89.0210     9.3750     2.5170     0.0190   -21.4100     6.2030     8.2990    10.3560   294.8380
 2188.0000    88.5640     9.3130     2.5210     0.0270   -21.5780     6.4760     7.7450    10.6550   303.9900
 2188.5000    88.1100     9.1800     2.5230     0.0310   -22.1410     6.9620     7.7450    10.9910   313.7840
 2189.0000    87.9100     9.1280     2.5190     0.0300   -22.6600     7.5460     7.7450    11.1950   305.6440
 2189.5000    88.0570     9.1070     2.5150     0.0290   -23.2500     7.8640     8.5080    10.5590   296.4240
