~VERSION INFORMATION
 VERS.                2.0:   CWLS LOG ASCII STANDARD - VERSION 2.0
 WRAP.                 NO:   ONE LINE PER DEPTH STEP
~WELL INFORMATION
#MNEM.UNIT      DATA TYPE    INFORMATION
#----------   ------------   ------------------------------
 STRT.F           80.0000:   START DEPTH
 STOP.F         2730.0000:   STOP DEPTH
 STEP.F            0.5000:   STEP LENGTH
 NULL.          -999.2500:   NO VALUE
 COMP.          U.S. NAVY:   COMPANY
 WELL. US NPR 3 "AX" #57-20:   WELL
 FLD .             TEAPOT:   FIELD
 LOC .      S20 T39N R78W:   LOCATION
 CNTY.            NATRONA:   COUNTY
 STAT.            WYOMING:   STATE
 CTRY. UNITED STATES OF AMERICA:   COUNTRY
 SRVC.       SCHLUMBERGER:   SERVICE COMPANY
 DATE.        31-JUL-1964:   LOGDATE
 API .     49025066320000:   API NUMBER
~CURVE INFORMATION
#MNEM.UNIT       API CODE    CURVE DESCRIPTION
#----------   ------------   ------------------------------
 DEPT.F                  :   
 SPR .MV     01 010 01 00:   SPONTANEOUS POTENTIAL FROM RES.
 LN  .OHMM   01 060 39 00:   LONG NORMAL 39"
 ASN .OHMM   01 041 16 00:   AMPLIFIED SHORT NORMAL 16"
 LAT .OHMM   01 070 00 00:   LATERAL
 GRN .GAPI   35 310 30 00:   GAMMA RAY
 NEUT.NAPI   35 330 01 00:   NEUTRON
~PARAMETER INFORMATION
#MNEM.UNIT          VALUE    DESCRIPTION
#----------   ------------   ------------------------------
 EKB .F         5019.0000:   Kelly bushing
 EGL .F         5011.0000:   Ground level
 TD  .F         2696.0000:   Total depth
 DATE.        31-JUL-1964:   Date logged
 CLNT.            A2DTECH:   Client Code
 PD  .                 GL:   Permanent Datum
 EPD .F              5011:   Elevation Permanent Datum
 LMF .                 KB:   Log Measured From
 DMF .                 KB:   Drilling Measured From
 DAPD.F                 8:   Feet Above Permanent Datum
 DD  .F              2690:   Depth driller
 DL  .F              2696:   Depth logger
 BLI .F              2695:   Bottom log interval
 TLI .F                82:   Top log interval
 CS1 .IN            12.25:   Casing size
 CBD1.       12.25" @ 15':   Casing driller 1
 BS1 .IN               11:   Bit size
 BSD1.F              2690:   Depth drilled with bit1
 DFT .                GEL:   Type fluid in hole
 MSS .           FLOWLINE:   Source of sample
 RMS .OHMM           2.48:   Rm
 MST .F                83:   Rm Meas. temp.
 RMF .OHMM           1.87:   Rmf
 MFST.F                83:   Rmf Meas. temp.
 MFSS.                 FP:   Source Rmf.
 MCSS.                 FP:   Source Rmc.
 TCS .HRS               4:   Time Circ. stopped
 LUN .               3527:   Logging unit number
 LUL .               CSPR:   Logging unit location
 ENGI.            WINKLER:   Recorded By
 WITN.          GORGENSEN:   Witnessed by
 ORIG.         2.5" PRINT:   Origin of data
 UWI .     49025066320000:   Unique Well ID
 DICO.   A2D TECHNOLOGIES:   Digitizing Company
~OTHER INFORMATION
~A   DEPT      SPR         LN        ASN        LAT        GRN       NEUT   
# ...
  808.0000   -43.8580    10.6930     9.8070    12.1780  -999.2500  -999.2500
  808.5000   -43.8410    10.6930     9.8370    12.1780  -999.2500  -999.2500
  809.0000   -43.8230    10.6930     9.8700    12.1780  -999.2500  -999.2500
  809.5000   -43.8050    10.6930     9.8720    12.1780  -999.2500  -999.2500
  810.0000   -43.7870    10.6930     9.8480    12.1780  -999.2500  -999.2500
  810.5000   -43.7700    10.6930     9.8300    12.1780  -999.2500  -999.2500
  811.0000   -43.7520    10.6930     9.8080    12.1780  -999.2500  -999.2500
  811.5000   -43.7340    10.6930     9.8100    12.1770  -999.2500  -999.2500
  812.0000   -43.7160    10.6930     9.8280    12.1800  -999.2500  -999.2500
  812.5000   -43.6980    10.6930     9.8440    12.1540  -999.2500  -999.2500
  813.0000   -43.6810    10.6930     9.8580    12.1080  -999.2500  -999.2500
  813.5000   -43.6630    10.6930     9.8770    12.0670  -999.2500  -999.2500
  814.0000   -43.6450    10.6930     9.8640    12.0240  -999.2500  -999.2500
  814.5000   -43.6270    10.6920     9.8300    11.9810  -999.2500  -999.2500
  815.0000   -43.6100    10.6940     9.8000    11.9380  -999.2500  -999.2500
  815.5000   -43.5920    10.6780     9.7680    11.8960  -999.2500  -999.2500
  816.0000   -43.5740    10.6500     9.7370    11.8530  -999.2500  -999.2500
  816.5000   -43.5560    10.6240     9.7070    11.8110  -999.2500  -999.2500
  817.0000   -43.5380    10.5980     9.6750    11.7680  -999.2500  -999.2500
  817.5000   -43.5210    10.5720     9.6450    11.7260  -999.2500  -999.2500
  818.0000   -43.5030    10.5460     9.6130    11.6820  -999.2500  -999.2500
  818.5000   -43.4850    10.5200     9.6050    11.6430  -999.2500  -999.2500
  819.0000   -43.4670    10.4940     9.5900    11.5940  -999.2500  -999.2500
  819.5000   -43.4500    10.4680     9.5630    11.6240  -999.2500  -999.2500
  820.0000   -43.4320    10.4430     9.5400    11.6990  -999.2500  -999.2500
  820.5000   -43.4140    10.4170     9.5150    11.7620  -999.2500  -999.2500
  821.0000   -43.3960    10.3910     9.4940    11.8300  -999.2500  -999.2500
  821.5000   -43.3780    10.3650     9.4600    11.8940  -999.2500  -999.2500
  822.0000   -43.3610    10.3390     9.4160    11.9620  -999.2500  -999.2500
  822.5000   -43.3430    10.3130     9.3770    11.9670  -999.2500  -999.2500
  823.0000   -43.3250    10.2870     9.3380    11.9410  -999.2500  -999.2500
  823.5000   -43.3070    10.2610     9.2970    11.9200  -999.2500  -999.2500
  824.0000   -43.2900    10.2350     9.2580    11.8980  -999.2500  -999.2500
  824.5000   -43.2720    10.2090     9.2180    11.8760  -999.2500  -999.2500
  825.0000   -43.2540    10.1830     9.1930    11.8540  -999.2500  -999.2500
  825.5000   -43.2360    10.1570     9.1730    11.8310  -999.2500  -999.2500
  826.0000   -43.2180    10.1300     9.1530    11.8100  -999.2500  -999.2500
  826.5000   -43.2010    10.1040     9.1340    11.7890  -999.2500  -999.2500
  827.0000   -43.1830    10.0440     9.1130    11.8090  -999.2500  -999.2500
  827.5000   -43.1650     9.9710     9.0920    11.8470  -999.2500  -999.2500
  828.0000   -43.1470     9.8990     9.0360    11.8820  -999.2500  -999.2500
  828.5000   -43.1300     9.8260     8.9650    11.9180  -999.2500  -999.2500
  829.0000   -43.1120     9.7540     8.8960    11.9550  -999.2500  -999.2500
  829.5000   -43.0940     9.6820     8.8260    11.9900  -999.2500  -999.2500
  830.0000   -43.0760     9.6090     8.7570    12.0270  -999.2500  -999.2500
  830.5000   -43.0580     9.5380     8.6860    12.0620  -999.2500  -999.2500
  831.0000   -43.0410     9.4640     8.6190    12.1000  -999.2500  -999.2500
  831.5000   -43.0230     9.3940     8.5420    12.1340  -999.2500  -999.2500
  832.0000   -43.0050     9.3150     8.5230    12.1710  -999.2500  -999.2500
  832.5000   -42.9870     9.3070     8.5070    12.1090  -999.2500  -999.2500
  833.0000   -42.9700     9.3070     8.4930    12.0220  -999.2500  -999.2500
  833.5000   -42.9520     9.3080     8.4770    11.9370  -999.2500  -999.2500
  834.0000   -42.9340     9.3070     8.4630    11.8520  -999.2500  -999.2500
  834.5000   -42.9160     9.3070     8.4480    11.7670  -999.2500  -999.2500
  835.0000   -42.8980     9.3070     8.4330    11.6820  -999.2500  -999.2500
  835.5000   -42.8810     9.3070     8.4170    11.5960  -999.2500  -999.2500
  836.0000   -42.8630     9.3070     8.4090    11.5110  -999.2500  -999.2500
  836.5000   -42.8450     9.3070     8.4020    11.4260  -999.2500  -999.2500
  837.0000   -42.8270     9.3070     8.3930    11.3410  -999.2500  -999.2500
  837.5000   -42.8100     9.3070     8.3860    11.2550  -999.2500  -999.2500
  838.0000   -42.7920     9.3070     8.3800    11.1700  -999.2500  -999.2500
  838.5000   -42.7740     9.3070     8.4310    11.0850  -999.2500  -999.2500
  839.0000   -42.7560     9.3090     8.4930    10.9990  -999.2500  -999.2500
  839.5000   -42.7380     9.3390     8.5550    10.9140  -999.2500  -999.2500
  840.0000   -42.7210     9.3750     8.6160    10.8290  -999.2500  -999.2500
  840.5000   -42.7030     9.4120     8.6790    10.7440  -999.2500  -999.2500
  841.0000   -42.6850     9.4480     8.7400    10.6580  -999.2500  -999.2500
  841.5000   -42.6670     9.4840     8.8030    10.5730  -999.2500  -999.2500
  842.0000   -42.6500     9.5200     8.8630    10.4880  -999.2500  -999.2500
  842.5000   -42.6320     9.5560     8.9260    10.4020  -999.2500  -999.2500
  843.0000   -42.6140     9.5920     8.9320    10.3170  -999.2500  -999.2500
  843.5000   -42.5960     9.6290     8.9560    10.2320  -999.2500  -999.2500
  844.0000   -42.5780     9.6640     8.9810    10.1460  -999.2500  -999.2500
  844.5000   -42.5610     9.6980     9.0080    10.0620  -999.2500  -999.2500
  845.0000   -42.5430     9.6790     9.0100     9.9750  -999.2500  -999.2500
  845.5000   -42.5250     9.6550     9.0100     9.8920  -999.2500  -999.2500
  846.0000   -42.5070     9.6290     9.0100     9.8080  -999.2500  -999.2500
  846.5000   -42.4900     9.6050     9.0100     9.7990  -999.2500  -999.2500
  847.0000   -42.4720     9.5800     9.0070     9.7450  -999.2500  -999.2500
  847.5000   -42.4540     9.5550     8.9610     9.6880  -999.2500  -999.2500
  848.0000   -42.4360     9.5300     8.9100     9.6280  -999.2500  -999.2500
  848.5000   -42.4180     9.5050     8.8590     9.5700  -999.2500  -999.2500
  849.0000   -42.4010     9.4800     8.8090     9.5110  -999.2500  -999.2500
  849.5000   -42.3830     9.4560     8.7580     9.4530  -999.2500  -999.2500
  850.0000   -42.3630     9.4310     8.7080     9.3940  -999.2500  -999.2500
  850.5000   -42.3430     9.4060     8.6570     9.3360  -999.2500  -999.2500
  851.0000   -42.3220     9.3810     8.6060     9.2770  -999.2500  -999.2500
  851.5000   -42.3020     9.3560     8.5550     9.2190  -999.2500  -999.2500
  852.0000   -42.2820     9.3310     8.5050     9.1600  -999.2500  -999.2500
  852.5000   -42.2620     9.3030     8.4570     9.1030  -999.2500  -999.2500
  853.0000   -42.2420     9.2390     8.4380     9.0420  -999.2500  -999.2500
  853.5000   -42.2220     9.1730     8.4210     8.9870  -999.2500  -999.2500
  854.0000   -42.2020     9.1060     8.4040     8.9230  -999.2500  -999.2500
  854.5000   -42.1820     9.0400     8.3860     8.8690  -999.2500  -999.2500
  855.0000   -42.1610     8.9730     8.3700     8.8310  -999.2500  -999.2500
  855.5000   -42.1410     8.9070     8.3520     8.9980  -999.2500  -999.2500
  856.0000   -42.1210     8.8410     8.3340     8.9680  -999.2500  -999.2500
  856.5000   -42.1010     8.7750     8.2910     8.9390  -999.2500  -999.2500
  857.0000   -42.0810     8.7090     8.2480     8.8970  -999.2500  -999.2500
  857.5000   -42.0610     8.6420     8.2040     8.8640  -999.2500  -999.2500
  858.0000   -42.0410     8.5760     8.1620     8.8260  -999.2500  -999.2500
  858.5000   -42.0210     8.5200     8.1180     8.7900  -999.2500  -999.2500
  859.0000   -42.0000     8.5350     8.0750     8.7560  -999.2500  -999.2500
  859.5000   -41.9800     8.5520     8.0330     8.7170  -999.2500  -999.2500
