~VERSION INFORMATION
 VERS.                2.0:   CWLS LOG ASCII STANDARD - VERSION 2.0
 WRAP.                 NO:   ONE LINE PER DEPTH STEP
~WELL INFORMATION
#MNEM.UNIT      DATA TYPE    INFORMATION
#----------   ------------   ------------------------------
 STRT.F           72.5000:   START DEPTH
 STOP.F         2820.0000:   STOP DEPTH
 STEP.F            0.5000:   STEP LENGTH
 NULL.          -999.2500:   NO VALUE
 COMP.          INTEX OIL:   COMPANY
 WELL. INTEX OIL AX N. P. R. #51-29:   WELL
 FLD .             TEAPOT:   FIELD
 LOC .      S29 T39N R78W:   LOCATION
 CNTY.            NATRONA:   COUNTY
 STAT.            WYOMING:   STATE
 CTRY. UNITED STATES OF AMERICA:   COUNTRY
 SRVC.       SCHLUMBERGER:   SERVICE COMPANY
 DATE.        01-MAY-1966:   LOGDATE
 API .     49025094920000:   API NUMBER
~CURVE INFORMATION
#MNEM.UNIT       API CODE    CURVE DESCRIPTION
#----------   ------------   ------------------------------
 DEPT.F                  :   
 GRD .GAPI   45 310 01 00:   GAMMA RAY FROM DENSITY LOG
 CALD.IN     45 280 60 00:   CALIPER FROM DENSITY LOG
 RHOB.G/C3   45 350 01 00:   BULK DENSITY
 CORR.G/C3   45 356 01 00:   DENSITY CORRECTION
 SPR .MV     07 010 01 00:   SPONTANEOUS POTENTIAL
 ASN .OHMM   05 041 16 00:   AMPLIFIED SHORT NORMAL 16"
 ILD .OHMM   05 120 46 00:   DEEP INDUCTION RESISTIVITY
 DT  .US/F   60 520 00 00:   DELTA TIME
~PARAMETER INFORMATION
#MNEM.UNIT          VALUE    DESCRIPTION
#----------   ------------   ------------------------------
 EKB .F         5007.3000:   Kelly bushing
 EGL .F         4997.0000:   Ground level
 EDF .F            0.0000:   Drilling floor
 TD  .F         2799.0000:   Total depth
 DATE.        01-MAY-1966:   Date logged
 CLNT.            A2DTECH:   Client Code
 PD  .                 GL:   Permanent Datum
 EPD .F              4997:   Elevation Permanent Datum
 LMF .                 KB:   Log Measured From
 DMF .                 KB:   Drilling Measured From
 DAPD.F              10.3:   Feet Above Permanent Datum
 DD  .F              2798:   Depth driller
 DL  .F              2799:   Depth logger
 BLI .F              2798:   Bottom log interval
 TLI .F                88:   Top log interval
 CS1 .IN            10.75:   Casing size
 CBD1.       10.75" @ 30':   Casing driller 1
 BS1 .IN            7.875:   Bit size
 BSD1.F              2798:   Depth drilled with bit1
 DFT .           CHEM/OIL:   Type fluid in hole
 DFD .                9.5:   Density
 DFV .                 46:   Viscosity
 DFPH.                7.2:   pH
 DFL .                7.0:   Fluid loss
 MSS .         CIRCULATED:   Source of sample
 RMS .OHMM           2.28:   Rm
 MST .F                68:   Rm Meas. temp.
 RMF .OHMM           1.32:   Rmf
 MFST.F                72:   Rmf Meas. temp.
 MFSS.                 FP:   Source Rmf.
 RMB .OHMM           1.52:   Rm. at BHT
 BHT .F               102:   BHT.
 TCS .HRS             1.5:   Time Circ. stopped
 MRT .F               102:   Maximum recorded temp.
 LUN .               4507:   Logging unit number
 LUL .               CSPR:   Logging unit location
 ENGI.               HAUG:   Recorded By
 WITN.      TUTTLE/HUDSON:   Witnessed by
 ORIG.           5" PRINT:   Origin of data
 UWI .     49025094920000:   Unique Well ID
 DICO. A2D TECHNOLOGIES, INC.:   Digitizing Company
~OTHER INFORMATION
~A   DEPT      GRD       CALD       RHOB       CORR        SPR        ASN        ILD         DT   
# ...
 2016.5000   135.4570     8.8310     2.4440    -0.0070   -42.0840     8.8980     5.4440    94.7220
 2017.0000   134.5440     8.8310     2.4320    -0.0020   -42.3820     9.1980     5.5820    93.7280
 2017.5000   133.4840     8.8310     2.4410    -0.0040   -42.6520     9.4590     5.7130    92.7340
 2018.0000   133.4770     8.8310     2.4470    -0.0090   -42.7470     9.5580     5.8010    92.4920
 2018.5000   133.7400     8.8300     2.4420    -0.0170   -42.7050     9.5110     5.8330    93.0550
 2019.0000   134.3600     8.8250     2.4340    -0.0190   -42.6570     9.4750     5.8410    93.6180
 2019.5000   135.4380     8.8200     2.4290    -0.0180   -42.6520     9.5650     5.8530    94.0300
 2020.0000   133.9950     8.8160     2.4230    -0.0090   -42.6560     9.6820     5.8720    93.0820
 2020.5000   129.9330     8.8110     2.4410    -0.0180   -42.6380     9.6250     5.8850    92.1330
 2021.0000   126.0130     8.8070     2.4310    -0.0130   -42.6130     9.3700     5.8970    92.4850
 2021.5000   121.8130     8.8020     2.4230    -0.0160   -42.5980     9.1480     5.9180    93.6780
 2022.0000   119.4850     8.7980     2.4340    -0.0120   -42.5890     9.2200     5.9390    95.1640
 2022.5000   119.4750     8.7920     2.4520    -0.0010   -42.5750     9.6030     5.9420    93.9350
 2023.0000   121.3300     8.7970     2.4400    -0.0130   -42.5570    10.0410     5.9460    92.3990
 2023.5000   123.3440     8.8090     2.4280    -0.0130   -42.5420    10.1990     5.9830    91.6770
 2024.0000   124.4800     8.8200     2.4170    -0.0030   -42.5280    10.1030     6.0240    93.5410
 2024.5000   123.8850     8.8310     2.4120    -0.0080   -42.5140     9.7630     5.9370    94.7380
 2025.0000   123.2590     8.8420     2.4160    -0.0140   -42.4980     9.3220     5.6110    93.7990
 2025.5000   122.4920     8.8530     2.4100    -0.0170   -42.4840     8.9640     5.1050    93.3800
 2026.0000   121.6910     8.8650     2.4230    -0.0100   -42.4700     8.5800     4.6490    93.3300
 2026.5000   120.9420     8.8700     2.4470    -0.0020   -42.4560     7.9680     4.4450    93.9230
 2027.0000   120.2200     8.8610     2.4210     0.0120   -42.4390     7.4030     4.4920    95.8800
 2027.5000   120.3540     8.8540     2.3890    -0.0110   -42.4230     7.2480     4.6350    97.8370
 2028.0000   121.1500     8.8470     2.3640     0.0320   -42.4110     7.2840     4.7440    99.8360
 2028.5000   121.4920     8.8390     2.3580     0.0140   -42.4010     7.2910     4.8090    98.6070
 2029.0000   123.6330     8.8320     2.3790    -0.0150   -42.3820     7.6560     4.8470    97.0710
 2029.5000   124.1620     8.8240     2.4150    -0.0180   -42.3570     8.5610     4.8060    93.1310
 2030.0000   120.0030     8.8170     2.4480    -0.0130   -42.3500     9.3510     4.6070    88.1610
 2030.5000   118.7770     8.8090     2.4420    -0.0170   -42.3540     9.2470     4.2470    87.4820
 2031.0000   117.4220     8.8020     2.4360    -0.0170   -42.2980     8.5690     3.8160    88.3100
 2031.5000   116.1990     8.7940     2.4120    -0.0140   -42.1120     6.8010     3.4080    90.5770
 2032.0000   116.8390     8.7930     2.3900    -0.0030   -41.8390     5.7430     3.0700    93.4590
 2032.5000   118.0340     8.8030     2.3670    -0.0040   -41.6340     5.6860     2.8240    94.7960
 2033.0000   118.5770     8.8130     2.3650    -0.0040   -41.6160     4.8360     2.6850    95.8230
 2033.5000   118.3330     8.8230     2.3830     0.0090   -41.7450     4.7160     2.6450    96.7100
 2034.0000   117.4440     8.8330     2.3680     0.0020   -41.8820     5.3140     2.6560    94.4070
 2034.5000   116.5610     8.8420     2.3650    -0.0200   -41.9590     5.0370     2.6650    91.4250
 2035.0000   116.2160     8.8520     2.3710    -0.0330   -42.0320     4.9980     2.6600    90.2780
 2035.5000   116.4730     8.8620     2.4010     0.0040   -42.1630     5.6520     2.6570    89.1050
 2036.0000   116.6750     8.8720     2.4300     0.0200   -42.2870     5.6220     2.6680    90.9440
 2036.5000   116.8840     8.8820     2.4110     0.0000   -42.2520     4.9400     2.6970    92.9320
 2037.0000   117.0750     8.8920     2.4150    -0.0040   -42.0100     4.7120     2.7560    94.2370
 2037.5000   117.3370     8.9010     2.4300     0.0060   -41.7140     4.8360     2.8370    94.8580
 2038.0000   117.5570     8.9110     2.3870    -0.0060   -41.5870     4.8750     2.9040    97.2320
 2038.5000   120.3690     8.9050     2.3760    -0.0130   -41.6880     5.1180     2.9300    97.9390
 2039.0000   122.2160     8.8980     2.3800    -0.0130   -41.8710     5.1990     2.9720    95.6660
 2039.5000   122.6020     8.8910     2.4220    -0.0200   -41.9730     5.4110     3.1390    94.0420
 2040.0000   123.0460     8.8840     2.4540     0.0040   -41.9750     5.8970     3.4670    93.5680
 2040.5000   124.7540     8.8770     2.4880     0.0180   -41.9620     6.3830     3.8720    94.2420
 2041.0000   126.5240     8.8700     2.4630     0.0060   -41.9840     6.6010     4.2510    94.9170
 2041.5000   128.3910     8.8630     2.4390    -0.0040   -42.0180     6.8300     4.5930    94.3700
 2042.0000   130.1770     8.8560     2.4480    -0.0090   -42.0350     7.3910     4.9440    93.2990
 2042.5000   130.9150     8.8490     2.4670    -0.0090   -42.0430     8.0100     5.3010    92.4010
 2043.0000   131.4200     8.8420     2.4730    -0.0050   -42.0590     8.3360     5.6100    93.0510
 2043.5000   128.5060     8.8350     2.4930    -0.0010   -42.0810     8.5290     5.8520    93.7010
 2044.0000   128.6590     8.8280     2.4810    -0.0030   -42.1000     8.8880     6.0570    94.0260
 2044.5000   128.7500     8.8210     2.4690    -0.0050   -42.1150     9.3610     6.2350    93.3300
 2045.0000   128.7500     8.8140     2.4740    -0.0080   -42.1310     9.7130     6.3490    91.9380
 2045.5000   125.4260     8.8070     2.4840    -0.0090   -42.1490     9.8580     6.3780    90.5470
 2046.0000   122.6790     8.8000     2.4720    -0.0100   -42.1670     9.9040     6.3510    89.1550
 2046.5000   119.5150     8.7930     2.5100    -0.0110   -42.1840    10.0090     6.3060    88.9780
 2047.0000   118.8670     8.7890     2.4990    -0.0100   -42.2010    10.0610     6.2600    89.9500
 2047.5000   119.6550     8.7870     2.4860    -0.0090   -42.2190    10.1590     6.2320    91.1650
 2048.0000   123.0530     8.7850     2.4920    -0.0070   -42.2360    10.2320     6.2660    92.3800
 2048.5000   126.0790     8.7820     2.4930    -0.0120   -42.2530    10.2950     6.3880    93.3800
 2049.0000   128.7600     8.7800     2.4790    -0.0230   -42.2700    10.4200     6.5890    93.8770
 2049.5000   128.9440     8.7780     2.4510    -0.0290   -42.2890    10.4160     6.8530    93.0630
 2050.0000   126.5360     8.7750     2.4570    -0.0260   -42.3070    10.6010     7.1860    91.6860
 2050.5000   124.3990     8.7730     2.4620    -0.0210   -42.3200    11.4010     7.5900    90.4770
 2051.0000   121.3080     8.7700     2.4530    -0.0170   -42.3240    12.3800     8.0260    89.6290
 2051.5000   118.4190     8.7680     2.4460    -0.0120   -42.3230    12.9970     8.4310    89.5710
 2052.0000   115.2120     8.7660     2.4160    -0.0200   -42.3220    13.4090     8.7620    90.4470
 2052.5000   115.1100     8.7630     2.4250    -0.0230   -42.3230    13.8090     9.0190    89.4330
 2053.0000   116.9950     8.7610     2.4390    -0.0180   -42.3230    13.9320     9.2470    88.8570
 2053.5000   118.7050     8.7580     2.4300    -0.0130   -42.3220    13.8470     9.4870    90.5350
 2054.0000   120.3050     8.7560     2.4230    -0.0170   -42.3220    13.8970     9.7260    90.9390
 2054.5000   121.7450     8.7540     2.4270    -0.0210   -42.3240    14.0960     9.8970    90.2270
 2055.0000   120.0760     8.7520     2.4420    -0.0190   -42.3250    14.4310     9.9590    88.8700
 2055.5000   118.4820     8.7610     2.4560    -0.0120   -42.3200    14.8040     9.9470    87.5130
 2056.0000   116.7520     8.7710     2.4380    -0.0220   -42.3190    15.0820     9.9300    86.3490
 2056.5000   115.0510     8.7820     2.4440    -0.0140   -42.3290    15.1990     9.9350    85.6760
