~VERSION INFORMATION
 VERS.                2.0:   CWLS LOG ASCII STANDARD - VERSION 2.0
 WRAP.                 NO:   ONE LINE PER DEPTH STEP
~WELL INFORMATION
#MNEM.UNIT      DATA TYPE    INFORMATION
#----------   ------------   ------------------------------
 STRT.F           42.0000:   START DEPTH
 STOP.F         2778.0000:   STOP DEPTH
 STEP.F            0.5000:   STEP LENGTH
 NULL.          -999.2500:   NO VALUE
 COMP.    FENIX & SCISSON:   COMPANY
 WELL. FENIX & SCISSON SHX #56-23:   WELL
 FLD .        TEAPOT DOME:   FIELD
 LOC .      S23 T38N R78W:   LOCATION
 CNTY.            NATRONA:   COUNTY
 STAT.            WYOMING:   STATE
 CTRY. UNITED STATES OF AMERICA:   COUNTRY
 SRVC.           BIRDWELL:   SERVICE COMPANY
 DATE.        29-AUG-1979:   LOGDATE
 API .     49025107920000:   API NUMBER
~CURVE INFORMATION
#MNEM.UNIT       API CODE    CURVE DESCRIPTION
#----------   ------------   ------------------------------
 DEPT.F                  :   
 GRD .GAPI   45 310 01 00:   GAMMA RAY FROM DENSITY LOG
 CALD.IN     45 280 60 00:   CALIPER FROM DENSITY LOG
 RHOB.G/C3   45 350 01 00:   BULK DENSITY
 CORR.G/C3   45 356 01 00:   DENSITY CORRECTION
 ILD .OHMM   07 120 46 00:   DEEP INDUCTION RESISTIVITY
 SFL .OHMM   07 220 01 00:   SHALLOW FOCUSED LOG RESISTIVITY
 SPR .MV     07 010 01 00:   SPONTANEOUS POTENTIAL
~PARAMETER INFORMATION
#MNEM.UNIT          VALUE    DESCRIPTION
#----------   ------------   ------------------------------
 EKB .F         5361.0000:   Kelly bushing
 EGL .F         5351.0000:   Ground level
 EDF .F         5360.0000:   Drilling floor
 TD  .F         1465.0000:   Total depth
 DATE.        29-AUG-1979:   Date logged
 CLNT.            A2DTECH:   Client Code
 PD  .                 GL:   Permanent Datum
 EPD .F              5351:   Elevation Permanent Datum
 LMF .                 KB:   Log Measured From
 DMF .                 KB:   Drilling Measured From
 DAPD.F                 9:   Feet Above Permanent Datum
 DD  .F              1465:   Depth driller
 DL  .F              1462:   Depth logger
 BLI .F              1457:   Bottom log interval
 TLI .F                40:   Top log interval
 CBD1.F                40:   Casing driller 1
 CBL1.F                40:   Casing logger 1
 BS1 .IN            12.25:   Bit size
 BSD1.F              1465:   Depth drilled with bit1
 DFT .            GEL/MUD:   Type fluid in hole
 DFD .                9.5:   Density
 DFV .                 40:   Viscosity
 DFPH.                9.0:   pH
 DFL .                 40:   Fluid loss
 MSS .            MUD PIT:   Source of sample
 RMS .OHMM            2.6:   Rm
 MST .F                68:   Rm Meas. temp.
 RMF .OHMM            1.8:   Rmf
 MFST.F                78:   Rmf Meas. temp.
 RMC .OHMM            2.8:   Rmc
 MCST.F                76:   Rmc Meas. temp.
 MFSS.               MEAS:   Source Rmf.
 MCSS.               MEAS:   Source Rmc.
 RMB .OHMM           1.96:   Rm. at BHT
 BHT .F                90:   BHT.
 TCS .HRS               5:   Time Circ. stopped
 MRT .F                90:   Maximum recorded temp.
 LUN .               2959:   Logging unit number
 LUL .             CASPER:   Logging unit location
 ENGI.         B. ROLLINS:   Recorded By
 WITN.              AMEND:   Witnessed by
 ORIG.           5" PRINT:   Origin of data
 UWI .     49025107920000:   Unique Well ID
 DICO. A2D TECHNOLOGIES, INC.:   Digitizing Company
~OTHER INFORMATION
~A   DEPT       GRD      CALD       RHOB         CORR      ILD        SFL         SPR  
# ...
 2726.5000   181.5050     9.9620     2.5000     0.2390  -999.2500  -999.2500  -999.2500
 2727.0000   177.3490     9.9510     2.5310     0.2550  -999.2500  -999.2500  -999.2500
 2727.5000   172.2660     9.9390     2.5360     0.2660  -999.2500  -999.2500  -999.2500
 2728.0000   176.4650     9.9270     2.5420     0.2740  -999.2500  -999.2500  -999.2500
 2728.5000   178.4000     9.9150     2.6600     0.3080  -999.2500  -999.2500  -999.2500
 2729.0000   176.9620     9.9040     2.6530     0.3700  -999.2500  -999.2500  -999.2500
 2729.5000   178.4550     9.8920     2.6130     0.3330  -999.2500  -999.2500  -999.2500
 2730.0000   180.3530     9.8800     2.5720     0.2910  -999.2500  -999.2500  -999.2500
 2730.5000   179.5510     9.8690     2.5230     0.2580  -999.2500  -999.2500  -999.2500
 2731.0000   168.7470     9.8570     2.5410     0.2270  -999.2500  -999.2500  -999.2500
 2731.5000   168.0480     9.8450     2.5800     0.2340  -999.2500  -999.2500  -999.2500
 2732.0000   165.2380     9.8330     2.5700     0.2650  -999.2500  -999.2500  -999.2500
 2732.5000   166.1180     9.8220     2.5130     0.2530  -999.2500  -999.2500  -999.2500
 2733.0000   141.1670     9.8100     2.4910     0.2500  -999.2500  -999.2500  -999.2500
 2733.5000   123.1810     9.7980     2.4750     0.2490  -999.2500  -999.2500  -999.2500
 2734.0000   100.5040     9.7860     2.4970     0.2530  -999.2500  -999.2500  -999.2500
 2734.5000    83.5400     9.7750     2.5220     0.2540  -999.2500  -999.2500  -999.2500
 2735.0000    86.9260     9.7620     2.6080     0.2640  -999.2500  -999.2500  -999.2500
 2735.5000    97.2730     9.7600     2.5960     0.2770  -999.2500  -999.2500  -999.2500
 2736.0000   128.7530     9.7580     2.5870     0.2890  -999.2500  -999.2500  -999.2500
 2736.5000   161.0490     9.7560     2.5750     0.3000  -999.2500  -999.2500  -999.2500
 2737.0000   182.0120     9.7550     2.5290     0.2980  -999.2500  -999.2500  -999.2500
 2737.5000   179.8000     9.7530     2.5440     0.2930  -999.2500  -999.2500  -999.2500
 2738.0000   176.4450     9.7510     2.6290     0.2880  -999.2500  -999.2500  -999.2500
 2738.5000   171.0810     9.7500     2.6060     0.2830  -999.2500  -999.2500  -999.2500
 2739.0000   171.9520     9.7480     2.5020     0.2780  -999.2500  -999.2500  -999.2500
 2739.5000   174.3250     9.7460     2.5700     0.2790  -999.2500  -999.2500  -999.2500
 2740.0000   175.1360     9.7450     2.5650     0.2910  -999.2500  -999.2500  -999.2500
 2740.5000   173.4740     9.7430     2.5640     0.2860  -999.2500  -999.2500  -999.2500
 2741.0000   175.8250     9.7410     2.5270     0.2810  -999.2500  -999.2500  -999.2500
 2741.5000   178.6730     9.7400     2.5350     0.2870  -999.2500  -999.2500  -999.2500
 2742.0000   176.3420     9.7380     2.5580     0.3090  -999.2500  -999.2500  -999.2500
 2742.5000   176.0510     9.7360     2.5530     0.3040  -999.2500  -999.2500  -999.2500
 2743.0000   176.4070     9.7350     2.5470     0.2750  -999.2500  -999.2500  -999.2500
 2743.5000   179.6780     9.7330     2.5620     0.2720  -999.2500  -999.2500  -999.2500
 2744.0000   182.5840     9.7310     2.5740     0.2730  -999.2500  -999.2500  -999.2500
 2744.5000   183.1830     9.7300     2.5500     0.2490  -999.2500  -999.2500  -999.2500
 2745.0000   178.7960     9.7280     2.5070     0.2410  -999.2500  -999.2500  -999.2500
 2745.5000   176.5420     9.7260     2.5200     0.2490  -999.2500  -999.2500  -999.2500
 2746.0000   174.4480     9.7240     2.5490     0.2690  -999.2500  -999.2500  -999.2500
 2746.5000   168.4150     9.7230     2.5800     0.2890  -999.2500  -999.2500  -999.2500
 2747.0000   165.1510     9.7220     2.5570     0.2780  -999.2500  -999.2500  -999.2500
 2747.5000   173.1290     9.7390     2.5310     0.2590  -999.2500  -999.2500  -999.2500
 2748.0000   177.8980     9.7560     2.5150     0.2400  -999.2500  -999.2500  -999.2500
 2748.5000   178.1950     9.7740     2.5120     0.2250  -999.2500  -999.2500  -999.2500
 2749.0000   179.9710     9.7920     2.5160     0.2350  -999.2500  -999.2500  -999.2500
 2749.5000   183.3510     9.8100     2.5130     0.2420  -999.2500  -999.2500  -999.2500
 2750.0000   188.8700     9.8280     2.5070     0.2500  -999.2500  -999.2500  -999.2500
 2750.5000   185.2990     9.8460     2.5210     0.2780  -999.2500  -999.2500  -999.2500
 2751.0000   181.9340     9.8640     2.5940     0.3140  -999.2500  -999.2500  -999.2500
 2751.5000   180.3000     9.8820     2.5810     0.3220  -999.2500  -999.2500  -999.2500
 2752.0000   181.3370     9.9000     2.5320     0.3210  -999.2500  -999.2500  -999.2500
 2752.5000   167.9190     9.9170     2.5780     0.3900  -999.2500  -999.2500  -999.2500
 2753.0000   170.1870     9.9350     2.6250     0.3700  -999.2500  -999.2500  -999.2500
 2753.5000   177.5590     9.9530     2.4850     0.3410  -999.2500  -999.2500  -999.2500
 2754.0000   183.6060     9.9710     2.5820     0.3960  -999.2500  -999.2500  -999.2500
 2754.5000   190.2620     9.9890     2.5180     0.3890  -999.2500  -999.2500  -999.2500
 2755.0000   197.1650    10.0070     2.4120     0.3270  -999.2500  -999.2500  -999.2500
 2755.5000   194.5470    10.0250     2.4690     0.3680  -999.2500  -999.2500  -999.2500
 2756.0000   188.7940    10.0430     2.5900     0.4020  -999.2500  -999.2500  -999.2500
 2756.5000   180.8960    10.0610     2.4500     0.2760  -999.2500  -999.2500  -999.2500
 2757.0000   182.8760    10.0780     2.4720     0.2880  -999.2500  -999.2500  -999.2500
 2757.5000   188.9520    10.0980     2.5320     0.3520  -999.2500  -999.2500  -999.2500
 2758.0000   195.3800    10.1100     2.5940     0.4140  -999.2500  -999.2500  -999.2500
 2758.5000   193.9890    10.1510     2.5700     0.4310  -999.2500  -999.2500  -999.2500
 2759.0000   192.1490    10.1610     2.5440     0.4120  -999.2500  -999.2500  -999.2500
 2759.5000   197.2420    10.1470     2.5330     0.4070  -999.2500  -999.2500  -999.2500
 2760.0000   200.4560    10.1040     2.5280     0.3930  -999.2500  -999.2500  -999.2500
 2760.5000   199.9950    10.0620     2.5090     0.3580  -999.2500  -999.2500  -999.2500
 2761.0000   199.9670    10.0350     2.5010     0.3410  -999.2500  -999.2500  -999.2500
 2761.5000   200.0320    10.0780     2.5120     0.3290  -999.2500  -999.2500  -999.2500
 2762.0000   199.7680    10.1920     2.4730     0.3410  -999.2500  -999.2500  -999.2500
 2762.5000   199.5850    10.3230     2.6210     0.4240  -999.2500  -999.2500  -999.2500
 2763.0000   194.1690    10.4490     2.6040     0.4630  -999.2500  -999.2500  -999.2500
 2763.5000   187.1460    10.5820     2.5650     0.4620  -999.2500  -999.2500  -999.2500
 2764.0000   183.7780    10.6280     2.5240     0.4760  -999.2500  -999.2500  -999.2500
 2764.5000   186.9300    10.6370     2.4660     0.5000  -999.2500  -999.2500  -999.2500
 2765.0000   189.2010    10.6420     2.3310  -999.2500  -999.2500  -999.2500  -999.2500
 2765.5000   188.7300    10.5800     2.3560  -999.2500  -999.2500  -999.2500  -999.2500
 2766.0000   185.3960    10.4740     2.4310  -999.2500  -999.2500  -999.2500  -999.2500
 2766.5000   175.7620    10.3750     2.4180  -999.2500  -999.2500  -999.2500  -999.2500
 2767.0000   177.9430    10.2790     2.3140  -999.2500  -999.2500  -999.2500  -999.2500
 2767.5000   183.1870    10.2080     2.1570  -999.2500  -999.2500  -999.2500  -999.2500
 2768.0000   188.0620    10.2790     2.0130  -999.2500  -999.2500  -999.2500  -999.2500
 2768.5000   193.8370    10.3090     2.0210  -999.2500  -999.2500  -999.2500  -999.2500
 2769.0000   192.3760    10.1630     2.0940  -999.2500  -999.2500  -999.2500  -999.2500
 2769.5000   191.3740    10.1630     2.2510  -999.2500  -999.2500  -999.2500  -999.2500
 2770.0000   191.1560    10.1550     2.4070  -999.2500  -999.2500  -999.2500  -999.2500
 2770.5000   188.3480    10.1620     2.6300  -999.2500  -999.2500  -999.2500  -999.2500
 2771.0000   189.4380    10.1340     2.6220  -999.2500  -999.2500  -999.2500  -999.2500
 2771.5000   191.3060    10.0460     2.6160     0.4400  -999.2500  -999.2500  -999.2500
