~VERSION INFORMATION
 VERS.                2.0:   CWLS LOG ASCII STANDARD - VERSION 2.0
 WRAP.                 NO:   ONE LINE PER DEPTH STEP
~WELL INFORMATION
#MNEM.UNIT      DATA TYPE    INFORMATION
#----------   ------------   ------------------------------
 STRT.F          450.5000:   START DEPTH
 STOP.F         3173.5000:   STOP DEPTH
 STEP.F            0.5000:   STEP LENGTH
 NULL.          -999.2500:   NO VALUE
 COMP.    FENIX & SCISSON:   COMPANY
 WELL. FENIX & SCISSONNPR #72-TX-33:   WELL
 FLD .              N.P.R:   FIELD
 LOC .      S33 T39N R78W:   LOCATION
 CNTY.            NATRONA:   COUNTY
 STAT.            WYOMING:   STATE
 CTRY. UNITED STATES OF AMERICA:   COUNTRY
 SRVC.       SCHLUMBERGER:   SERVICE COMPANY
 DATE.        03-SEP-1981:   LOGDATE
 API .     49025108810000:   API NUMBER
~CURVE INFORMATION
#MNEM.UNIT       API CODE    CURVE DESCRIPTION
#----------   ------------   ------------------------------
 DEPT.F                  :   
 CALD.IN     45 280 60 00:   CALIPER FROM DENSITY LOG
 GRD .GAPI   45 310 01 00:   GAMMA RAY FROM DENSITY LOG
 DPHI.DEC    45 890 03 00:   
 RHOB.G/C3   45 350 01 00:   BULK DENSITY
 CORR.G/C3   45 356 01 00:   DENSITY CORRECTION
 SPR .MV     07 010 01 00:   SPONTANEOUS POTENTIAL
 SFL .OHMM   07 220 01 00:   SHALLOW FOCUSED LOG RESISTIVITY
 ILD .OHMM   07 120 46 00:   DEEP INDUCTION RESISTIVITY
 ILM .OHMM   07 120 44 00:   INDUCTION LOG MEDIUM RESISTIVITY
 TENR.LBS    07 635 01 00:   TENSION FROM RESISTIVITY
~PARAMETER INFORMATION
#MNEM.UNIT          VALUE    DESCRIPTION
#----------   ------------   ------------------------------
 EKB .F         5115.0000:   Kelly bushing
 EGL .F         5105.0000:   Ground level
 EDF .F            0.0000:   Drilling floor
 TD  .F         3162.0000:   Total depth
 DATE.        03-SEP-1981:   Date logged
 CLNT.            A2DTECH:   Client Code
 CTRY.                USA:   Country
 SL  . 808' FNL & 954' FEL:   Surface Location
 PD  .                 GL:   Permanent Datum
 EPD .F              5105:   Elevation Permanent Datum
 LMF .                 KB:   Log Measured From
 DMF .                 KB:   Drilling Measured From
 DAPD.F                10:   Feet Above Permanent Datum
 DD  .F              3162:   Depth driller
 DL  .F              3162:   Depth logger
 BLI .F              3158:   Bottom log interval
 TLI .F              1612:   Top log interval
 CS1 .IN            9.625:   Casing size
 CBD1.      9.625" @ 480':   Casing driller 1
 BS1 .IN            7.875:   Bit size
 BSD1.F              3162:   Depth drilled with bit1
 DFT .              WATER:   Type fluid in hole
 MSS .               TANK:   Source of sample
 RMS .OHMM            6.3:   Rm
 MST .F                73:   Rm Meas. temp.
 RMF .OHMM            6.3:   Rmf
 MFST.F                73:   Rmf Meas. temp.
 TCS .HRS            2200:   Time Circ. stopped
 TLAB.HRS            0300:   Time logger at bottom
 MRT .F               100:   Maximum recorded temp.
 LUN .               8039:   Logging unit number
 LUL .               CSPR:   Logging unit location
 ENGI.           C. PEARR:   Recorded By
 WITN.           R. SCOTT:   Witnessed by
 ORIG.         2.5" PRINT:   Origin of data
 UWI .     49025108810000:   Unique Well ID
 DICO. A2D TECHNOLOGIES, INC.:   Digitizing Company
~OTHER INFORMATION
~A   DEPT     CALD         GRD      DPHI       RHOB       CORR        SPR        SFL        ILD        ILM       TENR   
# ...
 2963.0000    10.1890   113.2133     0.0937     2.5157     0.0161   -18.1334     7.9173     4.9268     4.7514   626.1538
 2963.5000    10.1891   112.6319     0.0898     2.5255     0.0161   -18.5085     7.3680     4.8401     4.7532   625.5700
 2964.0000    10.2283   112.6354     0.0890     2.5274     0.0180   -18.4983     6.7324     4.8429     4.6696   625.1077
 2964.5000    10.1896   113.2214     0.0922     2.5196     0.0239   -18.4881     6.2641     4.5883     4.5883   624.8766
 2965.0000    10.1119   112.6412     0.0945     2.5196     0.0473   -18.4779     5.7247     4.3479     4.5084   623.7209
 2965.5000    10.1511   110.8925     0.0890     2.5274     0.0493   -18.4683     5.2308     4.2714     4.4283   623.2586
 2966.0000    10.1306   109.1450     0.0875     2.5411     0.1197   -18.4738     4.8679     4.0476     4.3512   622.5652
 2966.5000    10.1125   109.7310     0.0812     2.5079     0.2292   -18.4792     4.6964     4.0483     4.1986   622.1029
 2967.0000    10.1127   114.9873     0.1023     2.4727     0.2292   -18.4846     4.6991     3.9786     4.0514   641.1562
 2967.5000    10.1129   116.1592     0.1469     2.4433     0.1705   -18.4900     4.8744     3.9807     3.9801   627.4719
 2968.0000    10.1131   107.9893     0.1287     2.4472     0.1314   -18.4954     5.1497     3.9824     3.9094   620.2536
 2968.5000    10.1133   103.9061     0.1106     2.5020     0.1460   -18.5008     5.5400     3.9839     3.9123   639.5386
 2969.0000    10.1135   105.0768     0.0914     2.5079     0.1606   -18.5062     5.5422     3.8442     3.9146   619.5601
 2969.5000    10.1137   110.9168     0.0945     2.5059     0.1751   -18.5117     5.1576     3.8457     3.8457   618.6354
 2970.0000    10.1139   113.8373     0.1093     2.4961     0.1881   -18.5171     4.7988     3.8479     3.8479   637.6898
 2970.5000    10.1140   117.9263     0.1242     2.4864     0.1724   -18.5225     4.3855     3.8493     3.7115   637.4587
 2971.0000    10.0754   117.9286     0.1390     2.4595     0.1270   -18.5279     4.3084     3.5235     3.5003   636.5342
 2971.5000    10.0756   116.1811     0.1539     2.4238     0.0492   -18.5333     4.2335     3.4558     3.4558   636.0720
 2972.0000    10.0757   115.0161     0.1516     2.4367     0.0492   -18.5387     4.2351     3.4578     3.4571   615.8611
 2972.5000    10.0759   107.4322     0.1335     2.4531     0.0492   -18.5442     4.1614     3.3365     3.3359   634.6852
 2973.0000    10.1151   105.6835     0.1154     2.4871     0.0864   -18.5496     4.0882     3.3381     3.2772   634.2230
 2973.5000    10.1152   107.4379     0.0972     2.5212     0.1411   -18.5550     4.0905     3.3397     3.2207   614.0114
 2974.0000    10.1544   109.7748     0.0851     2.5391     0.1273   -18.5604     4.0186     3.3409     3.2809   630.5569
 2974.5000    10.1156   111.5292     0.0952     2.5235     0.1058   -18.5658     4.2456     3.2828     3.2827   632.3738
 2975.0000     9.9601   110.9479     0.1053     2.5079     0.0843   -18.5712     4.3249     3.2250     3.2840   631.9115
 2975.5000     9.8436   106.8658     0.1125     2.5000     0.0550   -18.5766     4.4065     3.2268     3.2262   631.2180
 2976.0000     9.6493   105.7008     0.1023     2.5235     0.0641   -18.5821     4.4082     3.2285     3.2283   630.7557
 2976.5000     9.5329   106.8716     0.0992     2.5352     0.0731   -18.5875     4.3315     3.2299     3.2299   630.2934
 2977.0000     9.5330   112.7115     0.0922     2.5431     0.0822   -18.5929     4.1797     3.2311     3.2311   629.4953
 2977.5000     9.5331   116.2157     0.0914     2.5372     0.0882   -18.5983     4.0324     3.2921     3.2330   628.9064
 2978.0000     9.4944   117.3865     0.1046     2.5020     0.0725   -18.6037     4.0347     3.2342     3.2342   628.4440
 2978.5000     9.4557   115.0542     0.1178     2.4756     0.0581   -18.6091     4.1101     3.2360     3.2348   628.2128
 2979.0000     9.3781   111.5558     0.1359     2.4512     0.0280   -18.6146     4.4217     3.1791     3.2369   627.0569
 2979.5000     9.3783   110.9744     0.1336     2.4492     0.0081   -18.6200     4.4233     3.1809     3.2391   626.5945
 2980.0000     9.3395   111.5615     0.1227     2.4702     0.0223   -18.6254     4.1163     3.2409     3.2409   625.9009
 2980.5000     9.3008   112.1475     0.1070     2.5000     0.0374   -18.6308     4.0439     3.2422     3.2422   625.4385
 2981.0000     9.2621   115.0692     0.1039     2.5020     0.0354   -18.6362     3.9735     3.3034     3.2440   624.7449
 2981.5000     9.1846   117.4061     0.1031     2.4981     0.0335   -18.6416     4.0478     3.2533     3.2452   624.1363
 2982.0000     9.1847   117.4096     0.1119     2.4805     0.0237   -18.6471     4.2764     3.4287     3.3664   623.5888
 2982.5000     9.1281   115.6609     0.1211     2.4766     0.0139   -18.6525     4.4360     3.5567     3.5567   623.1264
 2983.0000     9.1073   113.9134     0.1235     2.4746     0.0080   -18.6579     4.8597     3.8265     3.7570   622.8952
 2983.5000     9.1075   114.5005     0.1109     2.5000     0.0080   -18.6633     5.8289     3.9694     4.0420   621.9703
 2984.0000     9.0687   113.3356     0.1023     2.5000     0.0138   -18.6687     6.5011     4.0443     4.2697   641.0300
 2984.5000     9.0690   109.8371     0.0883     2.5059     0.0197   -18.6741     7.2523     4.6786     4.9402   640.4005
 2985.0000     9.0179   106.3375     0.0820     2.5469     0.0295   -18.6795     7.8023     5.1256     4.9411   639.8742
 2985.5000     9.0304   104.0064     0.0805     2.5489     0.0295   -18.6850     7.9481     5.5135     5.1256   639.4118
 2986.0000     8.9917   101.0905     0.0812     2.5469     0.0295   -18.6904     7.8098     5.8240     5.1305   639.1807
 2986.5000     8.9530    99.3430     0.0836     2.5450     0.0295   -18.6958     7.8128     5.8274     5.1325   618.2704
 2987.0000     8.9143    99.3453     0.0851     2.5352     0.0314   -18.7012     6.8857     5.8296     5.1345   617.8078
 2987.5000     8.9143    99.9324     0.0859     2.5274     0.0314   -18.7066     6.6430     5.6252     5.1374   617.5766
 2988.0000     8.8757    98.7674     0.0890     2.5196     0.0197   -18.7120     6.2950     5.2335     5.1384   616.6515
 2988.5000     8.8760    96.4363     0.0976     2.5020     0.0236   -18.7175     6.4126     5.1414     5.0499   635.7129
 2989.0000     8.8372    95.8549     0.0984     2.4981     0.0290   -18.7229     6.4163     5.1443     4.8719   615.7264
 2989.5000     8.7985    97.6093     0.0922     2.5157     0.0295   -19.1511     6.3606     5.0538     4.7010   614.8013
 2990.0000     8.7209   102.2808     0.0898     2.5235     0.0451   -19.1434     6.3631     4.9667     4.6191   614.3387
 2990.5000     8.7533   106.3698     0.0898     2.5254     0.0451   -19.1351     6.2498     4.9677     4.4554   633.8632
 2991.0000     8.7991   109.2904     0.0898     2.5274     0.0431   -19.1270     5.7106     4.8802     4.3778   613.1822
 2991.5000     8.7604   110.4611     0.0937     2.5157     0.0353   -19.1150     5.5101     4.7953     4.3007   612.4883
 2992.0000     8.7606   109.2962     0.1023     2.5040     0.0255   -19.1069     5.5132     4.6279     4.2258   631.7822
 2992.5000     8.7608   108.1323     0.1062     2.5020     0.0157   -19.0989     5.5154     4.6288     4.1310   631.0885
 2993.0000     8.7608   109.3031     0.1062     2.5000     0.0157   -19.0909     5.5185     4.5491     4.0799   630.6260
 2993.5000     8.7612   109.8890     0.1062     2.5000     0.0118   -19.0788     6.0478     4.5508     4.2003   630.1635
 2994.0000     8.8003   109.8925     0.1055     2.5020     0.0118   -19.0668     6.0489     4.4716     4.3122   629.2385
 2994.5000     8.7615   109.8948     0.1055     2.5020     0.0060   -19.0547     6.0524     4.3995     4.2363   628.7760
 2995.0000     8.7229   112.8165     0.1055     2.5000     0.0040   -18.6601     6.1657     4.3937     4.1044   628.3135
 2995.5000     8.7230   116.3207     0.1031     2.5020     0.0118   -18.6480     5.9492     4.1649     4.0158   627.5570
 2996.0000     8.7232   119.2424     0.0969     2.5176     0.0138   -18.6320     5.5345     4.1665     4.0916   626.9259
