~VERSION INFORMATION
 VERS.                2.0:   CWLS LOG ASCII STANDARD - VERSION 2.0
 WRAP.                 NO:   ONE LINE PER DEPTH STEP
~WELL INFORMATION
#MNEM.UNIT      DATA TYPE    INFORMATION
#----------   ------------   ------------------------------
 STRT.F            0.5000:   START DEPTH
 STOP.F         3195.0000:   STOP DEPTH
 STEP.F            0.5000:   STEP LENGTH
 NULL.          -999.2500:   NO VALUE
 COMP.   TESORO PETROLEUM:   COMPANY
 WELL. TESORO NPR 3 "A" #15-10:   WELL
 FLD .        TEAPOT DOME:   FIELD
 LOC .      S10 T38N R78W:   LOCATION
 CNTY.            NATRONA:   COUNTY
 STAT.            WYOMING:   STATE
 CTRY. UNITED STATES OF AMERICA:   COUNTRY
 SRVC.       SCHLUMBERGER:   SERVICE COMPANY
 DATE.        03-JUL-1969:   LOGDATE
 API .     49025600130000:   API NUMBER
~CURVE INFORMATION
#MNEM.UNIT       API CODE    CURVE DESCRIPTION
#----------   ------------   ------------------------------
 DEPT.F                  :   
 SPR .MV     05 010 01 00:   SPONTANEOUS POTENTIAL FROM RES.
 ASN .OHMM   05 041 16 00:   AMPLIFIED SHORT NORMAL 16"
 ILD .OHMM   05 120 46 00:   INDUCTION LOG DEEP
 CALD.IN     45 280 60 00:   CALIPER FROM DENSITY LOG
 GRD .GAPI   45 310 01 00:   GAMMA RAY FROM DENSITY LOG
 RHOB.G/C3   45 350 01 00:   BULK DENSITY
~PARAMETER INFORMATION
#MNEM.UNIT          VALUE    DESCRIPTION
#----------   ------------   ------------------------------
 EKB .F         5250.0000:   Kelly bushing
 EGL .F         5237.0000:   Ground level
 EDF .F            0.0000:   Drilling floor
 TD  .F         3200.0000:   Total depth
 CLNT.            A2DTECH:   Client Code
 SL  . 990' FWL & 1980' FSL:   Surface Location
 PD  .                 GL:   Permanent Datum
 EPD .F              5237:   Elevation Permanent Datum
 LMF .                 KB:   Log Measured From
 DMF .                 KB:   Drilling Measured From
 DAPD.F                13:   Feet Above Permanent Datum
 DATE.        03-JUL-1969:   Date Logged [DD-MMM-YYYY]
 DD  .F              3200:   Depth driller
 DL  .F              3196:   Depth logger
 BLI .F              3195:   Bottom log interval
 TLI .F               676:   Top log interval
 CS1 .IN            10.75:   Casing size
 CBD1.      10.75" @ 675':   Casing driller 1
 CBL1.F               676:   Casing logger 1
 BS1 .IN            6.125:   Bit size
 BSD1.F              3200:   Depth drilled with bit1
 DFT .      FRESH GEL MUD:   Type fluid in hole
 DFD .                9.5:   Density
 DFV .                 46:   Viscosity
 DFPH.                9.5:   pH
 DFL .                6.4:   Fluid loss
 MSS .           FLOWLINE:   Source of sample
 RMS .OHMM           2.05:   Rm
 MST .F                76:   Rm Meas. temp.
 RMF .OHMM           1.49:   Rmf
 MFST.F                78:   Rmf Meas. temp.
 MFSS.               MEAS:   Source Rmf.
 RMB .OHMM           1.34:   Rm. at BHT
 BHT .F               116:   BHT.
 TCS .HRS               2:   Time Circ. stopped
 MRT .F               116:   Maximum recorded temp.
 LUN .               4507:   Logging unit number
 LUL .               CSPR:   Logging unit location
 ENGI.             KNOBEL:   Recorded By
 WITN.                MAY:   Witnessed by
 ORIG.        2" 5" PRINT:   Origin of data
 UWI .     49025600130000:   Unique Well ID
 DICO. A2D TECHNOLOGIES, INC.:   Digitizing Company
~OTHER INFORMATION
~A    DEPT     SPR          ASN      ILD       CALD        GRD       RHOB   
# ...
  260.5000   -55.9408    10.1835    10.4234  -999.2500  -999.2500  -999.2500
  261.0000   -55.9242    10.2609    10.4249  -999.2500  -999.2500  -999.2500
  261.5000   -55.9076    10.1892    10.4263  -999.2500  -999.2500  -999.2500
  262.0000   -55.8910    10.1920    10.4277  -999.2500  -999.2500  -999.2500
  262.5000   -55.8744    10.1949    10.4295  -999.2500  -999.2500  -999.2500
  263.0000   -55.8578    10.1984    10.4307  -999.2500  -999.2500  -999.2500
  263.5000   -55.8412    10.1256    10.4323  -999.2500  -999.2500  -999.2500
  264.0000   -55.8247    10.1291    10.4337  -999.2500  -999.2500  -999.2500
  264.5000   -55.8078    10.0570    10.4355  -999.2500  -999.2500  -999.2500
  265.0000   -55.7921     9.9848    10.3616  -999.2500  -999.2500  -999.2500
  265.5000   -55.6343     9.9127    10.2874  -999.2500  -999.2500  -999.2500
  266.0000   -55.3969     9.9912    10.1797  -999.2500  -999.2500  -999.2500
  266.5000   -55.3909     9.9941    10.1293  -999.2500  -999.2500  -999.2500
  267.0000   -55.3918     9.9970     9.9908  -999.2500  -999.2500  -999.2500
  267.5000   -55.3903    10.0004     9.9926  -999.2500  -999.2500  -999.2500
  268.0000   -55.4678    10.0033     9.9940  -999.2500  -999.2500  -999.2500
  268.5000   -55.5651    10.0811     9.9955  -999.2500  -999.2500  -999.2500
  269.0000   -55.6626    10.0840     9.9972  -999.2500  -999.2500  -999.2500
  269.5000   -55.7646    10.0875     9.9986  -999.2500  -999.2500  -999.2500
  270.0000   -55.7179    10.0146     9.9244  -999.2500  -999.2500  -999.2500
  270.5000   -55.6294     9.9425     9.9262  -999.2500  -999.2500  -999.2500
  271.0000   -55.5398     9.8711    10.0033  -999.2500  -999.2500  -999.2500
  271.5000   -55.4524     9.7247    10.0047  -999.2500  -999.2500  -999.2500
  272.0000   -55.4201     9.6526    10.0061  -999.2500  -999.2500  -999.2500
  272.5000   -55.5108     9.5797     9.7063  -999.2500  -999.2500  -999.2500
  273.0000   -55.5995     9.4332     9.2563  -999.2500  -999.2500  -999.2500
  273.5000   -55.6897     9.5561     9.0318  -999.2500  -999.2500  -999.2500
  274.0000   -55.7791    10.0835     8.8070  -999.2500  -999.2500  -999.2500
  274.5000   -55.6519     9.8471     8.5829  -999.2500  -999.2500  -999.2500
  275.0000   -55.5047     9.5958     8.3584  -999.2500  -999.2500  -999.2500
  275.5000   -55.3405     9.2988     8.0589  -999.2500  -999.2500  -999.2500
  276.0000   -55.0957     9.1067     7.9851  -999.2500  -999.2500  -999.2500
  276.5000   -54.8529     9.0496     7.9111  -999.2500  -999.2500  -999.2500
  277.0000   -54.6193     9.0374     7.9127  -999.2500  -999.2500  -999.2500
  277.5000   -54.7648     9.0709     7.9897  -999.2500  -999.2500  -999.2500
  278.0000   -54.9319     9.1637     8.0664  -999.2500  -999.2500  -999.2500
  278.5000   -55.0971     9.3465     8.2184  -999.2500  -999.2500  -999.2500
  279.0000   -55.2623     9.5745     8.5211  -999.2500  -999.2500  -999.2500
  279.5000   -55.4295    10.0125     8.7487  -999.2500  -999.2500  -999.2500
  280.0000   -55.5759    10.1503     8.9761  -999.2500  -999.2500  -999.2500
  280.5000   -55.3122    10.1681     9.1281  -999.2500  -999.2500  -999.2500
  281.0000   -55.0366    10.1559     9.2806  -999.2500  -999.2500  -999.2500
  281.5000   -54.8310    10.1288     9.4325  -999.2500  -999.2500  -999.2500
  282.0000   -55.0952    10.0724     9.3586  -999.2500  -999.2500  -999.2500
  282.5000   -55.1945    10.0303     9.2846  -999.2500  -999.2500  -999.2500
  283.0000   -55.1966    10.0031     9.2503  -999.2500  -999.2500  -999.2500
  283.5000   -55.1963    10.0060     9.1370  -999.2500  -999.2500  -999.2500
  284.0000   -55.1961    10.0395     9.0635  -999.2500  -999.2500  -999.2500
  284.5000   -55.1961    10.0723     8.9892  -999.2500  -999.2500  -999.2500
  285.0000   -55.1961    10.1051     9.0663  -999.2500  -999.2500  -999.2500
  285.5000   -55.1961    10.1379     9.1431  -999.2500  -999.2500  -999.2500
  286.0000   -55.1961    10.1865     9.2952  -999.2500  -999.2500  -999.2500
  286.5000   -55.1963    10.1893     9.4474  -999.2500  -999.2500  -999.2500
  287.0000   -55.1962     9.6672     9.5242  -999.2500  -999.2500  -999.2500
  287.5000   -55.1775    10.0455     9.6009  -999.2500  -999.2500  -999.2500
  288.0000   -55.0860    10.2732     9.7533  -999.2500  -999.2500  -999.2500
  288.5000   -54.9971    10.2761     9.9053  -999.2500  -999.2500  -999.2500
  289.0000   -54.9080    10.3539    10.0573  -999.2500  -999.2500  -999.2500
  289.5000   -54.8171    10.2817    10.0610  -999.2500  -999.2500  -999.2500
  290.0000   -54.8402    10.1346    10.1358  -999.2500  -999.2500  -999.2500
  290.5000   -54.8847     9.9883    10.0616  -999.2500  -999.2500  -999.2500
  291.0000   -54.9294     9.9161     9.9880  -999.2500  -999.2500  -999.2500
  291.5000   -54.9738     9.8440     9.8389  -999.2500  -999.2500  -999.2500
  292.0000   -55.0182     9.8476     9.6144  -999.2500  -999.2500  -999.2500
  292.5000   -55.0627     9.7005     9.4654  -999.2500  -999.2500  -999.2500
  293.0000   -55.1072     9.7033     9.3160  -999.2500  -999.2500  -999.2500
  293.5000   -55.1522     9.5562     9.3178  -999.2500  -999.2500  -999.2500
  294.0000   -55.1932     9.4848     9.2439  -999.2500  -999.2500  -999.2500
  294.5000   -55.1341     9.4876     9.2457  -999.2500  -999.2500  -999.2500
  295.0000   -55.0707     9.5654     9.1718  -999.2500  -999.2500  -999.2500
  295.5000   -55.0077     9.6432     9.2485  -999.2500  -999.2500  -999.2500
  296.0000   -54.9448     9.8717     9.2500  -999.2500  -999.2500  -999.2500
  296.5000   -54.8820     9.9495     9.2517  -999.2500  -999.2500  -999.2500
  297.0000   -54.8191     9.8766     9.2532  -999.2500  -999.2500  -999.2500
  297.5000   -54.7562     9.8802     9.1789  -999.2500  -999.2500  -999.2500
  298.0000   -54.6934     9.7331     9.1807  -999.2500  -999.2500  -999.2500
  298.5000   -54.6305     9.7366     9.2578  -999.2500  -999.2500  -999.2500
  299.0000   -54.5675     9.5888     9.2592  -999.2500  -999.2500  -999.2500
  299.5000   -54.5048     9.4424     9.3359  -999.2500  -999.2500  -999.2500
  300.0000   -54.4418     9.4453     9.3373  -999.2500  -999.2500  -999.2500
  300.5000   -54.4717    10.0150     9.1867  -999.2500  -999.2500  -999.2500
  301.0000   -54.5847     9.9850     9.2620  -999.2500  -999.2500  -999.2500
  301.5000   -54.6992     9.8951     9.2297  -999.2500  -999.2500  -999.2500
  302.0000   -54.8012     9.8031     9.1867  -999.2500  -999.2500  -999.2500
  302.5000   -54.7655     9.7601     9.1867  -999.2500  -999.2500  -999.2500
  303.0000   -54.7282     9.7751     9.1867  -999.2500  -999.2500  -999.2500
  303.5000   -54.6916     9.7751     8.8855  -999.2500  -999.2500  -999.2500
  304.0000   -54.6551     9.7751     8.7349  -999.2500  -999.2500  -999.2500
  304.5000   -54.6178     9.7451     8.5843  -999.2500  -999.2500  -999.2500
  305.0000   -54.5638     9.7301     8.5843  -999.2500  -999.2500  -999.2500
  305.5000   -54.5019     9.7151     8.5090  -999.2500  -999.2500  -999.2500
  306.0000   -54.4398     9.6552     8.5090  -999.2500  -999.2500  -999.2500
  306.5000   -54.3778     9.6252     8.5364  -999.2500  -999.2500  -999.2500
  307.0000   -54.3158     9.5952     8.5843  -999.2500  -999.2500  -999.2500
  307.5000   -54.2537     9.5802     8.5843  -999.2500  -999.2500  -999.2500
  308.0000   -54.1841     9.5652     8.7349  -999.2500  -999.2500  -999.2500
  308.5000   -54.1021     9.5652     8.7349  -999.2500  -999.2500  -999.2500
  309.0000   -54.0201     9.5952     8.8855  -999.2500  -999.2500  -999.2500
  309.5000   -53.9385     9.6572     8.9608  -999.2500  -999.2500  -999.2500
  310.0000   -53.8554     9.8651     9.0361  -999.2500  -999.2500  -999.2500
  310.5000   -53.8926    10.0769     9.2635  -999.2500  -999.2500  -999.2500
  311.0000   -54.0049    10.1220     9.4880  -999.2500  -999.2500  -999.2500
  311.5000   -54.1188    10.1293     9.4880  -999.2500  -999.2500  -999.2500
  312.0000   -54.2327    10.2120     9.5633  -999.2500  -999.2500  -999.2500
