~VERSION INFORMATION
 VERS.                2.0:   CWLS LOG ASCII STANDARD - VERSION 2.0
 WRAP.                 NO:   ONE LINE PER DEPTH STEP
~WELL INFORMATION
#MNEM.UNIT      DATA TYPE    INFORMATION
#----------   ------------   ------------------------------
 STRT.F            5.5000:   START DEPTH
 STOP.F         3006.0000:   STOP DEPTH
 STEP.F            0.5000:   STEP LENGTH
 NULL.          -999.2500:   NO VALUE
 COMP.    FENIX & SCISSON:   COMPANY
 WELL.  FENIX "AX" #28-28:   WELL
 FLD .  TEAPOT DOME NPR-3:   FIELD
 LOC .      S28 T39N R78W:   LOCATION
 CNTY.            NATRONA:   COUNTY
 STAT.            WYOMING:   STATE
 CTRY. UNITED STATES OF AMERICA:   COUNTRY
 SRVC.           BIRDWELL:   SERVICE COMPANY
 DATE.        23-JAN-1980:   LOGDATE
 API .     49025107960000:   API NUMBER
~CURVE INFORMATION
#MNEM.UNIT       API CODE    CURVE DESCRIPTION
#----------   ------------   ------------------------------
 DEPT.F                  :   
 GRD .GAPI   45 310 01 00:   GAMMA RAY FROM DENSITY LOG
 CALD.IN     45 280 60 00:   CALIPER FROM DENSITY LOG
 DPHI.DEC    45 890 12 00:   DENSITY POROSITY SANDSTONE
 NPHI.DEC    42 890 03 00:   NEUTRON POROSITY SANDSTONE
 CORR.G/C3   45 356 01 00:   DENSITY CORRECTION
 SPR .MV     05 010 01 00:   SPONTANEOUS POTENTIAL FROM RES.
 ILD .OHMM   05 120 40 00:   INDUCTION LOG DEEP RESISTIVITY
 SN  .OHMM   05 040 16 00:   SHORT NORMAL 16"
~PARAMETER INFORMATION
#MNEM.UNIT          VALUE    DESCRIPTION
#----------   ------------   ------------------------------
 EKB .F         5120.0000:   Kelly bushing
 EGL .F         5110.0000:   Ground level
 EDF .F         5119.0000:   Drilling floor
 EPD .F         5110.0000:   Permanent datum
 TD  .F         3006.0000:   Total depth
 CLNT.            A2DTECH:   Client Code
 SL  . 600' FSL & 1300' FWL:   Surface Location
 PD  .                 GL:   Permanent Datum
 DAPD.F                 9:   Feet Above Permanent Datum
 DATE.        23-JAN-1980:   Date Logged [DD-MMM-YYYY]
 DD  .F              3006:   Depth driller
 DL  .F              3006:   Depth logger
 BLI .F              3006:   Bottom log interval
 TLI .F                10:   Top log interval
 CS1 .IN            8.625:   Casing size
 CBD1.      8.625" @ 440':   Casing driller 1
 CBL1.F               460:   Casing logger 1
 BS1 .IN            7.875:   Bit size
 BSD1.F              3006:   Depth drilled with bit1
 DFT .       GEL MUD FULL:   Type fluid in hole
 DFD .                  9:   Density
 DFV .                 46:   Viscosity
 DFPH.                 11:   pH
 DFL .               17.2:   Fluid loss
 MSS .           MUD TANK:   Source of sample
 RMS .OHMM            1.9:   Rm
 MST .F                60:   Rm Meas. temp.
 RMF .OHMM            .73:   Rmf
 MFST.F                62:   Rmf Meas. temp.
 MFSS.               MEAS:   Source Rmf.
 RMC .OHMM            .95:   Rmc
 MCST.F                62:   Rmc Meas. temp.
 TCS .HRS               5:   Time Circ. stopped
 MRT .F               110:   Maximum recorded temp.
 LUN .               3029:   Logging unit number
 LUL .             CASPER:   Logging unit location
 ENGI.           T. WOLFF:   Recorded By
 WITN.           DINSMORE:   Witnessed by
 ORIG.           5" PRINT:   Origin of data
 UWI .     49025107960000:   Unique Well ID
 DICO. A2D TECHNOLOGIES, INC.:   Digitizing Company
~OTHER INFORMATION
~A    DEPT      GRD      CALD       DPHI         NPHI     CORR        SPR        ILD         SN   
# ...
 1301.5000   102.3653     9.3898     0.2471     0.0787     0.0396   -34.2910     7.2028     7.1472
 1302.0000    99.7150     9.3778     0.2498     0.0799     0.0398   -34.2556     7.2083     7.1529
 1302.5000   101.2237     9.3648     0.2524     0.0859     0.0401   -34.3168     7.2655     7.1574
 1303.0000   100.6529     9.3677     0.2581     0.0846     0.0434   -34.4469     7.3232     7.2132
 1303.5000    99.7536     9.3700     0.2662     0.0834     0.0451   -34.7082     7.3288     7.2694
 1304.0000    99.5113     9.3723     0.2625     0.0821     0.0394   -34.8733     7.3869     7.3261
 1304.5000    94.7769     9.3746     0.2547     0.0791     0.0306   -35.0916     7.4456     7.3832
 1305.0000    94.8939     9.3770     0.2490     0.0784     0.0233   -35.2662     7.5046     7.4408
 1305.5000    93.0635     9.3941     0.2474     0.0762     0.0236   -35.8787     7.5642     7.5525
 1306.0000    92.4873     9.3816     0.2506     0.0754     0.0193   -35.8477     7.6242     7.5572
 1306.5000    92.6627     9.3840     0.2591     0.0837     0.0090   -35.6481     7.6848     7.6162
 1307.0000    96.2400     9.3864     0.2715     0.0795     0.0226   -35.5179     7.7525     7.7305
 1307.5000   104.8544     9.4040     0.2859     0.0645     0.0352   -35.2430     7.8087     7.7908
 1308.0000   105.6115     9.4212     0.2873     0.0635     0.0295   -35.4161     7.8147     7.8516
 1308.5000   102.3794     9.4235     0.2519     0.0650     0.0252   -35.1769     7.8767     7.9129
 1309.0000   101.0679     9.3956     0.2417     0.0685     0.0225   -34.4960     7.9392     7.9190
 1309.5000    95.7564     9.3985     0.2446     0.0727     0.0182   -34.5430     8.0022     7.9807
 1310.0000    96.2226     9.4008     0.2515     0.0744     0.0125   -34.6989     8.0657     8.0429
 1310.5000   103.0669     9.4032     0.2580     0.0792     0.0112   -35.4332     8.0719     8.1056
 1311.0000   102.6465     9.4055     0.2610     0.0798     0.0115   -35.6412     8.0781     8.1101
 1311.5000    98.4341     9.3929     0.2544     0.0768     0.0208   -34.8543     8.2005     8.1159
 1312.0000   100.7596     9.3804     0.2513     0.0748     0.0301   -34.4449     8.2656     8.1210
 1312.5000   103.4481     9.3680     0.2540     0.0688     0.0455   -34.6793     8.2719     8.1839
 1313.0000   105.0995     9.3715     0.2608     0.0712     0.0440   -35.0441     8.3377     8.1895
 1313.5000   103.4916     9.3875     0.2732     0.0732     0.0430   -35.1104     8.3442     8.2533
 1314.0000   101.1376     9.3904     0.2844     0.0705     0.0433   -35.2591     8.4118     8.3433
 1314.5000   104.2760     9.3927     0.2784     0.0693     0.0406   -35.0163     8.4785     8.4425
 1315.0000   100.5940     9.3950     0.2750     0.0683     0.0378   -34.6325     8.4851     8.5083
 1315.5000    99.1343     9.3819     0.2723     0.0632     0.0306   -34.6276     8.4916     8.5748
 1316.0000   100.6376     9.3997     0.2663     0.0685     0.0203   -35.2783     8.4981     8.5803
 1316.5000   102.2890     9.3872     0.2545     0.0685     0.0100   -35.4529     8.6269     8.7103
 1317.0000    99.9773     9.3895     0.2452     0.0667     0.0148   -35.7221     8.6335     8.7782
 1317.5000    93.0494     9.3918     0.2323     0.0516     0.0286   -35.8150     8.7020     8.8466
 1318.0000    92.1322     9.4090     0.2235     0.0606     0.0047   -35.6618     8.7711     8.8522
 1318.5000    98.6779     9.4410     0.2244     0.0731     0.0068   -35.9032     8.7778     8.8578
 1319.0000   100.9165     9.4582     0.2318     0.0650     0.0224   -35.9090     8.8476     8.7830
 1319.5000    97.2400     9.4754     0.2405     0.0718     0.0191   -35.4009     8.8545     8.7420
 1320.0000    96.3675     9.4782     0.2389     0.0778     0.0225   -35.0933     8.7981     8.6249
 1320.5000    98.1725     9.4954     0.2433     0.0682     0.0317   -34.6819     8.7423     8.6300
 1321.0000   101.4535     9.5125     0.2464     0.0669     0.0259   -34.6301     8.6868     8.5744
 1321.5000    99.6975     9.4994     0.2442     0.0711     0.0278   -35.0506     8.6952     8.5188
 1322.0000    99.3571     9.5024     0.2403     0.0668     0.0311   -34.5669     8.5770     8.5242
 1322.5000   100.2242     9.4893     0.2387     0.0644     0.0328   -33.8554     8.5852     8.4690
 1323.0000    97.0925     9.4922     0.2426     0.0683     0.0150   -34.0714     8.5918     8.4141
 1323.5000    97.1322     9.4797     0.2470     0.0751     0.0091   -34.4001     8.5984     8.4196
 1324.0000    97.7324     9.4671     0.2518     0.0660     0.0321   -35.1884     8.6051     8.3648
 1324.5000    96.2727     9.4695     0.2584     0.0618     0.0369   -35.5979     8.6117     8.3714
 1325.0000    97.1834     9.4718     0.2571     0.0649     0.0294   -36.0757     8.6058     8.3758
 1325.5000    96.0200     9.4742     0.2535     0.0662     0.0239   -35.5356     8.5954     8.4420
 1326.0000    97.5287     9.4766     0.2510     0.0665     0.0242   -35.1486     8.5851     8.4474
 1326.5000   104.3653     9.4794     0.2504     0.0650     0.0260   -35.4909     8.5763     8.4521
 1327.0000   110.6093     9.4817     0.2507     0.0637     0.0293   -36.0318     8.6460     8.4580
 1327.5000   106.4829     9.4840     0.2536     0.0640     0.0325   -36.2769     8.7770     8.5240
 1328.0000   102.0603     9.4864     0.2551     0.0663     0.0328   -35.9973     8.8466     8.5904
 1328.5000   102.8228     9.4887     0.2460     0.0717     0.0376   -35.8067     8.9807     8.6571
 1329.0000   100.9187     9.4910     0.2364     0.0740     0.0499   -35.4362     9.0519     8.7249
 1329.5000    96.4337     9.4933     0.2322     0.0716     0.0879   -35.8680     9.1238     8.7929
 1330.0000    94.7400     9.4957     0.2318     0.0577     0.1002   -35.7935     9.1310     8.8615
 1330.5000    99.3598     9.5277     0.2237     0.0697     0.0507   -35.7212     8.9460     8.8672
 1331.0000   102.7890     9.5003     0.2203     0.0601     0.0540   -35.9630     8.7633     8.8096
 1331.5000   101.9219     9.3223     0.2242     0.0644     0.0423   -35.4924     8.4627     8.6916
 1332.0000   100.3141     9.1751     0.2286     0.0708     0.0229   -35.7809     8.2310     8.5116
 1332.5000   100.7803     9.1512     0.2433     0.0773     0.0292   -35.9156     8.2963     8.3963
 1333.0000   104.0614     9.1541     0.2396     0.0746     0.0385   -35.2607     8.4220     8.4030
 1333.5000   103.1943     9.1565     0.2336     0.0689     0.0629   -34.6204     8.6108     8.5902
 1334.0000    99.2160     9.1588     0.2432     0.0485     0.0692   -34.2699     8.8669     8.7816
 1334.5000   100.1267     9.1457     0.2497     0.0592     0.0529   -34.3132     8.9373     8.9134
 1335.0000   103.2596     9.1486     0.2500     0.0646     0.0577   -34.7009     8.9441     8.9829
 1335.5000   101.6461     9.1355     0.2502     0.0507     0.0581   -35.0347     8.9510     8.9886
 1336.0000    98.2484     9.1384     0.2445     0.0636     0.0221   -34.8835     8.8942     8.9289
 1336.5000    92.5566     9.1407     0.2544     0.0743     0.0103   -34.4245     8.9014     8.8722
 1337.0000    92.9818     9.1134     0.2606     0.0737     0.0135   -33.9313     8.9734     8.8780
 1337.5000    97.7444     9.1157     0.2618     0.0691     0.0199   -34.8256     8.9803     8.8205
 1338.0000    94.2106     9.1181     0.2548     0.0580     0.0262   -35.3259     8.9873     8.8261
 1338.5000    91.1213     9.1353     0.2422     0.0661     0.0144   -36.2531     8.9942     8.8318
 1339.0000    93.6616     9.1381     0.2350     0.0678     0.0147   -36.6956     8.9820     8.8375
 1339.5000    99.3130     9.1553     0.2358     0.0666     0.0210   -35.8621     8.9423     8.8442
 1340.0000    98.1496     9.1725     0.2379     0.0707     0.0167   -35.5053     8.9509     8.8498
 1340.5000    99.0548     9.1303     0.2384     0.0761     0.0094   -35.6246     8.8924     8.8554
 1341.0000    97.7487     9.1474     0.2399     0.0724     0.0203   -35.2709     8.8375     8.8602
 1341.5000    98.6594     9.1646     0.2509     0.0694     0.0160   -35.2782     8.7815     8.8659
