~VERSION INFORMATION
 VERS.                2.0:   CWLS LOG ASCII STANDARD - VERSION 2.0
 WRAP.                 NO:   ONE LINE PER DEPTH STEP
~WELL INFORMATION
#MNEM.UNIT      DATA TYPE    INFORMATION
#----------   ------------   ------------------------------
 STRT.F           50.0000:   START DEPTH
 STOP.F         5698.0000:   STOP DEPTH
 STEP.F            0.5000:   STEP LENGTH
 NULL.          -999.2500:   NO VALUE
 COMP. LAWRENCE - ALLISON:   COMPANY
 WELL. LAWRENCE TPX #57-3:   WELL
 FLD .              NPR 3:   FIELD
 LOC .       S3 T38N R78W:   LOCATION
 CNTY.            NATRONA:   COUNTY
 STAT.            WYOMING:   STATE
 CTRY. UNITED STATES OF AMERICA:   COUNTRY
 SRVC.       SCHLUMBERGER:   SERVICE COMPANY
 DATE.        09-AUG-1982:   LOGDATE
 API .     49025108900000:   API NUMBER
~CURVE INFORMATION
#MNEM.UNIT       API CODE    CURVE DESCRIPTION
#----------   ------------   ------------------------------
 DEPT.F                  :   
 TEND.LBS    45 635 01 00:   TENSION FROM DENSITY LOG
 CALD.IN     45 280 60 00:   CALIPER FROM DENSITY LOG
 NPHI.DEC    42 890 03 00:   NEUTRON POROSITY SANDSTONE
 CORR.G/C3   45 356 01 00:   DENSITY CORRECTION
 RHOB.G/C3   45 350 01 00:   BULK DENSITY
 SPR .MV     11 010 01 00:   SPONTANEOUS POTENTIAL FROM RESISTIVITY
 TENR.LBS    11 635 01 00:   TENSION FROM RESISTIVITY
 GRR .GAPI   11 310 01 00:   GAMMA RAY FROM RESISTIVITY
 LLD .OHMM   11 220 10 00:   LATEROLOG DEEP
 LLS .OHMM   11 220 09 00:   LATEROLOG LOG SHALLOW
 MSFL.OHMM   11 270 04 00:   MICRO SPHERICALLY FOCUSED
~PARAMETER INFORMATION
#MNEM.UNIT          VALUE    DESCRIPTION
#----------   ------------   ------------------------------
 EKB .F         5190.0000:   Kelly bushing
 EGL .F         5180.0000:   Ground level
 EDF .F         5189.0000:   Drilling floor
 TD  .F         5686.0000:   Total depth
 CLNT.            A2DTECH:   Client Code
 SL  . 1002' FSL & 2479' FEL:   Surface Location
 PD  .                 GL:   Permanent Datum
 EPD .F              5180:   Elevation Permanent Datum
 LMF .                 KB:   Log Measured From
 DMF .                 KB:   Drilling Measured From
 DAPD.F                10:   Feet Above Permanent Datum
 DATE.        09-AUG-1982:   Date Logged [DD-MMM-YYYY]
 DD  .F              5685:   Depth driller
 DL  .F              5686:   Depth logger
 BLI .F              5683:   Bottom log interval
 TLI .F               494:   Top log interval
 CS1 .IN            9.625:   Casing size
 CBD1.      9.625" @ 500':   Casing driller 1
 CBL1.F               494:   Casing logger 1
 BS1 .IN             8.75:   Bit size
 BSD1.F              5685:   Depth drilled with bit1
 DFT .                KCL:   Type fluid in hole
 DFD .                9.0:   Density
 DFV .                 38:   Viscosity
 DFPH.                8.5:   pH
 DFL .                9.0:   Fluid loss
 MSS .            MUDTANK:   Source of sample
 RMS .OHMM           0.27:   Rm
 MST .F                79:   Rm Meas. temp.
 RMF .OHMM           0.27:   Rmf
 MFST.F                79:   Rmf Meas. temp.
 MFSS.               MEAS:   Source Rmf.
 RMB .OHMM            .13:   Rm. at BHT
 BHT .F               164:   BHT.
 TCS .HRS            1300:   Time Circ. stopped
 MRT .F               164:   Maximum recorded temp.
 LUN .               8035:   Logging unit number
 LUL .               CSPR:   Logging unit location
 ENGI.            PERAKIS:   Recorded By
 WITN.           L. FIVAS:   Witnessed by
 ORIG.        2" 5" PRINT:   Origin of data
 UWI .     49025108900000:   Unique Well ID
 DICO. A2D TECHNIOLOGIES,INC.:   Digitizing Company
 RMC .OHMM           0.41:   Rmc
 MCST.F                79:   Rmc Meas. temp.
 MCSS.               CALC:   Source Rmc.
 TLAB.HRS            2000:   Time logger at bottom
~OTHER INFORMATION
~A  DEPTH     TEND       CALD       NPHI       CORR       RHOB        SPR       TENR        GRR        LLD        LLS       MSFL
# ...
 2886.5000  1154.6185     9.8526     0.2770    -0.0016     2.5109   -79.6242  1184.3285   122.4285     6.9233     6.3987     9.2825
 2887.0000  1154.6185     9.8379     0.2674    -0.0030     2.5162   -79.7009  1168.6460   119.1335     7.3675     6.9026     9.9521
 2887.5000  1154.6185     9.8384     0.2634    -0.0015     2.5125   -79.7084  1167.9105   116.1402     7.7866     7.4462    10.6699
 2888.0000  1154.5176     9.8237     0.2604     0.0000     2.5066   -79.1588  1181.9504   114.6546     8.1171     7.9230    11.2047
 2888.5000  1164.9972     9.8242     0.2540     0.0038     2.5084   -78.4819  1166.3046   115.6057     8.3461     8.2016    11.2103
 2889.0000  1177.6866     9.8247     0.2465     0.0076     2.5163   -78.4974  1165.5840   118.9309     8.4065     8.3742    11.2159
 2889.5000  1190.3615     9.8402     0.2369     0.0106     2.5223   -78.5005  1164.8635   121.9708     8.4093     8.3150    11.2216
 2890.0000  1190.3615     9.8406     0.2244     0.0114     2.5231   -78.4991  1164.1429   120.1841     8.5292     8.2065    11.2274
 2890.5000  1183.5876     9.8393     0.2217     0.0047     2.5135   -78.8186  1163.4225   118.6991     8.8912     8.7324    11.3906
 2891.0000  1176.8892     9.8264     0.2214     0.0025     2.5142   -78.6051  1162.6866   116.6108     9.3326     9.2915    12.5547
 2891.5000  1184.5393     9.8118     0.2226     0.0078     2.5247   -78.2338  1176.9072   119.6507     9.4000     9.4220    13.0029
 2892.0000  1199.2993     9.8124     0.2195     0.0138     2.5367   -78.1020  1176.0065   122.6908     9.0855     9.2315    12.3093
 2892.5000  1214.8595     9.8128     0.2186     0.0131     2.5412   -78.0993  1175.2860   122.7197     8.6575     8.7996    12.0624
 2893.0000  1209.3551     9.8132     0.2219     0.0027     2.5215   -78.1005  1174.5658   122.7430     8.0341     8.3833    11.9016
 2893.5000  1203.3782     9.8137     0.2289    -0.0024     2.5137   -78.0561  1188.9508   123.3696     7.5547     7.6203    11.4671
 2894.0000  1197.4222     9.8141     0.2390    -0.0009     2.5160   -77.9935  1173.1248   128.5211     7.1529     6.9703    10.3058
 2894.5000  1190.9535     9.8296     0.2468     0.0030     2.5205   -77.9299  1172.3882   134.8792     6.8191     6.5535     8.9173
 2895.0000  1184.1743     9.8301     0.2564     0.0104     2.5190   -77.8556  1171.5039   137.6175     6.5453     6.5096     8.6175
 2895.5000  1177.4297     9.8155     0.2632     0.0149     2.5146   -77.7698  1170.7833   135.4490     6.7769     6.8793     9.0506
 2896.0000  1178.4890     9.8009     0.2659     0.0179     2.5131   -77.6659  1170.0629   125.3019     7.1239     7.4211    10.0447
 2896.5000  1184.8394     9.7713     0.2623     0.0172     2.5176   -77.5101  1169.3423   121.7053     7.6226     7.8421    10.9198
 2897.0000  1191.1898     9.7267     0.2517     0.0113     2.5236   -77.5994  1168.6218   122.3319     7.7306     7.8437    11.1537
 2897.5000  1191.6237     9.6820     0.2405     0.0016     2.5244   -77.6829  1182.8357   124.7684     7.7865     7.7915    10.6333
 2898.0000  1184.3661     9.6674     0.2323    -0.0020     2.5200   -77.8296  1182.0897   126.3000     7.7891     7.7934    10.6387
 2898.5000  1177.1084     9.6678     0.2266    -0.0005     2.5200   -77.9843  1181.2057   126.9263     7.8454     7.7950    10.6440
 2899.0000  1178.2731     9.6683     0.2257     0.0043     2.5230   -78.0482  1195.5908   126.6481     7.9581     7.8503    10.7232
 2899.5000  1183.6238     9.6688     0.2248     0.0108     2.5268   -77.7983  1194.6904   126.0740     8.1818     7.9060    10.9535
 2900.0000  1188.9745     9.6541     0.2235     0.0093     2.5298   -77.5580  1193.9700   123.0808     8.4127     8.1280    11.1116
 2900.5000  1194.7792     9.6396     0.2223     0.0109     2.5291   -77.3090  1193.5239   118.5793     8.8912     8.5469    11.3559
 2901.0000  1202.5435     9.6400     0.2199     0.0184     2.5329   -77.0181  1193.0902   112.2679     9.6588     9.0147    12.4896
 2901.5000  1211.0275     9.6103     0.2154     0.0221     2.5359   -76.7065  1177.7311   103.8449    12.0499    10.5607    14.7419
 2902.0000  1211.2247     9.4605     0.2098     0.0199     2.5348   -76.3754  1177.2976    90.8969    16.6268    13.9054    17.0445
 2902.5000  1204.3451     9.2203     0.2036     0.0140     2.5166   -76.0381  1161.9385    85.4905    19.2124    17.3297    18.0186
 2903.0000  1197.5873     8.9801     0.1981     0.0088     2.5084   -75.5672  1161.4926    79.3498    21.1573    18.3299    17.6583
 2903.5000  1194.7792     9.0927     0.1894     0.0122     2.5100   -75.0128  1160.9626    74.3818    21.7514    18.0674    14.0742
 2904.0000  1194.7792     9.1616     0.1872     0.0283     2.5122   -74.5389  1160.5292    72.2936    20.5917    16.9870    11.1155
 2904.5000  1194.7792     9.0868     0.1947     0.0321     2.4959   -74.1680  1160.0955    70.8087    18.5782    15.4317     9.9837
 2905.0000  1204.2456     9.0571     0.2086     0.0306     2.4729   -73.7501  1159.6617    71.1338    17.1107    14.3108     9.5839
 2905.5000  1226.0614     9.0425     0.2167     0.0299     2.4475   -73.1213  1159.2280    73.2688    16.7649    14.2149     9.0743
 2906.0000  1247.8772     9.0129     0.2136     0.0277     2.4314   -72.5102  1158.7943    75.1021    17.0012    14.8171     8.8307
 2906.5000  1234.2559     8.9983     0.2030     0.0218     2.4112   -71.8996  1158.3582    76.3322    17.4786    15.6650    10.0715
 2907.0000  1202.7909     9.0138     0.1982     0.0122     2.3963   -71.2883  1157.9105    74.7384    17.6026    15.8777    11.7250
 2907.5000  1174.3462     9.0149     0.1973     0.0040     2.3867   -70.6768  1157.3849    67.9384    16.7791    15.1356    11.9755
 2908.0000  1174.6989     9.0162     0.2024     0.0033     2.3837   -70.0706  1156.9512    62.2303    15.8845    14.6272    11.6449
 2908.5000  1174.6989     9.0176     0.2057     0.0101     2.3793   -69.7234  1156.5176    60.7396    15.9973    14.6301    11.3439
 2909.0000  1174.6989     9.0334     0.2063     0.0131     2.3682   -69.8839  1156.0840    63.4838    16.4541    14.7340    11.8295
 2909.5000  1174.6989     9.0657     0.2047     0.0064     2.3555   -70.0367  1170.6842    63.2055    17.2614    15.0439    12.8550
 2910.0000  1174.6989     9.1400     0.1939     0.0035     2.3511   -70.1886  1170.1421    59.6090    18.2408    15.4664    14.0659
 2910.5000  1174.6989     9.0503     0.1821     0.0043     2.3601   -70.2678  1169.7015    54.8059    19.1437    15.9154    13.9759
 2911.0000  1174.6989     9.0207     0.1800     0.0088     2.3760   -70.1122  1169.1664    51.4833    20.6514    16.9196    14.9807
 2911.5000  1174.6989     9.0214     0.1787     0.0090     2.3859   -69.9642  1168.7327    48.7694    24.0274    19.1517    23.6152
 2912.0000  1174.6989     9.0220     0.1664     0.0029     2.3990   -69.8163  1168.2990    46.7372    36.8018    28.5383    86.8640
 2912.5000  1174.6989     9.0226     0.1227    -0.0050     2.4318   -69.6685  1152.9398    44.6490    69.2759    51.5503   201.3904
 2913.0000  1174.6989     9.0232     0.0908    -0.0087     2.4922   -69.5208  1152.5061    42.2591   139.3573    84.5752   209.9868
 2913.5000  1174.6989     9.0388     0.0622    -0.0042     2.5467   -69.3730  1152.0726    39.8692   191.6763   103.9638   198.8201
 2914.0000  1171.1704     9.0845     0.0438     0.0012     2.5728   -69.2252  1151.6389    40.1943   208.1976   119.3634   178.1537
 2914.5000  1163.8984     9.1152     0.0374     0.0019     2.5810   -69.0775  1151.1941    44.1393   203.9892   120.1551   302.9804
 2915.0000  1156.6265     9.1158     0.0344    -0.0033     2.5841   -68.9297  1150.6631    47.5018   185.3117   111.4332   633.4858
 2915.5000  1154.6185     9.1165     0.0323     0.0027     2.5841   -68.7809  1150.2296    49.0609   160.4364   101.2302   925.7358
 2916.0000  1154.6185     9.0869     0.0314     0.0192     2.5827   -68.6301  1149.7959    52.6618   131.4687    70.3377   737.8383
 2916.5000  1154.6185     9.0275     0.0355     0.0297     2.5795   -68.5212  1149.3622    60.5284    63.3506    41.4404   252.0272
