~VERSION INFORMATION
 VERS.                2.0:   CWLS LOG ASCII STANDARD - VERSION 2.0
 WRAP.                 NO:   ONE LINE PER DEPTH STEP
~WELL INFORMATION
#MNEM.UNIT      DATA TYPE    INFORMATION
#----------   ------------   ------------------------------
 STRT.F           27.5000:   START DEPTH
 STOP.F         5889.0000:   STOP DEPTH
 STEP.F            0.5000:   STEP LENGTH
 NULL.          -999.2500:   NO VALUE
 COMP.   LAWRENCE ALLISON:   COMPANY
 WELL. LAWRENCE "X" #25-11:   WELL
 FLD .        N.P.R NO. 3:   FIELD
 LOC .      S11 T38N R78W:   LOCATION
 CNTY.            NATRONA:   COUNTY
 STAT.            WYOMING:   STATE
 CTRY. UNITED STATES OF AMERICA:   COUNTRY
 SRVC.      DRESSER ATLAS:   SERVICE COMPANY
 DATE.        09-FEB-1983:   LOGDATE
 API .     49025109170000:   API NUMBER
~CURVE INFORMATION
#MNEM.UNIT       API CODE    CURVE DESCRIPTION
#----------   ------------   ------------------------------
 DEPT.F                  :   
 CN  .DEC    42 890 03 00:   NEUTRON POROSITY
 GRD .GAPI   45 310 01 00:   GAMMA RAY FROM DENSITY LOG
 CORR.G/C3   45 356 01 00:   DENSITY CORRECTION
 DEN .G/C3   45 350 01 00:   BULK DENSITY
 CALD.IN     45 280 60 00:   CALIPER FROM DENSITY LOG
 TEND.LBS    45 635 01 00:   TENSION FORM DENSITY LOG
 GRS .GAPI   60 310 01 00:   GAMMA RAY FROM SONIC LOG
 TENS.LBS    60 635 01 00:   TENSION FROM SONIC
 DT  .US/F   60 520 00 00:   DELTA TIME
 SPR .MV     11 010 01 00:   SPONTANEOUS POTENTIAL FROM RES.
 RD  .OHMM   11 220 10 00:   RESISTIVITY DEEP
 RS  .OHMM   11 220 09 00:   RESISTIVITY SHALLOW
 RMLL.OHMM   11 270 04 00:   MICRO LATEROLOG
 TENR.LBS    11 635 01 00:   TENSION FROM RES.
~PARAMETER INFORMATION
#MNEM.UNIT          VALUE    DESCRIPTION
#----------   ------------   ------------------------------
 EKB .F         5196.0000:   Kelly bushing
 EGL .F         5186.0000:   Ground level
 TD  .F         5883.0000:   Total depth
 CLNT.            A2DTECH:   Client Code
 SL  . 1989' FSL & 1148' FWL:   Surface Location
 PD  .                 GL:   Permanent Datum
 EPD .F              5186:   Elevation Permanent Datum
 LMF .                 KB:   Log Measured From
 DMF .                 KB:   Drilling Measured From
 DAPD.F                10:   Feet Above Permanent Datum
 DATE.        09-FEB-1983:   Date Logged [DD-MMM-YYYY]
 DD  .F              5883:   Depth driller
 DL  .F              5882:   Depth logger
 BLI .F              5871:   Bottom log interval
 TLI .F               700:   Top log interval
 CS1 .IN            9.625:   Casing size
 CBD1.      9.625" @ 701':   Casing driller 1
 CBL1.F               700:   Casing logger 1
 BS1 .IN             8.75:   Bit size
 BSD1.F              5883:   Depth drilled with bit1
 DFT .    HEC/DRISPAC/KCL:   Type fluid in hole
 DFD .                  9:   Density
 DFV .                 35:   Viscosity
 DFPH.                  8:   pH
 DFL .                6.4:   Fluid loss
 MSS .           FLOWLINE:   Source of sample
 RMS .OHMM           0.23:   Rm
 MST .F                50:   Rm Meas. temp.
 RMF .OHMM           0.17:   Rmf
 MFST.F                54:   Rmf Meas. temp.
 MFSS.               MEAS:   Source Rmf.
 BHT .F               176:   BHT.
 TCS .HRS              10:   Time Circ. stopped
 MRT .F               176:   Maximum recorded temp.
 LUN .               6274:   Logging unit number
 LUL .               GLTE:   Logging unit location
 ENGI.          TOLLEFSON:   Recorded By
 WITN.           JENNINGS:   Witnessed by
 ORIG.           5" PRINT:   Origin of data
 UWI .     49025109170000:   Unique Well ID
 DICO. A2D TECHNOLOGIES, INC.:   Digitizing Company
 RMC .OHMM           0.41:   Rmc
 MCST.F                54:   Rmc Meas. temp.
 MCSS.               MEAS:   Source Rmc.
~OTHER INFORMATION
~A  DEPTH       CN        GRD       CORR        DEN       CALD       TEND        GRS       TENS         DT        SPR         RD         RS       RMLL       TENR
# ...
 5858.5000     0.0904    29.0492     0.1187     2.8573     8.5702     9.6690  -999.2500   -13.5252    51.6556    33.3552   252.7169   133.1714    45.4560   -45.7148
 5859.0000     0.1003    29.0375     0.1143     2.8476     8.5787     8.2848  -999.2500   -13.9097    52.3281    33.3479   274.4805   139.7830    38.7840   -45.7862
 5859.5000     0.1063    29.0258     0.1053     2.8168     8.5885     6.9006  -999.2500   -14.2858    53.0755    33.3406   254.1403   130.3930    33.0937   -45.8575
 5860.0000     0.1159    29.0141     0.1204     2.7898     8.5900     5.5164  -999.2500   -14.6618    55.0972    33.3333   221.1256   112.6929    30.0507   -38.3861
 5860.5000     0.1243    29.0024     0.1355     2.7741     8.5900     2.0361  -999.2500   -15.0375    57.2689    33.3509   184.5390    87.7627    26.7288   -38.4765
 5861.0000     0.1291    28.9907     0.1430     2.7689     8.5901   -10.9409  -999.2500   -15.4866    58.1662    33.2112   150.8641    73.7726    17.7767   -38.5370
 5861.5000     0.1327    28.9790     0.1491     2.7660     8.5895   -24.2855  -999.2500   -15.8605    57.6905    33.0751   125.0544    54.3511     7.8062   -38.6191
 5862.0000     0.1291    28.9673     0.1581     2.7638     8.5761   -34.6654  -999.2500   -16.2340    56.9792    33.0931   107.3123    45.3711     5.4498   -38.6904
 5862.5000     0.1216    28.9556     0.1643     2.7609     8.5656   -16.0444  -999.2500   -16.6075    54.9925    32.9565    93.3563    41.1630     5.0872   -38.7632
 5863.0000     0.1164    28.9439     0.1717     2.7475     8.5573   -15.5378  -999.2500   -16.9809    52.2189    32.8204    87.6581    39.4788     5.0194   -38.8509
 5863.5000     0.1140    28.9322     0.1778     2.7272     8.5503   -15.5378  -999.2500    -9.8360    51.1694    32.8379    86.3958    38.9295     6.3544   -38.9221
 5864.0000     0.1167    28.9205     0.1599     2.6859     8.5560   -35.4582  -999.2500   -10.2095    50.5697    32.8554    86.9412    38.9244    19.5047   -38.9935
 5864.5000     0.1360    28.9088     0.1374     2.6491     8.5617   -35.4582  -999.2500    -3.0642    50.8696    33.0196    88.0941    39.1903    37.3952   -39.0649
 5865.0000     0.1432    28.8971     0.1195     2.4940     8.5672   -15.5378  -999.2500    41.6747    51.6950    33.1838    87.4146    39.4581    41.7939   -39.1539
 5865.5000     0.1341    28.8854    -0.0439     2.1121     8.5670    24.3028  -999.2500   169.1208    52.1475    33.1982    86.7546    39.4517    40.6729   -39.2253
 5866.0000     0.1239    28.8737    -0.3901     0.9961     8.5612    84.0637  -999.2500   319.1232  -999.2500    33.2153    86.6979    39.4465    33.2917   -31.7372
 5866.5000     0.1221    28.8620    -0.4695     0.9962     8.5553   153.7849  -999.2500   378.8997  -999.2500    33.2293    86.0427    39.1685    19.9600   -31.8264
 5867.0000     0.1266    28.8503    -0.4875     0.9963     8.5500   293.2271  -999.2500   401.0826  -999.2500    33.2434    85.3796    38.8912    12.1329   -31.9004
 5867.5000     0.1307    28.8386    -0.4904     0.9964     8.5500   382.8685  -999.2500   378.1527  -999.2500    33.2609    85.3237    38.8861     8.8908   -39.5283
 5868.0000     0.1319    28.8269    -0.4753     1.1969     8.5500   402.7888  -999.2500   347.7040  -999.2500    33.2749    85.8745    38.6121     7.7455   -32.0404
 5868.5000     0.1217    28.8152    -0.2219     2.0683     8.5500   402.7888  -999.2500   317.2550  -999.2500    33.2889    86.4010    38.5982     7.1313   -32.1295
 5869.0000     0.1100    28.8035    -0.0580     2.9975     8.5500   402.7888  -999.2500   234.1747  -999.2500    33.3033    86.3299    38.6020     6.7974   -32.2021
 5869.5000     0.0943    28.7918  -999.2500     2.9975     8.5500   402.7888  -999.2500   143.5757  -999.2500    33.3183  -999.2500  -999.2500     6.7064   -32.2900
 5870.0000     0.0844    28.7801  -999.2500     2.9976     8.5500   402.7888  -999.2500    75.5326  -999.2500    33.3333  -999.2500  -999.2500     9.0356   -24.8019
 5870.5000     0.0807    28.7684  -999.2500     2.9976     8.5500   402.7888  -999.2500   -37.6228  -999.2500  -999.2500  -999.2500  -999.2500    10.5989   -17.3496
 5871.0000  -999.2500  -999.2500  -999.2500     2.9977     8.5500   382.8685  -999.2500   -98.1467  -999.2500  -999.2500  -999.2500  -999.2500    11.2855   -17.4209
 5871.5000  -999.2500  -999.2500  -999.2500  -999.2500  -999.2500   273.3068  -999.2500  -121.0769  -999.2500  -999.2500  -999.2500  -999.2500    10.5361   -25.0515
 5872.0000  -999.2500  -999.2500  -999.2500  -999.2500  -999.2500   223.5060  -999.2500  -136.4880  -999.2500  -999.2500  -999.2500  -999.2500     9.1782   -25.1229
 5872.5000  -999.2500  -999.2500  -999.2500  -999.2500  -999.2500    52.0421  -999.2500  -144.3803  -999.2500  -999.2500  -999.2500  -999.2500     8.9928   -25.1942
 5873.0000  -999.2500  -999.2500  -999.2500  -999.2500  -999.2500   -41.9643  -999.2500  -144.7538  -999.2500  -999.2500  -999.2500  -999.2500     8.0548   -17.7240
 5873.5000  -999.2500  -999.2500  -999.2500  -999.2500  -999.2500  -112.9132  -999.2500  -137.5938  -999.2500  -999.2500  -999.2500  -999.2500     3.4644    -8.0750
 5874.0000  -999.2500  -999.2500  -999.2500  -999.2500  -999.2500  -145.0199  -999.2500  -145.5012  -999.2500  -999.2500  -999.2500  -999.2500     1.4195   140.4866
 5874.5000  -999.2500  -999.2500  -999.2500  -999.2500  -999.2500  -999.2500  -999.2500  -138.3460  -999.2500  -999.2500  -999.2500  -999.2500     1.2281   268.6204
 5875.0000  -999.2500  -999.2500  -999.2500  -999.2500  -999.2500  -999.2500  -999.2500  -138.7297  -999.2500  -999.2500  -999.2500  -999.2500     1.2372   321.3394
 5875.5000  -999.2500  -999.2500  -999.2500  -999.2500  -999.2500  -999.2500  -999.2500  -139.1032  -999.2500  -999.2500  -999.2500  -999.2500     1.2813   343.8925
 5876.0000  -999.2500  -999.2500  -999.2500  -999.2500  -999.2500  -999.2500  -999.2500  -146.9955  -999.2500  -999.2500  -999.2500  -999.2500     1.3643   351.3627
 5876.5000  -999.2500  -999.2500  -999.2500  -999.2500  -999.2500  -999.2500  -999.2500  -999.2500  -999.2500  -999.2500  -999.2500  -999.2500     1.4934   351.2736
 5877.0000  -999.2500  -999.2500  -999.2500  -999.2500  -999.2500  -999.2500  -999.2500  -999.2500  -999.2500  -999.2500  -999.2500  -999.2500     1.7641   351.2022
 5877.5000  -999.2500  -999.2500  -999.2500  -999.2500  -999.2500  -999.2500  -999.2500  -999.2500  -999.2500  -999.2500  -999.2500  -999.2500     2.4095   351.1310
 5878.0000  -999.2500  -999.2500  -999.2500  -999.2500  -999.2500  -999.2500  -999.2500  -999.2500  -999.2500  -999.2500  -999.2500  -999.2500     6.0515   366.1425
 5878.5000  -999.2500  -999.2500  -999.2500  -999.2500  -999.2500  -999.2500  -999.2500  -999.2500  -999.2500  -999.2500  -999.2500  -999.2500    12.4334   373.6127
 5879.0000  -999.2500  -999.2500  -999.2500  -999.2500  -999.2500  -999.2500  -999.2500  -999.2500  -999.2500  -999.2500  -999.2500  -999.2500    20.1917   335.8162
 5879.5000  -999.2500  -999.2500  -999.2500  -999.2500  -999.2500  -999.2500  -999.2500  -999.2500  -999.2500  -999.2500  -999.2500  -999.2500    21.3500   252.7886
 5880.0000  -999.2500  -999.2500  -999.2500  -999.2500  -999.2500  -999.2500  -999.2500  -999.2500  -999.2500  -999.2500  -999.2500  -999.2500    21.6581    90.3550
 5880.5000  -999.2500  -999.2500  -999.2500  -999.2500  -999.2500  -999.2500  -999.2500  -999.2500  -999.2500  -999.2500  -999.2500  -999.2500    21.6672   -11.3235
 5881.0000  -999.2500  -999.2500  -999.2500  -999.2500  -999.2500  -999.2500  -999.2500  -999.2500  -999.2500  -999.2500  -999.2500  -999.2500    21.6779   -94.3512
 5881.5000  -999.2500  -999.2500  -999.2500  -999.2500  -999.2500  -999.2500  -999.2500  -999.2500  -999.2500  -999.2500  -999.2500  -999.2500    21.8391  -154.7543
 5882.0000  -999.2500  -999.2500  -999.2500  -999.2500  -999.2500  -999.2500  -999.2500  -999.2500  -999.2500  -999.2500  -999.2500  -999.2500    21.8483  -162.3681
 5882.5000  -999.2500  -999.2500  -999.2500  -999.2500  -999.2500  -999.2500  -999.2500  -999.2500  -999.2500  -999.2500  -999.2500  -999.2500    21.7053  -162.4562
