~VERSION INFORMATION
 VERS.                2.0:   CWLS LOG ASCII STANDARD - VERSION 2.0
 WRAP.                 NO:   ONE LINE PER DEPTH STEP
~WELL INFORMATION
#MNEM.UNIT      DATA TYPE    INFORMATION
#----------   ------------   ------------------------------
 STRT.F            0.5000:   START DEPTH
 STOP.F          582.5000:   STOP DEPTH
 STEP.F            0.5000:   STEP LENGTH
 NULL.          -999.2500:   NO VALUE
 COMP.   LAWRENCE ALLISON:   COMPANY
 WELL. LAWRANCE SHX #31-34:   WELL
 FLD .             NPR #3:   FIELD
 LOC .      S34 T39N R78W:   LOCATION
 CNTY.            NATRONA:   COUNTY
 STAT.            WYOMING:   STATE
 CTRY. UNITED STATES OF AMERICA:   COUNTRY
 SRVC.           GEARHART:   SERVICE COMPANY
 DATE.        22-SEP-1988:   LOGDATE
 API .     49025112470000:   API NUMBER
~CURVE INFORMATION
#MNEM.UNIT       API CODE    CURVE DESCRIPTION
#----------   ------------   ------------------------------
 DEPT.F                  :   
 GRR .GAPI   07 310 01 00:   GAMMA RAY FROM RESISTIVITY
 RILD.OHMM   07 120 46 00:   RESISTIVITY INDUCTION LOG DEEP
 RILM.OHMM   07 120 44 00:   RESISTIVITY INDUCTION LOG MEDIUM
 TENR.LBS    07 635 01 00:   TENSION FROM RESISTIVITY
~PARAMETER INFORMATION
#MNEM.UNIT          VALUE    DESCRIPTION
#----------   ------------   ------------------------------
 EKB .F         5075.0000:   Kelly bushing
 EGL .F         5065.0000:   Ground level
 EDF .F            0.0000:   Drilling floor
 TD  .F          577.5000:   Total depth
 CLNT.            A2DTECH:   Client Code
 PD  .                 GL:   Permanent Datum
 EPD .F              5065:   Elevation Permanent Datum
 LMF .                 KB:   Log Measured From
 DMF .                 KB:   Drilling Measured From
 DAPD.F                10:   Feet Above Permanent Datum
 DATE.        22-SEP-1988:   Date Logged [DD-MMM-YYYY]
 DD  .F               575:   Depth driller
 DL  .F             577.5:   Depth logger
 BLI .F               569:   Bottom log interval
 TLI .F                 0:   Top log interval
 CS1 .IN            9.625:   Casing size
 CBD1.       9.625" @ 50':   Casing driller 1
 CBL1.F                50:   Casing logger 1
 BS1 .IN             8.75:   Bit size
 BSD1.F               575:   Depth drilled with bit1
 DFT .                AIR:   Type fluid in hole
 TLAB.HRS            2350:   Time logger at bottom
 MRT .F                70:   Maximum recorded temp.
 LUN .               7597:   Logging unit number
 LUL .           GILLETTE:   Logging unit location
 ENGI.          HUCKFFLOT:   Recorded By
 WITN.             STRONG:   Witnessed by
 ORIG.           5" PRINT:   Origin of data
 UWI .     49025112470000:   Unique Well ID
 DICO. A2D TECHNOLOGIES, INC.:   Digitizing Company
 SL  . 324' FNL & 1963' FEL:   Surface Location
~OTHER INFORMATION
~A    DEPT      GRR      RILD       RILM       TENR   
# ...
  146.5000   108.2335    11.5351    10.5874     0.3831
  147.0000   107.9382    11.3808    10.3709     0.3284
  147.5000   108.2505    11.3845    10.1585     0.2736
  148.0000   108.8643    11.3095    10.0895     0.2189
  148.5000   109.1745    10.9285    10.0912     0.1642
  149.0000   108.8813    10.9320    10.1628     0.1095
  149.5000   108.2864    10.9356    10.3065     0.0547
  150.0000   107.3489    10.9391    10.4519     0.0000
  150.5000   106.8223    10.8670    10.5261     0.0000
  151.0000   106.2119    10.9471    10.5278     0.0000
  151.5000   105.4836    11.1809    10.6763     0.0000
  152.0000   104.7552    11.3408    10.7521     0.0000
  152.5000   104.0268    11.4243    10.7535     0.0000
  153.0000   103.2779    11.4280    10.9055     0.0000
  153.5000   102.3901    11.2742    10.9070     0.0000
  154.0000   100.8990    10.8944    10.7580     0.0000
  154.5000    96.0940    10.6735    10.6111     0.0000
  155.0000    95.5036    10.6023    10.3941     0.0000
  155.5000   100.0500    10.5302     9.7660     0.0000
  156.0000   103.6871    10.3206     9.4995     0.0000
  156.5000   105.8220    10.1817     9.2344     0.0000
  157.0000   105.8374     9.9753     8.8209     0.0000
  157.5000   104.6480     9.9096     8.8852     0.0000
  158.0000   103.4586     9.8443     8.8649     0.0000
  158.5000   102.2691     9.7802     8.8421     0.0000
  159.0000   101.3814     9.7158     8.8193     0.0000
  159.5000   103.5145     9.7197     8.7965     0.0000
  160.0000    99.9118     9.7228     8.7736     0.0000
  160.5000   100.8340     9.5257     8.7508     0.0000
  161.0000   102.9628     9.3920     8.7280     0.0000
  161.5000   105.1443     9.3356     8.7051     0.0000
  162.0000   106.6214     9.3394     8.6823     0.0000
  162.5000   105.4320     9.2778     8.6595     0.0000
  163.0000   103.9409     9.3462     8.6366     0.0000
  163.5000   102.4498     9.3493     8.6138     0.0000
  164.0000   100.9231     9.3523     8.5910     0.0000
  164.5000    99.7736     9.3554     8.5681     0.0000
  165.0000   100.3942     9.3591     8.5453     0.0000
  165.5000   101.6180     9.3622     8.5225     0.0000
  166.0000   103.1435     9.3652     8.4997     0.0000
  166.5000   102.8135     9.2392     8.4768     0.0000
  167.0000   100.7690     9.1783     8.4499     0.0000
  167.5000   101.0878     8.9922     8.3932     0.0000
  168.0000   103.5183     8.8106     8.2796     0.0000
  168.5000   106.5521     8.6320     8.0556     0.0000
  169.0000   105.9660     8.3992     7.9961     0.0000
  169.5000   105.0826     8.2290     7.7854     0.0000
  170.0000   104.4921     8.0584     7.4182     0.0000
  170.5000   106.0219     7.8441     7.2165     0.0000
  171.0000   108.7662     7.7385     6.9244     0.0000
  171.5000   112.0939     7.7417     6.6904     0.0000
  172.0000   112.4084     7.7448     6.6455     0.0000
  172.5000   110.6200     7.7473     6.6940     0.0000
  173.0000   108.2239     7.8038     6.7424     0.0000
  173.5000   105.4982     7.8063     6.7442     0.0000
  174.0000   105.2417     7.7549     6.8407     0.0000
  174.5000   106.7716     7.7580     7.0351     0.0000
  175.0000   107.6937     7.8145     7.2351     0.0000
  175.5000   108.0126     7.8715     7.2370     0.0000
  176.0000   108.0302     7.9295     7.2389     0.0000
  176.5000   108.6547     7.9320     7.2413     0.0000
  177.0000   109.8785     7.9898     7.2432     0.0000
  177.5000   112.3090     8.0487     7.2955     0.0000
  178.0000   115.9461     8.1074     7.3001     0.0000
  178.5000   115.9633     8.1752     7.1988     0.0000
  179.0000   114.4765     8.3318     7.3018     0.0000
  179.5000   113.5888     8.5086     7.3546     0.0000
  180.0000   112.0977     8.5695     7.5705     0.0000
  180.5000   110.6066     8.6313     7.7789     0.0000
  181.0000   109.7188     8.6931     7.8898     0.0000
  181.5000   108.5337     8.6948     7.8918     0.0000
  182.0000   111.2658     8.7571     7.7851     0.0000
  182.5000   113.3947     8.7588     7.6272     0.0000
  183.0000   114.0152     8.7609     7.5764     0.0000
  183.5000   114.0367     8.7017     7.5784     0.0000
  184.0000   114.6572     8.7038     7.5804     0.0000
  184.5000   117.6910     8.5856     7.5300     0.0000
  185.0000   118.9149     8.4690     7.4804     0.0000
  185.5000   119.2338     8.3539     7.4301     0.0000
  186.0000   118.9493     8.3559     7.3296     0.0000
  186.5000   118.3675     8.2998     7.3320     0.0000
  187.0000   117.7814     8.2441     7.4883     0.0000
  187.5000   117.4969     8.1325     7.5954     0.0000
  188.0000   116.5973     8.1341     7.5974     0.0000
  188.5000   116.3247     8.1357     7.5994     0.0000
  189.0000   116.9496     8.1377     7.6544     0.0000
  189.5000   117.5701     8.1394     7.6569     0.0000
  190.0000   117.8890     8.0843     7.6589     0.0000
  190.5000   117.3029     8.1426     7.7143     0.0000
  191.0000   116.7210     8.1442     7.6624     0.0000
  191.5000   116.1306     8.1462     7.6099     0.0000
  192.0000   114.9455     8.1478     7.3039     0.0000
  192.5000   114.0573     8.1494     7.1053     0.0000
  193.0000   114.7109     8.1510     7.1076     0.0000
  193.5000   115.6048     8.1530     7.1590     0.0000
  194.0000   116.2253     8.0423     7.1959     0.0000
  194.5000   114.7342     7.8238     7.1462     0.0000
  195.0000   112.0365     7.7175     7.0969     0.0000
  195.5000   110.5037     7.6127     7.0479     0.0000
  196.0000   110.2609     7.5097     6.9509     0.0000
  196.5000   111.7908     7.2552     6.8063     0.0000
  197.0000   113.3163     7.0093     6.5306     0.0000
  197.5000   114.8418     6.8189     6.2213     0.0000
  198.0000   116.3716     6.7263     5.9679     0.0000
  198.5000   117.5954     6.6349     5.7647     0.0000
  199.0000   118.2160     6.4999     5.4917     0.0000
  199.5000   117.3282     6.5464     5.5299     0.0000
  200.0000   115.2338     6.5477     5.7249     0.0000
  200.5000   114.6477     6.7031     5.9267     0.0000
  201.0000   115.5742     6.7968     6.0990     0.0000
  201.5000   117.4013     6.9398     6.2646     0.0000
  202.0000   118.3192     7.0368     6.3962     0.0000
  202.5000   115.3041     7.2349     6.5306     0.0000
  203.0000   112.6307     7.4386     6.6678     0.0000
  203.5000   113.2513     7.6480     6.7608     0.0000
  204.0000   114.1734     7.7013     6.8552     0.0000
  204.5000   114.1906     7.6411     6.8078     0.0000
  205.0000   113.5847     7.4386     6.8078     0.0000
  205.5000   112.7211     7.3360     6.7608     0.0000
  206.0000   113.0399     7.2349     6.6678     0.0000
  206.5000   114.2638     7.1849     6.5306     0.0000
  207.0000   113.6356     7.1352     6.3520     0.0000
  207.5000   112.7522     7.0368     6.0933     0.0000
  208.0000   112.1652     6.7498     5.9679     0.0000
  208.5000   113.1003     6.3831     5.8858     0.0000
  209.0000   114.4008     6.0403     5.7647     0.0000
  209.5000   116.4752     5.6745     5.5607     0.0000
  210.0000   115.8939     5.4054     5.1955     0.0000
  210.5000   113.5000     5.2211     4.7941     0.0000
  211.0000   107.7827     5.1491     4.3177     0.0000
  211.5000    99.0501     5.1135     3.9376     0.0000
  212.0000    98.1610     5.1491     4.1621     0.0000
  212.5000    99.3982     5.2574     4.3994     0.0000
  213.0000   102.4423     5.4810     4.7484     0.0000
  213.5000   106.0927     5.7454     5.0808     0.0000
  214.0000   110.0468     6.2104     5.4131     0.0000
  214.5000   113.3930     6.5196     5.7249     0.0000
  215.0000   115.2287     6.7078     5.9267     0.0000
  215.5000   115.5538     6.9398     6.2646     0.0000
  216.0000   114.6546     7.1849     6.4407     0.0000
  216.5000   114.0891     7.3871     6.5306     0.0000
  217.0000   112.9094     7.5450     6.6678     0.0000
  217.5000   111.7239     7.7013     6.8078     0.0000
  218.0000   109.0463     7.8089     6.9029     0.0000
  218.5000   110.2940     7.9181     6.9509     0.0000
  219.0000   112.8883     7.9732     7.0479     0.0000
