~VERSION INFORMATION
 VERS.                2.0:   CWLS LOG ASCII STANDARD - VERSION 2.0
 WRAP.                 NO:   ONE LINE PER DEPTH STEP
~WELL INFORMATION
#MNEM.UNIT      DATA TYPE    INFORMATION
#----------   ------------   ------------------------------
 STRT.F          388.0000:   START DEPTH
 STOP.F         3166.0000:   STOP DEPTH
 STEP.F            0.5000:   STEP LENGTH
 NULL.          -999.2500:   NO VALUE
 COMP.    PENIX & SCISSON:   COMPANY
 WELL. PENIX NPR 3 "AX" #34-28:   WELL
 FLD .                NPR:   FIELD
 LOC .      S28 T39N R78W:   LOCATION
 CNTY.            NATRONA:   COUNTY
 STAT.            WYOMING:   STATE
 CTRY. UNITED STATES OF AMERICA:   COUNTRY
 SRVC.              WELEX:   SERVICE COMPANY
 DATE.        15-DEC-1978:   LOGDATE
 API .     49025107950000:   API NUMBER
~CURVE INFORMATION
#MNEM.UNIT       API CODE    CURVE DESCRIPTION
#----------   ------------   ------------------------------
 DEPT.F                  :   
 CALD.IN     45 280 60 00:   CALIPER FROM DENSITY LOG
 GRD .GAPI   45 310 01 00:   GAMMA RAY FROM DENSITY LOG
 RHOB.G/C3   45 350 01 00:   BULK DENSITY
 CORR.G/C3   45 356 01 00:   DENSITY CORRECTION
 NPHI.DEC    42 890 03 00:   NEUTRON POROSITY SANDSTONE
 SPR .MV     07 010 01 00:   SPONTANEOUS POTENTIAL
 SGRD.OHMM   07 220 05 00:   SHALLOW GUARD
 ILD .OHMM   07 120 46 00:   DEEP INDUCTION RESISTIVITY
 ILM .OHMM   07 120 44 00:   INDUCTION LOG MEDIUM RESISTIVITY
 TENR.LBS    07 635 01 00:   TENSION FROM RESISTIVITY
~PARAMETER INFORMATION
#MNEM.UNIT          VALUE    DESCRIPTION
#----------   ------------   ------------------------------
 EKB .F         5039.0000:   Kelly bushing
 EGL .F         5029.0000:   Ground level
 EDF .F            0.0000:   Drilling floor
 TD  .F         3159.0000:   Total depth
 DATE.        15-DEC-1978:   Date logged
 CLNT.            A2DTECH:   Client Code
 SL  . 2434' FNL & 1651' FWL:   Surface Location
 PD  .                 GL:   Permanent Datum
 EPD .F              5029:   Elevation Permanent Datum
 LMF .                 KB:   Log Measured From
 DMF .                 KB:   Drilling Measured From
 DAPD.F                10:   Feet Above Permanent Datum
 DD  .F              3155:   Depth driller
 DL  .F              3159:   Depth logger
 BLI .F              3157:   Bottom log interval
 TLI .F               350:   Top log interval
 CS1 .IN            8.625:   Casing size
 CBD1.      8.625" @ 383':   Casing driller 1
 CBL1.F               398:   Casing logger 1
 BS1 .IN            7.875:   Bit size
 BSD1.F              3155:   Depth drilled with bit1
 DFT .           CHEM/GEL:   Type fluid in hole
 DFD .                8.5:   Density
 DFV .                 55:   Viscosity
 DFPH.                 10:   pH
 DFL .               10.8:   Fluid loss
 MSS .           FLOWLINE:   Source of sample
 RMS .OHMM           1.65:   Rm
 MST .F                65:   Rm Meas. temp.
 RMF .OHMM           1.32:   Rmf
 MFST.F                65:   Rmf Meas. temp.
 RMC .OHMM           1.98:   Rmc
 MCST.F                65:   Rmc Meas. temp.
 MFSS.               CALC:   Source Rmf.
 RMB .OHMM              1:   Rm. at BHT
 BHT .F               107:   BHT.
 TCS .HRS               8:   Time Circ. stopped
 MRT .F               107:   Maximum recorded temp.
 LUN .               1892:   Logging unit number
 LUL .             CASPER:   Logging unit location
 ENGI.               REIN:   Recorded By
 WITN.              AMEND:   Witnessed by
 ORIG.           5" PRINT:   Origin of data
 UWI .     49025107950000:   Unique Well ID
 DICO. A2D TECHNOLOGIES, INC.:   Digitizing Company
~OTHER INFORMATION
~A   DEPT     CALD         GRD      RHOB       CORR       NPHI        SPR       SGRD        ILD        ILM       TENR   
# ...
 1862.0000     8.2917   161.8733     2.5135     0.0678     0.2498   -20.8869    11.8784     8.3987     8.9638  1469.0542
 1862.5000     8.2915   165.0934     2.5034     0.0475     0.2530   -20.8914    12.2124     8.5549     9.0402  1469.3242
 1863.0000     8.2913   160.6597     2.4993     0.0373     0.2554   -20.8959    12.2102     8.6337     9.0454  1469.5942
 1863.5000     8.2911   159.4480     2.5003     0.0271     0.2563   -20.9004    12.0945     8.6325     9.1288  1469.8643
 1864.0000     8.2909   154.6108     2.5014     0.0271     0.2591   -20.9049    12.0923     8.6302     9.2126  1470.1343
 1864.5000     8.2909   158.2349     2.5044     0.0291     0.2603   -20.9094    11.4337     8.5489     9.2109  1470.4043
 1865.0000     8.2704   164.6801     2.5064     0.0311     0.2607   -20.9139    11.3258     8.5470     9.2089  1470.6744
 1865.5000     8.2501   161.8566     2.5104     0.0291     0.2623   -20.9184    11.1150     8.5461     9.2935  1470.9445
 1866.0000     8.2499   159.4365     2.5124     0.0352     0.2639   -20.9229    10.7070     8.4649     9.1201  1471.2145
 1866.5000     8.2498   160.6430     2.5145     0.0372     0.2664   -20.9274    11.0081     8.2296     9.0341  1471.4845
 1867.0000     8.2496   159.8367     2.4983     0.0291     0.2676   -20.9319    11.2128     8.2283     8.9483  1471.7546
 1867.5000     8.2494   158.6249     2.4983     0.0270     0.2680   -20.9364    11.4214     8.1511     8.9467  1431.6376
 1868.0000     8.2694   155.8031     2.5003     0.0331     0.2708   -20.9409    11.5261     8.2253     8.9450  1472.2947
 1868.5000     8.2895   154.1858     2.5003     0.0270     0.2728   -20.9454    11.5240     8.2241     8.9437  1472.5648
 1869.0000     8.2691   151.7654     2.4993     0.0270     0.2728   -21.3530    11.5219     8.2220     9.0262  1472.8350
 1869.5000     8.2689   150.1510     2.5003     0.0270     0.2708   -20.9544    11.5198     8.2207     9.1081  1473.1050
 1870.0000     8.2485   147.3276     2.5104     0.0351     0.2708   -20.9589    12.0654     8.2956     9.1064  1473.3751
 1870.5000     8.2483   145.7131     2.5225     0.0473     0.2728   -20.9634    12.0638     8.2944     9.1047  1473.6451
 1871.0000     8.2482   146.5170     2.5255     0.0412     0.2708   -20.7664    12.0628     8.2932     9.1044  1453.6661
 1871.5000     8.2278   149.3350     2.5154     0.0310     0.2720   -20.1691    12.0611     8.2919     9.1867  1474.1855
 1872.0000     8.2478   159.8102     2.4982     0.0229     0.2728   -20.3298    11.8353     8.2904     9.1853  1474.4556
 1872.5000     8.2477   158.5988     2.5003     0.0290     0.2724   -20.3769    11.8336     8.2880     9.1836  1454.4758
 1873.0000     8.2475   158.5963     2.5003     0.0290     0.2724   -20.5829    11.2923     8.2867     9.1823  1474.9958
 1873.5000     8.2674   164.6383     2.5043     0.0310     0.2704   -20.5875    11.2915     8.2855     9.1185  1475.3201
 1874.0000     8.2471   160.2036     2.5134     0.0371     0.2696   -20.5920    10.9787     8.2834     9.0552  1475.5902
 1874.5000     8.2873   164.6331     2.5225     0.0391     0.2648   -20.5965    10.5756     8.2050     8.9923  1496.1115
 1875.0000     8.2870   159.7958     2.5204     0.0350     0.2632   -20.6010    10.4754     8.1276     8.9299  1476.1306
 1875.5000     8.2870   157.7782     2.5214     0.0269     0.2628   -20.6055    10.4742     8.0507     8.8679  1476.4008
 1876.0000     8.2666   160.5961     2.5123     0.0208     0.2668   -20.6100    10.4504     7.8998     8.8063  1476.6709
 1876.5000     8.2865   154.5490     2.5073     0.0208     0.2668   -20.6145    10.4488     7.8253     8.7520  1476.9410
 1877.0000     8.2865   148.9039     2.5063     0.0187     0.2672   -20.6190    10.4469     7.8239     8.5090  1477.2113
 1877.5000     8.2861   150.5136     2.5032     0.0207     0.2680   -20.8250    10.4450     7.8227     8.5074  1457.2290
 1878.0000     8.2860   156.1539     2.4962     0.0167     0.2684   -20.4266    10.4431     7.8213     8.5065  1416.9933
 1878.5000     8.2859   159.7795     2.5022     0.0309     0.2676   -20.8340    10.4412     7.8201     8.4256  1457.7689
 1879.0000     8.2856   166.6282     2.5073     0.0329     0.2644   -20.8385    10.5368     7.8187     8.4238  1458.0389
 1879.5000     8.2854   169.0443     2.5042     0.0187     0.2620   -21.0444    10.6336     7.8166     8.4228  1458.3090
 1880.0000     8.2852   178.3148     2.4921     0.0004     0.2604   -21.0489    10.9334     7.7426     8.4216  1438.3250
 1880.5000     8.2851   177.1038     2.4719    -0.0159     0.2612   -21.2548    10.9314     7.7421     8.4200  1458.8488
 1881.0000     8.2849   171.4558     2.4769    -0.0058     0.2604   -21.2593    11.0318     7.7398     8.4185  1479.3732
 1881.5000     8.2847   168.2306     2.4860     0.0003     0.2600   -21.2638    11.0298     7.7383     8.4169  1479.6436
 1882.0000     8.2845   167.4208     2.4901     0.0064     0.2592   -20.8655    10.8447     7.7372     8.4148  1419.1490
 1882.5000     8.2844   160.1624     2.4921     0.0084     0.2575   -21.2728    10.6428     7.8085     8.3342  1459.9829
 1883.0000     8.2438   161.3693     2.4921     0.0125     0.2555   -21.4786    10.6409     7.8071     8.3333  1480.4543
 1883.5000     8.2638   164.9934     2.4971     0.0186     0.2531   -21.0804    10.6389     7.9523     8.3323  1460.4690
 1884.0000     8.2436   159.7521     2.4991     0.0226     0.2479   -21.4876    10.6378     8.0254     8.3308  1460.7390
 1884.5000     8.2837   154.1062     2.5062     0.0287     0.2471   -21.4921    10.6362     8.0233     8.3293  1461.0090
 1885.0000     8.2834   152.0882     2.5082     0.0348     0.2467   -21.4966    10.8334     7.8732     8.3271  1461.2791
 1885.5000     8.2834   155.3106     2.5143     0.0389     0.2475   -21.7033    11.0345     7.8724     8.3259  1461.5492
 1886.0000     8.2616   157.3233     2.4991     0.0267     0.2483   -21.7069    11.0324     7.8709     8.3243  1421.4133
 1886.5000     8.2426   150.8714     2.4981     0.0226     0.2483   -21.7096    11.0317     7.8692     8.3222  1462.1433
 1887.0000     8.2563   151.6751     2.5001     0.0266     0.2507   -21.7159    11.0286     7.8689     8.3213  1462.4135
 1887.5000     8.2624   153.2852     2.5021     0.0348     0.2551   -21.5190    11.1289     7.7938     8.3191  1462.6835
 1888.0000     8.2622   151.2670     2.5041     0.0286     0.2568   -21.5235    11.1277     7.7923     8.3176  1462.9536
 1888.5000     8.2622   156.9080     2.4920     0.0225     0.2572   -21.7293    11.1257     7.7903     8.3163  1442.9655
 1889.0000     8.2820   156.9061     2.4839     0.0185     0.2568   -21.5324    11.0210     7.7889     8.3924  1463.4938
 1889.5000     8.2819   156.5010     2.4738     0.0063     0.2576   -21.5369    10.8161     7.7877     8.3912  1463.7639
 1890.0000     8.2816   155.2886     2.4657     0.0022     0.2596   -20.9374    10.7139     7.7863     8.3903  1464.0341
 1890.5000     8.2816   153.2704     2.4657     0.0022     0.2628   -21.3446    10.5136     7.7845     8.3890  1464.3042
 1891.0000     8.2813   150.8489     2.4718     0.0022     0.2636   -21.5504    10.5121     7.7831     8.3862  1464.5743
 1891.5000     8.2811   154.8776     2.4768     0.0123     0.2665   -21.3535    10.5102     7.7816     8.3850  1464.8445
 1892.0000     8.2608   160.1164     2.4900     0.0225     0.2677   -21.3580    10.4105     7.7082     8.3835  1404.3346
 1892.5000     8.2607   162.5330     2.4920     0.0265     0.2677   -20.9599    10.1219     7.7071     8.3819  1465.3848
 1893.0000     8.2604   166.1583     2.4910     0.0326     0.2673   -21.1657    10.0263     7.5626     8.3801  1465.6550
 1893.5000     8.2804   165.7542     2.4920     0.0367     0.2665   -20.9689     9.7487     7.4918     8.3007  1465.9250
 1894.0000     8.2803   161.7195     2.4970     0.0448     0.2637   -20.9734     9.6563     7.4203     8.2224  1425.7811
 1894.5000     8.2994   159.2980     2.5010     0.0549     0.2633   -20.9779     9.6548     7.3503     8.2209  1466.4655
 1895.0000     8.3185   155.6668     2.5071     0.0610     0.2604   -20.9824     9.6531     7.2802     8.0674  1466.7357
