~VERSION INFORMATION
 VERS.                2.0:   CWLS LOG ASCII STANDARD - VERSION 2.0
 WRAP.                 NO:   ONE LINE PER DEPTH STEP
~WELL INFORMATION
#MNEM.UNIT      DATA TYPE    INFORMATION
#----------   ------------   ------------------------------
 STRT.F            0.0000:   START DEPTH
 STOP.F         3440.0000:   STOP DEPTH
 STEP.F            0.5000:   STEP LENGTH
 NULL.          -999.2500:   NO VALUE
 COMP. FLOOR DANIEL (NPSOR):   COMPANY
 WELL. FLOOR DANIEL "SHX" #48-34:   WELL
 FLD .                NPR:   FIELD
 LOC .      S34 T39N R78W:   LOCATION
 CNTY.            NATRONA:   COUNTY
 STAT.            WYOMING:   STATE
 CTRY. UNITED STATES OF AMERICA:   COUNTRY
 SRVC.      WESTERN ATLAS:   SERVICE COMPANY
 DATE.        06-APR-1995:   LOGDATE
 API .     49025109220000:   API NUMBER
~CURVE INFORMATION
#MNEM.UNIT       API CODE    CURVE DESCRIPTION
#----------   ------------   ------------------------------
 DEPT.F                  :   
 TEND.LBS    45 635 01 00:   TENSION FROM DENSITY LOG
 ZCOR.G/C3   45 356 01 00:   DENSITY CORRECTION
 ZDEN.G/C3   45 350 01 00:   BULK DENSITY
 CALD.IN     45 280 60 00:   CALIPER FROM DENSITY LOG
 CNC .DEC    42 890 03 00:   NEUTRON POROSITY SANDSTONE
 GRR .GAPI   07 310 01 00:   GAMMA RAY FROM RESISTIVITY
 TENR.LBS    07 635 01 00:   TENSION FROM RESISTIVITY
 RFOC.OHMM   07 220 04 00:   RESISTIVITY FOCUSED LOG RES.
 RILD.OHMM   07 120 46 00:   DEEP INDUCTION RESISTIVITY
 RILM.OHMM   07 120 44 00:   INDUCTION LOG MEDIUM RESISTIVITY
~PARAMETER INFORMATION
#MNEM.UNIT          VALUE    DESCRIPTION
#----------   ------------   ------------------------------
 EKB .F         5182.0000:   Kelly bushing
 EGL .F         5172.0000:   Ground level
 EDF .F            0.0000:   Drilling floor
 EPD .F            0.0000:   Permanent datum
 TD  .F         3442.0000:   Total depth
 DATE.        06-APR-1995:   Date logged
 CLNT.            A2DTECH:   Client Code
 SL  . 97' FSL & 2256 FWL:   Surface Location
 PD  .                 GL:   Permanent Datum
 DD  .F              3442:   Depth driller
 DL  .F              3422:   Depth logger
 BLI .F              3420:   Bottom log interval
 CS1 .IN            8.625:   Casing size
 CBD1.      8.625" @ 667':   Casing driller 1
 BS1 .IN            7.875:   Bit size
 BSD1.F               AIR:   Depth drilled with bit1
 ENGI.      PAT RASMUSSEN:   Recorded By
 WITN.        GARY STRONG:   Witnessed by
 ORIG.           5" PRINT:   Origin of data
 UWI .     49025109220000:   Unique Well ID
 DICO. A2D TECHNOLOGIES, INC.:   Digitizing Company
 MRT .F               142:   Maximum recorded temp.
~OTHER INFORMATION
~A    DEPT    TEND       ZCOR       ZDEN       CALD        CNC         GRR      TENR       RFOC       RILD       RILM   
# ...
 2278.0000   -46.0060     0.0390     2.4460     8.8910     0.2750   131.9570   -42.8990     8.2150     6.7360     6.6680
 2278.5000   -41.0960     0.0060     2.4610     8.8980     0.2750   134.8300   -42.8990     8.5110     6.8570     6.7690
 2279.0000   -37.5180     0.0070     2.4580     8.9190     0.2720   137.1320   -42.8990     8.8070     6.9780     6.8700
 2279.5000   -33.9390     0.0070     2.4530     8.9390     0.2700   137.2590   -42.8990     8.9930     7.1010     6.9730
 2280.0000   -30.3610     0.0080     2.4510     8.9600     0.2670   135.2430   -42.8990     8.7910     6.8360     6.8490
 2280.5000   -26.7820     0.0140     2.4550     8.9790     0.2650   133.3920   -42.8990     8.4490     6.5670     6.7240
 2281.0000   -23.2040     0.0250     2.4590     9.0000     0.2710   132.0730   -42.8990     8.1070     6.2970     6.2140
 2281.5000   -19.6250     0.0350     2.4600     9.0100     0.2770   131.4540   -42.8990     7.8780     6.0270     5.7140
 2282.0000   -16.0470     0.0210     2.4630     9.0240     0.2830   130.8500   -42.8990     7.7760     5.7570     5.2130
 2282.5000   -12.4680     0.0050     2.4100     9.0370     0.2890   130.7880   -42.8990     7.3190     5.4130     4.7620
 2283.0000    -8.8900    -0.0140     2.3110     9.0510     0.2820   130.6180   -42.8990     6.3860     5.4260     4.6760
 2283.5000    -5.3110     0.0250     2.1850     9.0640     0.2720   128.6260   -42.8990     4.8490     5.4530     4.8490
 2284.0000   -10.6710     0.1360     2.1540     9.0790     0.2640   127.0470   -42.8990     5.1780     5.4800     5.0080
 2284.5000   -25.7000     0.1190     2.2190     9.0890     0.2740   129.2900   -42.8990     6.1110     5.5070     5.1480
 2285.0000   -40.7300     0.0720     2.3450     9.0850     0.2770   133.8700   -42.8990     7.0440     5.5340     5.2870
 2285.5000   -55.7590     0.0300     2.4330     9.0800     0.2760   139.1930   -42.8990     7.9190     5.5610     5.5060
 2286.0000   -60.9220     0.0110     2.4760     9.0740     0.2740   143.6980   -42.8990     7.9190     5.5870     5.4790
 2286.5000   -57.7910     0.0090     2.4720     9.0690     0.2740   143.6590   -42.8990     7.4630     5.6070     5.4070
 2287.0000   -54.6600     0.0100     2.4700     9.0640     0.2770   141.3840   -42.8990     7.1390     5.4340     5.1240
 2287.5000   -51.5290     0.0120     2.4710     9.0580     0.2810   139.1570   -42.8990     6.9440     5.2340     4.7950
 2288.0000   -48.3970     0.0080     2.4720     9.0530     0.2850   136.9630   -42.8990     6.8480     5.0330     4.4660
 2288.5000   -45.2660    -0.0070     2.4660     9.0490     0.2790   134.8770   -42.8990     6.2300     4.8320     4.1180
 2289.0000   -42.8990    -0.0220     2.3900     9.0380     0.2710   134.0140   -42.8990     5.3780     4.6320     4.1180
 2289.5000   -48.9860     0.0360     2.3120     9.0180     0.2660   132.1900   -42.8990     4.5090     4.4310     4.1630
 2290.0000   -56.1430     0.1290     2.3200     9.0010     0.2740   131.5700   -41.4050     4.5090     4.2700     4.2020
 2290.5000   -63.3000     0.1100     2.3670     8.9830     0.2810   134.3860   -39.8810     5.1730     4.1920     4.2410
 2291.0000   -70.4560     0.0730     2.4170     8.9650     0.2850   138.0100   -38.3570     5.8150     4.1180     4.2810
 2291.5000   -77.6130     0.0170     2.3870     8.9470     0.2710   137.9910   -36.8330     5.7200     4.1180     4.3390
 2292.0000   -79.2630     0.0380     2.3490     8.9300     0.2580   136.2500   -35.3090     5.6080     4.1180     4.1930
 2292.5000   -70.1540     0.1530     2.3440     8.9280     0.2610   134.9550   -33.7850     5.5060     4.1180     4.1120
 2293.0000   -61.0450     0.1960     2.3740     8.9280     0.2680   136.8590   -32.2600     5.6070     4.0280     4.0200
 2293.5000   -51.9370     0.1470     2.4290     8.9280     0.2740   138.6750   -30.7360     5.5060     3.9460     3.9280
 2294.0000   -42.8990     0.1100     2.4150     8.9280     0.2800   139.1260   -29.2120     5.2080     3.8290     3.8360
 2294.5000   -47.1070     0.0650     2.3570     8.9280     0.2820   137.1140   -27.6880     4.9450     3.8420     3.7600
 2295.0000   -51.2820     0.0500     2.2720     8.9280     0.2760   137.2960   -26.1640     4.6820     3.8640     3.8670
 2295.5000   -55.4570     0.0910     2.2100     8.9280     0.2660   139.8730   -24.6400     4.2700     3.8990     3.9580
 2296.0000   -59.6320     0.1520     2.2160     8.9290     0.2570   141.8440   -23.1760     4.4010     3.8910     4.0950
 2296.5000   -60.5950     0.2110     2.2780     8.9280     0.2630   141.1030   -24.7620     5.0200     3.8710     4.0640
 2297.0000   -53.4380     0.1810     2.3580     8.9290     0.2700   139.9020   -26.2880     5.8100     3.8510     3.8550
 2297.5000   -46.2810     0.1330     2.4120     8.9330     0.2770   138.1720   -27.8150     6.3250     3.8290     3.6260
 2298.0000   -42.8990     0.0800     2.3670     9.0110     0.2830   134.3900   -29.3410     5.7740     3.9560     3.8450
 2298.5000   -42.8990     0.0620     2.2810     9.0980     0.2700   131.5120   -30.8670     4.8350     4.0960     4.0890
 2299.0000   -42.8990     0.0620     2.2000     9.2000     0.2490   130.7100   -32.3940     4.0430     4.2370     4.3320
 2299.5000   -42.8990     0.1100     2.2120     9.2140     0.2600   128.8920   -33.9200     4.2420     4.3740     4.5760
 2300.0000   -42.8990     0.1600     2.2340     9.1050     0.2850   126.2580   -35.4460     5.1070     4.5100     4.7620
 2300.5000   -42.8990     0.1210     2.3730     9.0040     0.2750   123.7400   -36.9730     6.3680     4.6460     4.7090
 2301.0000   -42.8990     0.0580     2.4630     8.9650     0.2660   125.1800   -38.4990     6.3080     4.7820     4.6760
 2301.5000   -42.8990     0.0200     2.4740     8.9690     0.2630   128.1300   -40.0260     6.2530     4.9180     4.8040
 2302.0000   -42.8990     0.0090     2.4790     8.9680     0.2620   131.3010   -41.5520     6.3160     5.0540     4.9540
 2302.5000   -42.8990     0.0170     2.4770     8.9680     0.2640   135.1010   -42.8990     6.3680     5.1210     5.0280
 2303.0000   -42.8990     0.0290     2.4640     8.9680     0.2660   137.9410   -42.8990     6.1130     5.0150     4.8110
 2303.5000   -42.8990     0.0410     2.4570     8.9680     0.2660   138.0580   -42.8990     5.9210     4.9200     4.6170
 2304.0000   -42.8990     0.0240     2.4530     8.9680     0.2660   134.9860   -42.8990     6.3050     4.8250     4.4230
 2304.5000   -42.8990     0.0060     2.3860     8.9680     0.2620   131.9850   -42.8990     6.1410     4.6760     4.2700
 2305.0000   -42.8990    -0.0080     2.2760     8.9680     0.2550   128.8040   -42.8990     5.6760     4.6930     4.3530
 2305.5000   -42.8990     0.0720     2.2250     8.9680     0.2370   125.7750   -42.6220     5.1090     4.7330     4.5470
 2306.0000   -42.8990     0.1790     2.2320     8.9680     0.2460   122.6590   -41.5480     4.5920     4.7740     4.7420
 2306.5000   -42.8990     0.1630     2.3200     8.9680     0.2610   122.1960   -40.4740     5.4880     4.8140     5.0280
 2307.0000   -42.8990     0.0920     2.4180     8.9680     0.2590   123.2910   -39.3990     6.3130     4.8490     4.9450
 2307.5000   -42.8990     0.0250     2.4300     8.9680     0.2580   125.2660   -38.3250     6.8480     4.8490     4.7850
 2308.0000   -42.8990     0.0150     2.4370     8.9680     0.2570   127.7010   -37.2510     6.6170     4.8490     4.5920
 2308.5000   -42.8990     0.0190     2.4660     8.9680     0.2550   132.4410   -36.1770     6.3760     4.6750     4.6760
 2309.0000   -42.8990     0.0290     2.4790     8.9680     0.2560   137.6620   -35.1020     6.1360     4.4530     4.4810
 2309.5000   -42.8990     0.0380     2.4910     8.9680     0.2580   136.9550   -34.0280     5.8960     4.2320     4.2870
 2310.0000   -42.8990     0.0370     2.5060     8.9680     0.2650   135.2020   -32.9540     5.5340     3.8990     4.0930
 2310.5000   -42.8990     0.0300     2.4840     8.9680     0.2800   134.3760   -31.8790     5.1100     3.9170     3.9000
 2311.0000   -42.8990     0.0220     2.4260     8.9640     0.2740   134.6840   -30.8050     4.6860     3.9710     3.6920
