~VERSION INFORMATION
 VERS.                2.0:   CWLS LOG ASCII STANDARD - VERSION 2.0
 WRAP.                 NO:   ONE LINE PER DEPTH STEP
~WELL INFORMATION
#MNEM.UNIT      DATA TYPE    INFORMATION
#----------   ------------   ------------------------------
 STRT.F          218.0000:   START DEPTH
 STOP.F         2860.0000:   STOP DEPTH
 STEP.F            0.5000:   STEP LENGTH
 NULL.          -999.2500:   NO VALUE
 COMP.    FENIX & SCISSON:   COMPANY
 WELL.  FENIX "AX" #76-20:   WELL
 FLD . TEAPOT DOME NPR -3:   FIELD
 LOC .      S20 T39N R78W:   LOCATION
 CNTY.            NATRONA:   COUNTY
 STAT.            WYOMING:   STATE
 CTRY. UNITED STATES OF AMERICA:   COUNTRY
 SRVC.           BIRDWELL:   SERVICE COMPANY
 DATE.        21-AUG-1978:   LOGDATE
 API .     49025106920000:   API NUMBER
~CURVE INFORMATION
#MNEM.UNIT       API CODE    CURVE DESCRIPTION
#----------   ------------   ------------------------------
 DEPT.F                  :   
 SPR .MV     05 010 01 00:   SPONTANEOUS POTENTIAL FROM RES.
 ILD .OHMM   05 120 46 00:   INDUCTION LOG DEEP
 SN  .OHMM   05 040 16 00:   SHORT NORMAL 16"
 RHOB.G/C3   45 350 01 00:   BULK DENSITY
 CALD.IN     45 280 60 00:   CALIPER FROM DENSITY LOG
 DCOR.G/C3   45 356 01 00:   DENSITY CORRECTION
 GRD .GAPI   45 310 01 00:   GAMMA RAY FROM DENSITY LOG
~PARAMETER INFORMATION
#MNEM.UNIT          VALUE    DESCRIPTION
#----------   ------------   ------------------------------
 EKB .F         5062.0000:   Kelly bushing
 EGL .F         5052.0000:   Ground level
 EDF .F            0.0000:   Drilling floor
 EPD .F            0.0000:   Permanent datum
 TD  .F         2854.0000:   Total depth
 DATE.        21-AUG-1978:   Date logged
 CLNT.            A2DTECH:   Client Code
 SL  . 1500' FNL & 1200' FEL:   Surface Location
 PD  .                 GL:   Permanent Datum
 DD  .F              2850:   Depth driller
 DL  .F              2854:   Depth logger
 BLI .F              2848:   Bottom log interval
 CS1 .IN            8.625:   Casing size
 CBD1.      8.625" @ 200':   Casing driller 1
 CBL1.F               235:   Casing logger 1
 BS1 .IN            7.875:   Bit size
 DFT .                KCL:   Type fluid in hole
 DFD .                9.2:   Density
 DFV .                 30:   Viscosity
 DFL .                8.4:   Fluid loss
 MSS .           FLOWLINE:   Source of sample
 RMS .OHMM            1.2:   Rm
 MST .F                86:   Rm Meas. temp.
 RMF .OHMM            0.8:   Rmf
 MFST.F                68:   Rmf Meas. temp.
 RMC .OHMM            1.6:   Rmc
 MCST.F                70:   Rmc Meas. temp.
 MFSS.              PRESS:   Source Rmf.
 BHT .F               102:   BHT.
 TCS .HRS               3:   Time Circ. stopped
 MRT .F               102:   Maximum recorded temp.
 LUN .               2968:   Logging unit number
 LUL .             CASPER:   Logging unit location
 ENGI.           REYNOLDS:   Recorded By
 ORIG.           5" PRINT:   Origin of data
 UWI .     49025106920000:   Unique Well ID
 DICO. A2D TECHNOLOGIES, INC.:   Digitizing Company
 DAPD.                 12:   Feet Above Permanent Datum
 BSD1.               2850:   Depth drilled with bit1
 MCSS.               MEAS:   Source Rmc.
 TLI .                230:   Top log interval
~OTHER INFORMATION
~A   DEPT      SPR        ILD         SN       RHOB       CALD       DCOR          GRD 
# ...
 2811.5000   -65.4450     4.7680     5.0620  -999.2500     7.2760     0.0730    90.2210
 2812.0000   -65.4500     4.6430     5.1090  -999.2500     7.2760     0.0690    88.9990
 2812.5000   -65.4560     4.5170     5.0840  -999.2500     7.2760     0.0720    87.8750
 2813.0000   -65.4610     4.4430     5.0600  -999.2500     7.2760     0.0760    88.1650
 2813.5000   -65.4670     4.4780     5.0350  -999.2500     7.2760     0.0780    92.9700
 2814.0000   -65.4720     4.4620     5.0110  -999.2500     7.2760     0.0700    99.0990
 2814.5000   -65.4770     4.4450     4.9860  -999.2500     7.2760     0.0610    96.7180
 2815.0000   -65.4830     4.4280     4.9210  -999.2500     7.2740     0.0580    90.9780
 2815.5000   -65.4880     4.4120     4.9700  -999.2500     7.2720     0.0590    85.8550
 2816.0000   -65.4940     4.3950     5.0180  -999.2500     7.2700     0.0950    85.3340
 2816.5000   -65.4990     4.3790     5.0650  -999.2500     7.2680     0.0890    84.9250
 2817.0000   -65.5050     4.3620     5.1090  -999.2500     7.2660     0.0790    85.7590
 2817.5000   -65.5100     4.3160     5.0680  -999.2500     7.2640     0.0690    89.1770
 2818.0000   -65.5160     4.2070     4.9580  -999.2500     7.2620     0.0580    92.2430
 2818.5000   -65.5210     4.1250     4.8110  -999.2500     7.2590     0.0640    91.8720
 2819.0000   -65.5270     4.0430     4.6420  -999.2500     7.2580     0.0860    91.5210
 2819.5000   -65.5320     3.9610     4.4730  -999.2500     7.2650     0.0810    91.2290
 2820.0000   -65.5380     3.8790     4.3040  -999.2500     7.3230     0.0740    94.2150
 2820.5000   -65.5430     3.7970     4.1350  -999.2500     7.3830     0.0660    96.9880
 2821.0000   -65.5480     3.7140     3.9660  -999.2500     7.3500     0.0640    96.9140
 2821.5000   -65.5530     3.6730     3.9290  -999.2500     7.2810     0.0650    97.1200
 2822.0000   -65.5580     3.6640     3.9290  -999.2500     7.2550     0.0660    97.8860
 2822.5000   -65.4170     3.6550     3.9290  -999.2500     7.2750     0.0660   103.7420
 2823.0000   -65.1420     3.6470     3.9290  -999.2500     7.2680     0.0620   101.7040
 2823.5000   -64.8700     3.6380     3.9290  -999.2500     7.2620     0.0570    98.2980
 2824.0000   -64.7810     3.6290     3.9290  -999.2500     7.2560     0.0700   101.6460
 2824.5000   -64.5570     3.6210     3.9290  -999.2500     7.2500     0.0830   105.4770
 2825.0000   -64.5640     3.6110     3.9290  -999.2500     7.2440     0.0800   105.2800
 2825.5000   -64.5940     3.5770     3.9290  -999.2500     7.2380     0.0770   104.5680
 2826.0000   -64.6260     3.5000     3.8420  -999.2500     7.2360     0.0880   101.0070
 2826.5000   -64.6580     3.4270     3.7410  -999.2500     7.2350     0.0630    96.9440
 2827.0000   -64.6900     3.3550     3.6400  -999.2500     7.2690     0.0700    92.8480
 2827.5000   -64.7220     3.2820     3.5390  -999.2500     7.3080     0.0690    91.4340
 2828.0000   -64.7540     3.2100     3.4370  -999.2500     7.3160     0.0600    97.0750
 2828.5000   -64.7860     3.1370     3.3360  -999.2500     7.3170     0.0820   103.1740
 2829.0000   -64.8190     3.0640     3.2570  -999.2500     7.3170     0.0740   104.5700
 2829.5000   -64.8510     3.0500     3.2270  -999.2500     7.3170     0.0620   105.4060
 2830.0000   -64.8830     3.0500     3.2520  -999.2500     7.3170     0.0510   114.9190
 2830.5000   -64.9140     3.0500     3.2730  -999.2500     7.3170     0.0420   112.4950
 2831.0000   -64.9470     3.0500     3.2880  -999.2500     7.3170     0.0440   108.6300
 2831.5000   -64.9030     3.0120     3.2270  -999.2500     7.3170     0.0470   104.6480
 2832.0000   -64.8120     2.9690     3.1700  -999.2500     7.3170     0.0480   100.6420
 2832.5000   -64.7210     2.9270     3.1000  -999.2500     7.3170     0.0440    99.7150
 2833.0000   -64.6290     2.8850     3.0310  -999.2500     7.3170     0.0400   101.6720
 2833.5000   -64.5210     2.8430     2.9620  -999.2500     7.3170     0.0400   102.4730
 2834.0000   -64.3620     2.8030     2.9100  -999.2500     7.3170     0.0520   101.3540
 2834.5000   -64.3220     2.8030     2.9100  -999.2500     7.3170     0.0600   101.4660
 2835.0000   -64.2870     2.8030     2.9380  -999.2500     7.3170     0.0590   109.5540
 2835.5000   -64.2510     2.8030     2.9190  -999.2500     7.3170     0.0580   117.5140
 2836.0000   -64.2150     2.8300     2.9100  -999.2500     7.3170     0.0590   121.8250
 2836.5000   -64.1800     2.7980     2.9100  -999.2500     7.3170     0.0730   117.2840
 2837.0000   -64.1560     2.7640     2.8720  -999.2500     7.3170     0.0710   115.2450
 2837.5000   -64.1550     2.7290     2.8350  -999.2500     7.3160     0.0670   115.3720
 2838.0000   -64.1300     2.7000     2.7990  -999.2500     7.3120     0.0630   115.8890
 2838.5000   -64.1050     2.6250     2.7630  -999.2500     7.3070     0.0600   115.2640
 2839.0000   -64.0800     2.6010     2.7270  -999.2500     7.3020     0.0600   114.2840
 2839.5000   -64.0550     2.5700     2.6750  -999.2500     7.2970     0.0600   114.8560
 2840.0000   -64.0300     2.5560     2.6500  -999.2500     7.2920     0.0590   115.7950
 2840.5000   -64.0080     2.5430     2.6110  -999.2500     7.2880     0.0540   108.2180
 2841.0000   -63.9840     2.5290     2.5740  -999.2500     7.2830     0.0480   103.8510
 2841.5000   -63.9160     2.4490     2.5380  -999.2500     7.2780     0.0430   109.5830
 2842.0000   -63.7900     2.3650     2.4820  -999.2500     7.2730     0.0380   111.1430
 2842.5000   -63.8120     2.3020     2.4830  -999.2500     7.2680     0.0380   112.8240
 2843.0000   -63.8440     2.3020     2.4860  -999.2500     7.2620     0.0430   119.9110
 2843.5000   -63.8760     2.3020     2.4900  -999.2500     7.2570     0.0490   129.0200
 2844.0000   -63.9070     2.3200     2.4930  -999.2500     7.1670     0.0560   132.3820
 2844.5000   -63.9390     2.3530     2.4970  -999.2500     7.0600     0.0560   127.8690
 2845.0000   -63.8520     2.3850     2.5000  -999.2500     7.4880     0.0550   127.2020
 2845.5000   -63.6560     2.3900     2.5040  -999.2500     7.1220     0.0560   120.8580
 2846.0000   -63.4600     2.3840     2.5050  -999.2500     7.1990     0.0640   124.4320
 2846.5000   -63.2630     2.3500     2.4580  -999.2500     7.2300     0.0860   129.3600
 2847.0000   -63.0670     2.3170     2.3290  -999.2500     7.0670     0.0950   130.3980
 2847.5000   -62.8700     2.2840     2.2010  -999.2500     7.0520     0.1020   131.5370
 2848.0000   -62.6730     2.2500     2.0720  -999.2500     7.0340     0.1010   131.4320
 2848.5000   -62.4760     2.2170     1.9450  -999.2500     7.0660     0.0970   125.4860
 2849.0000   -62.2800     2.2210     1.9450  -999.2500     7.1060     0.0920   125.2030
 2849.5000   -62.0850     2.2260     1.9630  -999.2500     7.1320     0.0930   124.7270
 2850.0000   -61.9450     2.2310     1.9110  -999.2500     6.9860     0.0940   122.6030
 2850.5000   -61.9480     2.2360     1.8730  -999.2500     6.8070     0.1100   120.4000
 2851.0000   -61.9560     2.2410     1.8850  -999.2500     6.6270     0.1240   118.1800
 2851.5000   -61.9940     2.2460     1.8990  -999.2500     6.4550     0.1260   118.4380
 2852.0000   -62.0320     2.2510     1.9140  -999.2500     6.4490     0.1260   120.9570
 2852.5000   -62.0700     2.2550     1.9280  -999.2500     6.4500     0.1270  -999.2500
 2853.0000   -62.1090     2.2590     1.9420  -999.2500     6.4500     0.1270  -999.2500
 2853.5000   -62.1470     2.1930     1.9560  -999.2500     6.4500     0.1280  -999.2500
 2854.0000   -62.1280     2.1150     1.9710  -999.2500     6.4500     0.1250  -999.2500
 2854.5000   -62.1050     2.0370     1.9810  -999.2500     6.4500     0.1220  -999.2500
 2855.0000   -62.0830     1.9590     1.9630  -999.2500     6.4500     0.1180  -999.2500
 2855.5000   -62.0610     1.9140     1.9450  -999.2500     6.4500     0.1210  -999.2500
 2856.0000   -62.0390     1.8920     1.9590  -999.2500     6.4500     0.1880  -999.2500
 2856.5000   -62.0170     1.8690     1.9630  -999.2500     6.4500     0.3030  -999.2500
