~VERSION INFORMATION
 VERS.                2.0:   CWLS LOG ASCII STANDARD - VERSION 2.0
 WRAP.                 NO:   ONE LINE PER DEPTH STEP
~WELL INFORMATION
#MNEM.UNIT      DATA TYPE    INFORMATION
#----------   ------------   ------------------------------
 STRT.F          794.0000:   START DEPTH
 STOP.F         2828.0000:   STOP DEPTH
 STEP.F            0.5000:   STEP LENGTH
 NULL.          -999.2500:   NO VALUE
 COMP.           U S NAVY:   COMPANY
 WELL. U S NAVY NPR 3 "A" #10-33:   WELL
 FLD .        TEAPOT DOME:   FIELD
 LOC .      S33 T39N R78W:   LOCATION
 CNTY.            NATRONA:   COUNTY
 STAT.            WYOMING:   STATE
 CTRY. UNITED STATES OF AMERICA:   COUNTRY
 SRVC.         MCCULLOUGH:   SERVICE COMPANY
 DATE.        25-JUL-1968:   LOGDATE
 API .     49025102180000:   API NUMBER
~CURVE INFORMATION
#MNEM.UNIT       API CODE    CURVE DESCRIPTION
#----------   ------------   ------------------------------
 DEPT.F                  :   
 GRN .GAPI   35 310 01 00:   GAMMA RAY
 NEUT.NAPI   35 330 01 00:   NEUTRON
 TEMP.DEG    99 000 00 00:   TEMPERATURE AT TOOL
~PARAMETER INFORMATION
#MNEM.UNIT          VALUE    DESCRIPTION
#----------   ------------   ------------------------------
 EKB .F            0.0000:   Kelly bushing
 EGL .F            0.0000:   Ground level
 EDF .F            0.0000:   Drilling floor
 EPD .F            0.0000:   Permanent datum
 TD  .F         2829.0000:   Total depth
 DATE.        25-JUL-1968:   Date logged
 CLNT.            A2DTECH:   Client Code
 DL  .F              2829:   Depth logger
 BLI .F              2825:   Bottom log interval
 TLI .F               800:   Top log interval
 DFT .                DRY:   Type fluid in hole
 TCS .HRS               2:   Time Circ. stopped
 ENGI.           KIMBERRY:   Recorded By
 ORIG.        2" 5" PRINT:   Origin of data
 UWI .     49025102180000:   Unique Well ID
 DICO. A2D TECHNOLOGIES, INC.:   Digitizing Company
~OTHER INFORMATION
~A   DEPT       GRN      NEUT       TEMP   
# ...
 1158.0000    66.2350   525.2770  -999.2500
 1158.5000    66.2470   534.9850  -999.2500
 1159.0000    65.9490   542.9130  -999.2500
 1159.5000    65.0940   548.3810  -999.2500
 1160.0000    64.2800   538.5360  -999.2500
 1160.5000    62.4820   549.0190  -999.2500
 1161.0000    61.8570   537.7810  -999.2500
 1161.5000    61.2530   530.6130  -999.2500
 1162.0000    59.7540   530.1800  -999.2500
 1162.5000    59.7740   534.2310  -999.2500
 1163.0000    59.7990   512.3730  -999.2500
 1163.5000    59.5910   503.5780  -999.2500
 1164.0000    59.0890   504.9400  -999.2500
 1164.5000    58.6530   529.6570  -999.2500
 1165.0000    57.7150   537.3650  -999.2500
 1165.5000    57.1110   544.0900  -999.2500
 1166.0000    58.6030   548.1190  -999.2500
 1166.5000    60.8600   537.4790  -999.2500
 1167.0000    62.7970   535.4270  -999.2500
 1167.5000    63.2580   529.2260  -999.2500
 1168.0000    63.7800   523.1180  -999.2500
 1168.5000    64.3980   516.9900  -999.2500
 1169.0000    64.3490   515.0620  -999.2500
 1169.5000    66.0740   518.3030  -999.2500
 1170.0000    65.8470   530.5400  -999.2500
 1170.5000    63.4380   543.8580  -999.2500
 1171.0000    62.5300   549.0090  -999.2500
 1171.5000    63.5160   558.5280  -999.2500
 1172.0000    65.5080   548.7980  -999.2500
 1172.5000    67.5540   542.5510  -999.2500
 1173.0000    67.2230   544.7620  -999.2500
 1173.5000    67.0950   556.4380  -999.2500
 1174.0000    66.5990   533.2180  -999.2500
 1174.5000    64.6410   515.5620  -999.2500
 1175.0000    64.7720   515.9670  -999.2500
 1175.5000    64.9130   520.0800  -999.2500
 1176.0000    65.0640   530.4630  -999.2500
 1176.5000    64.4670   522.0500  -999.2500
 1177.0000    63.4870   522.0910  -999.2500
 1177.5000    63.6700   527.3950  -999.2500
 1178.0000    63.2940   531.6450  -999.2500
 1178.5000    62.3150   528.5960  -999.2500
 1179.0000    61.4950   530.0500  -999.2500
 1179.5000    61.8790   529.0190  -999.2500
 1180.0000    63.7710   528.1410  -999.2500
 1180.5000    65.9620   499.5650  -999.2500
 1181.0000    65.3890   504.8950  -999.2500
 1181.5000    64.3750   525.4650  -999.2500
 1182.0000    65.2190   545.4410  -999.2500
 1182.5000    69.0730   550.0360  -999.2500
 1183.0000    69.5730   556.3300  -999.2500
 1183.5000    69.5800   588.1790  -999.2500
 1184.0000    70.8580   591.6760  -999.2500
 1184.5000    67.5820   572.7530  -999.2500
 1185.0000    63.8970   563.3020  -999.2500
 1185.5000    63.2630   572.7540  -999.2500
 1186.0000    62.7760   586.7890  -999.2500
 1186.5000    61.7590   587.3410  -999.2500
 1187.0000    60.7650   587.0610  -999.2500
 1187.5000    60.1020   578.0120  -999.2500
 1188.0000    59.8360   559.5720  -999.2500
 1188.5000    60.3820   523.7360  -999.2500
 1189.0000    60.6360   503.8660  -999.2500
 1189.5000    59.8240   497.9800  -999.2500
 1190.0000    59.7580   503.0810  -999.2500
 1190.5000    60.9140   477.3710  -999.2500
 1191.0000    62.9830   472.6090  -999.2500
 1191.5000    60.8320   471.1370  -999.2500
 1192.0000    57.3990   469.0310  -999.2500
 1192.5000    56.5760   468.6110  -999.2500
 1193.0000    57.8160   477.5770  -999.2500
 1193.5000    59.2270   486.0990  -999.2500
 1194.0000    61.2630   481.4720  -999.2500
 1194.5000    64.4030   472.8110  -999.2500
 1195.0000    64.5510   464.9220  -999.2500
 1195.5000    64.6100   465.9660  -999.2500
 1196.0000    64.9760   460.6290  -999.2500
 1196.5000    64.3900   469.8610  -999.2500
 1197.0000    64.2710   482.0940  -999.2500
 1197.5000    62.9430   497.3060  -999.2500
 1198.0000    62.8590   515.0770  -999.2500
 1198.5000    65.3890   528.2580  -999.2500
 1199.0000    65.6790   542.5820  -999.2500
 1199.5000    65.2310   586.4360  -999.2500
 1200.0000    64.7800   553.9350  -999.2500
 1200.5000    64.6870   571.3140  -999.2500
 1201.0000    65.9950   576.4550  -999.2500
 1201.5000    67.0280   599.3610  -999.2500
 1202.0000    67.7670   626.5170  -999.2500
 1202.5000    67.8560   648.4460  -999.2500
 1203.0000    67.7970   656.9650  -999.2500
 1203.5000    67.3420   662.4960  -999.2500
 1204.0000    66.2810   641.6030  -999.2500
 1204.5000    65.0770   613.8990  -999.2500
 1205.0000    64.8300   593.7410  -999.2500
 1205.5000    65.2630   595.1620  -999.2500
 1206.0000    65.9640   591.4260  -999.2500
 1206.5000    66.5550   600.6610  -999.2500
 1207.0000    66.3660   620.9510  -999.2500
 1207.5000    66.1880   632.4810  -999.2500
 1208.0000    66.0290   638.9120  -999.2500
 1208.5000    66.7020   630.9680  -999.2500
 1209.0000    66.0620   609.1720  -999.2500
 1209.5000    65.7290   588.0610  -999.2500
 1210.0000    65.0320   560.2480  -999.2500
 1210.5000    63.9950   533.0340  -999.2500
 1211.0000    63.0380   525.1250  -999.2500
 1211.5000    62.3380   521.7380  -999.2500
 1212.0000    61.6290   510.4700  -999.2500
 1212.5000    61.2640   501.0480  -999.2500
 1213.0000    63.1960   513.4950  -999.2500
 1213.5000    63.4180   522.2560  -999.2500
 1214.0000    63.8430   511.0660  -999.2500
 1214.5000    64.5250   512.1140  -999.2500
 1215.0000    66.8810   512.0120  -999.2500
 1215.5000    68.9510   522.5220  -999.2500
 1216.0000    69.2480   540.2200  -999.2500
 1216.5000    69.4600   546.8030  -999.2500
 1217.0000    69.3150   543.7580  -999.2500
 1217.5000    68.7490   548.4150  -999.2500
 1218.0000    70.0620   554.0780  -999.2500
 1218.5000    71.7990   564.7800  -999.2500
 1219.0000    71.1130   569.4360  -999.2500
 1219.5000    70.3230   565.3910  -999.2500
 1220.0000    68.7030   578.7560  -999.2500
 1220.5000    68.1310   574.8010  -999.2500
 1221.0000    69.8370   579.8660  -999.2500
 1221.5000    70.5720   589.8150  -999.2500
 1222.0000    70.2470   586.4760  -999.2500
 1222.5000    69.6530   594.6700  -999.2500
 1223.0000    69.0640   592.4580  -999.2500
 1223.5000    68.6780   590.9460  -999.2500
 1224.0000    68.3310   591.1470  -999.2500
 1224.5000    67.8500   581.9980  -999.2500
 1225.0000    66.9250   569.9720  -999.2500
 1225.5000    65.6730   557.9840  -999.2500
 1226.0000    65.5640   547.8570  -999.2500
 1226.5000    65.3190   540.9900  -999.2500
 1227.0000    65.2200   541.8160  -999.2500
 1227.5000    66.2940   537.1910  -999.2500
 1228.0000    67.0380   524.7060  -999.2500
 1228.5000    67.2610   515.5710  -999.2500
 1229.0000    68.3720   507.9560  -999.2500
 1229.5000    70.4210   498.6410  -999.2500
 1230.0000    70.3210   500.6170  -999.2500
 1230.5000    68.2890   459.2930  -999.2500
 1231.0000    66.2700   455.6790  -999.2500
 1231.5000    65.1080   452.8650  -999.2500
 1232.0000    65.7010   445.0350  -999.2500
 1232.5000    65.0830   449.8850  -999.2500
 1233.0000    67.1870   459.4650  -999.2500
 1233.5000    68.1920   467.3830  -999.2500
 1234.0000    69.1950   469.7280  -999.2500
 1234.5000    70.0420   461.1610  -999.2500
 1235.0000    69.8910   449.3680  -999.2500
 1235.5000    69.6390   444.1850  -999.2500
 1236.0000    69.3760   438.7310  -999.2500
 1236.5000    66.4900   439.5000  -999.2500
 1237.0000    64.0840   449.1260  -999.2500
 1237.5000    66.1540   460.5640  -999.2500
 1238.0000    68.3320   463.5000  -999.2500
 1238.5000    70.5080   451.5300  -999.2500
 1239.0000    69.2870   451.5510  -999.2500
 1239.5000    66.9900   453.2140  -999.2500
 1240.0000    67.2180   450.5370  -999.2500
 1240.5000    67.1490   457.2670  -999.2500
 1241.0000    66.9290   451.8500  -999.2500
 1241.5000    66.2040   449.8250  -999.2500
 1242.0000    65.6530   443.6330  -999.2500
 1242.5000    65.1110   438.8380  -999.2500
 1243.0000    64.1180   443.4350  -999.2500
 1243.5000    61.8370   453.6370  -999.2500
 1244.0000    60.1020   461.9200  -999.2500
 1244.5000    60.3280   466.6070  -999.2500
 1245.0000    60.4800   469.4420  -999.2500
 1245.5000    59.0440   469.1150  -999.2500
 1246.0000    58.7710   457.5450  -999.2500
 1246.5000    58.7730   463.6360  -999.2500
 1247.0000    58.3260   469.3570  -999.2500
 1247.5000    59.3110   471.3760  -999.2500
 1248.0000    61.3740   474.8590  -999.2500
 1248.5000    61.7600   485.6450  -999.2500
