~VERSION INFORMATION
 VERS.                2.0:   CWLS LOG ASCII STANDARD - VERSION 2.0
 WRAP.                 NO:   ONE LINE PER DEPTH STEP
~WELL INFORMATION
#MNEM.UNIT      DATA TYPE    INFORMATION
#----------   ------------   ------------------------------
 STRT.F          192.0000:   START DEPTH
 STOP.F         3016.0000:   STOP DEPTH
 STEP.F            0.5000:   STEP LENGTH
 NULL.          -999.2500:   NO VALUE
 COMP. FENIX & SCISSON U.S. NAVY:   COMPANY
 WELL.  FENIX "AX" #81-33:   WELL
 FLD .              NPR-3:   FIELD
 LOC .      S33 T39N R78W:   LOCATION
 CNTY.            NATRONA:   COUNTY
 STAT.            WYOMING:   STATE
 CTRY. UNITED STATES OF AMERICA:   COUNTRY
 SRVC.              WELEX:   SERVICE COMPANY
 DATE.        12-MAY-1977:   LOGDATE
 API .     49025109850000:   API NUMBER
~CURVE INFORMATION
#MNEM.UNIT       API CODE    CURVE DESCRIPTION
#----------   ------------   ------------------------------
 DEPT.F                  :   
 SPR .MV     07 010 01 00:   SPONTANEOUS POTENTIAL
 RILM.OHMM   07 120 44 00:   INDUCTION LOG MEDIUM RESISTIVITY
 RILD.OHMM   07 120 46 00:   DEEP INDUCTION RESISTIVITY
 SGRD.OHMM   07 220 05 00:   SHALLOW GUARD LOG RESISTIVITY
 NPHI.DEC    42 890 03 00:   NEUTRON POROSITY SANDSTONE
 GRD .GAPI   45 310 01 00:   GAMMA RAY FROM DENSITY LOG
 CALD.IN     45 280 60 00:   CALIPER FROM DENSITY LOG
 RHOB.G/C3   45 350 01 00:   BULK DENSITY
 DCOR.G/C3   45 356 01 00:   DENSITY CORRECTION
~PARAMETER INFORMATION
#MNEM.UNIT          VALUE    DESCRIPTION
#----------   ------------   ------------------------------
 EKB .F         5114.0000:   Kelly bushing
 EGL .F         5100.0000:   Ground level
 EDF .F         5112.0000:   Drilling floor
 TD  .F         3014.0000:   Total depth
 DATE.        12-MAY-1977:   Date logged
 CLNT.            A2DTECH:   Client Code
 SL  . 660' FEL & 660' FNL:   Surface Location
 PD  .                 GL:   Permanent Datum
 EPD .F              5100:   Elevation Permanent Datum
 LMF .                 KB:   Log Measured From
 DMF .                 KB:   Drilling Measured From
 DD  .F              3000:   Depth driller
 DL  .F              3014:   Depth logger
 BLI .F              3012:   Bottom log interval
 TLI .F              1500:   Top log interval
 CS1 .IN            8.625:   Casing size
 CBD1.      8.625" @ 217':   Casing driller 1
 CBL1.F               209:   Casing logger 1
 BS1 .IN            7.875:   Bit size
 BSD1.F              3000:   Depth drilled with bit1
 DFT .            KCL MUD:   Type fluid in hole
 DFD .                  9:   Density
 DFV .                 33:   Viscosity
 DFPH.                7.5:   pH
 DFL .                7.8:   Fluid loss
 MSS .           FLOWLINE:   Source of sample
 RMS .OHMM           0.69:   Rm
 MST .F                68:   Rm Meas. temp.
 RMF .OHMM           0.66:   Rmf
 MFST.F                68:   Rmf Meas. temp.
 RMC .OHMM           1.27:   Rmc
 MCST.F                68:   Rmc Meas. temp.
 MFSS.                 BK:   Source Rmf.
 MCSS.                 BK:   Source Rmc.
 RMB .OHMM           0.39:   Rm. at BHT
 BHT .F               118:   BHT.
 TCS .HRS               6:   Time Circ. stopped
 MRT .F               118:   Maximum recorded temp.
 LUN .               9685:   Logging unit number
 LUL .           BRIGHTON:   Logging unit location
 ENGI.          T. JOYNER:   Recorded By
 WITN.            K. JAPP:   Witnessed by
 ORIG.           5" PRINT:   Origin of data
 UWI .     49025109850000:   Unique Well ID
 DICO. A2D TECHNOLOGIES, INC.:   Digitizing Company
~OTHER INFORMATION
~A   DEPT      SPR       RILM       RILD       SGRD       NPHI         GRD        CALD       RHOB     DCOR   
# ...
 2601.0000   -25.1100     7.6910     6.2020     9.9000     0.2410   119.1420     8.6720     2.6620     0.0610
 2601.5000   -25.0790     7.8470     6.2820    10.0160     0.2420   118.7720     8.6570     2.6550     0.0590
 2602.0000   -25.0480     7.6540     6.3620    10.1880     0.2400   118.4010     8.6410     2.6500     0.0580
 2602.5000   -25.0170     8.0000     6.4420    10.3590     0.2400   118.0300     8.6260     2.6560     0.0560
 2603.0000   -24.9900     7.9550     6.4970    10.5580     0.2410   117.6540     8.6110     2.6610     0.0570
 2603.5000   -24.9680     7.8680     6.5210    10.3960     0.2420   117.3300     8.6010     2.6580     0.0590
 2604.0000   -24.9460     8.3140     6.5450    10.8530     0.2390   116.9170     8.6080     2.6550     0.0640
 2604.5000   -24.9240     8.2030     6.5690    10.7540     0.2420   117.5350     8.6140     2.6740     0.0700
 2605.0000   -24.9020     8.0140     6.6040    10.5150     0.2400   118.1050     8.6200     2.6790     0.0750
 2605.5000   -24.8800     8.2380     6.5860    10.1770     0.2390   118.6620     8.6270     2.6790     0.0770
 2606.0000   -24.8580     7.9400     6.5320    10.4610     0.2370   119.2190     8.6330     2.6710     0.0750
 2606.5000   -24.8360     7.9630     6.4780    10.2070     0.2400   119.7770     8.6390     2.6670     0.0730
 2607.0000   -24.8140     8.0140     6.4250     9.9920     0.2430   120.3350     8.6460     2.6700     0.0710
 2607.5000   -24.8040     7.8340     6.3710     9.8050     0.2430   120.8920     8.6520     2.6720     0.0690
 2608.0000   -24.8040     7.5840     6.3180     9.7780     0.2410   121.4510     8.6580     2.6670     0.0690
 2608.5000   -24.8040     7.8370     6.2640     9.7500     0.2440   122.0120     8.6650     2.6620     0.0700
 2609.0000   -24.8040     7.6050     6.2100     9.7200     0.2410   122.4980     8.6710     2.6680     0.0710
 2609.5000   -24.8040     7.4450     6.1950    10.0270     0.2400   121.7090     8.6780     2.6760     0.0720
 2610.0000   -24.8040     8.0140     6.1950    10.4610     0.2420   120.8140     8.6700     2.6800     0.0710
 2610.5000   -24.8040     7.8880     6.1950    10.3680     0.2410   119.9200     8.6560     2.6690     0.0680
 2611.0000   -24.8040     7.7960     6.2680    10.2350     0.2420   119.0270     8.6430     2.6590     0.0650
 2611.5000   -24.8040     7.9490     6.3350    10.1010     0.2370   118.1340     8.6290     2.6640     0.0650
 2612.0000   -24.8040     8.0140     6.4020    10.3550     0.2340   117.3220     8.6150     2.6680     0.0670
 2612.5000   -24.7800     8.1270     6.4690    10.6680     0.2380   118.0310     8.6020     2.6720     0.0700
 2613.0000   -24.7520     8.4400     6.5350    10.9800     0.2390   119.0350     8.5880     2.6760     0.0720
 2613.5000   -24.7250     8.3300     6.6020    11.1570     0.2330   120.0810     8.5750     2.6800     0.0700
 2614.0000   -24.6970     8.1620     6.6680    11.0550     0.2300   120.0720     8.5600     2.6770     0.0670
 2614.5000   -24.6690     8.8660     6.7670    11.3680     0.2320   118.8360     8.5540     2.6740     0.0630
 2615.0000   -24.6410     8.7050     6.8650    11.4690     0.2310   117.6440     8.5480     2.6730     0.0600
 2615.5000   -24.6120     9.0070     6.9620    11.5840     0.2300   116.4640     8.5420     2.6810     0.0620
 2616.0000   -24.6640     8.8660     7.0600    11.8740     0.2280   115.2860     8.5360     2.6880     0.0640
 2616.5000   -24.7340     8.9670     7.1580    11.7880     0.2320   114.1070     8.5300     2.6960     0.0660
 2617.0000   -24.8050     9.1140     7.2550    11.3640     0.2290   112.9280     8.5240     2.7020     0.0680
 2617.5000   -24.8750     9.0700     7.3530    11.4360     0.2270   111.7480     8.5220     2.7010     0.0640
 2618.0000   -24.9460     9.0310     7.4890    12.0800     0.2250   110.5680     8.5310     2.6940     0.0610
 2618.5000   -25.0160     9.8600     7.6390    12.8990     0.2280   109.4020     8.5400     2.6860     0.0570
 2619.0000   -25.0870    10.0100     7.7890    13.7830     0.2250   108.6910     8.5490     2.6780     0.0530
 2619.5000   -25.1580    10.1640     7.9390    14.2280     0.2280   109.2580     8.5570     2.6700     0.0490
 2620.0000   -25.2280    10.2710     8.0140    14.5650     0.2270   109.8530     8.5660     2.6620     0.0470
 2620.5000   -25.2990    10.1690     8.0140    13.8470     0.2260   111.9340     8.5750     2.6560     0.0500
 2621.0000   -25.3710    10.0840     8.0140    13.1950     0.2280   113.9390     8.5840     2.6500     0.0490
 2621.5000   -25.4200     9.5650     8.0140    12.5430     0.2310   115.9320     8.5920     2.6450     0.0480
 2622.0000   -25.4610     9.1140     7.8080    11.7150     0.2330   117.3350     8.6010     2.6400     0.0470
 2622.5000   -25.5020     8.9310     7.6170    10.5940     0.2350   118.1550     8.6100     2.6410     0.0480
 2623.0000   -25.5430     8.7580     7.4250    10.7150     0.2360   118.9760     8.6190     2.6450     0.0520
 2623.5000   -25.5840     8.6250     7.2340    11.0640     0.2380   119.7930     8.6150     2.6490     0.0560
 2624.0000   -25.6250     8.8660     7.0460    11.4330     0.2370   120.6100     8.6100     2.6480     0.0640
 2624.5000   -25.6660     8.1620     6.9390    11.6070     0.2400   121.4270     8.6050     2.6460     0.0730
 2625.0000   -25.7070     8.0950     6.8350    11.6810     0.2400   122.2470     8.6000     2.6530     0.0820
 2625.5000   -25.7480     8.0280     6.7290    11.0160     0.2440   123.0580     8.5950     2.6420     0.0890
 2626.0000   -25.7890     7.5740     6.5060     9.8980     0.2500   125.0410     8.5900     2.6320     0.0910
 2626.5000   -25.8300     7.0670     6.2800     9.0710     0.2500   127.6960     8.5850     2.6220     0.0890
 2627.0000   -25.8710     6.8090     6.0540     8.7850     0.2560   130.3530     8.5800     2.6110     0.0860
 2627.5000   -25.9120     6.5520     5.8290     8.8660     0.2610   133.8130     8.5740     2.6000     0.0830
 2628.0000   -25.9530     6.2810     5.6100     8.4830     0.2630   138.0750     8.5690     2.5890     0.0880
 2628.5000   -25.9730     6.0060     5.3910     7.7790     0.2710   142.3350     8.5640     2.5790     0.0940
 2629.0000   -25.9430     5.7320     5.1550     7.2900     0.2680   146.5990     8.5600     2.5700     0.1010
 2629.5000   -25.9160     5.4570     4.8610     6.9940     0.2740   150.8640     8.5680     2.5620     0.1070
 2630.0000   -25.8880     5.1550     4.5420     6.6980     0.2810   155.1290     8.5760     2.5540     0.1120
 2630.5000   -25.8600     4.9230     4.2230     6.4030     0.2780   159.3930     8.5830     2.5450     0.1110
 2631.0000   -25.8330     4.5740     3.9110     6.0800     0.2830   163.6580     8.5910     2.5300     0.1110
 2631.5000   -25.8040     4.1530     3.6060     5.6500     0.2870   167.9230     8.5980     2.5150     0.1140
 2632.0000   -25.7550     3.7630     3.3010     5.1760     0.2890   172.1870     8.6060     2.5000     0.1160
 2632.5000   -25.6310     3.3730     2.9960     4.7020     0.2930   176.4520     8.6130     2.4850     0.1150
 2633.0000   -25.5110     2.9840     2.6910     4.2270     0.2990   180.7170     8.6210     2.4700     0.1140
 2633.5000   -25.3870     2.5940     2.3860     3.7530     0.2980   184.9790     8.6290     2.4560     0.1130
 2634.0000   -25.1430     2.2890     2.0810     3.2790     0.2990   189.2480     8.6360     2.4410     0.1150
 2634.5000   -24.9000     2.0370     1.8410     2.8040     0.2990   193.0150     8.6440     2.4260     0.1230
 2635.0000   -24.6570     1.8740     1.7120     2.4260     0.2990   193.4600     8.6510     2.4110     0.1220
 2635.5000   -24.4140     1.7110     1.6050     2.2330     0.2990   193.4810     8.6590     2.3960     0.1190
 2636.0000   -24.1720     1.7540     1.5460     2.4840     0.2990   190.7820     8.6660     2.3850     0.1300
 2636.5000   -23.9290     1.7910     1.4900     2.9970     0.3000   182.4720     8.6740     2.3740     0.1180
 2637.0000   -23.6810     1.6950     1.5210     2.8760     0.2990   174.1560     8.6780     2.3630     0.1030
