~VERSION INFORMATION
 VERS.                2.0:   CWLS LOG ASCII STANDARD - VERSION 2.0
 WRAP.                 NO:   ONE LINE PER DEPTH STEP
~WELL INFORMATION
#MNEM.UNIT      DATA TYPE    INFORMATION
#----------   ------------   ------------------------------
 STRT.F           14.0000:   START DEPTH
 STOP.F         3030.0000:   STOP DEPTH
 STEP.F            0.5000:   STEP LENGTH
 NULL.          -999.2500:   NO VALUE
 COMP. LAWRENCE ALLISON & ASSOC. WEST:   COMPANY
 WELL. LAWRENCE "X" #37-28:   WELL
 FLD .          N.P.R. #3:   FIELD
 LOC .      S28 T39N R78W:   LOCATION
 CNTY.            NATRONA:   COUNTY
 STAT.            WYOMING:   STATE
 CTRY. UNITED STATES OF AMERICA:   COUNTRY
 SRVC.      DRESSER ATLAS:   SERVICE COMPANY
 DATE.        22-SEP-1986:   LOGDATE
 API .     49025111090000:   API NUMBER
~CURVE INFORMATION
#MNEM.UNIT       API CODE    CURVE DESCRIPTION
#----------   ------------   ------------------------------
 DEPT.F                  :   
 GRR .GAPI   07 310 01 00:   GAMMA RAY FROM RESISTIVITY
 SPR .MV     07 010 01 00:   SPONTANEOUS POTENTIAL
 TENR.LBS    07 635 01 00:   TENSION FROM RESISTIVITY
 RILD.OHMM   07 120 46 00:   DEEP INDUCTION RESISTIVITY
 RILM.OHMM   07 120 44 00:   INDUCTION LOG MEDIUM RESISTIVITY
 RFOC.OHMM   07 220 04 00:   RESISTIVITY FOCUSED LOG RES.
 CNC .DEC    42 890 03 00:   NEUTRON PORISITY SANDSTONE
 RHOB.G/C3   45 350 01 00:   BULK DENSITY
 CORR.G/C3   45 356 01 00:   DENSITY CORRECTION
 TEND.LBS    45 635 01 00:   TENSION FROM DENSITY LOG
 CALD.IN     45 280 60 00:   CALIPER FROM DENSITY LOG
~PARAMETER INFORMATION
#MNEM.UNIT          VALUE    DESCRIPTION
#----------   ------------   ------------------------------
 EKB .F         5124.0000:   Kelly bushing
 EGL .F         5113.0000:   Ground level
 EDF .F         5123.0000:   Drilling floor
 TD  .F         3026.0000:   Total depth
 DATE.        22-SEP-1986:   Date logged
 CLNT.            A2DTECH:   Client Code
 SL  . 1097' FSL & 1722' FWL:   Surface Location
 PD  .                 GL:   Permanent Datum
 EPD .F              5113:   Elevation Permanent Datum
 LMF .                 KB:   Log Measured From
 DMF .                 KB:   Drilling Measured From
 DAPD.F                11:   Feet Above Permanent Datum
 DD  .F              3026:   Depth driller
 DL  .F              3023:   Depth logger
 BLI .F              3020:   Bottom log interval
 CS1 .IN            8.625:   Casing size
 CBD1.      8.625" @ 517':   Casing driller 1
 CBL1.F               518:   Casing logger 1
 BS1 .IN            7.875:   Bit size
 BSD1.F              3026:   Depth drilled with bit1
 DFT .            KCL-GEL:   Type fluid in hole
 DFD .                8.6:   Density
 DFV .                 41:   Viscosity
 DFPH.                9.5:   pH
 DFL .                6.8:   Fluid loss
 MSS .           FLOWLINE:   Source of sample
 RMS .OHMM           0.37:   Rm
 MST .F                58:   Rm Meas. temp.
 RMF .OHMM           0.33:   Rmf
 MFST.F                63:   Rmf Meas. temp.
 RMC .OHMM           0.59:   Rmc
 MCST.F                58:   Rmc Meas. temp.
 MFSS.               MEAS:   Source Rmf.
 MCSS.               CALC:   Source Rmc.
 RMB .OHMM           0.16:   Rm. at BHT
 BHT .F               131:   BHT.
 TCS .HRS               3:   Time Circ. stopped
 MRT .F               131:   Maximum recorded temp.
 LUN .            HL 6426:   Logging unit number
 LUL .                 RS:   Logging unit location
 ENGI.               RALL:   Recorded By
 WITN.             STRONG:   Witnessed by
 ORIG.           5" PRINT:   Origin of data
 UWI .     49025111090000:   Unique Well ID
 DICO. A2D TECHNOLOGIES, INC.:   Digitizing Company
~OTHER INFORMATION
~A   DEPT      GRR        SPR       TENR       RILD       RILM       RFOC        CNC       RHOB       CORR       TEND       CALD   
# ...
 2637.0000    92.6740   -21.1830   -40.0650     7.8150     8.2560    11.1630     0.2300     2.4630    -0.0160   -68.8140    10.3940
 2637.5000    94.4230   -20.7290   -37.6290     8.0660     8.5080    10.1760     0.2290     2.4550     0.0000   -63.6960    10.3940
 2638.0000    96.1690   -20.4260   -35.1930     8.3010     8.6940     9.9070     0.2280     2.4540     0.0140   -63.6960    10.3940
 2638.5000    95.9340   -20.3260   -33.0150     8.3780     8.8240     9.7150     0.2310     2.4580    -0.0070   -63.6960    10.3940
 2639.0000    94.7430   -20.1750   -31.1200     8.1490     8.6930     9.7150     0.2340     2.4620    -0.0020   -63.6960    10.3940
 2639.5000    93.5000   -20.1130   -29.2260     8.0950     8.4580     9.7150     0.2350     2.4670     0.0070   -62.6200    10.3940
 2640.0000    92.7420   -20.3320   -27.3310     8.0370     8.3010     9.5020     0.2360     2.4710     0.0150   -59.9330    10.3940
 2640.5000    93.4520   -20.5550   -25.4360     7.9780     8.2060     9.2070     0.2360     2.4720     0.0140   -57.2450    10.3940
 2641.0000    94.4080   -20.7440   -23.8690     7.9200     8.1060     9.0220     0.2310     2.4700     0.0080   -54.5580    10.3940
 2641.5000    94.7570   -20.9630   -28.3140     7.8610     8.0050     9.0220     0.2270     2.4690     0.0130   -57.6250    10.3940
 2642.0000    95.0910   -21.1560   -32.1030     7.8020     7.9250     9.1770     0.2240     2.4690     0.0200   -63.7520    10.3940
 2642.5000    95.9030   -21.3710   -35.8920     7.7050     7.8510     9.6260     0.2220     2.4700     0.0110   -69.8790    10.3940
 2643.0000    96.7550   -21.5660   -39.6820     7.5850     7.7770     9.4300     0.2220     2.4680    -0.0050   -76.0060    10.3940
 2643.5000    97.0020   -21.7240   -43.9700     7.4640     7.7080     9.1230     0.2200     2.4670    -0.0160   -82.1330    10.3940
 2644.0000    97.2460   -21.9000   -43.0040     7.3430     7.6300     8.8630     0.2150     2.4680    -0.0080   -81.6690    10.3940
 2644.5000    97.5740   -22.0580   -41.8920     7.2220     7.5130     8.6260     0.2180     2.4740     0.0020   -78.6650    10.3940
 2645.0000    97.9750   -22.1960   -40.7800     7.0920     7.3970     8.3900     0.2240     2.4810     0.0110   -75.6620    10.3940
 2645.5000    99.4370   -22.3450   -39.6680     6.9700     7.2800     8.1530     0.2220     2.4840     0.0160   -72.6590    10.3940
 2646.0000   100.2550   -22.4950   -38.5560     6.8370     7.1580     7.9990     0.2200     2.4850     0.0180   -69.6550    10.3940
 2646.5000    99.5430   -22.6320   -37.4440     6.7040     7.1580     7.9990     0.2220     2.4860     0.0190   -66.6520    10.3940
 2647.0000    99.3690   -22.7930   -36.3320     6.5710     6.9650     7.9990     0.2250     2.4850     0.0170   -63.6960    10.3940
 2647.5000    99.3580   -22.9200   -35.2200     6.4380     6.8340     8.1820     0.2270     2.4840     0.0120   -64.8150    10.3940
 2648.0000   100.3090   -22.9130   -33.9200     6.3050     6.6650     8.3010     0.2290     2.4820     0.0070   -65.9180    10.3940
 2648.5000   104.1920   -22.8760   -36.6800     6.2300     6.4650     8.0730     0.2320     2.4800     0.0040   -67.0200    10.3920
 2649.0000   110.4960   -22.8620   -40.0010     6.1730     6.4650     7.6750     0.2290     2.4740     0.0070   -68.1220    10.3890
 2649.5000   115.0780   -22.8340   -43.3220     6.1330     6.5250     7.1580     0.2220     2.4660     0.0090   -69.2240    10.3870
 2650.0000   112.9970   -22.8120   -46.6430     6.0740     6.8340     6.4060     0.2190     2.4650     0.0110   -70.3260    10.3850
 2650.5000   107.6800   -22.7890   -49.9640     6.0150     6.8130     7.4280     0.2200     2.4720     0.0010   -71.4280    10.3820
 2651.0000   103.9410   -22.7650   -53.2850     5.9570     6.7710     7.8770     0.2220     2.4800    -0.0120   -72.5300    10.3800
 2651.5000   102.5920   -22.7430   -56.6060     5.8940     6.7290     8.3010     0.2240     2.4880    -0.0110   -73.6320    10.3780
 2652.0000   104.9140   -22.7730   -59.9270     5.8290     6.6170     8.1080     0.2270     2.4960    -0.0070   -74.7350    10.3750
 2652.5000   108.4960   -22.9050   -64.0700     5.7600     6.4440     7.7800     0.2250     2.4990    -0.0080   -75.8370    10.3740
 2653.0000   110.0720   -23.0440   -63.1630     5.6910     6.2710     7.5580     0.2230     2.5010    -0.0080   -76.9390    10.3770
 2653.5000   111.4840   -23.1700   -61.5250     5.6220     6.0600     7.2630     0.2270     2.5040    -0.0060   -78.0410    10.3790
 2654.0000   118.5260   -23.3160   -59.8880     5.5530     6.0480     6.9620     0.2340     2.5060    -0.0040   -79.1430    10.3810
 2654.5000   125.7080   -23.4350   -58.2510     5.4750     6.0160     6.4970     0.2330     2.5100    -0.0010   -80.2450    10.3830
 2655.0000   129.2700   -23.5890   -56.6140     5.3720     6.0040     6.1160     0.2220     2.5190     0.0010   -81.3470    10.3850
 2655.5000   127.9680   -23.7250   -54.9760     5.4560     6.0740     6.1160     0.2110     2.5290     0.0040   -82.4490    10.3880
 2656.0000   117.7390   -23.6480   -54.4600     5.5240     6.1730     6.6760     0.2130     2.5440     0.0060   -83.5520    10.3900
 2656.5000   109.1050   -23.4910   -55.5170     5.7490     6.5200     7.1080     0.2110     2.5490     0.0120   -84.6540    10.3920
 2657.0000   105.1510   -23.3950   -56.5750     6.0240     6.9420     7.2920     0.1930     2.5560     0.0190   -85.7560    10.3940
 2657.5000   100.5030   -23.2350   -57.6320     6.2300     7.1580     7.7040     0.1770     2.5710     0.0210   -86.8580    10.3960
 2658.0000    93.8510   -23.1480   -58.6890     6.7780     7.7990     7.9990     0.1630     2.5930     0.0170   -87.9600    10.3980
 2658.5000    88.6660   -23.3150   -59.7470     7.2160     8.3780    10.6580     0.1590     2.5990    -0.0020   -89.0620    10.4010
 2659.0000    88.5660   -23.5370   -60.8040     7.5730     8.5120    11.4160     0.1650     2.5850     0.0080   -90.1640    10.4030
 2659.5000    89.2660   -23.6940   -61.8610     7.9250     8.6670    10.9850     0.1710     2.5710     0.0220   -91.2660    10.4050
 2660.0000    90.1090   -23.9110   -62.9190     7.9990     8.7750    10.1730     0.1820     2.5660     0.0220   -92.3690    10.4070
 2660.5000    92.1890   -24.1300   -64.0700     7.9750     8.6870     9.5370     0.1950     2.5610     0.0110   -93.4710    10.4090
 2661.0000    94.5660   -24.2400   -65.1210     7.9400     8.5620     9.3260     0.2070     2.5540     0.0030   -94.5730    10.4110
 2661.5000    97.4330   -24.3540   -66.2750     7.9060     8.4360     9.0220     0.2190     2.5480     0.0040   -95.6750    10.4140
 2662.0000    99.5020   -24.4900   -67.4280     7.8710     8.3190     8.5830     0.2160     2.5450     0.0040   -96.7770    10.4140
 2662.5000    99.6860   -24.5260   -68.5820     7.8360     8.2090     8.0730     0.2120     2.5460     0.0080   -97.8790    10.4140
 2663.0000    98.8190   -24.4960   -69.7350     7.8020     8.0730     8.0730     0.2080     2.5480     0.0150   -98.9810    10.4140
 2663.5000    98.0180   -24.4650   -70.8890     7.7980     8.1490     8.5030     0.2050     2.5520     0.0220  -100.0830    10.4140
 2664.0000    98.7750   -24.4310   -72.0420     7.8490     8.5720     8.8380     0.2010     2.5540     0.0260  -101.1860    10.4140
 2664.5000    99.5810   -24.4020   -73.1960     7.8990     8.9390     9.0890     0.1980     2.5540     0.0260  -102.2880    10.4130
 2665.0000    98.9710   -24.3660   -74.1210     7.9490     9.1300     9.3660     0.1950     2.5540     0.0240  -103.3900    10.4430
 2665.5000    98.4420   -24.3450   -76.6580     7.9990     9.1910     9.7150     0.1950     2.5560     0.0170  -103.9780    10.4760
 2666.0000    97.8130   -24.3650   -79.1960     7.9650     9.0060     9.7150     0.2010     2.5580     0.0100  -103.9780    10.5080
 2666.5000    97.7020   -24.3890   -81.7340     7.9220     8.7050     9.7150     0.2110     2.5560     0.0030  -103.9780    10.5360
 2667.0000   100.5470   -24.4060   -84.1710     7.8790     8.5350     9.3220     0.2190     2.5520    -0.0030  -103.9780    10.5520
