~VERSION INFORMATION
 VERS.                2.0:   CWLS LOG ASCII STANDARD - VERSION 2.0
 WRAP.                 NO:   ONE LINE PER DEPTH STEP
~WELL INFORMATION
#MNEM.UNIT      DATA TYPE    INFORMATION
#----------   ------------   ------------------------------
 STRT.F           40.0000:   START DEPTH
 STOP.F         1336.0000:   STOP DEPTH
 STEP.F            0.5000:   STEP LENGTH
 NULL.          -999.2500:   NO VALUE
 COMP. LAWRENCE - ALLISON WEST:   COMPANY
 WELL. LAWRENCE NPR 3 "AX" #54-23:   WELL
 FLD .              N P R:   FIELD
 LOC .      S23 T38N R78W:   LOCATION
 CNTY.            NATRONA:   COUNTY
 STAT.            WYOMING:   STATE
 CTRY. UNITED STATES OF AMERICA:   COUNTRY
 SRVC.       SCHLUMBERGER:   SERVICE COMPANY
 DATE.        13-MAY-1982:   LOGDATE
 API .     49025108880000:   API NUMBER
~CURVE INFORMATION
#MNEM.UNIT       API CODE    CURVE DESCRIPTION
#----------   ------------   ------------------------------
 DEPT.F                  :   
 NPOR.DEC    42 890 03 00:   ALPHA PROCESSED NEUTRON POROSITY
 TEND.LBS    45 635 01 00:   TENSION FROM DENSITY LOG
 CORR.G/C3   45 356 01 00:   DENSITY CORRECTION
 RHOB.G/C3   45 350 01 00:   BULK DENSITY
 GRD .GAPI   45 310 01 00:   GAMMA RAY FROM DENSITY LOG
 CALD.IN     45 280 60 00:   CALIPER FROM DENSITY LOG
 SPR .MV     07 010 01 00:   SPONTANEOUS POTENTIAL
 TENR.LBS    07 635 01 00:   TENSION
 ILD .OHMM   07 120 46 00:   DEEP INDUCTION RESISTIVITY
 ILM .OHMM   07 120 44 00:   INDUCTION LOG MEDIUM RESISTIVITY
 SFL .OHMM   07 220 01 00:   SHALLOW FOCUSED LOG RESISTIVITY
~PARAMETER INFORMATION
#MNEM.UNIT          VALUE    DESCRIPTION
#----------   ------------   ------------------------------
 EKB .F         5342.0000:   Kelly bushing
 EGL .F         5332.0000:   Ground level
 EDF .F            0.0000:   Drilling floor
 TD  .F         1325.0000:   Total depth
 DATE.        13-MAY-1982:   Date logged
 CLNT.            A2DTECH:   Client Code
 SL  . 2278' FSL & 2665' FWL:   Surface Location
 PD  .                 GL:   Permanent Datum
 DD  .F              1325:   Depth driller
 DL  .F              1314:   Depth logger
 BLI .F              1308:   Bottom log interval
 CS1 .IN             15.5:   Casing size
 CBD1.        15.5" @ 40':   Casing driller 1
 CBL1.F                54:   Casing logger 1
 BS1 .IN            12.25:   Bit size
 DFT .             LT/GEL:   Type fluid in hole
 DFD .                8.9:   Density
 DFV .                 33:   Viscosity
 DFPH.                8.8:   pH
 DFL .                 16:   Fluid loss
 MSS .                PIT:   Source of sample
 RMS .OHMM           2.47:   Rm
 MST .F                61:   Rm Meas. temp.
 RMF .OHMM           2.12:   Rmf
 MFST.F                62:   Rmf Meas. temp.
 MFSS.               MEAS:   Source Rmf.
 RMB .OHMM           1.73:   Rm. at BHT
 BHT .F                87:   BHT.
 TCS .HRS            2300:   Time Circ. stopped
 MRT .F                87:   Maximum recorded temp.
 LUN .               8043:   Logging unit number
 LUL .               CSPR:   Logging unit location
 ENGI.        WAGNER/CSPR:   Recorded By
 WITN.           JENNINGS:   Witnessed by
 ORIG.           5" PRINT:   Origin of data
 UWI .     49025108880000:   Unique Well ID
 DICO. A2D TECHNOLOGIES, INC.:   Digitizing Company
 BSD1.F              1325:   Depth drilled with bit1
 EPD .F              5332:   Elevation Permanent Datum
 LMF .                 KB:   Log Measured From
 DMF .                 KB:   Drilling Measured From
 TLI .F                54:   Top log interval
 DAPD.F                10:   Feet Above Permanent Datum
~OTHER INFORMATION
~A   DEPT     NPOR       TEND       CORR       RHOB        GRD       CALD        SPR       TENR        ILD        ILM        SFL   
# ...
  711.0000     0.1630   167.1490     0.0040     2.4370   127.2070    12.7500   -25.5890    46.5240     5.0530     4.7790     5.1560
  711.5000     0.1520   168.0190     0.0100     2.4360   126.1790    12.7390   -25.6510    46.5240     4.7860     4.4000     4.8120
  712.0000     0.1460   168.8890     0.0250     2.4290   126.4800    12.7270   -26.2320    46.5240     4.5170     3.7410     4.3180
  712.5000     0.1400   169.7590     0.0430     2.4220   128.0640    12.7300   -27.0740    46.5240     3.8530     3.1360     3.5850
  713.0000     0.1360   170.6290     0.0530     2.4020   130.6090    12.7510   -28.0680    46.5240     3.1830     2.5270     2.8530
  713.5000     0.1390   171.4990     0.0490     2.3590   134.3420    12.8240   -26.9090    46.5240     2.5140     2.0030     2.1200
  714.0000     0.1430   172.3690     0.0280     2.3030   141.6420    12.9580   -24.2690    46.5240     1.9940     1.7940     1.5570
  714.5000     0.1510   173.2850     0.0060     2.2190   151.1350    13.1270   -23.2200    46.5240     1.6800     1.5860     1.2870
  715.0000     0.1520   174.2180    -0.0040     2.1540   153.5140    13.3350   -22.1580    46.5240     1.3790     1.3770     1.2170
  715.5000     0.1480   175.1510     0.0020     2.1200   153.8240    13.4990   -21.9870    46.5240     1.3530     1.3030     1.1550
  716.0000     0.1470   176.0840     0.0090     2.1040   151.1710    13.0660   -24.9480    46.5240     1.4320     1.3030     1.1210
  716.5000     0.1810   177.0170     0.0080     2.0890   145.8250    12.6880   -27.6140    46.5240     1.5430     1.4150     1.1660
  717.0000     0.1930   177.9500    -0.0010     2.0840   140.6750    12.8120   -28.4380    46.5240     1.9350     1.5730     1.3870
  717.5000     0.2030   178.8840    -0.0100     2.1100   136.6920    13.1530   -26.9420    46.5240     2.5790     2.5170     1.8320
  718.0000     0.1920   179.8170    -0.0140     2.1800   134.1790    13.3220   -25.3410    46.5240     3.2230     3.3980     2.3210
  718.5000     0.1740   180.7500    -0.0070     2.2680   134.8020    12.7790   -25.0660    46.5240     3.8670     4.2790     3.0230
  719.0000     0.1650   181.6830     0.0040     2.3470   138.2410    12.6630   -27.7470    46.5240     4.6440     5.1600     3.8220
  719.5000     0.1590   182.6160     0.0140     2.3730   138.6180    12.7220   -29.9290    46.5240     5.5530     6.0400     4.6900
  720.0000     0.1580   182.9740     0.0310     2.4010   135.5480    12.7920   -29.6430    46.5240     6.4630     6.9210     5.7600
  720.5000     0.1600   183.2000     0.0470     2.4240   132.3670    12.8600   -29.0860    46.5240     7.3730     7.8020     6.9330
  721.0000     0.1620   183.4260     0.0420     2.4440   129.9970    12.9070   -28.5360    46.5240     8.0440     8.6830     7.9470
  721.5000     0.1600   183.6520     0.0310     2.4550   126.7060    12.9100   -27.9510    46.5240     8.5060     9.5640    10.1530
  722.0000     0.1520   183.8790     0.0210     2.4670   118.9950    12.9130   -27.5740    46.5240     8.8980     9.9630    11.8030
  722.5000     0.1460   184.1050     0.0120     2.4790   113.4210    12.9170   -26.9550    46.5240     7.8740     9.7770    16.2570
  723.0000     0.1420   184.3310     0.0030     2.4820   112.6720    12.9200   -26.2390    46.5240     6.9520     7.6530    14.0900
  723.5000     0.1350   184.5570     0.0010     2.4660   118.0320    12.9240   -25.5150    46.5240     6.0300     6.5750    10.1520
  724.0000     0.1290   184.7830     0.0030     2.4440   125.7080    12.9250   -24.8120    46.5240     5.1080     5.6510     7.3600
  724.5000     0.1220   185.0090     0.0130     2.4210   132.2070    12.9220   -24.4590    46.5240     4.1860     4.7270     4.4990
  725.0000     0.1180   185.2350     0.0250     2.3950   136.5110    12.9190   -24.5470    46.5240     3.7860     3.8030     2.9530
  725.5000     0.1320   185.4610     0.0450     2.3470   138.1050    12.9160   -24.6830    46.5240     3.7410     2.5190     2.0480
  726.0000     0.1580   185.6870     0.0500     2.2970   138.1770    12.9130   -26.9530    46.5240     3.7120     3.2790     2.4170
  726.5000     0.1740   185.9130     0.0140     2.2470   137.1830    12.9110   -28.0030    47.0250     3.6710     3.8150     3.3370
  727.0000     0.1740   186.1390    -0.0040     2.2350   135.2610    12.9080   -27.7870    47.6390     3.8450     4.4700     4.6900
  727.5000     0.1650   186.3660    -0.0020     2.3080   133.0610    12.9050   -27.0850    48.2520     4.1110     5.1250     6.0740
  728.0000     0.1570   186.5920     0.0050     2.3620   130.7550    12.9020   -28.2880    48.8660     4.7610     5.8790     6.5830
  728.5000     0.1590   186.8180     0.0100     2.3920   131.2820    12.8990   -29.6310    49.4790     5.3510     6.0350     6.5830
  729.0000     0.1600   187.0440     0.0110     2.4020   129.9870    12.8960   -30.7610    50.0930     5.8790     6.2180     6.2210
  729.5000     0.1580   187.2700     0.0110     2.4080   127.4500    12.8930   -30.7930    50.7060     6.5910     6.4000     6.2490
  730.0000     0.1530   187.4960     0.0170     2.4110   127.6160    12.8910   -30.4760    51.3200     7.5110     6.6740     6.3090
  730.5000     0.1490   187.7220     0.0190     2.4090   131.0360    12.8880   -29.6170    51.9330     7.5900     6.9920     6.4610
  731.0000     0.1450   187.9480     0.0130     2.3950   135.1280    12.8850   -29.1090    52.5460     7.7420     7.3090     6.7110
  731.5000     0.1440   188.1740     0.0080     2.3770   136.9560    12.8900   -29.9060    53.1600     8.0440     7.6270     7.0070
  732.0000     0.1460   188.4000     0.0040     2.3620   136.1900    12.8950   -31.2090    53.7730     8.3150     7.9450     7.3510
  732.5000     0.1500   188.6270    -0.0010     2.3620   133.2920    12.9000   -32.6970    54.3870     8.5190     8.1780     7.6530
  733.0000     0.1560   188.8530    -0.0040     2.3780   130.7020    12.9050   -32.0100    55.0000     8.7220     8.3330     7.8190
  733.5000     0.1580   189.0790    -0.0060     2.3940   128.8530    12.9110   -30.2870    55.6140     8.8980     8.4880     7.9470
  734.0000     0.1530   189.3050    -0.0050     2.4090   128.0030    12.9160   -28.6580    56.2270     8.9950     8.6430     8.7320
  734.5000     0.1490   189.5310    -0.0040     2.4140   128.9780    12.9210   -26.8270    56.8410     9.0670     8.8980     8.7320
  735.0000     0.1450   189.7570    -0.0030     2.3980   130.0840    12.9260   -26.6740    57.4540     8.9700     8.8500     8.6620
  735.5000     0.1410   189.9830    -0.0020     2.3850   130.1400    12.9320   -28.5210    58.0680     8.8850     8.7140     8.4660
  736.0000     0.1380   190.2090     0.0000     2.3730   130.1440    12.9370   -29.3060    58.6810     8.8010     8.5780     8.2700
  736.5000     0.1370   190.4350     0.0010     2.3740   130.3640    12.9420   -28.8530    59.2950     8.7320     8.4430     8.0740
  737.0000     0.1420   190.6610     0.0040     2.3910   131.1640    12.9460   -27.7890    59.9080     8.7810     8.3070     7.8780
  737.5000     0.1520   190.8880     0.0110     2.4080   131.6200    12.9440   -26.6070    60.5220     8.8230     8.2520     7.7990
  738.0000     0.1550   191.1140     0.0170     2.4210   131.1710    12.9410   -25.9630    61.1350     8.8650     8.2520     7.7990
  738.5000     0.1510   191.3400     0.0120     2.4140   131.2750    12.9380   -27.1120    61.7490     8.9250     8.3520     7.9970
  739.0000     0.1470   191.5660     0.0040     2.4010   132.6020    12.9360   -30.0080    62.3620     9.0500     8.5140     8.3200
  739.5000     0.1430   191.7920    -0.0010     2.3870   134.5300    12.9330   -31.3790    62.9760     9.1760     8.6770     8.5690
  740.0000     0.1460   192.0180     0.0010     2.3850   136.5010    12.9300   -32.0120    63.5890     9.3010     8.8980     8.5690
  740.5000     0.1530   192.2440     0.0080     2.3940   133.4740    12.9280   -31.2760    64.2030     9.4260     8.8570     8.5690
  741.0000     0.1590   192.4700     0.0100     2.3970   128.3950    12.9250   -30.2250    64.8160     9.5510     8.7930     8.5690
