~VERSION INFORMATION
 VERS.                2.0:   CWLS LOG ASCII STANDARD - VERSION 2.0
 WRAP.                 NO:   ONE LINE PER DEPTH STEP
~WELL INFORMATION
#MNEM.UNIT      DATA TYPE    INFORMATION
#----------   ------------   ------------------------------
 STRT.F          450.0000:   START DEPTH
 STOP.F         3070.0000:   STOP DEPTH
 STEP.F            0.5000:   STEP LENGTH
 NULL.          -999.2500:   NO VALUE
 COMP. LAWRENCE ALLISON & ASSOCIATES:   COMPANY
 WELL. LAWRENCE "X" #86-28:   WELL
 FLD .             NPR #3:   FIELD
 LOC .      S28 T39N R78W:   LOCATION
 CNTY.            NATRONA:   COUNTY
 STAT.            WYOMING:   STATE
 CTRY. UNITED STATES OF AMERICA:   COUNTRY
 SRVC.      WESTERN ATLAS:   SERVICE COMPANY
 DATE.        03-JAN-1988:   LOGDATE
 API .     49025111920000:   API NUMBER
~CURVE INFORMATION
#MNEM.UNIT       API CODE    CURVE DESCRIPTION
#----------   ------------   ------------------------------
 DEPT.F                  :   
 TEND.LBS    45 635 01 00:   TENSION FROM DENSITY LOG
 CALD.IN     45 280 60 00:   CALIPER FROM DENSITY LOG
 NPHI.DEC    42 890 03 00:   NEUTRON POROSITY SANDSTONE
 DEN .G/C3   45 350 01 00:   BULK DENSITY
 CORR.G/C3   45 356 01 00:   DENSITY CORRECTION
 TENR.LBS    07 635 01 00:   TENSION FROM RESISTIVITY
 RFOC.OHMM   07 220 04 00:   RESISTIVITY FOCUSED LOG RES.
 RILD.OHMM   07 120 46 00:   DEEP INDUCTION RESISTIVITY
 RILM.OHMM   07 120 44 00:   INDUCTION LOG MEDIUM RESISTIVITY
 SPR .MV     07 010 01 00:   SPONTANEOUS POTENTIAL
 GRR .GAPI   07 310 01 00:   GAMMA RAY FROM RESISTIVITY
~PARAMETER INFORMATION
#MNEM.UNIT          VALUE    DESCRIPTION
#----------   ------------   ------------------------------
 EKB .F         5072.0000:   Kelly bushing
 EGL .F         5061.0000:   Ground level
 EDF .F         5071.0000:   Drilling floor
 TD  .F         3062.0000:   Total depth
 DATE.        03-JAN-1988:   Date logged
 CLNT.            A2DTECH:   Client Code
 SL  . 1721' FSL & 556' FEL:   Surface Location
 PD  .                 GL:   Permanent Datum
 DD  .F              3060:   Depth driller
 DL  .F              3062:   Depth logger
 BLI .F              3060:   Bottom log interval
 CS1 .IN            8.625:   Casing size
 CBD1.      8.625" @ 480':   Casing driller 1
 CBL1.F               480:   Casing logger 1
 BS1 .IN            7.875:   Bit size
 DFT .        KCL-POLYMER:   Type fluid in hole
 DFD .                8.9:   Density
 DFV .                 36:   Viscosity
 DFPH.                9.5:   pH
 DFL .                8.4:   Fluid loss
 MSS .               TANK:   Source of sample
 RMS .OHMM           0.45:   Rm
 MST .F                80:   Rm Meas. temp.
 RMF .OHMM           0.41:   Rmf
 MFST.F                60:   Rmf Meas. temp.
 RMC .OHMM           0.65:   Rmc
 MCST.F                60:   Rmc Meas. temp.
 MFSS.               MEAS:   Source Rmf.
 RMB .OHMM           0.31:   Rm. at BHT
 BHT .F               110:   BHT.
 TCS .HRS               4:   Time Circ. stopped
 MRT .F               110:   Maximum recorded temp.
 LUN .            HL 6343:   Logging unit number
 LUL .               CODY:   Logging unit location
 ENGI.               RALL:   Recorded By
 WITN.              FIVRS:   Witnessed by
 ORIG.     2.5", 5" PRINT:   Origin of data
 UWI .     49025111920000:   Unique Well ID
 DICO. A2D TECHNOLOGIES, INC.:   Digitizing Company
 DAPD.                 11:   Feet Above Permanent Datum
 BSD1.               3060:   Depth drilled with bit1
 MCSS.               CALC:   Source Rmc.
 EPD .               5061:   Elevation Permanent Datum
 LMF .                 KB:   Log Measured From
 DMF .                 KB:   Drilling Measured From
 TLI .                480:   Top log interval
~OTHER INFORMATION
~A   DEPT     TEND       CALD       NPHI        DEN       CORR       TENR       RFOC       RILD       RILM        SPR         GRR  
# ...
  480.5000  -999.2500  -999.2500  -999.2500  -999.2500  -999.2500   -62.3730     7.8810     2.4380     3.2390     3.1400    89.3450
  481.0000  -999.2500  -999.2500  -999.2500  -999.2500  -999.2500   -62.3730     7.0180     1.9910     3.3000    -1.3270    89.2110
  481.5000  -999.2500  -999.2500  -999.2500  -999.2500  -999.2500   -62.3730     6.8480     2.1600     3.8330    -4.0600    88.2880
  482.0000  -999.2500  -999.2500  -999.2500  -999.2500  -999.2500   -62.3730     6.9310     2.6110     4.7030    -6.2000    88.9600
  482.5000  -999.2500  -999.2500  -999.2500  -999.2500  -999.2500   -62.3730     6.9340     4.6660     5.6690    -8.1460    91.7170
  483.0000  -999.2500  -999.2500  -999.2500  -999.2500  -999.2500   -62.3730     6.9740    11.0380     6.6360   -10.0890    94.4450
  483.5000  -999.2500  -999.2500  -999.2500  -999.2500  -999.2500   -62.3730     7.0150    10.6330     7.4910   -12.0320    93.4990
  484.0000  -999.2500  -999.2500  -999.2500  -999.2500  -999.2500   -62.3730     7.0560     8.6830     8.0300   -13.9730    92.0490
  484.5000  -999.2500  -999.2500  -999.2500  -999.2500  -999.2500   -62.3730     7.0960     7.2000     8.1050   -15.5480    89.3990
  485.0000  -999.2500  -999.2500  -999.2500  -999.2500  -999.2500   -62.3730     7.1370     6.9780     7.8810   -17.0310    89.1660
  485.5000  -999.2500  -999.2500  -999.2500  -999.2500  -999.2500   -62.3730     7.1780     7.3800     7.5750   -18.4640    89.0530
  486.0000  -999.2500  -999.2500  -999.2500  -999.2500  -999.2500   -62.3730     7.2180     8.1050     7.3810   -19.4300    88.8720
  486.5000  -999.2500  -999.2500  -999.2500  -999.2500  -999.2500   -62.3730     7.2590     8.6520     7.9930   -19.6430    87.1770
  487.0000  -999.2500  -999.2500  -999.2500  -999.2500  -999.2500   -64.1290     7.3000     9.3790     8.4390   -19.8300    85.9280
  487.5000  -999.2500  -999.2500  -999.2500  -999.2500  -999.2500   -66.0790     7.3400    10.2420     8.5730   -19.6940    86.1380
  488.0000  -999.2500  -999.2500  -999.2500  -999.2500  -999.2500   -68.0290     7.3810    10.8340     8.5730   -19.6590    87.3050
  488.5000  -999.2500  -999.2500  -999.2500  -999.2500  -999.2500   -69.9800     7.4220    10.8340     8.5730   -19.6570    88.4640
  489.0000  -999.2500  -999.2500  -999.2500  -999.2500  -999.2500   -71.9300     7.4500    10.1240     8.5730   -19.6560    89.6100
  489.5000  -999.2500  -999.2500  -999.2500  -999.2500  -999.2500   -72.5150     7.4120     9.3870     8.3510   -19.6590    90.5420
  490.0000  -999.2500  -999.2500  -999.2500  -999.2500  -999.2500   -72.5150     7.3810     9.3330     8.1040   -19.7810    89.8330
  490.5000  -999.2500  -999.2500  -999.2500  -999.2500  -999.2500   -72.5150     7.1880     9.2780     8.0300   -20.3970    88.4380
  491.0000  -999.2500  -999.2500  -999.2500  -999.2500  -999.2500   -67.4440     7.0120     9.1290     7.9550   -21.0060    88.3500
  491.5000  -999.2500  -999.2500  -999.2500  -999.2500  -999.2500   -57.3020     6.8370     8.7610     7.6980   -21.6070    88.2160
  492.0000  -999.2500  -999.2500  -999.2500  -999.2500  -999.2500   -47.1600     6.6360     8.3920     7.2630   -22.1020    88.1610
  492.5000  -999.2500  -999.2500  -999.2500  -999.2500  -999.2500   -42.0890     6.4240     8.0240     6.8160   -22.4240    89.8360
  493.0000  -999.2500  -999.2500  -999.2500  -999.2500  -999.2500   -50.4560     6.2120     7.6550     6.5170   -22.7630    91.5650
  493.5000  -999.2500  -999.2500  -999.2500  -999.2500  -999.2500   -58.0630     5.9870     7.2870     6.2190   -23.1010    91.5250
  494.0000  -999.2500  -999.2500  -999.2500  -999.2500  -999.2500   -65.6690     5.7330     6.7470     5.9240   -23.4380    90.6100
  494.5000  -999.2500  -999.2500  -999.2500  -999.2500  -999.2500   -72.5150     5.4790     6.1330     5.7240   -23.7740    89.6740
  495.0000  -999.2500  -999.2500  -999.2500  -999.2500  -999.2500   -70.9720     5.2250     5.5190     5.3360   -24.1110    88.0830
  495.5000  -999.2500  -999.2500  -999.2500  -999.2500  -999.2500   -68.7670     4.9710     4.8440     4.9480   -24.4910    86.5340
  496.0000  -999.2500  -999.2500  -999.2500  -999.2500  -999.2500   -66.5620     4.6880     4.0690     4.5260   -25.0270    86.0220
  496.5000  -999.2500  -999.2500  -999.2500  -999.2500  -999.2500   -64.3580     4.2790     3.2080     4.0690   -25.5060    89.2040
  497.0000  -999.2500  -999.2500  -999.2500  -999.2500  -999.2500   -62.3730     3.8220     2.7440     3.6130   -25.9800    92.7580
  497.5000  -999.2500  -999.2500  -999.2500  -999.2500  -999.2500   -63.4520     3.2950     2.5160     3.1560   -26.4520    96.3480
  498.0000  -999.2500  -999.2500  -999.2500  -999.2500  -999.2500   -64.4330     2.7690     2.4460     2.7000   -26.6040    98.3640
  498.5000  -999.2500  -999.2500  -999.2500  -999.2500  -999.2500   -65.4140     2.6110     2.5060     2.5150   -26.7540    94.7320
  499.0000  -999.2500  -999.2500  -999.2500  -999.2500  -999.2500   -66.3940     2.6360     2.5600     2.6120   -27.7280    89.9090
  499.5000  -999.2500  -999.2500  -999.2500  -999.2500  -999.2500   -67.3750     3.6800     2.6650     3.0560   -28.6720    86.7210
  500.0000  -999.2500  -999.2500  -999.2500  -999.2500  -999.2500   -68.3560     4.8400     3.1770     3.6550   -29.3660    88.4770
  500.5000  -999.2500  -999.2500  -999.2500  -999.2500  -999.2500   -69.3370     6.0000     3.8430     4.2540   -29.4080    92.0140
  501.0000  -999.2500  -999.2500  -999.2500  -999.2500  -999.2500   -70.3180     6.7840     4.5090     4.8540   -29.4650    94.8220
  501.5000  -999.2500  -999.2500  -999.2500  -999.2500  -999.2500   -71.2980     6.6420     5.1750     5.4610   -29.5240    97.0980
  502.0000  -999.2500  -999.2500  -999.2500  -999.2500  -999.2500   -72.2790     6.5350     5.8420     6.1210   -29.4920    98.6690
  502.5000  -999.2500  -999.2500  -999.2500  -999.2500  -999.2500   -72.1360     6.6990     6.5080     6.7800   -29.4320    99.2090
  503.0000  -999.2500  -999.2500  -999.2500  -999.2500  -999.2500   -71.6370     6.9900     6.8000     7.4500   -29.3700    99.7420
  503.5000  -999.2500  -999.2500  -999.2500  -999.2500  -999.2500   -71.1380     7.2820     6.9820     7.5920   -29.1090   100.2790
  504.0000  -999.2500  -999.2500  -999.2500  -999.2500  -999.2500   -70.6380     7.5730     7.1650     7.7340   -28.6570   100.6190
  504.5000  -999.2500  -999.2500  -999.2500  -999.2500  -999.2500   -70.1390     7.8650     7.3470     7.6900   -28.4830   100.5470
  505.0000  -999.2500  -999.2500  -999.2500  -999.2500  -999.2500   -69.6400     8.0370     7.4670     7.6170   -28.3060    98.7990
  505.5000  -999.2500  -999.2500  -999.2500  -999.2500  -999.2500   -69.1410     8.0560     7.5040     7.5450   -28.1270    97.5420
  506.0000  -999.2500  -999.2500  -999.2500  -999.2500  -999.2500   -68.6420     8.0740     7.5420     7.5200   -27.9500    98.5630
  506.5000  -999.2500  -999.2500  -999.2500  -999.2500  -999.2500   -68.1420     8.0920     7.5790     7.5420   -27.9230    99.5380
  507.0000  -999.2500  -999.2500  -999.2500  -999.2500  -999.2500   -67.6430     8.1050     7.5910     7.5630   -27.9230   100.5020
  507.5000  -999.2500  -999.2500  -999.2500  -999.2500  -999.2500   -67.1440     7.6620     7.5710     7.5830   -27.9230   102.4050
  508.0000  -999.2500  -999.2500  -999.2500  -999.2500  -999.2500   -66.6450     7.7950     7.5530     7.6040   -27.9220   105.4590
  508.5000  -999.2500  -999.2500  -999.2500  -999.2500  -999.2500   -66.1450     7.9530     7.5360     7.6250   -27.7260   106.2150
  509.0000  -999.2500  -999.2500  -999.2500  -999.2500  -999.2500   -65.6460     7.9440     7.5200     7.6450   -27.3320   104.4140
  509.5000  -999.2500  -999.2500  -999.2500  -999.2500  -999.2500   -65.1470     7.9340     7.4860     7.6630   -26.9290   102.3360
  510.0000  -999.2500  -999.2500  -999.2500  -999.2500  -999.2500   -64.6480     7.9240     7.4250     7.6620   -26.7550   100.3190
  510.5000  -999.2500  -999.2500  -999.2500  -999.2500  -999.2500   -64.1490     7.9150     7.3640     7.6440   -26.5870   102.7740
