~VERSION INFORMATION
 VERS.                2.0:   CWLS LOG ASCII STANDARD - VERSION 2.0
 WRAP.                 NO:   ONE LINE PER DEPTH STEP
~WELL INFORMATION
#MNEM.UNIT      DATA TYPE    INFORMATION
#----------   ------------   ------------------------------
 STRT.F          200.5000:   START DEPTH
 STOP.F         3012.5000:   STOP DEPTH
 STEP.F            0.5000:   STEP LENGTH
 NULL.          -999.2500:   NO VALUE
 COMP.    FENIX & SCISSON:   COMPANY
 WELL.  FENIX "AX" #75-29:   WELL
 FLD .              NPR-3:   FIELD
 LOC .      S29 T39N R78W:   LOCATION
 CNTY.            NATRONA:   COUNTY
 STAT.            WYOMING:   STATE
 CTRY. UNITED STATES OF AMERICA:   COUNTRY
 SRVC.           BIRDWELL:   SERVICE COMPANY
 DATE.        15-FEB-1978:   LOGDATE
 API .     49025105830000:   API NUMBER
~CURVE INFORMATION
#MNEM.UNIT       API CODE    CURVE DESCRIPTION
#----------   ------------   ------------------------------
 DEPT.F                  :   
 GRD .GAPI   45 310 01 00:   GAMMA RAY FROM DENSITY LOG
 CALD.IN     45 280 60 00:   CALIPER FROM DENSITY LOG
 DEN .G/C3   45 350 01 00:   BULK DENSITY
 DCOR.G/C3   45 356 01 00:   DENSITY CORRECTION
 SPR .MV     05 010 01 00:   SPONTANEOUS POTENTIAL
 SN  .OHMM   05 040 16 00:   SHORT NORMAL 16"
 RILD.OHMM   05 120 46 00:   DEEP INDUCTION RESISTIVITY
~PARAMETER INFORMATION
#MNEM.UNIT          VALUE    DESCRIPTION
#----------   ------------   ------------------------------
 EKB .F         5042.0000:   Kelly bushing
 EGL .F         5032.0000:   Ground level
 EDF .F            0.0000:   Drilling floor
 TD  .F         3010.0000:   Total depth
 DATE.        15-FEB-1978:   Date logged
 CLNT.            A2DTECH:   Client Code
 SL  . 2550' FSL & 950' FEL:   Surface Location
 PD  .                 GL:   Permanent Datum
 EPD .F              5032:   Elevation Permanent Datum
 LMF .                 KB:   Log Measured From
 DMF .                 KB:   Drilling Measured From
 DAPD.F                10:   Feet Above Permanent Datum
 DD  .F              3010:   Depth driller
 DL  .F              3010:   Depth logger
 BLI .F              3002:   Bottom log interval
 TLI .F               200:   Top log interval
 CS1 .IN            8.625:   Casing size
 CBD1.      8.625" @ 222':   Casing driller 1
 CBL1.F               222:   Casing logger 1
 BS1 .IN            7.875:   Bit size
 BSD1.F              3010:   Depth drilled with bit1
 DFT .         LIGNO/SULF:   Type fluid in hole
 DFD .                9.1:   Density
 DFV .                 33:   Viscosity
 DFPH.                 10:   pH
 DFL .                4.9:   Fluid loss
 MSS .           FLOWLINE:   Source of sample
 RMS .OHMM              2:   Rm
 MST .F                66:   Rm Meas. temp.
 RMF .OHMM            2.2:   Rmf
 MFST.F                58:   Rmf Meas. temp.
 RMC .OHMM            1.8:   Rmc
 MCST.F                60:   Rmc Meas. temp.
 MFSS.               MEAS:   Source Rmf.
 RMB .OHMM            1.7:   Rm. at BHT
 BHT .F               118:   BHT.
 TCS .HRS               5:   Time Circ. stopped
 MRT .F               118:   Maximum recorded temp.
 LUN .               2958:   Logging unit number
 LUL .               CASP:   Logging unit location
 ENGI.            POINTER:   Recorded By
 WITN.           MCGINLEY:   Witnessed by
 ORIG.           5" PRINT:   Origin of data
 UWI .     49025105830000:   Unique Well ID
 DICO. A2D TECHNOLOGIES, INC.:   Digitizing Company
~OTHER INFORMATION
~A   DEPT       GRD      CALD        DEN       DCOR        SPR         SN       RILD   
  200.5000    51.6800  -999.2500  -999.2500  -999.2500  -999.2500  -999.2500  -999.2500
  201.0000    52.3600  -999.2500  -999.2500  -999.2500  -999.2500  -999.2500  -999.2500
  201.5000    53.0400  -999.2500  -999.2500  -999.2500  -999.2500  -999.2500  -999.2500
  202.0000    52.2810  -999.2500  -999.2500  -999.2500  -999.2500  -999.2500  -999.2500
  202.5000    50.6240  -999.2500  -999.2500  -999.2500  -999.2500  -999.2500  -999.2500
  203.0000    50.7630  -999.2500  -999.2500  -999.2500  -999.2500  -999.2500  -999.2500
  203.5000    51.5920  -999.2500  -999.2500  -999.2500  -999.2500  -999.2500  -999.2500
  204.0000    51.2000  -999.2500  -999.2500  -999.2500  -999.2500  -999.2500  -999.2500
  204.5000    51.4490  -999.2500  -999.2500  -999.2500  -999.2500  -999.2500  -999.2500
  205.0000    54.4810  -999.2500  -999.2500  -999.2500  -999.2500  -999.2500  -999.2500
  205.5000    59.6450  -999.2500  -999.2500  -999.2500  -999.2500  -999.2500  -999.2500
  206.0000    59.9480  -999.2500  -999.2500  -999.2500  -999.2500  -999.2500  -999.2500
  206.5000    55.6790  -999.2500  -999.2500  -999.2500  -999.2500  -999.2500  -999.2500
  207.0000    52.5540  -999.2500  -999.2500  -999.2500  -999.2500  -999.2500  -999.2500
  207.5000    53.5390  -999.2500  -999.2500  -999.2500  -999.2500  -999.2500  -999.2500
  208.0000    57.0530  -999.2500  -999.2500  -999.2500  -999.2500  -999.2500  -999.2500
  208.5000    57.1310  -999.2500  -999.2500  -999.2500  -999.2500  -999.2500  -999.2500
  209.0000    54.5450  -999.2500  -999.2500  -999.2500  -999.2500  -999.2500  -999.2500
  209.5000    52.7470  -999.2500  -999.2500  -999.2500  -999.2500  -999.2500  -999.2500
  210.0000    54.3820  -999.2500  -999.2500  -999.2500  -999.2500  -999.2500  -999.2500
  210.5000    59.8510  -999.2500  -999.2500  -999.2500  -999.2500  -999.2500  -999.2500
  211.0000    60.3520  -999.2500  -999.2500  -999.2500  -999.2500  -999.2500  -999.2500
  211.5000    58.2880  -999.2500  -999.2500  -999.2500  -999.2500  -999.2500  -999.2500
  212.0000    54.0800  -999.2500  -999.2500  -999.2500  -999.2500  -999.2500  -999.2500
  212.5000    52.0580  -999.2500  -999.2500  -999.2500  -999.2500  -999.2500  -999.2500
  213.0000    52.1230  -999.2500  -999.2500  -999.2500  -999.2500  -999.2500  -999.2500
  213.5000    50.5640  -999.2500  -999.2500  -999.2500  -999.2500  -999.2500  -999.2500
  214.0000    49.7950  -999.2500  -999.2500  -999.2500  -999.2500  -999.2500  -999.2500
  214.5000    52.1720  -999.2500  -999.2500  -999.2500  -999.2500  -999.2500  -999.2500
  215.0000    53.1380  -999.2500  -999.2500  -999.2500  -999.2500  -999.2500  -999.2500
  215.5000    52.3230  -999.2500  -999.2500  -999.2500  -999.2500  -999.2500  -999.2500
  216.0000    51.3630  -999.2500  -999.2500  -999.2500  -999.2500  -999.2500  -999.2500
  216.5000    49.7040  -999.2500  -999.2500  -999.2500  -999.2500  -999.2500  -999.2500
  217.0000    44.6430  -999.2500  -999.2500  -999.2500  -999.2500  -999.2500  -999.2500
  217.5000    38.5530  -999.2500  -999.2500  -999.2500  -999.2500  -999.2500  -999.2500
  218.0000    36.0400  -999.2500  -999.2500  -999.2500  -999.2500  -999.2500  -999.2500
  218.5000    33.6060  -999.2500  -999.2500  -999.2500  -999.2500  -999.2500  -999.2500
  219.0000    32.3950     7.8610  -999.2500  -999.2500  -999.2500  -999.2500  -999.2500
  219.5000    31.9440     8.0200  -999.2500  -999.2500  -999.2500  -999.2500  -999.2500
  220.0000    33.5190     8.6330     2.6650     0.2570  -999.2500     0.4240  1936.4930
  220.5000    39.0990     8.8730     2.4830     0.1110  -999.2500     0.4240  1936.4930
  221.0000    40.8500     9.1800     2.3030     0.0980  -999.2500     0.4240  1936.4930
  221.5000    40.8510     9.4970     2.2980     0.1000  -999.2500     0.4240  1945.2670
  222.0000    40.4720     9.6850     2.3120     0.1370  -999.2500     0.4240  1936.4930
  222.5000    40.3450     9.8820     2.3650     0.1240  -999.2500     0.4240  1936.4930
  223.0000    40.6710    10.2840     2.3900     0.1070  -999.2500     0.4240  1936.4930
  223.5000    41.0090    10.3570     2.3290     0.0900  -999.2500     0.4220  1916.4980
  224.0000    39.2220    10.5260     2.3100     0.0860  -999.2500     0.4240  1936.4930
  224.5000    37.9370    10.6320     2.2900     0.1090  -999.2500     0.4240  1936.4930
  225.0000    36.8200    10.7150     2.3140     0.1130  -999.2500     1.1270  1936.4930
  225.5000    36.3670    10.7850     2.3320     0.1110  -999.2500     8.1780    11.0860
  226.0000    36.4660    10.8290     2.2960     0.1090  -999.2500    10.0640    11.0860
  226.5000    36.5290    10.8790     2.2950     0.1070  -999.2500    11.4380    11.3390
  227.0000    36.3850    11.0110     2.2940     0.1060   -68.4260    12.6130    11.5870
  227.5000    36.3190    11.1290     2.2860     0.1090   -66.7230    12.5370    11.8350
  228.0000    35.8940    11.2490     2.2750     0.1090   -65.0330    12.2690    12.0830
  228.5000    36.3210    11.3600     2.2890     0.1060   -63.7430    12.3110    12.3310
  229.0000    36.6820    11.4570     2.2920     0.0990   -62.8520    12.3830    12.5790
  229.5000    36.4270    11.5280     2.2820     0.0970   -62.6550    12.4540    12.8260
  230.0000    38.3590    11.5990     2.2760     0.0990   -62.7360    12.5250    13.0740
  230.5000    39.2150    11.6690     2.2740     0.0950   -62.9630    12.6130    13.3220
  231.0000    41.0420    11.7330     2.2730     0.0920   -63.4020    12.5990    13.5700
  231.5000    43.4010    11.7930     2.2720     0.0950   -64.0610    12.5810    13.8320
  232.0000    43.6510    11.8540     2.2900     0.1000   -64.7020    12.5620    13.7470
  232.5000    43.8410    11.9150     2.2660     0.1130   -67.2390    12.5440    13.6590
  233.0000    43.3480    11.9760     2.3270     0.1330   -71.2650    12.5250    13.5700
  233.5000    42.6920    12.0400     2.3930     0.1410   -67.7700    12.4980    13.4810
  234.0000    42.0730    12.1340     2.3860     0.1380   -65.6190    12.5350    13.3920
  234.5000    41.4830    12.2320     2.3660     0.1050   -65.6750    12.6130    13.3310
  235.0000    41.6560    12.3310     2.3310     0.0700   -65.6960    12.7170    13.5350
  235.5000    41.8720    12.4290     2.2660     0.0560   -65.7190    12.8630    13.9410
  236.0000    42.2160    12.5240     2.2660     0.0610   -65.7440    13.0870    14.3480
  236.5000    43.3900    12.5990     2.3050     0.0880   -65.7690    13.5010    14.7540
  237.0000    44.7500    12.6740     2.3630     0.1140   -65.7950    13.9160    15.1600
  237.5000    45.0610    12.7490     2.4530     0.1180   -65.8200    14.2190    15.5670
  238.0000    47.6110    12.8210     2.4500     0.1120   -65.8400    14.0890    15.9730
  238.5000    50.4690    12.8580     2.4100     0.1100   -65.8510    14.6780    16.3790
  239.0000    51.3330    12.8690     2.3840     0.1100   -65.8620    15.0440    16.7850
  239.5000    51.2010    12.9050     2.3770     0.1100   -65.8730    15.1070    17.2570
  240.0000    50.2220    12.9530     2.3720     0.1110   -65.8840    15.1670    16.9360
  240.5000    47.8530    12.9910     2.3710     0.1110   -65.8950    15.0090    16.5530
  241.0000    45.7010    12.9870     2.3680     0.1140   -65.9060    14.6700    16.1780
  241.5000    45.9470    12.9830     2.3630     0.1100   -65.9170    13.9690    16.3870
  242.0000    46.1940    12.9800     2.3620     0.1160   -65.9280    14.0090    16.6320
  242.5000    45.1430    12.9770     2.3660     0.1210   -65.9390    14.0890    16.5020
  243.0000    44.0410    12.9740     2.3750     0.1190   -65.9500    13.7720    16.3400
  243.5000    44.3470    12.9710     2.3840     0.1160   -65.9610    13.5790    16.1780
  244.0000    44.9370    12.9680     2.3900     0.1140   -65.9720    13.5790    16.0160
  244.5000    44.9070    12.9640     2.3910     0.1140   -65.9830    13.5790    15.8830
  245.0000    44.7390    12.9610     2.3920     0.1150   -65.9940    13.5790    16.0400
  245.5000    44.5700    12.9580     2.4170     0.1180   -66.0050    13.5790    16.1780
