~VERSION INFORMATION
 VERS.                2.0:   CWLS LOG ASCII STANDARD - VERSION 2.0
 WRAP.                 NO:   ONE LINE PER DEPTH STEP
~WELL INFORMATION
#MNEM.UNIT      DATA TYPE    INFORMATION
#----------   ------------   ------------------------------
 STRT.F          200.0000:   START DEPTH
 STOP.F         3098.0000:   STOP DEPTH
 STEP.F            0.5000:   STEP LENGTH
 NULL.          -999.2500:   NO VALUE
 COMP.    FENIX & SCISSON:   COMPANY
 WELL.   FENIX "AX" #74-3:   WELL
 FLD .              N P R:   FIELD
 LOC .       S3 T38N R78W:   LOCATION
 CNTY.            NATRONA:   COUNTY
 STAT.            WYOMING:   STATE
 CTRY. UNITED STATES OF AMERICA:   COUNTRY
 SRVC.              WELEX:   SERVICE COMPANY
 DATE.        17-AUG-1977:   LOGDATE
 API .     49025104120000:   API NUMBER
~CURVE INFORMATION
#MNEM.UNIT       API CODE    CURVE DESCRIPTION
#----------   ------------   ------------------------------
 DEPT.F                  :   
 CALD.IN     45 280 60 00:   CALIPER FROM DENSITY LOG
 SPR .MV     07 010 01 00:   SPONTANEOUS POTENTIAL
 NPHI.DEC    42 890 00 00:   NEUTRON POROSITY
 GRD .GAPI   45 310 01 00:   GAMMA RAY FROM DENSITY LOG
 CORR.G/C3   45 356 01 00:   DENSITY CORRECTION
 RHOB.G/C3   45 350 01 00:   BULK DENSITY
 SGRD.OHMM   07 220 05 00:   SHALLOW SHORT GUARD RESISTIVITY
 ILD .OHMM   07 120 46 00:   DEEP INDUCTION RESISTIVITY
 ILM .OHMM   07 120 44 00:   INDUCTION LOG MEDIUM RESISTIVITY
~PARAMETER INFORMATION
#MNEM.UNIT          VALUE    DESCRIPTION
#----------   ------------   ------------------------------
 EKB .F         5141.0000:   Kelly bushing
 EGL .F         5131.0000:   Ground level
 EDF .F            0.0000:   Drilling floor
 TD  .F         3100.0000:   Total depth
 DATE.        17-AUG-1977:   Date logged
 CLNT.            A2DTECH:   Client Code
 SL  . 2272' FNL & 1060' FEL:   Surface Location
 PD  .                 GL:   Permanent Datum
 EPD .F              5131:   Elevation Permanent Datum
 LMF .                 KB:   Log Measured From
 DMF .                 KB:   Drilling Measured From
 DD  .F              3100:   Depth driller
 DL  .F              3100:   Depth logger
 BLI .F              3098:   Bottom log interval
 TLI .F               200:   Top log interval
 CS1 .IN            8.625:   Casing size
 CBD1.      8.625" @ 215':   Casing driller 1
 CBL1.F               218:   Casing logger 1
 BS1 .IN            7.875:   Bit size
 DFT .            KCL MUD:   Type fluid in hole
 DFD .                8.8:   Density
 DFV .                 33:   Viscosity
 DFPH.                9.5:   pH
 DFL .               10.6:   Fluid loss
 MSS .           FLOWLINE:   Source of sample
 RMS .OHMM            .67:   Rm
 MST .F                98:   Rm Meas. temp.
 RMF .OHMM            .64:   Rmf
 MFST.F                98:   Rmf Meas. temp.
 RMC .OHMM            .31:   Rmc
 MCST.F                98:   Rmc Meas. temp.
 MFSS.           MEASURED:   Source Rmf.
 RMB .OHMM            .57:   Rm. at BHT
 BHT .F               115:   BHT.
 TCS .HRS               3:   Time Circ. stopped
 MRT .F               115:   Maximum recorded temp.
 LUN .               8611:   Logging unit number
 LUL .             CASPER:   Logging unit location
 ENGI.            C. DOAK:   Recorded By
 WITN.     MR. PETTINGILL:   Witnessed by
 ORIG.           5" PRINT:   Origin of data
 UWI .     49025104120000:   Unique Well ID
 DICO. A2D TECHNOLOGIES, INC.:   Digitizing Company
 BSD1.               3100:   Depth drilled with bit1
~OTHER INFORMATION
~A   DEPT       CALD      SPR       NPHI          GRD      CORR        RHOB     SGRD        ILD        ILM   
# ...
 2098.0000     8.5660   -69.8640     0.3200   114.8080     0.0120     2.4700    12.7640     7.3790     9.9360
 2098.5000     8.5810   -69.8640     0.3220   113.0300     0.0100     2.4830    13.1860     7.4100    10.0670
 2099.0000     8.6040   -69.8640     0.3220   111.3640     0.0130     2.4870    12.9930     7.4400    10.1980
 2099.5000     8.6060   -69.8640     0.3180   109.6990     0.0160     2.4910    12.8290     7.4710    10.2980
 2100.0000     8.6090   -69.8640     0.3140   108.0350     0.0200     2.5050    13.3250     7.4750    10.2980
 2100.5000     8.6130   -69.8640     0.3100   106.3720     0.0230     2.5110    13.6780     7.4750    10.0190
 2101.0000     8.6160   -69.8640     0.3050   104.7070     0.0270     2.5070    13.0770     7.4450     9.8980
 2101.5000     8.6200   -69.8640     0.3010   103.0380     0.0260     2.5020    12.4810     7.3680     9.7420
 2102.0000     8.6240   -69.8640     0.3010   101.3750     0.0240     2.5020    11.6290     7.2910     9.5860
 2102.5000     8.6280   -69.8640     0.3010   101.1600     0.0220     2.5070    10.8190     7.2140     9.4840
 2103.0000     8.6310   -69.8640     0.3010   101.1460     0.0200     2.5120    10.0190     7.1370     9.3680
 2103.5000     8.6350   -69.8640     0.3010   101.2700     0.0180     2.5130    10.0190     7.0590     9.2940
 2104.0000     8.6390   -69.8640     0.3010   104.6730     0.0160     2.5130    10.3520     6.9820     9.2200
 2104.5000     8.6410   -69.8640     0.3010   106.3550     0.0140     2.5120    10.6180     6.8210     9.1460
 2105.0000     8.6450   -69.8640     0.3010   105.0830     0.0130     2.5120    10.8840     6.8410     9.0720
 2105.5000     8.6600   -69.8640     0.3030   103.8480     0.0110     2.5110    11.0810     6.8620     9.0590
 2106.0000     8.6740   -69.8770     0.3080   102.3700     0.0130     2.5110    11.2860     6.8820     9.0530
 2106.5000     8.6880   -69.8970     0.3100   103.3540     0.0170     2.5110    11.4940     6.9030     9.0310
 2107.0000     8.7020   -69.9170     0.3090   104.6340     0.0210     2.5130    11.4940     6.9240     9.0090
 2107.5000     8.7160   -69.9370     0.3090   105.9090     0.0250     2.5140    11.4940     6.9440     8.9870
 2108.0000     8.7190   -69.9570     0.3080   107.1780     0.0290     2.5150    10.9420     6.9470     8.8950
 2108.5000     8.7130   -69.9770     0.3080   108.4480     0.0290     2.5170    10.4300     6.9470     8.8950
 2109.0000     8.7020   -69.9970     0.3100   109.7210     0.0260     2.5170     9.8370     6.9460     9.0080
 2109.5000     8.6910   -70.0170     0.3120   110.9930     0.0240     2.5160    10.7800     6.9470     9.1230
 2110.0000     8.6810   -70.0370     0.3130   112.1240     0.0210     2.5140    11.8960     7.0290     9.2380
 2110.5000     8.6700   -70.0570     0.3140   112.0680     0.0190     2.5130    12.5960     7.1210     9.3530
 2111.0000     8.6590   -70.0770     0.3130   111.1920     0.0160     2.5120    11.2140     7.2140     9.4680
 2111.5000     8.6480   -70.0960     0.3130   110.2710     0.0180     2.5110    10.6820     7.3060     9.5830
 2112.0000     8.6380   -70.1160     0.3150   109.3540     0.0210     2.5220    12.3300     7.3980     9.6980
 2112.5000     8.6270   -70.1360     0.3180   108.4370     0.0240     2.5330    13.5530     7.4900     9.7480
 2113.0000     8.6160   -70.1560     0.3200   107.5210     0.0270     2.5310    13.5530     7.5830     9.7480
 2113.5000     8.6050   -70.1760     0.3230   106.6050     0.0270     2.5220    13.3430     7.6750     9.7480
 2114.0000     8.5940   -70.1960     0.3260   105.6880     0.0250     2.5130    12.4680     7.7540     9.7480
 2114.5000     8.5830   -70.2160     0.3260   104.7650     0.0230     2.5080    11.6000     7.7540     9.6790
 2115.0000     8.5880   -70.2360     0.3220   103.8520     0.0210     2.5120    11.8810     7.7540     9.6080
 2115.5000     8.5960   -70.2560     0.3190   103.4980     0.0190     2.5160    12.4810     7.6940     9.5710
 2116.0000     8.6050   -70.2760     0.3160   105.8390     0.0170     2.5170    12.0320     7.6250     9.5710
 2116.5000     8.6140   -70.2960     0.3130   108.1330     0.0160     2.5060    12.3100     7.5560     9.5710
 2117.0000     8.6230   -70.3160     0.3120   110.4230     0.0210     2.5100    12.7320     7.4870     9.6240
 2117.5000     8.6320   -70.3360     0.3120   112.7090     0.0250     2.5140    13.3070     7.4180     9.6750
 2118.0000     8.6410   -70.3560     0.3080   113.9700     0.0300     2.5190    12.8960     7.3500     9.7270
 2118.5000     8.6490   -70.3760     0.3040   111.5620     0.0350     2.5230    12.3350     7.2810     9.7790
 2119.0000     8.6590   -70.3960     0.3010   109.0880     0.0340     2.5200    11.7740     7.2120     9.8370
 2119.5000     8.6600   -70.4160     0.3010   106.6430     0.0310     2.5150    11.2960     7.1430     9.7480
 2120.0000     8.6590   -70.4360     0.3010   105.1590     0.0270     2.5090    10.5270     7.0740     9.4840
 2120.5000     8.6580   -70.4560     0.3040   107.3840     0.0240     2.5020     9.9280     7.0050     9.3080
 2121.0000     8.6570   -70.4760     0.3090   110.3180     0.0200     2.4960    10.2860     6.9360     9.0890
 2121.5000     8.6560   -70.4960     0.3130   113.2470     0.0170     2.4910    10.6330     6.8680     8.8710
 2122.0000     8.6550   -70.5160     0.3180   115.2920     0.0140     2.4910    10.9810     6.7990     8.7340
 2122.5000     8.6540   -70.5360     0.3230   113.5700     0.0100     2.5000    11.1830     6.7470     8.6540
 2123.0000     8.6520   -70.5560     0.3160   111.4130     0.0140     2.4960    11.0260     6.6940     8.6540
 2123.5000     8.6510   -70.5760     0.3100   109.2550     0.0190     2.4950    10.8740     6.6410     8.6540
 2124.0000     8.6500   -70.5960     0.3030   107.7610     0.0190     2.4810    10.7230     6.5880     8.6540
 2124.5000     8.6490   -70.6160     0.2980   109.0720     0.0170     2.4730    10.5710     6.5350     8.6540
 2125.0000     8.6480   -70.6350     0.2980   111.4560     0.0150     2.4650    10.4200     6.4830     8.6540
 2125.5000     8.6470   -70.6740     0.2940   113.8520     0.0130     2.4670    10.2690     6.4300     8.6540
 2126.0000     8.6460   -70.7160     0.2920   116.2430     0.0140     2.4790    10.1110     6.3970     8.6540
 2126.5000     8.6450   -70.7580     0.2920   118.2280     0.0170     2.4910    10.6990     6.3970     8.6540
 2127.0000     8.6440   -70.8000     0.2920   116.8410     0.0210     2.4930    11.0810     6.3920     8.6530
 2127.5000     8.6430   -70.8430     0.2890   115.4940     0.0240     2.4950    10.8520     6.3740     8.6550
 2128.0000     8.6420   -70.8850     0.2870   114.1580     0.0220     2.4960    10.6440     6.3560     8.5750
 2128.5000     8.6410   -70.9270     0.2840   112.8220     0.0190     2.4860    10.4360     6.3380     8.4850
 2129.0000     8.6410   -70.9690     0.2830   111.4890     0.0160     2.4750    10.2280     6.3200     8.3960
 2129.5000     8.6410   -71.0120     0.2880   110.1720     0.0140     2.4650    10.0210     6.3020     8.3060
 2130.0000     8.6410   -71.0540     0.2930   109.2390     0.0110     2.4560     9.8130     6.2850     8.2170
 2130.5000     8.6410   -71.0960     0.2970   108.1940     0.0080     2.4490     9.6590     6.2820     8.1280
 2131.0000     8.6410   -71.1380     0.2980   106.4690     0.0050     2.4570     9.8170     6.2300     8.0390
 2131.5000     8.6410   -71.1800     0.2970   104.8000     0.0030     2.4460     9.9980     6.1830     7.9500
 2132.0000     8.6410   -71.2230     0.2960   103.1210     0.0010     2.4330    10.1780     6.1350     7.8970
 2132.5000     8.6410   -71.2650     0.2940   101.4430     0.0050     2.4320    10.3590     6.0870     7.7430
 2133.0000     8.6410   -71.3070     0.2930    99.7650     0.0090     2.4450    10.5390     6.0400     7.5600
 2133.5000     8.6410   -71.3500     0.2910    98.0860     0.0130     2.4570    10.5850     5.9920     7.3770
 2134.0000     8.6410   -71.3910     0.2920    96.4070     0.0170     2.4690     9.8060     5.9440     7.2480
