~VERSION INFORMATION
 VERS.                2.0:   CWLS LOG ASCII STANDARD - VERSION 2.0
 WRAP.                 NO:   ONE LINE PER DEPTH STEP
~WELL INFORMATION
#MNEM.UNIT      DATA TYPE    INFORMATION
#----------   ------------   ------------------------------
 STRT.F          216.0000:   START DEPTH
 STOP.F         3184.0000:   STOP DEPTH
 STEP.F            0.5000:   STEP LENGTH
 NULL.          -999.2500:   NO VALUE
 COMP.    FENIX & SCISSON:   COMPANY
 WELL. FENIX & SCISSON INCNRP "A" #311-14:   WELL
 FLD .                NPR:   FIELD
 LOC .      S14 T38N R78W:   LOCATION
 CNTY.            NATRONA:   COUNTY
 STAT.            WYOMING:   STATE
 CTRY. UNITED STATES OF AMERICA:   COUNTRY
 SRVC.              WELEX:   SERVICE COMPANY
 DATE.        22-JUN-1977:   LOGDATE
 API .     49025103810000:   API NUMBER
~CURVE INFORMATION
#MNEM.UNIT       API CODE    CURVE DESCRIPTION
#----------   ------------   ------------------------------
 DEPT.F                  :   
 CALD.IN     45 280 60 00:   CALIPER FROM DENSITY LOG
 GRD .GAPI   45 310 01 00:   GAMMA RAY FROM DENSITY LOG
 DPHI.DEC    45 890 12 00:   DENSITY POROSITY SANDSTONE
 RHOB.G/C3   45 350 01 00:   BULK DENSITY
 CORR.G/C3   45 356 01 00:   DENSITY CORRECTION
 SPR .MV     07 010 01 00:   SPONTANEOUS POTENTIAL
 SFLU.OHMM   07 220 01 00:   SPHERICALLY FOCUSED LOG UNAVERAGED RESISTIVITY
 ILD .OHMM   07 120 46 00:   DEEP INDUCTION RESISTIVITY
 ILM .OHMM   07 120 44 00:   INDUCTION LOG MEDIUM RESISTIVITY
~PARAMETER INFORMATION
#MNEM.UNIT          VALUE    DESCRIPTION
#----------   ------------   ------------------------------
 EKB .F         5225.0000:   Kelly bushing
 EGL .F         5215.0000:   Ground level
 TD  .F         3183.0000:   Total depth
 DATE.        22-JUN-1977:   Date logged
 CLNT.            A2DTECH:   Client Code
 CTRY.                USA:   Country
 SL  . 330' FNL & 330' FWL:   Surface Location
 PD  .                 GL:   Permanent Datum
 EPD .F              5215:   Elevation Permanent Datum
 LMF .                 KB:   Log Measured From
 DMF .                 KB:   Drilling Measured From
 DAPD.F                10:   Feet Above Permanent Datum
 DD  .F              3178:   Depth driller
 DL  .F              3183:   Depth logger
 BLI .F              3181:   Bottom log interval
 TLI .F                20:   Top log interval
 CS1 .IN            8.625:   Casing size
 CBD1.      8.625" @ 217':   Casing driller 1
 BS1 .IN            7.875:   Bit size
 BSD1.F              3178:   Depth drilled with bit1
 DFT .            KCL MUD:   Type fluid in hole
 DFD .                9.5:   Density
 DFV .                 40:   Viscosity
 DFPH.                7.5:   pH
 DFL .               13.6:   Fluid loss
 MSS .           FLOWLINE:   Source of sample
 RMS .OHMM            .36:   Rm
 MST .F                80:   Rm Meas. temp.
 RMF .OHMM            .30:   Rmf
 MFST.F                80:   Rmf Meas. temp.
 RMC .OHMM            .86:   Rmc
 MCST.F                80:   Rmc Meas. temp.
 MFSS.               FANN:   Source Rmf.
 MCSS.                KIT:   Source Rmc.
 RMB .OHMM            .25:   Rm. at BHT
 BHT .F               114:   BHT.
 TCS .HRS             2.5:   Time Circ. stopped
 MRT .F               114:   Maximum recorded temp.
 LUN .               8766:   Logging unit number
 LUL .             CASPER:   Logging unit location
 ENGI.          T. TOYNER:   Recorded By
 WITN.      B. HARRINGTON:   Witnessed by
 PWI .                  -:   Primary Well Identifier
 ORIG.           5" PRINT:   Origin of data
 UWI .     49025103810000:   Unique Well ID
 DICO. A2D TECHNOLOGIES, INC.:   Digitizing Company
~OTHER INFORMATION
~A   DEPT       CALD       GRD        DPHI       RHOB       CORR      SPR         SFLU      ILD        ILM   
# ...
 1384.0000     9.4082    83.9474     0.0828     2.5183     0.0380   -64.8404     7.4508     6.7601     6.5425
 1384.5000     9.4278    84.7370     0.0829     2.5163     0.0360   -64.8367     7.4524     6.7263     6.4835
 1385.0000     9.3878    86.3210     0.0857     2.5133     0.0340   -64.8312     7.4541     6.6926     6.4251
 1385.5000     9.4074    87.1108     0.0893     2.5043     0.0320   -64.8275     7.4558     6.6592     6.4266
 1386.0000     9.3872    87.9006     0.0953     2.5003     0.0279   -65.2185     7.4575     6.6259     6.3687
 1386.5000     9.4068    88.2934     0.0969     2.4993     0.0259   -64.8183     7.5282     6.5927     6.3701
 1387.0000     9.4066    87.8918     0.0981     2.4923     0.0219   -64.8128     7.3925     6.5598     6.3130
 1387.5000     9.3865    87.4902     0.0981     2.4923     0.0239   -64.8091     7.3941     6.5270     6.3144
 1388.0000     9.3862    87.0886     0.0981     2.4933     0.0238   -64.8036     7.3280     6.5018     6.2575
 1388.5000     9.3859    87.0842     0.0977     2.4943     0.0258   -64.7981     7.3978     6.5021     6.2589
 1389.0000     9.4055    86.6824     0.0969     2.4972     0.0238   -64.7944     7.4679     6.5154     6.2604
 1389.5000     9.3854    86.6780     0.0961     2.4982     0.0277   -64.7889     7.4696     6.5287     6.3201
 1390.0000     9.3653    88.6598     0.0953     2.5002     0.0277   -64.7852     7.4028     6.5421     6.3216
 1390.5000     9.3452    89.4500     0.0933     2.5012     0.0277   -64.7796     7.3366     6.5555     6.3230
 1391.0000     9.3648    89.0484     0.0917     2.5022     0.0317   -64.7760     7.3383     6.5689     6.3244
 1391.5000     9.3446    88.6468     0.0881     2.5031     0.0316   -64.7704     7.2727     6.5824     6.3259
 1392.0000     9.3444    87.4494     0.0865     2.5111     0.0356   -64.7668     7.3416     6.5958     6.3863
 1392.5000     9.3441    87.0476     0.0861     2.5141     0.0356   -64.7612     7.4112     6.6093     6.3878
 1393.0000     9.3438    86.6458     0.0860     2.5131     0.0356   -64.7576     7.4814     6.6229     6.3892
 1393.5000     9.3436    87.0388     0.0856     2.5131     0.0356   -64.7520     7.5523     6.6364     6.3907
 1394.0000     9.3631    87.4316     0.0856     2.5131     0.0336   -64.3519     7.5540     6.6500     6.3921
 1394.5000     9.3629    87.8246     0.0868     2.5121     0.0335   -64.3463     7.6256     6.6636     6.4532
 1395.0000     9.3626    88.2176     0.0900     2.5040     0.0335   -64.3427     7.6273     6.6773     6.4546
 1395.5000     9.3624    88.2132     0.0904     2.5030     0.0335   -64.3371     7.6290     6.6910     6.4561
 1396.0000     9.3621    89.4012     0.0940     2.4990     0.0314   -64.7300     7.5608     6.7085     6.4576
 1396.5000     9.3792    89.7944     0.0976     2.4940     0.0274   -64.7244     7.4932     6.6477     6.3994
 1397.0000     9.3814    90.1876     0.1020     2.4910     0.0260   -64.3243     7.6342     6.6576     6.4008
 1397.5000     9.3812    89.7856     0.1028     2.4860     0.0234   -64.7152     7.6359     6.6676     6.4023
 1398.0000     9.4008    90.9740     0.1012     2.4850     0.0173   -64.7115     7.4296     6.6775     6.4634
 1398.5000     9.4005    90.9696     0.1008     2.4860     0.0193   -64.3095     7.3631     6.6875     6.4649
 1399.0000     9.4202    91.3630     0.1020     2.4859     0.0213   -64.5023     7.5017     6.6975     6.4664
 1399.5000     9.4000    91.3586     0.1040     2.4859     0.0193   -64.4986     7.5728     6.7075     6.4678
 1400.0000     9.3998    90.5592     0.1052     2.4789     0.0073   -64.2957     7.7152     6.7175     6.4693
 1400.5000     9.3995    90.5540     0.1068     2.4789     0.0160   -64.2911     7.7170     6.7276     6.4708
 1401.0000     9.3995    90.5532     0.1080     2.4769     0.0152   -64.0864     7.7901     6.7376     6.4722
 1401.5000     9.4192    90.5504     0.1084     2.4719     0.0113   -64.2819     7.7919     6.7477     6.5340
 1402.0000     9.4191    89.7522     0.1104     2.4679     0.0112   -64.2782     7.6514     6.7578     6.5355
 1402.5000     9.4190    89.3512     0.1128     2.4659     0.0112   -64.2727     7.5830     6.7679     6.5370
 1403.0000     9.4188    88.5532     0.1124     2.4649     0.0112   -64.6655     7.4463     6.7780     6.5388
 1403.5000     9.4187    88.5504     0.1116     2.4669     0.0132   -64.6600     7.5169     6.7881     6.5403
 1404.0000     9.4186    88.9452     0.1100     2.4699     0.0172   -64.6563  -999.2500     6.6714     6.4215
 1404.5000     9.3985    88.9422     0.1096     2.4719     0.0192   -64.6508  -999.2500     6.7400     6.4828
 1405.0000     9.3984    88.5418     0.1088     2.4749     0.0212   -64.6471  -999.2500     6.8093     6.5447
 1405.5000     9.3983    89.3342     0.1088     2.4749     0.0232   -64.2451  -999.2500     6.8794     6.6072
 1406.0000     9.3783    88.9336     0.1084     2.4749     0.0211   -64.2414     7.4804     6.9501     6.7325
 1406.5000     9.3781    88.1358     0.1080     2.4749     0.0211   -64.6324     7.6213     7.0216     6.7969
 1407.0000     9.3780    88.9280     0.1080     2.4769     0.0211   -64.2322     7.7649     7.0939     6.8618
 1407.5000     9.3977    89.3226     0.1080     2.4779     0.0211   -64.2267     8.0583     7.1926     6.9273
 1408.0000     9.4175    89.7174     0.1080     2.4759     0.0191   -64.6177     8.2861     7.2598     6.9935
 1408.5000     9.4372    89.3170     0.1084     2.4739     0.0172   -64.6140     8.5204     7.2615     6.9951
 1409.0000     9.4172    88.5190     0.1092     2.4719     0.0171   -64.6085     8.6012     7.2632     6.9967
 1409.5000     9.4370    87.7212     0.1096     2.4709     0.0171   -64.6048     8.7632     7.2649     6.9983
 1410.0000     9.4169    86.1282     0.1096     2.4699     0.0171   -64.5993     8.4479     7.2666     6.9998
 1410.5000     9.4367    85.7278     0.1093     2.4729     0.0171   -64.5956     8.0693     7.2683     7.0014
 1411.0000     9.4366    86.1226     0.1081     2.4749     0.0191   -64.5901     7.9970     7.2700     7.0030
 1411.5000     9.4563    86.5172     0.1081     2.4759     0.0191   -64.5864     7.8527     7.2717     7.0046
 1412.0000     9.4562    87.7070     0.1085     2.4739     0.0191   -64.5809     7.8545     7.2742     6.8078
 1412.5000     9.4560    88.1016     0.1101     2.4709     0.0191   -64.5772     7.7842     7.2749     6.7468
 1413.0000     9.4559    88.0988     0.1109     2.4659     0.0191   -64.5717     7.7145     7.3182     6.7483
 1413.5000     9.4558    88.0960     0.1125     2.4649     0.0190   -64.5680     7.7877     7.3617     6.6879
 1414.0000     9.4358    88.4906     0.1133     2.4649     0.0170   -64.5625     7.7895     7.4055     6.7514
 1414.5000     9.4356    88.0902     0.1133     2.4659     0.0150   -64.5588     7.9362     7.4496     6.7529
 1415.0000     9.4156    87.6898     0.1125     2.4689     0.0150   -64.5533     8.0115     7.4939     6.7544
 1415.5000     9.4155    88.0846     0.1117     2.4729     0.0190   -64.5496     7.9398     7.5591     6.8185
 1416.0000     9.3955    88.8766     0.1097     2.4768     0.0190   -64.5441     7.8687     7.5597     6.8200
 1416.5000     9.3755    88.8738     0.1081     2.4778     0.0210   -64.5404     7.9434     7.5342     6.8848
 1417.0000     9.3555    88.4734     0.1057     2.4798     0.0210   -64.5349     8.0187     7.5087     6.9501
 1417.5000     9.3553    88.4706     0.1049     2.4818     0.0150   -64.5312     8.1698     7.4833     7.0811
 1418.0000     9.3751    87.2754     0.1025     2.4848     0.0150   -64.5257     8.4786     7.4581     7.0827
 1418.5000     9.3551    87.2726     0.1017     2.4868     0.0150   -64.5220     8.4023     7.4328     7.0843
 1419.0000     9.3748    87.2692     0.1001     2.4898     0.0170   -64.5165     8.3275     7.4077     7.1515
 1419.5000     9.4144    86.8688     0.0985     2.4938     0.0169   -64.5128     8.1021     7.3827     7.1518
 1420.0000     9.3944    87.6610     0.0941     2.4958     0.0189   -64.1108     8.0296     7.3577     7.1048
