~VERSION INFORMATION
 VERS.                2.0:   CWLS LOG ASCII STANDARD - VERSION 2.0
 WRAP.                 NO:   ONE LINE PER DEPTH STEP
~WELL INFORMATION
#MNEM.UNIT      DATA TYPE    INFORMATION
#----------   ------------   ------------------------------
 STRT.F            0.5000:   START DEPTH
 STOP.F         5663.0000:   STOP DEPTH
 STEP.F            0.5000:   STEP LENGTH
 NULL.          -999.2500:   NO VALUE
 COMP.         U. S. NAVY:   COMPANY
 WELL.         US TP #1-3:   WELL
 FLD . TEAPOT NAVAL RESERVE:   FIELD
 LOC .       S3 T38N R78W:   LOCATION
 CNTY.            NATRONA:   COUNTY
 STAT.            WYOMING:   STATE
 CTRY. UNITED STATES OF AMERICA:   COUNTRY
 SRVC.       SCHLUMBERGER:   SERVICE COMPANY
 DATE.        27-FEB-1953:   LOGDATE
 API .     49025064250000:   API NUMBER
~CURVE INFORMATION
#MNEM.UNIT       API CODE    CURVE DESCRIPTION
#----------   ------------   ------------------------------
 DEPT.F                  :   
 SPR .MV     01 010 01 00:   SPONTANEOUS POTENTIAL FROM RES.
 ASN .OHMM   01 041 16 00:   AMPLIFIED SHORT NORMAL 16"
 LAT .OHMM   01 070 00 00:   LATERAL
 LN  .OHMM   01 060 64 00:   LONG NORMAL 64"
 GRN .CPS    35 310 01 00:   GAMMA RAY
 NEUT.NAPI   35 330 01 00:   NEUTRON
~PARAMETER INFORMATION
#MNEM.UNIT          VALUE    DESCRIPTION
#----------   ------------   ------------------------------
 EKB .F            0.0000:   Kelly bushing
 EGL .F            0.0000:   Ground level
 EDF .F            0.0000:   Drilling floor
 EPD .F            0.0000:   Permanent datum
 TD  .F         5653.0000:   Total depth
 DATE.        27-FEB-1953:   Date logged
 CLNT.            A2DTECH:   Client Code
 DD  .F              5653:   Depth driller
 DL  .F              5653:   Depth logger
 BLI .F              5652:   Bottom log interval
 TLI .F               446:   Top log interval
 CBD1.F               445:   Casing driller 1
 CBL1.F               446:   Casing logger 1
 BS1 .IN                9:   Bit size
 BSD1.F              5653:   Depth drilled with bit1
 DFT .          LIMA/BASE:   Type fluid in hole
 DFD .                9.9:   Density
 DFV .                 43:   Viscosity
 RMS .OHMM            1.1:   Rm
 MST .F                55:   Rm Meas. temp.
 RMB .OHMM            .34:   Rm. at BHT
 BHT .F               166:   BHT.
 TCS .HRS               1:   Time Circ. stopped
 MRT .F               166:   Maximum recorded temp.
 LUN .                728:   Logging unit number
 LUL .               CSPR:   Logging unit location
 ENGI.            EVENSON:   Recorded By
 WITN.              MILLS:   Witnessed by
 ORIG.      1" 2.5" PRINT:   Origin of data
 UWI .     49025064250000:   Unique Well ID
 DICO. A2D TECHNOLOGIES, INC.:   Digitizing Company
~OTHER INFORMATION
~A  DEPTH      SPR        ASN        LAT         LN        GRN       NEUT
# ...
 3172.5000   -39.0078     6.1570     5.4279     5.4594    79.2750   154.2852
 3173.0000   -39.0054     5.8330     5.4272     5.3689    79.0193   151.7097
 3173.5000   -39.0027     5.5862     5.2446     5.2824    79.2659   133.9827
 3174.0000   -39.0000     5.3452     5.0215     4.9648    76.0093   103.6295
 3174.5000   -38.9973     5.2100     4.9179     4.8304    74.2543   114.2299
 3175.0000   -38.9946     5.1053     4.7506     4.8311    75.2085   123.7374
 3175.5000   -38.9918     5.0034     4.4804     4.8319    76.4056   131.2566
 3176.0000   -38.9891     4.8859     4.3181     4.6973    77.2403   133.7374
 3176.5000   -38.9862     4.7508     4.1511     4.6980    77.4853   143.7825
 3177.0000   -38.9837     4.5341     3.9393     4.6987    77.9803   163.9343
 3177.5000   -38.9810     4.3445     3.9387     4.6994    77.7245   156.3083
 3178.0000   -38.9783     4.1820     4.0862     4.7000    76.2196   143.6318
 3178.5000   -38.9755     4.0802     4.3602     4.7007    74.5918   154.9365
 3179.0000   -38.9728     3.9660     4.5797     4.7014    72.4596   168.7839
 3179.5000   -38.9701     3.7494     4.8277     4.7021    72.4546   181.3600
 3180.0000   -38.9674     3.7501     5.0674     4.7027    72.7005   191.2876
 3180.5000   -38.9647     3.8105     5.2006     4.6942    71.9177   203.9868
 3181.0000   -38.9620     4.0503     5.3108     4.5912    69.1897   209.8354
 3181.5000   -38.9592     4.1929     5.4158     4.5695    67.1848   213.9958
 3182.0000   -38.7919     4.4049     5.4151     4.5703    66.4298   186.1595
 3182.5000   -38.6818     4.6230     5.4144     4.5709    66.1748   148.2304
 3183.0000   -38.4905     4.7868     5.4503     4.5716    65.6690   158.2729
 3183.5000   -38.3543     4.8962     5.5480     4.5723    65.4140   173.3825
 3184.0000   -38.2679     4.9512     5.5472     4.5730    67.9091   191.0007
 3184.5000   -38.1815     5.0061     5.5465     4.5736    70.1541   203.5852
 3185.0000   -37.8529     5.0340     5.5323     4.5745    71.8991   213.6359
 3185.5000   -37.8505     5.0346     5.4104     4.5750    75.6442   195.9006
 3186.0000   -37.7522     5.0355     5.4097     4.7109    78.3892   173.1231
 3186.5000   -37.5732     5.0360     5.4089     4.7116    77.8842   145.2951
 3187.0000   -37.3943     5.0367     4.9996     4.8156    74.8792   117.4671
 3187.5000   -37.1603     4.9989     4.6809     4.8480    70.1243   122.4674
 3188.0000   -37.0217     4.9529     4.4232     4.8486    70.6193   140.0940
 3188.5000   -37.0190     4.8486     4.3035     4.8493    72.1143   152.6868
 3189.0000   -37.0163     4.7677     4.0580     4.8500    72.1094   134.6590
 3189.5000   -37.0136     4.5239     3.9639     4.8666    72.6044   124.7918
 3190.0000   -36.7390     4.3072     3.8448     4.9594    73.9250   127.2669
 3190.5000   -36.6032     4.0904     3.7864     4.9872    75.3445   132.2727
 3191.0000   -36.4616     3.8736     3.7857     4.9878    76.0895   134.7506
 3191.5000   -36.4592     3.7656     3.8095     4.9955    76.0845   132.1667
 3192.0000   -36.4565     3.7038     3.9191     5.0653    76.0795   158.1907
 3192.5000   -36.8704     3.6583     3.9522     5.1250    75.2066   192.6724
 3193.0000   -36.9946     3.6712     4.1872     5.2608    72.9424   212.8242
 3193.5000   -37.3470     3.7697     4.2839     5.2760    71.5646   222.8833
 3194.0000   -37.8044     3.9593     4.3341     5.3521    74.3097   245.5520
 3194.5000   -37.9274     4.1597     4.6054     5.3980    76.5547   296.0069
 3195.0000   -38.0708     4.4226     4.8585     5.3986    77.8005   303.5408
 3195.5000   -38.1838     4.7575     4.9319     5.3993    78.0456   270.6539
 3196.0000   -38.3370     5.1577     5.1267     5.4001    77.0398   235.2502
 3196.5000   -38.3342     5.7562     5.3955     5.4007    74.0348   225.1073
 3197.0000   -38.6028     6.1102     5.3948     5.4014    70.2798   262.9276
 3197.5000   -38.6005     6.3554     5.4672     5.4021    65.2749   293.1720
 3198.0000   -38.8697     6.4918     5.5462     5.4027    68.2691   295.6637
 3198.5000   -38.8666     6.4926     5.6624     5.4034    71.2641   270.3443
 3199.0000   -38.8640     6.4660     5.7966     5.4041    73.5091   245.0416
 3199.5000   -38.8609     6.4396     5.9307     5.4048    74.0058   242.4661
 3200.0000   -38.5870     6.3859     5.9716     5.4059    71.3315   277.7652
 3200.5000   -39.1304     6.1408     6.0992     5.4070    70.2490   280.2401
 3201.0000   -39.1304     6.0861     6.1995     5.4083    71.9975   277.6140
 3201.5000   -39.1304     6.1672     5.8975     5.2744    74.4961   229.5587
 3202.0000   -39.1304     6.2484     5.4940     5.1227    81.7448   196.6548
 3202.5000   -39.1304     6.2208     5.3369     4.9715    84.4938   178.9025
 3203.0000   -39.1304     6.1116     4.9865     4.8728    82.9923   171.2638
 3203.5000   -39.1304     5.9466     4.8169     4.8701    84.9911   214.1049
 3204.0000   -39.1304     5.6489     4.6253     4.7183    89.4899   239.2944
 3204.5000   -39.1304     5.2409     4.4326     4.6069    91.9886   234.1558
 3205.0000   -39.1304     4.8600     4.3127     4.4728    92.9876   234.0802
 3205.5000   -39.1304     4.6694     4.2713     4.3394    95.9861   251.6940
 3206.0000   -39.1304     4.4787     4.1779     4.3405    96.4851   254.1563
 3206.5000   -39.1304     4.3120     4.0140     4.2069    95.9837   231.3282
 3207.0000   -39.1304     4.0160     3.8652     4.1186    94.2324   226.2022
 3207.5000   -39.1304     3.9069     3.7736     4.0071    92.7312   231.1897
 3208.0000   -39.1304     3.8755     3.7736     3.9405    94.2299   231.1015
 3208.5000   -39.1304     3.7974     3.6900     3.8661    97.2287   220.9250
 3209.0000   -39.1304     3.7698     3.6388     3.8081    99.2037   200.6474
 3209.5000   -39.1304     3.6878     3.5040     3.8096   101.7260   137.4405
 3210.0000   -38.9674     3.6331     3.3639     3.6757   103.9748   107.0619
 3210.5000   -38.8587     3.5463     3.2345     3.6560   101.7235    89.3096
 3211.0000   -38.8587     3.4421     3.2111     3.5432    95.9723    99.3350
 3211.5000   -38.5870     3.3873     2.9580     3.6798    94.9715   127.0372
 3212.0000   -38.4348     3.3325     2.7877     3.6811    97.7198   154.7394
 3212.5000   -38.2361     3.2507     2.6954     3.7528   101.9688   159.7269
 3213.0000   -38.0435     3.1143     2.5535     3.8191   104.9673   131.8610
 3213.5000   -38.0435     3.0357     2.2767     3.8204   108.2161   119.1592
 3214.0000   -37.8864     2.9536     2.1563     3.8217   109.7148   123.2070
 3214.5000   -37.6652     2.8414     2.1121     3.8230   110.2136   144.2606
 3215.0000   -37.5000     2.7500     2.0000     3.8243   110.4625   159.3491
 3215.5000   -37.2283     2.6515     1.8868     3.8257   110.7113   144.1094
 3216.0000   -37.0312     2.5141     1.8868     3.8270   110.2099   133.9329
 3216.5000   -36.9565     2.4593     1.8868     3.8284   108.9586   131.3320
 3217.0000   -36.7881     2.4046     1.8868     3.6945   106.7074   144.2393
 3217.5000   -36.6848     2.3770     1.8868     3.6750   103.4562   176.6354
 3218.0000   -36.6631     2.3766     2.0216     3.5097    97.9549   209.3882
 3218.5000   -36.4130     2.3762     2.1563     3.4281    90.2037   242.1409
 3219.0000   -36.4130     2.4312     2.2911     3.3413    84.0973   277.4188
 3219.5000   -36.1413     2.5927     2.3666     3.2959    77.7012   340.4746
 3220.0000   -35.8696     2.7826     2.6235     3.2973    68.9498   388.3788
 3220.5000   -35.8696     3.1354     3.1376     3.2986    61.4485   395.8916
 3221.0000   -35.8696     3.4730     3.8705     3.5705    55.1973   378.1267
 3221.5000   -35.8696     3.8955     6.8733     4.1124    50.1960   340.1723
 3222.0000   -35.8696     5.1179     9.4340     4.4859    46.6948   309.7937
 3222.5000   -35.9104     8.4327    10.9164     4.9258    48.1215   304.6676
 3223.0000   -36.1413    12.2095    11.8598     5.3325    51.2434   289.4406
 3223.5000   -36.4165    13.2960    12.4690     5.6041    57.9411   259.0620
 3224.0000   -36.9565    14.1108    12.9380     6.0731    63.9398   256.4611
