~VERSION INFORMATION
 VERS.                2.0:   CWLS LOG ASCII STANDARD - VERSION 2.0
 WRAP.                 NO:   ONE LINE PER DEPTH STEP
~WELL INFORMATION
#MNEM.UNIT      DATA TYPE    INFORMATION
#----------   ------------   ------------------------------
 STRT.F          176.0000:   START DEPTH
 STOP.F         3380.0000:   STOP DEPTH
 STEP.F            0.5000:   STEP LENGTH
 NULL.          -999.2500:   NO VALUE
 COMP.    PENIX & SCISSON:   COMPANY
 WELL.  FENIX "AX" #85-15:   WELL
 FLD .             NPR #3:   FIELD
 LOC .      S15 T38N R78W:   LOCATION
 CNTY.            NATRONA:   COUNTY
 STAT.            WYOMING:   STATE
 CTRY. UNITED STATES OF AMERICA:   COUNTRY
 SRVC.       SCHLUMBERGER:   SERVICE COMPANY
 DATE.        28-APR-1981:   LOGDATE
 API .     49025108700000:   API NUMBER
~CURVE INFORMATION
#MNEM.UNIT       API CODE    CURVE DESCRIPTION
#----------   ------------   ------------------------------
 DEPT.F                  :   
 TEND.LBS    45 635 01 00:   TENSION FROM DENSITY LOG
 CALD.IN     45 280 60 00:   CALIPER FROM DENSITY LOG
 CORR.G/C3   45 356 01 00:   DENSITY CORRECTION
 GRD .GAPI   45 310 01 00:   GAMMA RAY FROM DENSITY LOG
 RHOB.G/C3   45 350 01 00:   BULK DENSITY
 SFL .OHMM   07 220 01 00:   SHALLOW FOCUSED LOG RESISTIVITY
 ILD .OHMM   07 120 46 00:   INDUCTIONLOG DEEP RESISTIVITY
 ILM .OHMM   07 120 44 00:   INDUCTION LOG MEDIUM RESISTIVITY
 TENR.LBS    07 635 01 00:   TENSION FROM RESISTIVITY
 SPR .MV     07 010 01 00:   SPONTANEOUS POTENTIAL
~PARAMETER INFORMATION
#MNEM.UNIT          VALUE    DESCRIPTION
#----------   ------------   ------------------------------
 EKB .F         5259.0000:   Kelly bushing
 EGL .F         5249.0000:   Ground level
 EDF .F            0.0000:   Drilling floor
 TD  .F         3333.0000:   Total depth
 DATE.        28-APR-1981:   Date logged
 CLNT.            A2DTECH:   Client Code
 SL  . 1927' FSL & 140' FEL:   Surface Location
 PD  .                 GL:   Permanent Datum
 DD  .F              3333:   Depth driller
 DL  .F              3382:   Depth logger
 BLI .F              3376:   Bottom log interval
 TLI .F               182:   Top log interval
 CS1 .IN            8.625:   Casing size
 CBD1.      8.625" @ 181':   Casing driller 1
 CBL1.F               182:   Casing logger 1
 BS1 .IN            7.875:   Bit size
 BSD1.F              3333:   Depth drilled with bit1
 DFT .                GEL:   Type fluid in hole
 DFD .                8.7:   Density
 DFV .                 35:   Viscosity
 DFPH.                9.5:   pH
 DFL .                  7:   Fluid loss
 MSS .               TANK:   Source of sample
 RMS .OHMM           1.79:   Rm
 MST .F                58:   Rm Meas. temp.
 RMF .OHMM           1.43:   Rmf
 MFST.F                58:   Rmf Meas. temp.
 MFSS.               MEAS:   Source Rmf.
 RMB .OHMM            .93:   Rm. at BHT
 BHT .F               112:   BHT.
 TCS .HRS             800:   Time Circ. stopped
 TLAB.HRS             200:   Time logger at bottom
 MRT .F               112:   Maximum recorded temp.
 LUN .               8039:   Logging unit number
 LUL .               CAPR:   Logging unit location
 ENGI.           HARRINER:   Recorded By
 WITN.              SCOTT:   Witnessed by
 ORIG.           5" PRINT:   Origin of data
 UWI .     49025108700000:   Unique Well ID
 DICO. A2D TECHNOLOGIES, INC.:   Digitizing Company
 EPD .               5249:   Elevation Permanent Datum
 LMF .                 KB:   Log Measured From
 DMF .                 KB:   Drilling Measured From
 DAPD.                 10:   Feet Above Permanent Datum
~OTHER INFORMATION
~A   DEPT     TEND       CALD       CORR         GRD      RHOB        SFL        ILD        ILM       TENR        SPR   
# ...
 2688.5000  1643.5640     8.5740     0.0090   136.2490     2.5560     7.8170     6.1690     5.9500  1671.6620   -20.5890
 2689.0000  1643.5640     8.5740     0.0100   137.2920     2.5540     8.0930     6.1690     6.0590  1671.7620   -20.7930
 2689.5000  1643.5640     8.5740     0.0150   137.1230     2.5560     8.0540     6.2790     6.0590  1671.8610   -21.0070
 2690.0000  1643.5640     8.5750     0.0190   136.4480     2.5630     7.9040     6.3820     6.0590  1671.9611   -21.2070
 2690.5000  1643.5640     8.5750     0.0230   137.5440     2.5720     7.7530     6.4840     6.1130  1672.0610   -21.4350
 2691.0000  1643.5640     8.5750     0.0230   139.9420     2.5710     7.5280     6.5870     6.2000  1672.1600   -21.4610
 2691.5000  1643.5640     8.5760     0.0190   142.2650     2.5710     7.8930     6.6900     6.2860  1672.2600   -21.3900
 2692.0000  1643.5640     8.5760     0.0160   144.8750     2.5720     8.2650     6.7930     6.3730  1672.3590   -21.2480
 2692.5000  1643.5640     8.5760     0.0130   144.6100     2.5730     8.6370     6.8960     6.4590  1672.4590   -21.1260
 2693.0000  1643.5640     8.5770     0.0170   143.7800     2.5690     9.1860     7.0020     6.5130  1672.5590   -20.9990
 2693.5000  1643.5640     8.5770     0.0170   145.2600     2.5580     9.0730     7.0020     6.5130  1672.6580   -20.8720
 2694.0000  1643.5640     8.5770     0.0130   146.7750     2.5470     8.8730     6.9080     6.3330  1672.7581   -20.7450
 2694.5000  1643.5640     8.5780     0.0060   147.3760     2.5360     8.7000     6.7840     6.2480  1672.8571   -20.6190
 2695.0000  1643.5640     8.5780     0.0030   145.8880     2.5280     8.2110     6.6590     6.1630  1672.9570   -20.4930
 2695.5000  1643.5640     8.5790     0.0010   144.1200     2.5270     7.7530     6.5340     6.0780  1673.0570   -20.3560
 2696.0000  1643.5640     8.5790    -0.0010   142.1950     2.5200     7.2950     6.3960     5.9930  1673.1560   -20.2660
 2696.5000  1643.5640     8.5790    -0.0020   144.1450     2.5150     6.7530     6.3960     5.9500  1673.2560   -20.2820
 2697.0000  1643.5640     8.5800    -0.0010   142.3990     2.5300     7.0880     6.2820     5.9500  1673.3550   -20.2850
 2697.5000  1643.5640     8.5800     0.0020   138.8740     2.5360     7.5790     6.2820     5.9500  1673.4550   -20.5390
 2698.0000  1643.5640     8.5800     0.0050   134.1070     2.5390     7.9480     6.2820     5.9500  1673.5540   -20.8420
 2698.5000  1643.5640     8.5810     0.0030   135.3690     2.5320     8.2100     6.2820     5.9500  1673.6541   -21.1510
 2699.0000  1643.5640     8.5810    -0.0040   139.8290     2.5280     8.5200     6.2820     5.9500  1673.7540   -21.4500
 2699.5000  1643.5640     8.5810    -0.0040   140.5590     2.5360     8.7000     6.0840     5.7420  1673.8530   -21.7530
 2700.0000  1643.5640     8.5820    -0.0020   140.3980     2.5400     8.2300     5.8790     5.4990  1673.9530   -22.0760
 2700.5000  1643.5640     8.5820     0.0180   149.2790     2.5440     7.4570     5.6740     5.2570  1674.0520   -22.2590
 2701.0000  1643.5640     8.5820     0.0410   151.0600     2.5470     6.6830     5.4690     4.9650  1674.1520   -22.2450
 2701.5000  1643.5640     8.5830     0.0670   158.7480     2.5470     5.9090     5.2420     5.0330  1674.2520   -22.2260
 2702.0000  1643.5640     8.5830     0.0630   168.3890     2.5370     5.2420     5.3770     5.2240  1674.3510   -22.2810
 2702.5000  1643.5640     8.5830     0.0400   152.2010     2.5270     5.7380     5.6250     5.4140  1674.4510   -21.9380
 2703.0000  1643.5640     8.5840     0.0180   148.7790     2.5280     6.9070     5.8740     5.6040  1674.5500   -21.7240
 2703.5000  1643.5640     8.5840     0.0110   131.1630     2.5380     8.1790     6.1220     5.7950  1674.6500   -21.4470
 2704.0000  1643.5640     8.5840     0.0130   124.3330     2.5480     9.8750     6.3700     5.9850  1674.7500   -21.2090
 2704.5000  1643.5640     8.5850     0.0140   121.5560     2.5580     9.7000     6.6180     6.1760  1674.8490   -20.9430
 2705.0000  1643.5640     8.5850     0.0110   125.6030     2.5670     9.4370     6.8670     6.3660  1674.9490   -20.6930
 2705.5000  1643.5640     8.5850     0.0070   128.3430     2.5630     9.1750     7.1150     6.5130  1675.0480   -20.4290
 2706.0000  1643.5640     8.5860     0.0030   127.4710     2.5530     8.9120     7.2600     6.5130  1675.1479   -20.1860
 2706.5000  1643.5640     8.5860    -0.0020   126.2450     2.5390     8.7000     7.2000     6.6320  1675.2469   -19.9090
 2707.0000  1643.5640     8.5860    -0.0040   126.0670     2.5380     8.9100     7.1000     6.6320  1675.3470   -20.0010
 2707.5000  1643.5640     8.5870     0.0000   127.8370     2.5410     9.0210     6.9990     6.4300  1675.4470   -20.1340
 2708.0000  1643.5640     8.5870     0.0030   127.9380     2.5420     8.6930     6.8990     6.2830  1675.5460   -20.2800
 2708.5000  1643.5640     8.5870     0.0030   127.9930     2.5350     8.2600     6.7990     6.1370  1675.6460   -20.4150
 2709.0000  1643.5640     8.5880     0.0020   129.2710     2.5340     7.8270     6.6980     5.9900  1675.7450   -20.5550
 2709.5000  1643.5640     8.5880     0.0010   131.0950     2.5370     7.2600     6.5980     5.8430  1675.8450   -20.6940
 2710.0000  1643.5640     8.5880     0.0000   130.8590     2.5460     7.3980     6.4980     5.7380  1675.9449   -20.8320
 2710.5000  1643.5640     8.5890     0.0110   129.0290     2.5580     7.8800     6.3980     5.7380  1676.0439   -20.9710
 2711.0000  1643.5640     8.5890     0.0240   128.0270     2.5690     8.2410     6.2820     5.7380  1676.1440   -21.1100
 2711.5000  1643.5640     8.5890     0.0420   128.0030     2.5780     8.2410     6.2820     5.7380  1676.2430   -21.2490
 2712.0000  1643.5640     8.5900     0.0370   129.5620     2.5690     8.0400     6.4230     5.8430  1676.3430   -21.3880
 2712.5000  1643.5640     8.5900     0.0250   132.8300     2.5600     7.1250     6.5460     5.9080  1676.4430   -21.5270
 2713.0000  1643.5640     8.5900     0.0140   133.4760     2.5500     6.6320     6.6680     6.0680  1676.5420   -21.6640
 2713.5000  1643.5640     8.5910     0.0070   129.9750     2.5490     7.9110     6.7910     6.2280  1676.6420   -21.8050
 2714.0000  1643.5640     8.5910     0.0110   123.1710     2.5610     8.9890     6.9140     6.3880  1676.7410   -21.8530
 2714.5000  1643.5640     8.5910     0.0190   120.8480     2.5800     9.8750     7.0360     6.5480  1676.8409   -21.8520
 2715.0000  1643.5640     8.5920     0.0210   123.2700     2.5810     9.8750     7.1590     6.7080  1676.9399   -21.8130
 2715.5000  1643.5640     8.5920     0.0170   125.0140     2.5800     9.7260     7.2810     6.8770  1677.0400   -21.6680
 2716.0000  1643.5640     8.5920     0.0130   127.0860     2.5790     9.2450     7.3930     6.8770  1677.1400   -21.5240
 2716.5000  1643.5640     8.5930     0.0170   127.7060     2.5830     8.7000     7.6330     6.8710  1677.2390   -21.3760
 2717.0000  1643.5640     8.5930     0.0220   128.1350     2.5890     8.7000     7.5170     6.8490  1677.3390   -21.2340
 2717.5000  1643.5640     8.5930     0.0180   131.2060     2.5830     9.0210     7.4000     6.8270  1677.4380   -21.0830
 2718.0000  1643.5640     8.5940     0.0140   134.7050     2.5760     8.8950     7.2840     6.8060  1677.5380   -20.9400
 2718.5000  1643.5640     8.5940     0.0260   137.3360     2.5820     8.5440     7.1670     6.7840  1677.6379   -20.8030
 2719.0000  1643.5640     8.5940     0.0440   134.6370     2.5880     8.7000     7.0510     6.7620  1677.7371   -20.6000
 2719.5000  1643.5640     8.5950     0.0430   132.0810     2.5940     9.6980     7.0020     6.7530  1677.8370   -20.1590
 2720.0000  1643.5640     8.5950     0.0240   129.7630     2.5790     9.5940     7.1520     6.7530  1677.9360   -19.8620
 2720.5000  1643.5640     8.5950     0.0070   129.7550     2.5280     9.3100     7.2600     6.7530  1678.0360   -19.9040
 2721.0000  1643.5640     8.5960     0.0010   129.6580     2.5230     9.0270     7.2600     6.7530  1678.1360   -20.0680
 2721.5000  1643.5640     8.5960     0.0060   129.6600     2.5350     8.7430     7.2600     6.7530  1678.2350   -20.2860
