~VERSION INFORMATION
 VERS.                2.0:   CWLS LOG ASCII STANDARD - VERSION 2.0
 WRAP.                 NO:   ONE LINE PER DEPTH STEP
~WELL INFORMATION
#MNEM.UNIT      DATA TYPE    INFORMATION
#----------   ------------   ------------------------------
 STRT.F          200.0000:   START DEPTH
 STOP.F         3209.0000:   STOP DEPTH
 STEP.F            0.5000:   STEP LENGTH
 NULL.          -999.2500:   NO VALUE
 COMP.    FENIX & SCISSON:   COMPANY
 WELL. FENIX & SCISSON "AX" #88-3:   WELL
 FLD .             NPR #3:   FIELD
 LOC .       S3 T38N R78W:   LOCATION
 CNTY.            NATRONA:   COUNTY
 STAT.            WYOMING:   STATE
 CTRY. UNITED STATES OF AMERICA:   COUNTRY
 SRVC.              WELEX:   SERVICE COMPANY
 DATE.        27-JUL-1977:   LOGDATE
 API .     49025104060000:   API NUMBER
~CURVE INFORMATION
#MNEM.UNIT       API CODE    CURVE DESCRIPTION
#----------   ------------   ------------------------------
 DEPT.F                  :   
 CALD.IN     45 280 60 00:   CALIPER FROM DENSITY LOG
 GRD .GAPI   45 310 01 00:   GAMMA RAY FROM DENSITY LOG
 RHOB.G/C3   45 350 01 00:   BULK DENSITY
 CORR.G/C3   45 356 01 00:   DENSITY CORRECTION
 NPHI.DEC    42 890 03 00:   NEUTRON POROSITY SANDSTONE
 SPR .MV     07 010 01 00:   SPONTANEOUS POTENTIAL
 SGRD.OHMM   07 220 05 00:   GUARD LOG RESISTIVITY
 FORX.OHMM   07 000 00 00:   
~PARAMETER INFORMATION
#MNEM.UNIT          VALUE    DESCRIPTION
#----------   ------------   ------------------------------
 EKB .F         5134.0000:   Kelly bushing
 EGL .F         5124.0000:   Ground level
 EDF .F            0.0000:   Drilling floor
 TD  .F         3211.0000:   Total depth
 CLNT.            A2DTECH:   Client Code
 SL  . 230' FSL & 380' FEL:   Surface Location
 PD  .                 GL:   Permanent Datum
 EPD .F              5124:   Elevation Permanent Datum
 LMF .                 KB:   Log Measured From
 DMF .                 KB:   Drilling Measured From
 DAPD.F                10:   Feet Above Permanent Datum
 DATE.        27-JUL-1977:   Date Logged [DD-MMM-YYYY]
 DD  .F              3200:   Depth driller
 DL  .F              3211:   Depth logger
 BLI .F              3210:   Bottom log interval
 TLI .F               200:   Top log interval
 CS1 .IN            8.625:   Casing size
 CBD1.      8.625" @ 218':   Casing driller 1
 CBL1.F               218:   Casing logger 1
 BS1 .IN            7.875:   Bit size
 BSD1.F              3200:   Depth drilled with bit1
 DFT .            KCL MUD:   Type fluid in hole
 DFD .                9.2:   Density
 DFV .                 36:   Viscosity
 DFPH.                9.5:   pH
 DFL .                9.6:   Fluid loss
 MSS .           FLOWLINE:   Source of sample
 RMS .OHMM           0.61:   Rm
 MST .F                85:   Rm Meas. temp.
 RMF .OHMM           0.53:   Rmf
 MFST.F                85:   Rmf Meas. temp.
 MFSS.               FANN:   Source Rmf.
 RMC .OHMM           0.48:   Rmc
 MCST.F                85:   Rmc Meas. temp.
 MCSS.                KIT:   Source Rmc.
 RMB .OHMM           0.42:   Rm. at BHT
 BHT .F               122:   BHT.
 TCS .HRS             2.5:   Time Circ. stopped
 MRT .F               122:   Maximum recorded temp.
 LUN .               8611:   Logging unit number
 LUL .             CASPER:   Logging unit location
 ENGI.            C. DOAK:   Recorded By
 WITN.      E. HARRINGTON:   Witnessed by
 ORIG.      2.5" 5" PRINT:   Origin of data
 UWI .     49025104060000:   Unique Well ID
 DICO. A2D TECHNOLOGIES, INC.:   Digitizing Company
~OTHER INFORMATION
~A   DEPT       CALD       GRD        RHOB      CORR        NPHI       SPR      SGRD         FORX 
# ...
  605.0000    11.2817    95.9328     2.4700     0.0550     0.2875   -64.8926     6.0559     7.8774
  605.5000    11.2841    96.6107     2.4761     0.0552     0.2899   -64.8715     6.0575     8.0680
  606.0000    11.2712    96.9261     2.4740     0.0569     0.2922   -65.0290     6.1426     7.9854
  606.5000    11.2551    96.9430     2.4651     0.0571     0.2946   -65.0115     6.2289     7.7466
  607.0000    11.2449    96.6367     2.4570     0.0587     0.2971   -64.8888     6.2306     7.9655
  607.5000    11.2475    95.5877     2.4520     0.0589     0.2982   -64.8938     6.3181     8.4292
  608.0000    11.2418    94.6098     2.4542     0.0606     0.2940   -64.9132     6.3198     9.0111
  608.5000    11.2516    93.8097     2.4738     0.0608     0.2899   -64.8996     6.5998     8.4168
  609.0000    11.2686    93.0018     2.4839     0.0655     0.2862   -64.8871     7.1520     7.8616
  609.5000    11.2710    92.1231     2.5001     0.0671     0.2879   -64.9442     6.7571     8.0814
  610.0000    11.2730    91.4179     2.5092     0.0688     0.2945   -64.5779     6.5710     8.5378
  610.5000    11.2596    90.8136     2.5078     0.0690     0.2962   -64.5203     6.3899     8.5395
  611.0000    11.2621    90.2214     2.4909     0.0707     0.2927   -64.4930     6.3299     8.1977
  611.5000    11.2492    89.8026     2.4751     0.0677     0.2885   -64.5021     6.3319     8.0879
  612.0000    11.2584    89.8209     2.4715     0.0651     0.2831   -64.6192     6.3755     8.3386
  612.5000    11.2685    90.0755     2.4716     0.0635     0.2808   -64.6272     6.5598     8.6841
  613.0000    11.2855    90.9023     2.4686     0.0624     0.2801   -64.4952     6.7863     8.7854
  613.5000    11.3022    91.4217     2.4656     0.0611     0.2783   -64.4891     6.9765     8.6007
  614.0000    11.3209    91.9822     2.4622     0.0613     0.2750   -64.5542     6.8835     8.1691
  614.5000    11.3399    92.3675     2.4600     0.0590     0.2711   -64.4484     6.6994     8.0975
  615.0000    11.3684    92.6928     2.4565     0.0586     0.2706   -64.7615     6.7012     9.1537
  615.5000    11.3852    92.7820     2.4550     0.0603     0.2733   -64.5438     6.7029     9.8118
  616.0000    11.3872    92.6454     2.4641     0.0605     0.2759   -64.9455     6.7047     8.7361
  616.5000    11.3893    93.2145     2.4750     0.0622     0.2759   -64.9394     6.7989     8.3291
  617.0000    11.3914    94.7729     2.4835     0.0625     0.2762   -64.5396     6.8945     8.2176
  617.5000    11.3934    94.7471     2.4951     0.0640     0.2788   -64.8277     7.0067     8.2196
  618.0000    11.3955    93.9112     2.5012     0.0664     0.2858   -64.9706     7.0897     8.3345
  618.5000    11.3899    93.1832     2.5050     0.0691     0.2906   -65.3531     7.0917     8.5156
  619.0000    11.3695    92.8196     2.5068     0.0706     0.2931   -65.1924     6.9645     8.5697
  619.5000    11.3624    92.9213     2.5082     0.0722     0.2967   -64.8684     6.9036     8.3399
  620.0000    11.3589    95.9232     2.5098     0.0739     0.2977   -64.9249     6.9503     8.2282
  620.5000    11.3613    98.0296     2.5102     0.0750     0.2931   -64.9622     7.0539     8.1180
  621.0000    11.3483    98.1916     2.5118     0.0773     0.2877   -65.0668     7.1018     8.1196
  621.5000    11.3211    97.0402     2.5124     0.0775     0.2806   -65.1346     7.2015     8.2331
  622.0000    11.3110    96.1400     2.5117     0.0776     0.2812   -65.2057     7.4033     8.5799
  622.5000    11.2950    95.7892     2.5084     0.0778     0.2865   -65.4143     7.3046     9.3336
  623.0000    11.2972    95.4154     2.5022     0.0780     0.2943   -65.3886     7.2073     9.8422
  623.5000    11.3018    94.5032     2.4986     0.0782     0.2954   -65.3126     7.1112     9.6902
  624.0000    11.3163    93.5252     2.4949     0.0784     0.2940   -65.0417     7.0164     9.3958
  624.5000    11.3630    92.9451     2.4912     0.0786     0.2898   -65.4218     6.7320     8.6113
  625.0000    11.3800    94.0067     2.4869     0.0770     0.2789   -65.6988     6.3717     8.0596
  625.5000    11.3825    96.4117     2.4847     0.0744     0.2738   -65.6648     6.1961     7.6194
  626.0000    11.3652    97.9211     2.4804     0.0723     0.2734   -65.7308     6.0422     7.4948
  626.5000    11.3120    97.4902     2.4768     0.0688     0.2736   -65.3658     6.0664     7.4963
  627.0000    11.2544    96.7425     2.4746     0.0674     0.2748   -65.2959     6.2417     7.5571
  627.5000    11.1670    95.7372     2.4730     0.0646     0.2766   -65.2858     6.3873     7.7078
  628.0000    11.1378    96.6496     2.4718     0.0633     0.2828   -65.2897     6.2169     8.0324
  628.5000    11.2160    98.3083     2.4712     0.0652     0.2918   -65.4184     6.2627     8.8418
  629.0000    11.2477    98.9222     2.4723     0.0683     0.2971   -65.6044     6.8607     8.8661
  629.5000    11.2650    98.7898     2.4742     0.0717     0.3013   -65.7320     6.4830     8.3741
  630.0000    11.2522    98.3589     2.4783     0.0745     0.3048   -65.4358     6.2239     7.5072
  630.5000    11.2239    99.2713     2.4836     0.0791     0.3060   -65.5948     6.1408     7.3059
  631.0000    11.2264   100.0348     2.4904     0.0824     0.3066   -65.3089     6.0589     7.3074
  631.5000    11.2134    99.9021     2.4950     0.0871     0.3054   -65.5719     6.0607     7.3089
  632.0000    11.2304    99.6205     2.5004     0.0917     0.3030   -65.9289     6.0623     7.3104
  632.5000    11.2407    99.4881     2.5057     0.0965     0.2988   -65.6722     5.9808     7.3119
  633.0000    11.2644    99.3600     2.5088     0.0996     0.2952   -65.6468     5.8962     7.3134
  633.5000    11.2860    99.8246     2.5089     0.0997     0.2922   -66.0441     5.7439     7.2798
  634.0000    11.3136   100.6741     2.5048     0.0970     0.2911   -65.7495     5.6526     7.1189
  634.5000    11.3454   101.6522     2.5004     0.0941     0.2911   -65.7003     5.4969     6.9784
  635.0000    11.3520   101.8142     2.4950     0.0898     0.2909   -65.7418     5.3227     6.7858
  635.5000    11.3642   101.0890     2.4936     0.0840     0.2897   -66.1295     5.0756     6.4728
  636.0000    11.3664   100.6581     2.4975     0.0782     0.2876   -66.0589     4.8516     5.7238
  636.5000    11.3684   100.2272     2.5013     0.0754     0.2852   -66.0823     4.7179     5.2737
  637.0000    11.3239   100.8411     2.5029     0.0725     0.2836   -66.0800     4.7234     5.2583
  637.5000    11.2686   101.6107     2.5037     0.0712     0.2827   -66.0766     4.9523     6.0495
  638.0000    11.2553   102.0696     2.5031     0.0714     0.2833   -66.0903     5.1613     6.5685
  638.5000    11.2424   102.2351     2.5017     0.0716     0.2845   -66.2555     5.3059     6.6604
  639.0000    11.2146   101.2114     2.5003     0.0718     0.2874   -66.4582     5.3804     6.7535
  639.5000    11.2171    99.7372     2.4989     0.0720     0.2916   -66.4685     5.4560     6.7617
  640.0000    11.2340    99.2715     2.4954     0.0721     0.2963   -66.4616     5.4575     6.8620
  640.5000    11.2361    98.6952     2.4919     0.0723     0.2987   -66.2800     5.4589     6.9452
  641.0000    11.2232    97.4012     2.4895     0.0725     0.3011   -66.0920     5.4647     6.9466
  641.5000    11.2104    96.0748     2.4874     0.0727     0.3034   -66.0798     5.6135     7.0438
  642.0000    11.1830    95.4366     2.4852     0.0729     0.3034   -66.0762     5.7065     7.0815
  642.5000    11.2000    95.0596     2.4858     0.0730     0.3009   -66.0796     5.7916     7.1864
  643.0000    11.2212    95.2299     2.4879     0.0732     0.2973   -66.0780     5.8535     7.3435
  643.5000    11.2707    95.6974     2.4930     0.0734     0.2962   -66.0779     5.9358     7.3450
  644.0000    11.3104    96.0100     2.4969     0.0740     0.2977   -66.0783     5.9724     7.3468
  644.5000    11.3422    96.3419     2.4997     0.0752     0.2980   -66.0787     6.1450     7.3483
  645.0000    11.3607    96.8346     2.5037     0.0754     0.2957   -66.0764     6.2366     7.6578
