~VERSION INFORMATION
 VERS.                2.0:   CWLS LOG ASCII STANDARD - VERSION 2.0
 WRAP.                 NO:   ONE LINE PER DEPTH STEP
~WELL INFORMATION
#MNEM.UNIT      DATA TYPE    INFORMATION
#----------   ------------   ------------------------------
 STRT.F           50.0000:   START DEPTH
 STOP.F         2832.5000:   STOP DEPTH
 STEP.F            0.5000:   STEP LENGTH
 NULL.          -999.2500:   NO VALUE
 COMP.    FENIX & SCISSON:   COMPANY
 WELL. FENIX NPR 3 "AX" #87-20:   WELL
 FLD .              N P R:   FIELD
 LOC .      S20 T39N R78W:   LOCATION
 CNTY.            NATRONA:   COUNTY
 STAT.            WYOMING:   STATE
 CTRY. UNITED STATES OF AMERICA:   COUNTRY
 SRVC.           BIRDWELL:   SERVICE COMPANY
 DATE.        01-AUG-1978:   LOGDATE
 API .     49025106780000:   API NUMBER
~CURVE INFORMATION
#MNEM.UNIT       API CODE    CURVE DESCRIPTION
#----------   ------------   ------------------------------
 DEPT.F                  :   
 CALD.IN     45 280 60 00:   CALIPER FROM DENSITY LOG
 CORR.G/C3   45 356 01 00:   DENSITY CORRECTION
 GRD .GAPI   45 310 01 00:   GAMMA RAY FROM DENSITY LOG
 RHOB.G/C3   45 350 01 00:   BULK DENSITY
 SPR .MV     05 010 01 00:   SPONTANEOUS POTENTIAL
 ILD .OHMM   05 120 46 00:   DEEP INDUCTION RESISTIVITY
 SN  .OHMM   05 040 00 00:   SHORT NORMAL
~PARAMETER INFORMATION
#MNEM.UNIT          VALUE    DESCRIPTION
#----------   ------------   ------------------------------
 EKB .F         5007.0000:   Kelly bushing
 EGL .F         4997.0000:   Ground level
 EDF .F            0.0000:   Drilling floor
 EPD .F            0.0000:   Permanent datum
 TD  .F         2832.0000:   Total depth
 DATE.        01-AUG-1978:   Date logged
 CLNT.            A2DTECH:   Client Code
 SL  . 940' FSL & 200' FEL:   Surface Location
 PD  .                 GL:   Permanent Datum
 DD  .F              2825:   Depth driller
 DL  .F              2832:   Depth logger
 BLI .F              2826:   Bottom log interval
 CS1 .IN            8.625:   Casing size
 CBD1.      8.625" @ 140':   Casing driller 1
 CBL1.F               240:   Casing logger 1
 BS1 .IN            7.875:   Bit size
 DFT .            KCL/GEL:   Type fluid in hole
 DFD .                  9:   Density
 DFV .                 34:   Viscosity
 DFL .                  8:   Fluid loss
 MSS .           FLOWLINE:   Source of sample
 RMS .OHMM            1.5:   Rm
 MST .F                70:   Rm Meas. temp.
 RMF .OHMM            .70:   Rmf
 MFST.F                72:   Rmf Meas. temp.
 RMC .OHMM            2.2:   Rmc
 MCST.F                75:   Rmc Meas. temp.
 MFSS.               MEAS:   Source Rmf.
 TCS .HRS               6:   Time Circ. stopped
 LUN .               3007:   Logging unit number
 LUL .               CASP:   Logging unit location
 ENGI.            POINTER:   Recorded By
 WITN.              AMEND:   Witnessed by
 ORIG.           5" PRINT:   Origin of data
 UWI .     49025106780000:   Unique Well ID
 DICO. A2D TECHNOLOGIES, INC.:   Digitizing Company
 DAPD.                 10:   Feet Above Permanent Datum
 BSD1.F              2825:   Depth drilled with bit1
 LMF .                 KB:   Log Measured From
 DMF .                 KB:   Drilling Measured From
 TLI .F               140:   Top log interval
~OTHER INFORMATION
~A   DEPT     CALD       CORR         GRD      RHOB        SPR        ILD         SN   
# ...
 2097.5000     8.7750     0.2220   142.1160     2.6460   -20.3570     4.0390     4.4630
 2098.0000     8.6640     0.1770   143.7680     2.6300   -20.3330     4.2310     4.4380
 2098.5000     8.7460     0.1370   142.2840     2.5950   -20.3100     4.3010     4.4220
 2099.0000     8.7960     0.1370   135.1960     2.5610   -20.3040     4.3470     4.4610
 2099.5000     8.7800     0.1500   130.1170     2.5490   -20.3190     4.3920     4.5060
 2100.0000     8.7650     0.1570   124.2240     2.5650   -20.3330     4.4380     4.5520
 2100.5000     8.7600     0.1620   120.9740     2.5770   -20.3480     4.4840     4.5980
 2101.0000     8.7690     0.1570   117.4740     2.5940   -20.3630     4.5290     4.6290
 2101.5000     8.7780     0.1460   119.7940     2.6170   -20.3780     4.5750     4.6340
 2102.0000     8.7870     0.1400   128.0870     2.6190   -20.3920     4.5870     4.6400
 2102.5000     8.8000     0.1340   120.3170     2.6080   -20.4070     4.5870     4.6460
 2103.0000     8.6750     0.1340   116.8240     2.6080   -20.4220     4.5870     4.6520
 2103.5000     8.6950     0.1340   123.6180     2.6110   -20.4370     4.5870     4.6580
 2104.0000     8.7120     0.1300   125.2350     2.6090   -20.4520     4.5870     4.6630
 2104.5000     8.7040     0.1210   121.1020     2.5920   -20.4660     4.5870     4.6690
 2105.0000     8.6840     0.1130   120.1460     2.5890   -20.4810     4.5970     4.7050
 2105.5000     8.6730     0.1090   124.1490     2.5770   -20.4950     4.6440     4.7610
 2106.0000     8.6650     0.1080   132.1530     2.5510   -20.4950     4.6910     4.8160
 2106.5000     8.6600     0.1130   135.6210     2.5520   -20.4950     4.7390     4.8710
 2107.0000     8.7870     0.1180   131.0940     2.5520   -20.4950     4.7860     4.8900
 2107.5000     8.8110     0.1150   131.2190     2.5590   -20.4950     4.8790     4.7730
 2108.0000     8.8020     0.1110   133.9220     2.5600   -20.4950     4.9940     4.6810
 2108.5000     8.8040     0.1110   134.1250     2.5490   -20.4950     5.1660     4.6520
 2109.0000     8.8470     0.1120   136.4380     2.5480   -20.4950     5.1260     4.6240
 2109.5000     8.8910     0.1120   138.7330     2.5390   -20.4950     5.0150     4.5960
 2110.0000     8.8390     0.1290   140.9730     2.5350   -20.4950     4.8370     4.5690
 2110.5000     8.7720     0.1460   141.3730     2.5380   -20.4950     4.6590     4.5450
 2111.0000     8.7060     0.1500   139.7530     2.5380   -20.4950     4.4960     4.2510
 2111.5000     8.6710     0.1570   138.2180     2.5260   -20.4950     4.1940     3.9420
 2112.0000     8.6440     0.1790   134.0880     2.5130   -20.4950     3.8920     3.6320
 2112.5000     8.6470     0.1940   134.4300     2.5090   -20.4950     3.6490     3.3230
 2113.0000     8.6720     0.2070   132.2520     2.5080   -20.4950     3.5450     3.0140
 2113.5000     8.6730     0.2070   134.8880     2.5240   -20.4950     3.4410     2.9570
 2114.0000     8.5290     0.2050   131.4400     2.5250   -20.4950     3.3370     2.9570
 2114.5000     8.9420     0.2050   129.0890     2.5100   -20.4950     3.2660     2.9570
 2115.0000     8.9710     0.2280   126.5020     2.4990   -20.4950     3.2120     2.9570
 2115.5000     8.8740     0.2450   131.1430     2.5050   -20.4620     3.1590     2.9540
 2116.0000     8.7240     0.2230   134.6190     2.5940   -20.3990     3.2550     2.9450
 2116.5000     8.6980     0.1910   128.6760     2.5870   -20.3370     3.3610     2.9350
 2117.0000     8.6970     0.1850   132.7100     2.5800   -20.2740     3.3640     2.9250
 2117.5000     8.6910     0.1780   136.1420     2.5890   -20.2110     3.3670     2.9160
 2118.0000     8.6830     0.1720   129.1930     2.5960   -20.1490     3.3710     2.9030
 2118.5000     8.6850     0.1580   125.9100     2.6090   -20.1040     3.3750     2.9540
 2119.0000     8.7050     0.1350   124.0450     2.5950   -20.1380     3.3790     3.0230
 2119.5000     8.7260     0.1140   122.1990     2.5790   -20.1710     3.3830     3.0680
 2120.0000     8.7730     0.1040   126.6740     2.5740   -20.2030     3.3860     3.0710
 2120.5000     8.8120     0.1050   132.7390     2.5540   -20.2360     3.3920     3.0740
 2121.0000     8.7260     0.1050   135.9700     2.5530   -20.2680     3.3900     3.0770
 2121.5000     8.6780     0.1060   138.0690     2.5430   -20.3000     3.3850     3.0790
 2122.0000     8.6780     0.1140   131.5690     2.5320   -20.3330     3.3810     3.0820
 2122.5000     8.6780     0.1200   131.2980     2.5360   -20.3650     3.3760     3.0850
 2123.0000     8.6970     0.1220   131.0200     2.5540   -20.3970     3.3720     3.0880
 2123.5000     8.7330     0.1210   126.0630     2.5600   -20.4300     3.3670     3.0910
 2124.0000     8.7680     0.1210   122.3420     2.5690   -20.4620     3.3610     3.0950
 2124.5000     8.6830     0.1050   117.3340     2.5870   -20.4940     3.3790     3.0860
 2125.0000     8.5810     0.0810   118.9470     2.5890   -20.4950     3.4050     3.0730
 2125.5000     8.5950     0.0710   117.8650     2.5480   -20.4950     3.4310     3.0590
 2126.0000     8.6470     0.0720   116.4650     2.5300   -20.4950     3.4540     3.0460
 2126.5000     8.7160     0.0720   118.6570     2.5370   -20.4950     3.5250     3.0390
 2127.0000     8.7170     0.0750   122.3910     2.5370   -20.4950     3.6380     3.1290
 2127.5000     8.7280     0.0940   127.5370     2.5350   -20.4950     3.6160     3.2110
 2128.0000     8.7330     0.1120   129.0510     2.5540   -20.4760     3.4970     3.2040
 2128.5000     8.7160     0.1110   134.6320     2.5760   -20.4490     3.3740     3.1910
 2129.0000     8.7000     0.1030   144.8440     2.5970   -20.4220     3.2510     3.1810
 2129.5000     8.6840     0.0710   140.4240     2.5960   -20.3940     3.1520     3.0900
 2130.0000     8.6680     0.0650   136.0560     2.5430   -20.3660     3.1240     2.7880
 2130.5000     8.6580     0.0700   137.3540     2.4950   -20.3390     3.0950     2.6660
 2131.0000     8.6620     0.0870   137.7790     2.4970   -20.3110     3.0660     2.6330
 2131.5000     8.6720     0.1120   136.8030     2.4950   -20.2840     3.0390     2.6020
 2132.0000     8.6810     0.1190   147.7780     2.5180   -20.2560     2.8510     2.6060
 2132.5000     8.6910     0.1090   143.7800     2.5550   -20.2290     2.8750     2.6100
 2133.0000     8.7090     0.0900   139.6440     2.5780   -20.2010     2.9250     2.6150
 2133.5000     8.7550     0.0820   144.1420     2.5560   -20.1740     2.9750     2.6190
 2134.0000     8.8000     0.1020   148.5890     2.5160   -20.1460     3.0250     2.6230
 2134.5000     8.8470     0.1340   144.2290     2.5140   -20.1190     3.0520     2.6830
 2135.0000     8.8180     0.1280   142.5570     2.5520   -20.1000     3.0920     2.8590
 2135.5000     8.7690     0.1230   142.4710     2.5820   -20.1390     3.2750     3.0350
 2136.0000     8.7500     0.1330   137.8280     2.5690   -20.1760     3.4580     3.2110
 2136.5000     8.7910     0.1450   133.5910     2.5780   -20.2130     3.6400     3.3920
 2137.0000     8.6880     0.1460   128.9760     2.5910   -20.2510     3.8240     3.6060
 2137.5000     9.0630     0.1500   131.3800     2.5880   -20.2890     4.0080     3.8250
 2138.0000     8.7980     0.1560   135.1710     2.6000   -20.2870     4.1920     4.0450
 2138.5000     8.8230     0.1560   137.2570     2.6050   -20.2750     4.3880     4.2640
 2139.0000     8.8910     0.1560   132.8770     2.6060   -20.2630     4.4630     4.3150
 2139.5000     8.8960     0.1590   129.9700     2.6000   -20.2500     4.3630     4.3290
 2140.0000     8.8950     0.1610   125.5830     2.5910   -20.2370     4.2830     4.3440
 2140.5000     8.8990     0.1630   126.9850     2.5830   -20.2250     4.2240     4.3590
 2141.0000     8.9060     0.1650   128.0910     2.5780   -20.2120     4.2240     4.3740
 2141.5000     8.9120     0.1700   129.7490     2.5730   -20.2000     4.2240     4.3820
 2142.0000     8.9550     0.1810   128.5350     2.5700   -20.1870     4.2320     4.3820
 2142.5000     8.9830     0.1880   131.0930     2.5870   -20.1750     4.3080     4.4360
