~VERSION INFORMATION
 VERS.                2.0:   CWLS LOG ASCII STANDARD - VERSION 2.0
 WRAP.                 NO:   ONE LINE PER DEPTH STEP
~WELL INFORMATION
#MNEM.UNIT      DATA TYPE    INFORMATION
#----------   ------------   ------------------------------
 STRT.F           32.0000:   START DEPTH
 STOP.F         2998.0000:   STOP DEPTH
 STEP.F            0.5000:   STEP LENGTH
 NULL.          -999.2500:   NO VALUE
 COMP.   TESORO PETROLEUM:   COMPANY
 WELL. TESORO N.P.R. #3-34:   WELL
 FLD .        TEAPOT DOME:   FIELD
 LOC .      S34 T39N R78W:   LOCATION
 CNTY.            NATRONA:   COUNTY
 STAT.            WYOMING:   STATE
 CTRY. UNITED STATES OF AMERICA:   COUNTRY
 SRVC.       SCHLUMBERGER:   SERVICE COMPANY
 DATE.        08-AUG-1969:   LOGDATE
 API .     49025100250000:   API NUMBER
~CURVE INFORMATION
#MNEM.UNIT       API CODE    CURVE DESCRIPTION
#----------   ------------   ------------------------------
 DEPT.F                  :   
 SPR .MV     05 010 01 00:   SPONTANEOUS POTENTIAL FROM RES.
 ASN .OHMM   05 040 16 00:   AMPLIFIED SHORT NORMAL 16"
 ILD .OHMM   05 120 46 00:   INDUCTION LOG DEEP
 CORR.G/C3   45 356 01 00:   DENSITY CORRECTION
 GRD .GAPI   45 310 01 00:   GAMMA RAY FROM DENSITY LOG
 CALD.IN     45 280 60 00:   CALIPER FROM DENSITY LOG
 RHOB.G/C3   45 350 01 00:   BULK DENSITY
~PARAMETER INFORMATION
#MNEM.UNIT          VALUE    DESCRIPTION
#----------   ------------   ------------------------------
 EKB .F         5185.0000:   Kelly bushing
 EGL .F         5172.0000:   Ground level
 TD  .F         2999.0000:   Total depth
 CLNT.            A2DTECH:   Client Code
 SL  . 465' FWL & 1075' FSL':   Surface Location
 DATE.        08-AUG-1969:   Date Logged [DD-MMM-YYYY]
 DD  .F              2998:   Depth driller
 DL  .F              2999:   Depth logger
 BLI .F              2998:   Bottom log interval
 TLI .F               615:   Top log interval
 CS1 .              10.75:   Casing size
 CBD1.      10.75" @ 615':   Casing driller 1
 CBL1.IN              615:   Casing logger 1
 BS1 .IN                9:   Bit size
 BSD1.F              2998:   Depth drilled with bit1
 DFT .      FRESH GEL MUD:   Type fluid in hole
 DFD .                9.6:   Density
 DFV .                 55:   Viscosity
 DFPH.                9.5:   pH
 DFL .                7.0:   Fluid loss
 MSS .           FLOWLINE:   Source of sample
 RMS .OHMM           0.75:   Rm
 MST .F                87:   Rm Meas. temp.
 RMF .OHMM           1.09:   Rmf
 MFST.F                87:   Rmf Meas. temp.
 MFSS.               MEAS:   Source Rmf.
 RMB .OHMM           0.59:   Rm. at BHT
 BHT .F               111:   BHT.
 TCS .HRS               3:   Time Circ. stopped
 MRT .F               111:   Maximum recorded temp.
 LUN .               4507:   Logging unit number
 LUL .               CSPR:   Logging unit location
 ENGI.            ED MIXA:   Recorded By
 WITN.                MAY:   Witnessed by
 ORIG.   1" 2.5" 5" PRINT:   Origin of data
 UWI .     49025100250000:   Unique Well ID
 DICO. A2D TECHNOLOGIES, INC.:   Digitizing Company
~OTHER INFORMATION
~A   DEPT      SPR        ASN        ILD       CORR        GRD       CALD       RHOB   
# ...
 2034.0000   -30.5930    10.3162     8.5468     0.0350   111.9403     8.9976     2.5270
 2034.5000   -30.5834    10.3169     8.5496     0.0448   111.3364     8.9674     2.5137
 2035.0000   -30.5738    10.3176     8.5525     0.0387   111.1620     8.9687     2.5192
 2035.5000   -30.5638    10.3183     8.4814     0.0262   111.5321     8.9714     2.5261
 2036.0000   -30.5522    10.3191     8.4850     0.0159   110.7523     8.9742     2.5284
 2036.5000   -30.3992    10.2459     8.4878     0.0117   112.5976     8.9769     2.5263
 2037.0000   -30.3896    10.0989     8.4160     0.0131   113.8299     8.9796     2.5226
 2037.5000   -30.5235    10.0998     8.3456     0.0180   112.0042     8.9824     2.5332
 2038.0000   -30.5136    10.0266     8.2008     0.0180   108.9552     8.9851     2.5353
 2038.5000   -30.3600     9.9505     8.0559     0.0175   111.4108     8.9879     2.5332
 2039.0000   -30.3488     9.8065     7.9849     0.0194   116.3129     8.9906     2.5380
 2039.5000   -30.3393     9.6595     7.9139     0.0251   118.2844     8.9934     2.5278
 2040.0000   -30.3281     9.4386     7.9174     0.0205   113.8847     8.9961     2.5074
 2040.5000   -30.3185     9.9711     7.8463     0.0154   109.6125     8.9988     2.4964
 2041.0000   -30.3089     9.6322     7.8499     0.0136   106.5635     9.0016     2.5201
 2041.5000   -30.2999     9.6034     7.7781     0.0196   101.6797     9.0043     2.5113
 2042.0000   -30.2898     9.7667     7.7817     0.0343   104.7469     9.0071     2.5165
 2042.5000   -30.2785     9.9595     7.7845     0.0494   109.0374     9.0098     2.5149
 2043.0000   -30.1263     9.6646     7.7873     0.0527   110.2698     9.0126     2.4925
 2043.5000   -30.1143     9.6655     7.8647     0.0329   112.1137     9.0153     2.4826
 2044.0000   -30.1062     9.6662     7.8675     0.0090   113.9577     9.0180     2.4931
 2044.5000   -30.0951     9.6670     7.9442     0.0008   115.1901     9.0208     2.5048
 2045.0000   -30.0855     9.6677     7.9470     0.0114   115.8109     9.0235     2.5121
 2045.5000   -30.0759     9.6685     7.9498     0.0159   113.3735     9.0263     2.4999
 2046.0000   -29.9225     9.6692     8.0266     0.0150   107.8780     9.0290     2.4930
 2046.5000   -29.9109     9.6699     8.1777     0.0107   106.0523     9.0318     2.5045
 2047.0000   -29.9013     9.6707     8.2544     0.0061   104.8382     9.0345     2.5237
 2047.5000   -30.0352     9.6715     8.2572     0.0023   105.4589     9.0372     2.5272
 2048.0000   -29.8821     9.7460     8.2600     0.0199   106.6913     9.0400     2.5251
 2048.5000   -29.8723     9.8206     8.2629     0.0339   108.5353     9.0414     2.5295
 2049.0000   -29.8606     9.8951     8.2664     0.0450   109.7677     9.0419     2.5325
 2049.5000   -29.8510     9.8959     8.2692     0.0527   114.0582     9.0117     2.5207
 2050.0000   -29.8414     9.8967     8.2720     0.0540   114.6789     9.0123     2.5201
 2050.5000   -29.9770     9.8234     8.2748     0.0404   113.4648     9.0127     2.5310
 2051.0000   -29.9653     9.8243     8.2038     0.0289   114.6973     9.0131     2.5274
 2051.5000   -29.9555     9.7511     8.2088     0.0255   115.3180     9.0136     2.5265
 2052.0000   -29.9441     9.6780     8.2156     0.0281   115.2780     9.0071     2.5240
 2052.5000   -30.0805     9.6844     8.2224     0.0278   112.8287     8.9840     2.5077
 2053.0000   -30.2122     9.7745     8.2296     0.0190   109.7666     8.9844     2.4905
 2053.5000   -30.2004     9.8646     8.1594     0.0141   108.0150     8.9849     2.4794
 2054.0000   -30.1910     9.9548     8.1655     0.0073   109.9567     8.9919     2.4864
 2054.5000   -30.1816    10.0537     8.1716     0.0011   111.7029     9.0163     2.4964
 2055.0000   -30.1722    10.0547     8.2503    -0.0023   109.0824     9.0168     2.5072
 2055.5000   -30.1604    10.0557     8.2552     0.0084   106.6943     9.0173     2.5044
 2056.0000   -30.1502    10.0569     8.3339     0.0176   104.3909     9.0177     2.5140
 2056.5000   -30.1416    10.1317     8.3400     0.0272   106.3148     9.0182     2.5335
 2057.0000   -29.9879    10.1327     8.5665     0.0345   108.2510     9.0186     2.5499
 2057.5000   -29.9769    10.2137     8.7190     0.0393   110.0154     9.0191     2.5463
 2058.0000   -29.9667    10.2826     8.9455     0.0433   111.1559     9.0196     2.5267
 2058.5000   -29.9581    10.2836     9.2459     0.0389   110.5527     9.0200     2.5214
 2059.0000   -30.0921    10.3584     9.4734     0.0325   110.3428     9.0205     2.5273
 2059.5000   -30.0817    10.3594     9.6999     0.0251   107.8927     9.0209     2.5066
 2060.0000   -30.2168    10.4344     9.8525     0.0182   104.8315     9.0214     2.5026
 2060.5000   -30.2050    10.5093    10.0052     0.0129   104.4730     9.0219     2.5103
 2061.0000   -30.1932    10.5841     9.9373     0.0083   107.0641     9.0223     2.4985
 2061.5000   -30.1838    10.5914     9.7944     0.0077   108.1610     9.0228     2.5015
 2062.0000   -30.3202    10.6601     9.6504     0.0100   103.9157     9.0233     2.5133
 2062.5000   -30.3085    10.6611     9.4289     0.0139    99.6166     9.0237     2.5265
 2063.0000   -30.5836    10.5880     9.2921     0.0190   102.8440     9.0241     2.5339
 2063.5000   -30.5742    10.5831     9.1492     0.0238   104.5290     9.0246     2.5398
 2064.0000   -30.7099    10.4427     9.0064     0.0287   105.9327     9.0251     2.5369
 2064.5000   -30.6973    10.3698     8.9386     0.0330   107.3484     9.0255     2.5147
 2065.0000   -30.6886    10.2228     8.8696     0.0360   109.4495     9.0250     2.5040
 2065.5000   -30.6787    10.1441     8.8019     0.0372   110.2600     9.0245     2.4985
 2066.0000   -30.6683     9.9299     8.8068     0.0323   109.2718     9.0239     2.4881
 2066.5000   -30.6573     9.8567     8.8117     0.0302   108.2523     9.0234     2.4985
 2067.0000   -30.6471     9.8579     8.8916     0.0277   109.0825     9.0229     2.4954
 2067.5000   -30.6369     9.8589     8.9703     0.0247   109.4954     9.0223     2.4853
 2068.0000   -30.6267    10.0078     9.0490     0.0235   108.4524     9.0218     2.5042
 2068.5000   -30.6173    10.1565     9.0539     0.0205   106.3884     9.0213     2.5162
 2069.0000   -30.6079    10.4529     9.2077     0.0225   104.6282     9.0207     2.5068
 2069.5000   -30.7419    10.6816     9.3603     0.0271   107.1896     9.0202     2.5192
 2070.0000   -30.7309    10.7505     9.5129     0.0312   109.7859     9.0197     2.5208
 2070.5000   -30.7199    10.8254     9.5916     0.0290   109.8014     9.0191     2.4971
 2071.0000   -30.7105    10.9740     9.5977     0.0008   109.5596     9.0186     2.4893
 2071.5000   -30.7003    11.0550     9.6026    -0.0065   110.4434     9.0181     2.5103
 2072.0000   -30.6915    11.2717     9.6074    -0.0024   111.6820     9.0175     2.5192
 2072.5000   -30.6815    11.3465     9.6123     0.0108   113.5321     9.0170     2.5029
 2073.0000   -30.6705    11.3475     9.6923     0.0249   111.8099     9.0165     2.5165
 2073.5000   -30.6603    11.4284     9.6971     0.0357   109.3180     9.0159     2.5253
 2074.0000   -30.5079    11.4974     9.7759     0.0379   110.2017     9.0154     2.5297
 2074.5000   -30.4964    11.5722     9.9285     0.0348   111.4587     9.0149     2.5324
 2075.0000   -30.4870    11.6470    10.1561     0.0281   109.9391     9.0143     2.5258
 2075.5000   -30.4776    11.6480    10.3825     0.0207   107.4826     9.0138     2.5127
 2076.0000   -30.4658    11.6492    10.6090     0.0129   108.1592     9.0133     2.4926
 2076.5000   -30.4577    11.6502    10.9093     0.0106   111.2446     9.0127     2.5088
 2077.0000   -30.4470    11.7250    11.1359     0.0116   113.6699     9.0122     2.4909
 2077.5000   -30.4376    11.7999    11.3634     0.0151   113.5635     9.0117     2.4867
 2078.0000   -30.4258    11.8749    11.5160     0.0206   110.9113     9.0111     2.5049
 2078.5000   -30.5622    11.9497    11.8163     0.0281   113.1899     9.0106     2.5144
 2079.0000   -30.6963    12.1723    11.9690     0.0317   114.5994     9.0101     2.5064
