~VERSION INFORMATION
 VERS.                2.0:   CWLS LOG ASCII STANDARD - VERSION 2.0
 WRAP.                 NO:   ONE LINE PER DEPTH STEP
~WELL INFORMATION
#MNEM.UNIT      DATA TYPE    INFORMATION
#----------   ------------   ------------------------------
 STRT.F           50.5000:   START DEPTH
 STOP.F         5694.0000:   STOP DEPTH
 STEP.F            0.5000:   STEP LENGTH
 NULL.          -999.2500:   NO VALUE
 COMP. LAWRENCE ALLISON AND ASSOCIATES WEST:   COMPANY
 WELL. LAWRENCE "TX" #57-28:   WELL
 FLD .        TEAPOT DOME:   FIELD
 LOC .      S28 T39N R78W:   LOCATION
 CNTY.            NATRONA:   COUNTY
 STAT.            WYOMING:   STATE
 CTRY. UNITED STATES OF AMERICA:   COUNTRY
 SRVC.       SCHLUMBERGER:   SERVICE COMPANY
 DATE.        26-FEB-1982:   LOGDATE
 API .     49025108850000:   API NUMBER
~CURVE INFORMATION
#MNEM.UNIT       API CODE    CURVE DESCRIPTION
#----------   ------------   ------------------------------
 DEPT.F                  :   
 GRR .GAPI   11 310 01 00:   GAMMA RAY FROM RES.
 CALD.IN     45 280 60 00:   CALIPER FROM DENSITY LOG
 TEND.LBS    45 635 01 00:   TENSION FORM DENSITY LOG
 CORR.G/C3   45 356 01 00:   DENSITY CORRECTION
 RHOB.G/C3   45 350 01 00:   BULK DENSITY
 NPHI.DEC    42 890 03 00:   NEUTRON POROSITY SANDSTONE
 TENR.LBS    06 635 01 00:   TENSION FROM RESISTIVITY
 SPR .MV     11 010 01 00:   SPONTANEOUS POTENTIAL FROM RES.
 LLS .OHMM   11 220 09 00:   LATEROLOG LOG SHALLOW
 LLD .OHMM   11 220 10 00:   LATEROLOG DEEP
 MSFL.OHMM   11 270 04 00:   MICRO SPHERICALLY FOCUSED
~PARAMETER INFORMATION
#MNEM.UNIT          VALUE    DESCRIPTION
#----------   ------------   ------------------------------
 EKB .F         5101.0000:   Kelly bushing
 EGL .F         5091.0000:   Ground level
 EDF .F            0.0000:   Drilling floor
 TD  .F         3248.0000:   Total depth
 CLNT.            A2DTECH:   Client Code
 SL  . 950' FSL & 2100' FEL:   Surface Location
 PD  .                 GL:   Permanent Datum
 EPD .F              5091:   Elevation Permanent Datum
 LMF .                 KB:   Log Measured From
 DMF .                 KB:   Drilling Measured From
 DAPD.F                10:   Feet Above Permanent Datum
 DATE.        26-FEB-1982:   Date Logged [DD-MMM-YYYY]
 DD  .F              3243:   Depth driller
 DL  .F              3248:   Depth logger
 BLI .F              3216:   Bottom log interval
 TLI .F                 0:   Top log interval
 CS1 .IN            9.625:   Casing size
 CBD1.      9.625" @ 401':   Casing driller 1
 CBL1.F               401:   Casing logger 1
 BS1 .IN            7.875:   Bit size
 BSD1.F              3243:   Depth drilled with bit1
 DFT .           CHEM GEL:   Type fluid in hole
 DFD .                8.9:   Density
 DFV .                 55:   Viscosity
 DFPH.                9.5:   pH
 DFL .                 10:   Fluid loss
 MSS .            MUD PIT:   Source of sample
 RMS .OHMM           1.82:   Rm
 MST .F                76:   Rm Meas. temp.
 RMF .OHMM           1.64:   Rmf
 MFST.F                75:   Rmf Meas. temp.
 MFSS.               MEAS:   Source Rmf.
 RMB .OHMM           1.15:   Rm. at BHT
 BHT .F               120:   BHT.
 TCS .HRS            1330:   Time Circ. stopped
 TLAB.HRS            1715:   Time logger at bottom
 MRT .F               120:   Maximum recorded temp.
 LUN .               8043:   Logging unit number
 LUL .               CSPR:   Logging unit location
 ENGI.             TAYLOR:   Recorded By
 WITN.       FIVAS/STRONG:   Witnessed by
 ORIG.      1" 2.5" PRINT:   Origin of data
 UWI .     49025108850000:   Unique Well ID
 DICO. A2D TECHNOLOGIES, INC.:   Digitizing Company
~OTHER INFORMATION
~A   DEPT       GRR      CALD       TEND       CORR       RHOB       NPHI       TENR        SPR        LLS        LLD       MSFL   
# ...
 1850.0000   130.4791    10.0767   873.9838     0.0083     2.4757     0.3666   854.0000   -79.3578     7.8463     8.3578     9.9474
 1850.5000   128.1590    10.0754   873.9838     0.0051     2.4742     0.3733   843.7200   -79.3991     7.5485     7.9595     9.2785
 1851.0000   126.2466    10.0741   873.9838     0.0037     2.4759     0.3739   833.4400   -80.0520     7.3831     7.7400     9.1422
 1851.5000   124.1203    10.0728   873.9838     0.0052     2.4810     0.3716   823.1600   -80.3990     7.3418     7.6315     9.0171
 1852.0000   122.8855    10.0714   873.9838     0.0072     2.4847     0.3586   823.9556   -80.6239     7.5834     7.6184     9.1995
 1852.5000   122.2622    10.0700   873.9838     0.0058     2.4787     0.3514   829.6667   -80.6346     7.6860     8.2884     9.6990
 1853.0000   122.8622    10.0686   873.9838     0.0026     2.4635     0.3540   835.3778   -80.6453     8.3476     8.9028    10.1971
 1853.5000   125.4438    10.0672   873.9838    -0.0011     2.4527     0.3557   841.0889   -80.6560     8.8189     9.3838    10.6383
 1854.0000   128.4567    10.0966   873.9838    -0.0041     2.4572     0.3515   846.8000   -80.5443     8.5499     9.2716    10.9157
 1854.5000   129.7331    10.0950   873.9838    -0.0027     2.4708     0.3412   852.5111   -80.3716     8.0873     8.8260    10.4673
 1855.0000   130.1552    10.0937   873.9838     0.0124     2.4814     0.3381   858.2222   -80.3823     7.9623     8.5708     9.6294
 1855.5000   127.9959    10.1232   873.9838     0.0229     2.4965     0.3369   860.0000   -80.3930     7.8822     8.3896     9.1070
 1856.0000   127.0681    10.1218   873.9838     0.0244     2.4745     0.3388   860.0000   -80.3425     7.8789     8.1583     8.7327
 1856.5000   126.8870    10.1205   873.9838     0.0217     2.4692     0.3452   860.0000   -80.1070     7.8750     8.1561     8.7285
 1857.0000   128.2681    10.1191   873.9838     0.0106     2.4702     0.3526   860.0000   -79.9766     7.8719     8.0418     8.8774
 1857.5000   134.3727    10.1177   873.9838     0.0024     2.4735     0.3592   860.0000   -79.8242     7.8688     7.9291     9.1807
 1858.0000   141.0889    10.1278   873.9838    -0.0008     2.4751     0.3667   860.0000   -79.8349     7.8656     7.9269     9.6018
 1858.5000   140.3752    10.1457   873.9838    -0.0030     2.4690     0.3699   860.0000   -79.8456     7.8625     7.9247     9.1361
 1859.0000   138.7650    10.1751   873.9838    -0.0031     2.4599     0.3651   860.0000   -79.8573     7.8593     7.9225     8.7067
 1859.5000   135.1069    10.2043   873.9838    -0.0031     2.4568     0.3608   860.0000   -79.8675     7.8560     7.9203     8.7027
 1860.0000   131.6210    10.2029   873.9838    -0.0032     2.4568     0.3608   860.0000   -79.5719     7.9626     7.9182     9.0672
 1860.5000   128.3543    10.2016   873.9838    -0.0017     2.4614     0.3608   860.0000   -79.5978     7.9588     7.9160     9.7119
 1861.0000   125.7229    10.2311   873.9838     0.0015     2.4677     0.3608   860.0000   -79.8991     7.9555     7.9134    10.5679
 1861.5000   125.7113    10.2297   873.9838     0.0046     2.4743     0.3658   852.8444   -79.9098     7.9522     7.9113    11.1682
 1862.0000   128.7578    10.2283   873.9838     0.0077     2.4819     0.3706   841.4222   -79.9205     7.9484     7.9092    11.4920
 1862.5000   134.2508    10.2269   873.9838     0.0102     2.4875     0.3644   830.0000   -79.9312     7.9453     8.0174    10.9063
 1863.0000   134.1083    10.2255   873.9838     0.0102     2.4876     0.3585   820.0000   -80.0336     8.1648     8.2469     9.9033
 1863.5000   129.5120    10.2242   873.9838     0.0101     2.4823     0.3558   839.2667   -80.2584     8.3905     8.3893     9.6277
 1864.0000   122.6178    10.2225   873.9838     0.0131     2.4807     0.3530   856.4000   -80.2691     8.3872     8.7357    10.2289
 1864.5000   119.8734    10.2212   873.9838     0.0161     2.4837     0.3506   860.0000   -80.2803     8.3836     8.8243    11.2634
 1865.0000   119.5107    10.2508   873.9838     0.0221     2.4898     0.3488   860.0000   -79.9847     8.3802     8.5932    10.2194
 1865.5000   123.7777    10.2494   873.9838     0.0281     2.4973     0.3427   860.0000   -79.9954     8.1873     8.2187     9.2722
 1866.0000   134.1637    10.2172   873.9838     0.0277     2.5018     0.3330   858.2589   -80.0061     7.7853     7.8915     9.0150
 1866.5000   137.2102    10.2158   873.9838     0.0211     2.4834     0.3294   852.2118   -80.0168     7.3371     7.8894     9.2339
 1867.0000   139.0334    10.1837   873.9838     0.0091     2.4486     0.3349   846.1647   -80.0275     7.4895     7.8873    10.1417
 1867.5000   136.8184    10.1515   873.9838    -0.0020     2.4380     0.3560   840.1177   -80.3440     7.9123     8.2198    10.5381
 1868.0000   128.2935    10.1194   873.9838    -0.0061     2.4568     0.3735   834.0706   -80.3547     8.0193     8.4531    10.6217
 1868.5000   125.9818    10.0870   873.9838    -0.0028     2.4648     0.3744   828.0236   -80.2584     8.3557     8.8045    10.3260
 1869.0000   125.5291    10.0857   873.9838     0.0066     2.4728     0.3736   821.9764   -80.0703     8.3524     8.8310    10.0397
 1869.5000   125.5168    10.0843   873.9838     0.0096     2.4682     0.3717   826.9200   -80.0810     8.4654     8.9226    10.0351
 1870.0000   126.7255    10.0523   873.9838     0.0065     2.4560     0.3706   837.2000   -80.0917     8.4385     8.9198    10.0304
 1870.5000   128.5488    10.0509   873.9838     0.0049     2.4559     0.3800   847.4800   -80.1024     8.3420     8.9173    10.3072
 1871.0000   130.3720    10.0495   873.9838     0.0064     2.4606     0.3788   857.7600   -80.1121     8.3385     9.0387    10.6061
 1871.5000   133.4185    10.0482   873.9838     0.0064     2.4672     0.3727   860.0000   -79.8894     8.3351     9.1627    11.0657
 1872.0000   139.5231    10.0778   873.9838     0.0078     2.4805     0.3660   860.0000   -79.8287     8.3930     9.2879    11.1833
 1872.5000   139.4292    10.0762   873.9838     0.0093     2.4892     0.3636   869.5555   -79.8394     8.4441     9.2852    11.1771
 1873.0000   137.5168    10.0748   873.9838     0.0086     2.4686     0.3715   880.9778   -79.8502     8.4865     9.2827    11.1716
 1873.5000   136.4301    10.1042   873.9838     0.0023     2.4524     0.3683   892.4000   -79.7538     8.5546     9.2802    11.1652
 1874.0000   138.1938    10.1026   873.9838    -0.0029     2.4516     0.3607   900.0000   -79.5657     8.5510     9.4073    11.0068
 1874.5000   138.5075    10.1013   873.9838    -0.0015     2.4678     0.3597   900.0000   -79.5770     8.6667     9.2750    10.8507
 1875.0000   136.3895    10.0692   873.9838     0.0000     2.4784     0.3661   900.0000   -79.2813     8.6831     9.2725    10.6967
 1875.5000   134.5430    10.0678   873.9838     0.0045     2.4859     0.3722   900.0000   -78.6799     8.7804     9.2042    10.6917
 1876.0000   134.5314    10.0665   873.9838     0.0091     2.4752     0.3771   900.0000   -78.7523     8.7763     9.0137    10.6690
 1876.5000   136.3547    10.0651   873.9838     0.0120     2.4707     0.3711   900.0000   -79.4053     8.7727     8.8874    10.5347
 1877.0000   139.4578    10.0637   873.9838     0.0119     2.4725     0.3607   900.0000   -79.9358     8.7690     8.8850    10.5296
 1877.5000   140.6128    10.0623   873.9838     0.0119     2.4756     0.3601   900.0000   -80.5579     8.7648     8.8827    10.6711
 1878.0000   139.8000    10.0915   873.9838     0.0097     2.4797     0.3675   900.0000   -81.1825     8.7613     8.8803    10.6659
 1878.5000   138.4996    10.0901   873.9838     0.0065     2.4819     0.3738   900.0000   -81.1927     8.7579     8.8779    10.6598
 1879.0000   137.5168    10.0888   873.9838     0.0027     2.4735     0.3747   900.0000   -80.8970     8.7544     8.9006    10.6549
 1879.5000   137.5024    10.1183   873.9838     0.0011     2.4674     0.3644   900.0000   -80.9072     8.7509     8.9970    10.7987
 1880.0000   138.1024    10.1169   873.9838     0.0026     2.4613     0.3589   900.0000   -80.6116     8.7472     9.1201    11.0960
