~VERSION INFORMATION
 VERS.                2.0:   CWLS LOG ASCII STANDARD - VERSION 2.0
 WRAP.                 NO:   ONE LINE PER DEPTH STEP
~WELL INFORMATION
#MNEM.UNIT      DATA TYPE    INFORMATION
#----------   ------------   ------------------------------
 STRT.F          502.0000:   START DEPTH
 STOP.F         3068.0000:   STOP DEPTH
 STEP.F            0.5000:   STEP LENGTH
 NULL.          -999.2500:   NO VALUE
 COMP. LAWRENCE ALLISON AND ASSOCIATES:   COMPANY
 WELL. LAWRENCE NPR TX #85-33:   WELL
 FLD .              N P R:   FIELD
 LOC .      S33 T39N R78W:   LOCATION
 CNTY.            NATRONA:   COUNTY
 STAT.            WYOMING:   STATE
 CTRY. UNITED STATES OF AMERICA:   COUNTRY
 SRVC.       SCHLUMBERGER:   SERVICE COMPANY
 DATE.        20-JUN-1982:   LOGDATE
 API .     49025107990001:   API NUMBER
~CURVE INFORMATION
#MNEM.UNIT       API CODE    CURVE DESCRIPTION
#----------   ------------   ------------------------------
 DEPT.F                  :   
 RHOB.G/C3   45 350 01 00:   BULK DENSITY
 GRD .GAPI   45 310 01 00:   GAMMA RAY FROM DENSITY LOG
 CALD.IN     45 280 60 00:   CALIPER FROM DENSITY LOG
 CORR.G/C3   45 356 01 00:   DENSITY CORRECTION
 TEND.LBS    45 635 01 00:   TENSION FROM DENSITY LOG
 NPHI.DEC    42 890 03 00:   NEUTRON POROSITY SANDSTONE
 TENR.LBS    07 635 01 00:   TENSION FROM RESISTIVITY
 SPR .MV     07 010 01 00:   SPONTANEOUS POTENTIAL
 ILD .OHMM   07 120 46 00:   DEEP INDUCTION RESISTIVITY
 ILM .OHMM   07 120 44 00:   INDUCTION LOG MEDIUM RESISTIVITY
 SFL .OHMM   07 220 01 00:   SHALLOW FOCUSED LOG RESISTIVITY
~PARAMETER INFORMATION
#MNEM.UNIT          VALUE    DESCRIPTION
#----------   ------------   ------------------------------
 EKB .F         5123.0000:   Kelly bushing
 EGL .F         5113.0000:   Ground level
 EDF .F         5122.0000:   Drilling floor
 EPD .F         5113.0000:   Permanent datum
 TD  .F         3100.0000:   Total depth
 DATE.        20-JUN-1982:   Date logged
 CLNT.            A2DTECH:   Client Code
 SL  . 2263' FSL & 293' FEL:   Surface Location
 PD  .                 GL:   Permanent Datum
 DD  .F              3100:   Depth driller
 DL  .F              3056:   Depth logger
 BLI .F              3050:   Bottom log interval
 CS1 .IN            9.625:   Casing size
 CBD1.      9.625" @ 524':   Casing driller 1
 CBL1.F               520:   Casing logger 1
 BS1 .IN            7.875:   Bit size
 DFT .           POLY/KCL:   Type fluid in hole
 DFD .                8.4:   Density
 DFV .                 40:   Viscosity
 DFPH.                7.6:   pH
 DFL .                 10:   Fluid loss
 MSS .               TANK:   Source of sample
 RMS .OHMM            .92:   Rm
 MST .F                66:   Rm Meas. temp.
 RMF .OHMM           .603:   Rmf
 MFST.F                68:   Rmf Meas. temp.
 MFSS.               MEAS:   Source Rmf.
 RMB .OHMM           .515:   Rm. at BHT
 BHT .F               118:   BHT.
 TCS .HRS             815:   Time Circ. stopped
 MRT .F               118:   Maximum recorded temp.
 LUN .               8035:   Logging unit number
 LUL .               CSPR:   Logging unit location
 ENGI.              PENNY:   Recorded By
 WITN.           JENNINGS:   Witnessed by
 ORIG.           5" PRINT:   Origin of data
 UWI .     49025107990001:   Unique Well ID
 DICO. A2D TECHNOLOGIES, INC.:   Digitizing Company
 DAPD.                 10:   Feet Above Permanent Datum
 BSD1.               3100:   Depth drilled with bit1
 TLI .                520:   Top log interval
 TLAB.               1100:   Time logger at bottom
~OTHER INFORMATION
~A   DEPT     RHOB         GRD      CALD       CORR       TEND       NPHI       TENR        SPR        ILD        ILM        SFL   
# ...
 2545.5000     2.4340   109.7520     7.6620     0.0050  1573.4530     0.2450  1824.5260   -30.7480     7.2680     7.7280    10.5290
 2546.0000     2.4280   106.5080     7.6600     0.0090  1575.0000     0.2380  1824.5260   -30.6990     7.6090     8.0250    11.4220
 2546.5000     2.4290   104.9850     7.6580     0.0140  1576.5470     0.2370  1824.5260   -30.6490     7.9380     8.3230    11.0700
 2547.0000     2.4350   107.1470     7.6560     0.0120  1577.3810     0.2360  1824.5260   -30.6260     8.2440     8.6370    10.6830
 2547.5000     2.4430   110.6820     7.6540     0.0110  1578.2610     0.2340  1824.5260   -30.6260     8.5500     8.9510    10.1370
 2548.0000     2.4530   114.0490     7.6520     0.0120  1579.0880     0.2310  1824.5260   -30.6260     8.8560     9.0790    10.1890
 2548.5000     2.4640   115.7690     7.6510     0.0240  1579.9150     0.2310  1824.5260   -30.6260     8.9140     9.0590    10.2760
 2549.0000     2.4780   114.4040     7.6490     0.0350  1580.7430     0.2340  1824.5260   -30.6260     8.8570     8.9670    10.3250
 2549.5000     2.4920   111.4150     7.6470     0.0460  1581.5699     0.2390  1824.5260   -30.6270     8.6270     8.8750    10.1570
 2550.0000     2.4990   108.7980     7.6460     0.0490  1582.3970     0.2420  1824.5260   -30.6800     8.3960     8.7830    10.0440
 2550.5000     2.4760   109.6830     7.6440     0.0430  1583.2240     0.2410  1824.5260   -30.8920     8.2830     8.6910    10.2290
 2551.0000     2.4670   112.1930     7.6420     0.0340  1584.0520     0.2400  1824.5260   -31.0970     8.2830     8.5930    10.3250
 2551.5000     2.4660   113.3690     7.6410     0.0270  1584.8790     0.2400  1824.5260   -31.3030     8.2300     8.4460     9.9940
 2552.0000     2.4700   114.9310     7.6390     0.0200  1585.7061     0.2450  1824.5260   -31.5080     8.0760     8.2880     9.7440
 2552.5000     2.4700   116.9930     7.6370     0.0110  1586.5330     0.2500  1824.5260   -31.7140     7.9220     8.1310     9.4940
 2553.0000     2.4670   119.0330     7.6350     0.0080  1587.3610     0.2500  1824.5260   -31.8000     7.7670     7.9740     9.2450
 2553.5000     2.4610   119.1000     7.6360     0.0110  1588.1880     0.2460  1824.5260   -31.8010     7.7190     7.8960     8.9950
 2554.0000     2.4550   117.9390     7.6450     0.0190  1589.0150     0.2420  1824.5260   -31.8020     7.6720     7.8720     8.7520
 2554.5000     2.4530   117.3280     7.6530     0.0280  1589.8420     0.2390  1824.5260   -31.7930     7.6260     7.8480     8.7320
 2555.0000     2.4600   118.5590     7.6620     0.0370  1590.6700     0.2390  1824.5260   -31.5480     7.5730     7.8230     8.7080
 2555.5000     2.4680   117.4950     7.6690     0.0430  1591.4969     0.2390  1824.5260   -31.2860     7.4920     7.7990     8.6840
 2556.0000     2.4730   115.3200     7.7440     0.0430  1592.3240     0.2360  1824.5260   -31.3290     7.4190     7.7750     8.6720
 2556.5000     2.4750   116.1310     7.8450     0.0420  1593.1510     0.2320  1824.5260   -31.4990     7.3750     7.6960     8.5060
 2557.0000     2.4720   119.4550     7.8680     0.0370  1593.9790     0.2330  1824.5260   -31.6720     7.3180     7.5940     8.3530
 2557.5000     2.4670   122.6450     7.8580     0.0310  1594.8060     0.2360  1824.5260   -31.8450     7.2170     7.4920     8.2010
 2558.0000     2.4620   124.5430     7.8270     0.0270  1595.6331     0.2370  1824.5260   -31.9940     7.1460     7.3900     8.0580
 2558.5000     2.4730   120.5230     7.7960     0.0280  1596.4600     0.2330  1824.5260   -31.9000     7.1130     7.2890     8.0580
 2559.0000     2.4850   118.2780     7.7650     0.0310  1597.2220     0.2270  1824.5260   -31.7950     7.0860     7.1870     8.0580
 2559.5000     2.4870   117.2450     7.7340     0.0270  1596.0649     0.2260  1824.5260   -31.6910     6.9590     7.0850     8.0580
 2560.0000     2.4720   119.3180     7.7010     0.0170  1593.6790     0.2310  1824.5260   -31.6030     6.8300     6.9830     8.0580
 2560.5000     2.4570   122.5590     7.6770     0.0060  1591.2930     0.2390  1824.5260   -31.6940     6.7060     6.8810     8.0580
 2561.0000     2.4530   123.3320     7.6730     0.0010  1588.9080     0.2470  1824.5260   -31.9310     6.5840     6.7790     8.0580
 2561.5000     2.4610   121.5620     7.6730     0.0030  1586.5220     0.2470  1824.5260   -32.1660     6.4660     6.6770     7.7970
 2562.0000     2.4780   121.1290     7.6750     0.0070  1584.1360     0.2450  1824.5260   -32.4010     6.3360     6.5840     7.4920
 2562.5000     2.4860   124.5980     7.6770     0.0100  1581.7510     0.2420  1824.5260   -32.6360     6.1920     6.4160     7.1840
 2563.0000     2.4780   129.2840     7.6790     0.0050  1579.3650     0.2420  1824.5260   -32.8710     6.0480     6.2270     7.0240
 2563.5000     2.4680   131.4540     7.6810    -0.0020  1576.9790     0.2490  1824.5260   -33.1080     5.9510     6.1740     6.6100
 2564.0000     2.4660   124.8040     7.6830    -0.0020  1574.5940     0.2520  1825.3080   -33.3390     6.1850     6.4590     6.1170
 2564.5000     2.5060   114.6720     7.6850     0.0150  1572.2080     0.2410  1826.1450   -33.2190     6.4640     6.7650     6.8540
 2565.0000     2.5390   106.4710     7.6870     0.0340  1569.8220     0.2240  1826.9821   -33.0530     6.3660     6.9570     8.1790
 2565.5000     2.5520   104.0280     7.6890     0.0380  1567.4370     0.2010  1827.8190   -32.8880     6.2380     6.7510     9.7720
 2566.0000     2.5430   107.4780     7.6910     0.0280  1565.0510     0.1970  1828.6560   -32.7770     6.1110     6.5480     9.5080
 2566.5000     2.5200   114.0690     7.6930     0.0180  1562.6650     0.2130  1829.4930   -32.8170     5.9830     6.3440     8.6710
 2567.0000     2.5060   121.2100     7.6950     0.0110  1560.2800     0.2290  1830.3300   -33.0660     5.8560     6.1410     7.8330
 2567.5000     2.4950   131.0870     7.6970     0.0080  1557.8940     0.2450  1831.1680   -33.3150     5.7280     5.9370     6.9960
 2568.0000     2.4880   142.0190     7.6990     0.0080  1557.7150     0.2600  1832.0050   -33.5620     5.6010     5.7340     6.1590
 2568.5000     2.4910   149.8160     7.7010     0.0200  1558.3970     0.2660  1832.8420   -33.7640     5.4730     5.5310     5.2330
 2569.0000     2.4980   143.9710     7.7030     0.0260  1559.0780     0.2610  1833.6790   -33.7550     5.3450     5.3790     5.3790
 2569.5000     2.5020   137.9830     7.7050     0.0240  1559.7600     0.2540  1834.5160   -33.6580     5.2330     5.4080     5.7010
 2570.0000     2.5000   134.3260     7.7070     0.0220  1560.4420     0.2470  1835.3530   -33.5610     5.2330     5.6460     6.0220
 2570.5000     2.4940   139.3670     7.7090     0.0220  1561.1230     0.2470  1836.1910   -33.4640     5.5290     5.8830     6.2310
 2571.0000     2.5010   142.0670     7.7110     0.0280  1561.8051     0.2440  1837.0280   -33.3670     5.7880     6.1210     6.0540
 2571.5000     2.5100   135.2180     7.7130     0.0340  1562.4871     0.2370  1837.8650   -33.2700     6.0470     6.4210     5.9510
 2572.0000     2.5120   123.3250     7.7150     0.0270  1563.1680     0.2230  1838.7020   -33.1730     6.3070     6.7410     7.0770
 2572.5000     2.5030   112.1980     7.7170     0.0190  1563.8500     0.2090  1839.5389   -33.0750     6.5660     7.0600     8.1610
 2573.0000     2.5000   105.0290     7.7190     0.0110  1564.5310     0.1990  1840.3760   -32.9790     6.8260     7.3790     9.2440
 2573.5000     2.5080   105.6320     7.7210     0.0080  1565.2130     0.1990  1841.2140   -33.0470     7.0350     7.5560     9.4190
 2574.0000     2.5170   108.8090     7.7230     0.0170  1565.8950     0.2080  1842.0510   -33.1270     7.0930     7.5490     9.2100
 2574.5000     2.5250   111.7530     7.7250     0.0230  1566.5760     0.2180  1842.8879   -33.2050     7.1510     7.5330     8.7650
 2575.0000     2.5320   114.2370     7.7270     0.0300  1567.2581     0.2240  1843.7250   -33.2840     7.2090     7.5170     8.1750
 2575.5000     2.5360   116.8930     7.7290     0.0290  1567.9390     0.2260  1844.4670   -33.3620     7.2660     7.5010     7.5840
