~VERSION INFORMATION
 VERS.                2.0:   CWLS LOG ASCII STANDARD - VERSION 2.0
 WRAP.                 NO:   ONE LINE PER DEPTH STEP
~WELL INFORMATION
#MNEM.UNIT      DATA TYPE    INFORMATION
#----------   ------------   ------------------------------
 STRT.F          620.0000:   START DEPTH
 STOP.F         4350.5000:   STOP DEPTH
 STEP.F            0.5000:   STEP LENGTH
 NULL.          -999.2500:   NO VALUE
 COMP.    FENIX & SCISSON:   COMPANY
 WELL. FENIX NPR 3 "LX" #25-10:   WELL
 FLD .                NPR:   FIELD
 LOC .      S10 T38N R78W:   LOCATION
 CNTY.            NATRONA:   COUNTY
 STAT.            WYOMING:   STATE
 CTRY. UNITED STATES OF AMERICA:   COUNTRY
 SRVC.              WELEX:   SERVICE COMPANY
 DATE.        06-MAR-1980:   LOGDATE
 API .     49025108070000:   API NUMBER
~CURVE INFORMATION
#MNEM.UNIT       API CODE    CURVE DESCRIPTION
#----------   ------------   ------------------------------
 DEPT.F                  :   
 CALD.IN     45 280 60 00:   CALIPER FROM DENSITY LOG
 GRD .GAPI   45 310 01 00:   GAMMA RAY FROM DENSITY LOG
 RHOB.G/C3   45 350 01 00:   BULK DENSITY
 CORR.G/C3   45 356 01 00:   DENSITY CORRECTION
 NPHI.DEC    42 890 03 00:   NEUTRON POROSITY SANDSTONE
 SPR .MV     07 010 01 00:   SPONTANEOUS POTENTIAL
 ILD .OHMM   07 120 46 00:   DEEP INDUCTION RESISTIVITY
 ILM .OHMM   07 120 44 00:   INDUCTION LOG MEDIUM RESISTIVITY
 SGRD.OHMM   07 220 05 00:   SHALLOW SHORT GUARD RESISTIVITY
~PARAMETER INFORMATION
#MNEM.UNIT          VALUE    DESCRIPTION
#----------   ------------   ------------------------------
 EKB .F         5247.0000:   Kelly bushing
 EGL .F         5237.0000:   Ground level
 EDF .F            0.0000:   Drilling floor
 TD  .F         4352.0000:   Total depth
 DATE.        06-MAR-1980:   Date logged
 CLNT.            A2DTECH:   Client Code
 SL  . 1075' FWL & 2450' FSL:   Surface Location
 PD  .                 GL:   Permanent Datum
 EPD .F              5237:   Elevation Permanent Datum
 LMF .                 KB:   Log Measured From
 DMF .                 KB:   Drilling Measured From
 DAPD.F                10:   Feet Above Permanent Datum
 DD  .F              4350:   Depth driller
 DL  .F              4352:   Depth logger
 BLI .F              4350:   Bottom log interval
 TLI .F               630:   Top log interval
 CS1 .IN            8.625:   Casing size
 CBD1.      8.625" @ 600':   Casing driller 1
 CBL1.F               632:   Casing logger 1
 BS1 .IN            7.875:   Bit size
 BSD1.F              4350:   Depth drilled with bit1
 DFT .           CHEM/GEL:   Type fluid in hole
 DFD .                8.9:   Density
 DFV .                 47:   Viscosity
 DFPH.               10.3:   pH
 DFL .                 10:   Fluid loss
 MSS .           FLOWLINE:   Source of sample
 RMS .OHMM            .89:   Rm
 MST .F                90:   Rm Meas. temp.
 RMF .OHMM            .71:   Rmf
 MFST.F                90:   Rmf Meas. temp.
 RMC .OHMM           1.06:   Rmc
 MCST.F                90:   Rmc Meas. temp.
 MFSS.               MEAS:   Source Rmf.
 MCSS.               MEAS:   Source Rmc.
 RMB .OHMM            .60:   Rm. at BHT
 BHT .F               112:   BHT.
 TCS .HRS               1:   Time Circ. stopped
 MRT .F               132:   Maximum recorded temp.
 LUN .               1892:   Logging unit number
 LUL .             CASPER:   Logging unit location
 ENGI.               REIN:   Recorded By
 WITN.           DINSMORE:   Witnessed by
 ORIG.           5" PRINT:   Origin of data
 UWI .     49025108070000:   Unique Well ID
 DICO. A2D TECHNOLOGIES, INC.:   Digitizing Company
~OTHER INFORMATION
~A   DEPT     CALD        GRD       RHOB       CORR       NPHI         SPR       ILD        ILM         SGRD 
# ...
 2080.0000    11.0150   102.6040     2.1450    -0.0840     0.2190   -25.7960     7.7610     7.7680    10.6060
 2080.5000    10.9880   103.4520     2.1500    -0.0840     0.2190   -25.9830     7.7790     7.6780    10.6370
 2081.0000    10.9800   105.3140     2.1510    -0.0840     0.2180   -26.1710     7.7970     7.5900    10.6670
 2081.5000    10.9800   106.8580     2.1440    -0.0840     0.2160   -26.3600     7.8150     7.5010    10.8090
 2082.0000    10.9800   108.0140     2.1400    -0.0860     0.2150   -26.5430     7.8330     7.3820    11.0100
 2082.5000    10.9800   109.1850     2.1360    -0.0900     0.2120   -26.7390     7.8510     7.4700    11.0790
 2083.0000    10.9800   109.7780     2.1350    -0.0920     0.2090   -26.9190     7.8690     7.6040    11.0790
 2083.5000    10.9800   109.2810     2.1380    -0.0920     0.2090   -27.0550     7.8870     7.7380    11.2530
 2084.0000    10.9800   108.9620     2.1400    -0.0890     0.2090   -26.7550     7.9060     7.8720    11.4960
 2084.5000    10.9800   108.7620     2.1420    -0.0800     0.2100   -26.4890     7.9240     8.0060    11.2860
 2085.0000    10.9800   110.0850     2.1410    -0.0720     0.2090   -26.2000     7.9420     8.1400    11.3820
 2085.5000    10.9820   111.2780     2.1390    -0.0680     0.2070   -25.9180     7.9930     8.2730    11.4400
 2086.0000    11.0080   111.2950     2.1370    -0.0640     0.2050   -25.6440     8.0600     8.4070    11.4970
 2086.5000    11.0300   110.8130     2.1360    -0.0640     0.2040   -25.3630     8.1270     8.5410    11.5550
 2087.0000    11.0540   110.3500     2.1380    -0.0650     0.2020   -25.3920     8.1930     8.6750    11.6130
 2087.5000    11.0760   109.8270     2.1400    -0.0670     0.2020   -25.5190     8.2590     8.7270    11.6700
 2088.0000    11.0980   108.0200     2.1420    -0.0660     0.2060   -25.6500     8.3260     8.7430    11.7280
 2088.5000    11.0990   106.2630     2.1350    -0.0610     0.2090   -25.7680     8.3990     8.7600    11.7850
 2089.0000    11.1000   106.4670     2.1210    -0.0560     0.2130   -25.8800     8.3580     8.7760    11.8430
 2089.5000    11.0980   106.9550     2.0990    -0.0520     0.2180   -25.7710     8.3130     8.7920    11.9280
 2090.0000    11.0950   107.4370     2.0880    -0.0500     0.2160   -25.6640     8.2680     8.8090    11.8180
 2090.5000    11.0260   107.7860     2.0740    -0.0480     0.2180   -25.5380     8.2220     8.8250    11.6050
 2091.0000    10.9560   108.1240     2.0750    -0.0510     0.2200   -25.4330     8.1770     8.8410    11.3920
 2091.5000    10.8870   108.4390     2.0770    -0.0580     0.2170   -25.3160     8.1320     8.8580    11.1790
 2092.0000    10.8280   109.0010     2.0980    -0.0650     0.2140   -25.4780     8.0860     8.8740    10.9190
 2092.5000    10.8820   109.8310     2.1240    -0.0670     0.2110   -25.7010     8.0410     8.8970    10.4830
 2093.0000    10.9330   110.6650     2.1490    -0.0650     0.2080   -25.9220     7.9950     8.9230    10.7630
 2093.5000    10.9890   111.4540     2.1650    -0.0640     0.2060   -26.5240     7.9470     8.9490    11.2820
 2094.0000    11.0440   112.1670     2.1590    -0.0600     0.2070   -27.0470     8.0150     8.9750    11.8000
 2094.5000    11.0560   111.1920     2.1570    -0.0630     0.2090   -27.6310     8.0860     9.0010    11.9280
 2095.0000    11.0410   109.6410     2.1580    -0.0650     0.2110   -27.4120     8.1570     9.0270    11.9280
 2095.5000    11.0260   109.8210     2.1530    -0.0680     0.2130   -27.1420     8.2280     9.0530    11.9280
 2096.0000    11.0120   110.6820     2.1490    -0.0720     0.2110   -26.8410     8.2990     9.0780    11.9280
 2096.5000    10.9980   111.5200     2.1440    -0.0760     0.2110   -26.5640     8.3700     9.1040    12.2630
 2097.0000    10.9840   110.9100     2.1420    -0.0790     0.2120   -26.2730     8.5150     9.1300    12.5500
 2097.5000    10.9690   110.0840     2.1540    -0.0750     0.2130   -25.9880     8.7150     9.1560    12.8420
 2098.0000    10.9550   110.1530     2.1650    -0.0720     0.2140   -25.7120     8.8780     9.1820    12.9010
 2098.5000    10.9410   108.8800     2.1730    -0.0680     0.2150   -25.3940     8.8900     9.2080    13.0020
 2099.0000    10.9270   107.9920     2.1790    -0.0650     0.2160   -25.4600     8.9060     9.2340    13.1030
 2099.5000    10.9120   107.9710     2.1850    -0.0610     0.2170   -25.8310     8.9210     9.2590    13.2040
 2100.0000    10.9010   108.6420     2.1840    -0.0610     0.2180   -26.1540     8.9360     9.2850    13.3250
 2100.5000    10.8880   109.7090     2.1780    -0.0650     0.2190   -26.4720     8.9520     9.3110    13.2510
 2101.0000    10.8710   110.9210     2.1720    -0.0680     0.2180   -26.5830     8.9670     9.3370    13.1580
 2101.5000    10.8540   110.9930     2.1600    -0.0720     0.2160   -26.6820     8.9820     9.3630    13.0650
 2102.0000    10.8390   111.0370     2.1490    -0.0750     0.2150   -26.7750     8.9980     9.3830    12.9720
 2102.5000    10.8180   110.9990     2.1370    -0.0780     0.2130   -26.8730     9.0130     9.3830    12.8800
 2103.0000    10.8540   111.0090     2.1300    -0.0820     0.2120   -26.9680     9.0290     9.3830    12.8420
 2103.5000    10.8770   111.0720     2.1260    -0.0850     0.2100   -27.0640     9.0450     9.3840    12.9340
 2104.0000    10.8990   111.6180     2.1220    -0.0890     0.2090   -27.1610     9.0810     9.3840    13.1620
 2104.5000    10.9160   112.0700     2.1190    -0.0920     0.2070   -27.2550     9.1170     9.3840    13.3910
 2105.0000    10.9390   110.6320     2.1210    -0.0950     0.2060   -27.3540     9.1540     9.3840    13.5740
 2105.5000    10.9400   109.2020     2.1240    -0.0920     0.2060   -27.4490     9.1910     9.3840    13.3890
 2106.0000    10.9410   107.5840     2.1330    -0.0880     0.2070   -27.5380     9.2280     9.3840    13.2350
 2106.5000    10.9400   106.7520     2.1450    -0.0840     0.2090   -27.6590     9.2650     9.3840    13.0820
 2107.0000    10.9410   107.1900     2.1520    -0.0800     0.2110   -27.5090     9.3020     9.3840    13.2050
 2107.5000    10.9400   107.7620     2.1520    -0.0760     0.2130   -27.1640     9.3390     9.3840    13.3280
 2108.0000    10.9400   108.3840     2.1520    -0.0740     0.2150   -26.8500     9.3830     9.3840    13.4510
 2108.5000    10.9300   108.4240     2.1520    -0.0730     0.2180   -26.5290     9.3620     9.3840    13.5740
 2109.0000    10.9190   107.9010     2.1530    -0.0720     0.2170   -26.2150     9.3350     9.3830    13.4130
 2109.5000    10.9070   107.5170     2.1560    -0.0710     0.2170   -25.9090     9.3080     9.3710    13.2520
 2110.0000    10.8950   108.3790     2.1590    -0.0690     0.2190   -25.8980     9.2810     9.3610    13.0910
 2110.5000    10.8830   109.2190     2.1620    -0.0680     0.2210   -25.8990     9.2550     9.3510    12.9300
 2111.0000    10.8720   109.7320     2.1610    -0.0670     0.2230   -26.0820     9.2280     9.3410    12.7690
 2111.5000    10.8620   109.3780     2.1510    -0.0660     0.2240   -26.2620     9.2010     9.3310    12.6080
 2112.0000    10.8640   109.0870     2.1410    -0.0650     0.2240   -26.4520     9.1740     9.3200    12.6990
 2112.5000    10.8650   108.6790     2.1320    -0.0640     0.2230   -26.6370     9.1470     9.3100    12.7900
 2113.0000    10.8680   109.0960     2.1210    -0.0690     0.2230   -26.8230     9.1200     9.3000    12.8810
 2113.5000    10.8700   109.8410     2.1130    -0.0730     0.2220   -27.0090     9.0930     9.2900    12.9720
 2114.0000    10.8720   110.2800     2.1060    -0.0790     0.2220   -27.1950     9.0660     9.2790    13.0820
 2114.5000    10.8740   110.7850     2.1010    -0.0900     0.2210   -27.3810     9.0400     9.2690    13.1300
 2115.0000    10.8760   110.6030     2.0990    -0.0970     0.2200   -27.5690     9.0130     9.2590    13.3250
 2115.5000    10.8790   108.8710     2.0980    -0.1000     0.2190   -27.7480     8.9860     9.2490    13.2850
 2116.0000    10.8810   108.3230     2.0930    -0.1040     0.2140   -27.9470     8.9590     9.2390    13.1830
