~VERSION INFORMATION
 VERS.                2.0:   CWLS LOG ASCII STANDARD - VERSION 2.0
 WRAP.                 NO:   ONE LINE PER DEPTH STEP
~WELL INFORMATION
#MNEM.UNIT      DATA TYPE    INFORMATION
#----------   ------------   ------------------------------
 STRT.F          206.0000:   START DEPTH
 STOP.F         3080.5000:   STOP DEPTH
 STEP.F            0.5000:   STEP LENGTH
 NULL.          -999.2500:   NO VALUE
 COMP.    FENIX & SCISSON:   COMPANY
 WELL.   FENIX "A" #61-28:   WELL
 FLD .           N P R #3:   FIELD
 LOC .      S28 T39N R78W:   LOCATION
 CNTY.            NATRONA:   COUNTY
 STAT.            WYOMING:   STATE
 CTRY. UNITED STATES OF AMERICA:   COUNTRY
 SRVC.        SCHLUMBEGER:   SERVICE COMPANY
 DATE.        16-MAY-1977:   LOGDATE
 API .     49025103680000:   API NUMBER
~CURVE INFORMATION
#MNEM.UNIT       API CODE    CURVE DESCRIPTION
#----------   ------------   ------------------------------
 DEPT.F                  :   
 SPR .MV     07 010 01 00:   SPONTANEOUS POTENTIAL
 LL8 .OHMM   07 220 08 00:   LATEROLOG-8 RES.
 ILM .OHMM   07 120 44 00:   INDUCTION LOG MEDIUM RESISTIVITY
 ILD .OHMM   07 120 46 00:   DEEP INDUCTION RESISTIVITY
 CALD.IN     45 280 60 00:   CALIPER FROM DENSITY LOG
 GRD .GAPI   45 310 01 00:   GAMMA RAY FROM DENSITY LOG
 RHOB.G/C3   45 350 01 00:   BULK DENSITY
 CORR.G/C3   45 356 01 00:   DENSITY CORRECTION
~PARAMETER INFORMATION
#MNEM.UNIT          VALUE    DESCRIPTION
#----------   ------------   ------------------------------
 EKB .F         5019.0000:   Kelly bushing
 EGL .F         5009.0000:   Ground level
 EDF .F            0.0000:   Drilling floor
 TD  .F         3050.0000:   Total depth
 DATE.        16-MAY-1977:   Date logged
 CLNT.            A2DTECH:   Client Code
 SL  . 330' FNL & 1650' FEL:   Surface Location
 PD  .                 GL:   Permanent Datum
 DD  .F              3050:   Depth driller
 DL  .F              3079:   Depth logger
 BLI .F              3072:   Bottom log interval
 CS1 .IN            8.625:   Casing size
 CBD1.      8.625" @ 213':   Casing driller 1
 CBL1.F               213:   Casing logger 1
 BS1 .IN            7.875:   Bit size
 DFT .            KCL-MUD:   Type fluid in hole
 DFD .                9.2:   Density
 DFV .                 32:   Viscosity
 DFPH.                  8:   pH
 DFL .                7.6:   Fluid loss
 MSS .              CIRC.:   Source of sample
 RMS .OHMM          0.128:   Rm
 MST .F                62:   Rm Meas. temp.
 RMF .OHMM          0.126:   Rmf
 MFST.F                62:   Rmf Meas. temp.
 RMC .OHMM          0.192:   Rmc
 MCST.F                62:   Rmc Meas. temp.
 MFSS.               MEAS:   Source Rmf.
 RMB .OHMM           0.07:   Rm. at BHT
 BHT .F               112:   BHT.
 TCS .HRS            0900:   Time Circ. stopped
 MRT .F               112:   Maximum recorded temp.
 LUN .               7711:   Logging unit number
 LUL .               CSPR:   Logging unit location
 ENGI.             SAYLER:   Recorded By
 WITN.         PETTINGILL:   Witnessed by
 ORIG.           5" PRINT:   Origin of data
 UWI .     49025103680000:   Unique Well ID
 DICO. A2D TECHNOLOGIES, INC.:   Digitizing Company
 DAPD.                 10:   Feet Above Permanent Datum
 BSD1.               3050:   Depth drilled with bit1
 MCSS.               CALC:   Source Rmc.
 EPD .F              5009:   Elevation Permanent Datum
 LMF .                 KB:   Log Measured From
 DMF .                 KB:   Drilling Measured From
 TLI .F               213:   Top log interval
 TLAB.               1100:   Time logger at bottom
~OTHER INFORMATION
~A   DEPT      SPR        LL8        ILM        ILD       CALD         GRD      RHOB       CORR   
# ...
 1137.5000   -40.5990    10.2110    10.4050    10.6530     8.5730   108.4590     2.5070     0.0010
 1138.0000   -40.6100    10.2340    10.4290    10.6680     8.5710   111.1150     2.5190     0.0040
 1138.5000   -40.6440    10.2560    10.4530    10.6820     8.5700   113.9020     2.5130     0.0030
 1139.0000   -40.6770    10.2790    10.4770    10.7020     8.5690   116.1210     2.5060     0.0010
 1139.5000   -40.7110    10.3020    10.5060    10.6950     8.5670   115.1290     2.5090     0.0040
 1140.0000   -40.7450    10.3120    10.4830    10.6700     8.5660   113.5230     2.5120     0.0110
 1140.5000   -40.7790    10.2880    10.4360    10.6470     8.5650   111.1070     2.5020     0.0140
 1141.0000   -40.8130    10.2650    10.3900    10.6240     8.5630   110.0850     2.4920     0.0040
 1141.5000   -40.8460    10.2410    10.3470    10.6010     8.5620   109.6520     2.4810    -0.0010
 1142.0000   -40.8800    10.2180    10.3030    10.5780     8.5610   108.5920     2.4790     0.0000
 1142.5000   -40.9140    10.1940    10.2590    10.5550     8.5620   108.0530     2.4850     0.0000
 1143.0000   -40.9480    10.1710    10.2140    10.5310     8.5680   108.8690     2.4910     0.0000
 1143.5000   -40.9810    10.1480    10.1700    10.5090     8.5740   109.6880     2.4880    -0.0030
 1144.0000   -41.0150    10.1280    10.1260    10.4620     8.5800   110.8680     2.4840    -0.0020
 1144.5000   -41.0490    10.1340    10.0820    10.4170     8.5810   111.7260     2.4800     0.0030
 1145.0000   -41.0830    10.0270    10.0380    10.3720     8.5820   112.4350     2.4790     0.0010
 1145.5000   -41.1160     9.9320     9.9940    10.3270     8.5840   112.0650     2.4810     0.0030
 1146.0000   -41.1500     9.8350     9.9490    10.2810     8.5850   112.0370     2.4860     0.0060
 1146.5000   -41.1840     9.7380     9.9050    10.2360     8.5860   112.3440     2.4930     0.0050
 1147.0000   -41.2180     9.6400     9.8620    10.1910     8.5880   111.5980     2.4990     0.0010
 1147.5000   -41.2510     9.5840     9.8180    10.1460     8.5890   110.7480     2.5020    -0.0030
 1148.0000   -41.2850     9.5890     9.7660    10.1010     8.5900   109.8580     2.5050    -0.0020
 1148.5000   -41.3190     9.5320     9.7430    10.0560     8.5910   108.1750     2.5030    -0.0010
 1149.0000   -41.3520     9.4870     9.7150    10.0110     8.5930   110.2220     2.4990    -0.0020
 1149.5000   -41.3880     9.4410     9.6870     9.9660     8.5940   113.3580     2.4960    -0.0040
 1150.0000   -41.3880     9.3960     9.6590     9.9200     8.5950   115.9710     2.4970    -0.0030
 1150.5000   -41.3610     9.3510     9.6310     9.8750     8.5960   117.4280     2.4970     0.0000
 1151.0000   -41.3380     9.3060     9.6040     9.8300     8.5980   118.0110     2.4960     0.0040
 1151.5000   -41.3150     9.2410     9.5860     9.7650     8.5990   117.9550     2.4960     0.0050
 1152.0000   -41.2910     9.2530     9.6180     9.7830     8.5980   117.8760     2.4990     0.0050
 1152.5000   -41.2670     9.2750     9.6510     9.8150     8.5910   117.7420     2.5030     0.0050
 1153.0000   -41.2430     9.2980     9.6840     9.8470     8.5850   116.7920     2.5060     0.0050
 1153.5000   -41.2200     9.3210     9.7170     9.8790     8.5800   115.2100     2.5100     0.0050
 1154.0000   -41.1960     9.3440     9.7500     9.9110     8.5780   113.2180     2.5130     0.0050
 1154.5000   -41.1720     9.3630     9.7830     9.9440     8.5770   112.1120     2.5170     0.0100
 1155.0000   -41.1490     9.4080     9.8160     9.9760     8.5760   112.4560     2.5200     0.0160
 1155.5000   -41.1250     9.3980     9.8490    10.0090     8.5740   113.8610     2.5230     0.0210
 1156.0000   -41.1010     9.5870     9.8820    10.0410     8.5730   114.4970     2.5260     0.0230
 1156.5000   -41.0770     9.5870     9.9150    10.0740     8.5720   114.7460     2.5200     0.0140
 1157.0000   -41.0540     9.5200     9.9460    10.1220     8.5710   113.3380     2.5120     0.0050
 1157.5000   -41.0300     9.4400     9.9100    10.1050     8.5690   111.2460     2.5010    -0.0040
 1158.0000   -41.0060     9.3610     9.7520     9.9930     8.5680   110.7320     2.4890    -0.0130
 1158.5000   -40.9830     9.2820     9.5940     9.8820     8.5670   111.4550     2.4890    -0.0090
 1159.0000   -40.9590     9.2020     9.4350     9.7700     8.5660   111.0670     2.4930    -0.0040
 1159.5000   -40.9350     9.1230     9.2410     9.6580     8.5640   110.6470     2.4870    -0.0050
 1160.0000   -40.9110     9.0720     9.2740     9.5870     8.5630   110.0660     2.4810    -0.0070
 1160.5000   -40.8880     9.1260     9.3670     9.6670     8.5620   109.3460     2.4920    -0.0030
 1161.0000   -40.8640     9.2240     9.4590     9.7510     8.5610   108.6210     2.5030     0.0010
 1161.5000   -40.8400     9.3220     9.5520     9.8350     8.5600   107.9040     2.5150     0.0060
 1162.0000   -40.8170     9.4200     9.6440     9.9190     8.5600   108.2810     2.5220     0.0100
 1162.5000   -40.7930     9.5170     9.7650    10.0030     8.5600   108.8260     2.5270     0.0060
 1163.0000   -40.7690     9.5690     9.7490    10.0870     8.5600   109.8080     2.5300     0.0010
 1163.5000   -40.7450     9.5070     9.6940    10.1300     8.5610   110.6030     2.5270    -0.0040
 1164.0000   -40.7220     9.4450     9.6390    10.0480     8.5630   110.8020     2.5200    -0.0020
 1164.5000   -40.6980     9.4120     9.5870     9.9460     8.5650   110.4980     2.5010    -0.0010
 1165.0000   -40.6740     9.4810     9.6680     9.9990     8.5670   109.2170     2.4900    -0.0060
 1165.5000   -40.6510     9.5880     9.7940    10.0800     8.5690   106.5760     2.4960    -0.0060
 1166.0000   -40.6270     9.6940     9.9190    10.1620     8.5710   103.9230     2.5050    -0.0010
 1166.5000   -40.6030     9.8010    10.0450    10.2430     8.5740   101.4920     2.5150     0.0050
 1167.0000   -40.5790     9.9070    10.1700    10.3250     8.5760   103.1620     2.5240    -0.0010
 1167.5000   -40.5560    10.0140    10.2960    10.4060     8.5780   106.6520     2.5300    -0.0070
 1168.0000   -40.5320    10.1210    10.4210    10.4880     8.5810   110.9730     2.5230    -0.0040
 1168.5000   -40.5080    10.2270    10.5470    10.5690     8.5860   115.2980     2.5120     0.0030
 1169.0000   -40.4850    10.3180    10.6720    10.6510     8.5920   117.5580     2.5030     0.0100
 1169.5000   -40.4610    10.3060    10.7050    10.7330     8.5970   117.1020     2.5090     0.0170
 1170.0000   -40.4370    10.2690    10.6450    10.8140     8.6030   114.5990     2.5140     0.0200
 1170.5000   -40.4130    10.2320    10.5820    10.9030     8.6080   111.8720     2.5140     0.0210
 1171.0000   -40.3900    10.1950    10.5180    10.8510     8.6140   110.1780     2.5110     0.0130
 1171.5000   -40.3660    10.1580    10.4550    10.7940     8.6190   108.8660     2.5060     0.0060
 1172.0000   -40.3420    10.1220    10.3910    10.7370     8.6200   108.3230     2.5010    -0.0020
 1172.5000   -40.3190    10.0850    10.3180    10.6800     8.6200   108.3350     2.4970    -0.0040
 1173.0000   -40.2950    10.0490    10.3180    10.6230     8.6200   110.1140     2.4920    -0.0020
 1173.5000   -40.2710    10.0120    10.3780    10.5650     8.6200   112.3790     2.4870     0.0010
 1174.0000   -40.2480     9.9750    10.4350    10.5100     8.6200   114.5910     2.4820     0.0050
 1174.5000   -40.2230     9.9470    10.4930    10.5710     8.6200   114.7830     2.4920     0.0170
 1175.0000   -40.1970     9.9750    10.5500    10.6310     8.6200   113.9690     2.5020     0.0090
 1175.5000   -40.1200    10.0480    10.6070    10.6910     8.6200   113.5860     2.4930    -0.0020
 1176.0000   -40.0420    10.1220    10.6640    10.7510     8.6200   114.3970     2.4890    -0.0080
 1176.5000   -39.9620    10.1960    10.7210    10.8110     8.6200   114.9630     2.4980    -0.0050
 1177.0000   -39.8840    10.2690    10.7790    10.8710     8.6200   113.9320     2.5030    -0.0010
 1177.5000   -39.8050    10.3430    10.8360    10.9310     8.6200   112.1400     2.4920    -0.0030
