~VERSION INFORMATION
 VERS.                2.0:   CWLS LOG ASCII STANDARD - VERSION 2.0
 WRAP.                 NO:   ONE LINE PER DEPTH STEP
~WELL INFORMATION
#MNEM.UNIT      DATA TYPE    INFORMATION
#----------   ------------   ------------------------------
 STRT.F          330.0000:   START DEPTH
 STOP.F         2880.0000:   STOP DEPTH
 STEP.F            0.5000:   STEP LENGTH
 NULL.          -999.2500:   NO VALUE
 COMP.   TESORO PETROLEUM:   COMPANY
 WELL. TESORO NPR "AX" #3-21:   WELL
 FLD .        TEAPOT DOME:   FIELD
 LOC .      S21 T39N R78W:   LOCATION
 CNTY.            NATRONA:   COUNTY
 STAT.            WYOMING:   STATE
 CTRY. UNITED STATES OF AMERICA:   COUNTRY
 SRVC.       SCHLUMBERGER:   SERVICE COMPANY
 DATE.        17-AUG-1972:   LOGDATE
 API .     49025102150000:   API NUMBER
~CURVE INFORMATION
#MNEM.UNIT       API CODE    CURVE DESCRIPTION
#----------   ------------   ------------------------------
 DEPT.F                  :   
 GRD .GAPI   45 310 01 00:   GAMMA RAY FROM DENSITY LOG
 CALD.IN     45 280 60 00:   CALIPER FROM DENSITY LOG
 CORR.G/C3   45 356 01 00:   DENSITY CORRECTION
 RHOB.G/C3   45 350 01 00:   BULK DENSITY
 SPR .MV     05 010 01 00:   SPONTANEOUS POTENTIAL FROM RES.
 ILD .OHMM   05 120 46 00:   INDUCTION LOG DEEP
 ASN .OHMM   05 041 16 00:   AMPLIFIED SHORT NORMAL 16"
~PARAMETER INFORMATION
#MNEM.UNIT          VALUE    DESCRIPTION
#----------   ------------   ------------------------------
 EKB .F         4985.0000:   Kelly bushing
 EGL .F         4975.0000:   Ground level
 EDF .F            0.0000:   Drilling floor
 EPD .F         4975.0000:   Permanent datum
 TD  .F         2880.0000:   Total depth
 CLNT.            A2DTECH:   Client Code
 DATE.        17-AUG-1972:   Date Logged [DD-MMM-YYYY]
 DD  .F              2875:   Depth driller
 DL  .F              2880:   Depth logger
 BLI .F              2879:   Bottom log interval
 TLI .F               330:   Top log interval
 CS1 .              10.75:   Casing size
 CBD1.       10.75" @ 327:   Casing driller 1
 CBL1.IN              330:   Casing logger 1
 BS1 .IN                9:   Bit size
 BSD1.F              2875:   Depth drilled with bit1
 DFT .           CHEM-GEL:   Type fluid in hole
 DFD .                9.3:   Density
 DFV .                 61:   Viscosity
 DFPH.                9.0:   pH
 DFL .                 66:   Fluid loss
 MSS .           FLOWLINE:   Source of sample
 RMS .OHMM           1.86:   Rm
 MST .F                76:   Rm Meas. temp.
 RMF .OHMM           1.58:   Rmf
 MFST.F                76:   Rmf Meas. temp.
 MFSS.               MEAS:   Source Rmf.
 RMB .OHMM           1.25:   Rm. at BHT
 BHT .F               113:   BHT.
 TCS .HRS               3:   Time Circ. stopped
 MRT .F               113:   Maximum recorded temp.
 LUN .               7037:   Logging unit number
 LUL .               CSPR:   Logging unit location
 ENGI.              GOLAS:   Recorded By
 WITN.                MAY:   Witnessed by
 ORIG.      1" 2.5" PRINT:   Origin of data
 UWI .     49025102150000:   Unique Well ID
 DICO. A2D TECHNOLOGIES, INC.:   Digitizing Company
~OTHER INFORMATION
~A   DEPT      GRD       CALD       CORR       RHOB        SPR          ILD        ASN 
# ...
 2650.5000   131.4295     9.1479    -0.0015     2.5120   -13.7848     5.5556     7.1955
 2651.0000   130.5121     9.1476    -0.0015     2.5061   -13.7937     5.5556     7.3152
 2651.5000   129.5947     9.1472     0.0001     2.5080   -13.8014     5.5556     7.3442
 2652.0000   130.5235     9.1469     0.0032     2.5256   -13.8091     5.5556     7.3445
 2652.5000   131.9138     9.1466     0.0063     2.5362   -13.8167     5.5556     7.3389
 2653.0000   132.8425     9.1463     0.0032     2.5212   -13.5139     5.4012     7.2221
 2653.5000   132.8691     9.1460    -0.0013     2.5138   -13.5225     5.2455     7.0898
 2654.0000   131.0078     9.1457     0.0098     2.5228   -13.5302     5.0876     6.8741
 2654.5000   129.1555     9.1454     0.0146     2.5245   -13.5379     4.9383     6.6540
 2655.0000   127.2885     9.1451     0.0226     2.5244   -13.2359     4.9383     6.6298
 2655.5000   125.9479     9.1447     0.0369     2.5679   -13.2436     4.9383     6.6433
 2656.0000   127.3846     9.1444     0.0482     2.5799   -13.2513     4.9383     6.7570
 2656.5000   128.7887     9.1441     0.0444     2.5410   -13.2590     4.9383     6.7800
 2657.0000   129.1957     9.1438     0.0284     2.5201   -13.2666     4.9383     6.7421
 2657.5000   127.7305     9.1435     0.0267     2.5291   -13.2743     4.9383     6.7209
 2658.0000   126.8994     9.1432     0.0210     2.5172   -13.2820     4.9383     6.7606
 2658.5000   127.7087     9.1429     0.0081     2.5083   -13.2897     4.9383     6.8510
 2659.0000   129.9348     9.1426     0.0067     2.5053   -13.2973     4.9383     6.9522
 2659.5000   131.6731     9.1422     0.0264     2.5218   -12.9954     4.9383     6.9907
 2660.0000   131.3848     9.1419     0.0360     2.5368   -13.0031     4.9898     6.9791
 2660.5000   130.6201     9.1416     0.0254     2.5384   -13.0109     5.0926     6.8892
 2661.0000   131.2692     9.1413     0.0068     2.5063   -13.0185     5.0926     6.8424
 2661.5000   132.6729     9.1410    -0.0008     2.4906   -13.0263     5.1556     6.8427
 2662.0000   135.4153     9.1407     0.0090     2.5126   -13.0341     5.2469     6.8728
 2662.5000   136.1827     9.1404     0.0162     2.5258   -13.0162     5.2469     6.8881
 2663.0000   135.2576     9.1401     0.0178     2.5311   -12.7396     5.2469     6.9785
 2663.5000   133.8517     9.1404     0.0101     2.5038   -12.7477     5.2469     6.9932
 2664.0000   132.2463     9.1704     0.0163     2.5091   -12.7554     5.2469     6.9935
 2664.5000   131.1300     9.1701     0.0198     2.5103   -12.7632     5.0926     6.9937
 2665.0000   131.1357     9.1698     0.0117     2.5083   -12.7709     5.0926     6.9941
 2665.5000   132.0644     9.1695     0.0115     2.5029   -12.7786     4.9383     6.9944
 2666.0000   130.6855     9.1692     0.0180     2.5185   -12.7864     4.9383     6.9947
 2666.5000   126.9989     9.1689     0.0230     2.5355   -12.7941     4.9383     6.9950
 2667.0000   125.1584     9.1686     0.0072     2.5181   -12.8019     4.9383     6.9356
 2667.5000   124.7019     9.1767     0.0026     2.5008   -12.8096     4.7840     6.8463
 2668.0000   126.5544     9.1988     0.0042     2.5018   -12.8173     4.6296     6.7272
 2668.5000   131.6370     9.1985     0.0135     2.5115   -12.8251     4.6296     6.6379
 2669.0000   134.8735     9.1982     0.0012     2.5107   -12.9258     4.6296     6.5188
 2669.5000   134.8792     9.1978     0.0170     2.5302   -13.2483     4.6296     6.4621
 2670.0000   134.8849     9.2109     0.0287     2.5527   -13.4675     4.6296     6.3978
 2670.5000   136.7367     9.2281     0.0476     2.5138   -13.7848     4.4753     6.3335
 2671.0000   138.5885     9.2278     0.0170     2.4974   -14.1022     4.4753     6.2692
 2671.5000   140.4404     9.2274     0.0106     2.5154   -13.9912     4.4753     6.2049
 2672.0000   140.9076     9.2271     0.0137     2.5095   -13.4969     4.3210     6.1406
 2672.5000   139.4704     9.2268    -0.0006     2.4915   -13.3772     4.3210     6.0731
 2673.0000   138.1497     9.2265    -0.0052     2.4931   -13.2043     4.3210     6.0436
 2673.5000   138.6727     9.2262    -0.0088     2.4901   -13.2121     4.3210     6.0439
 2674.0000   140.0077     9.2259    -0.0077     2.4795   -13.3641     4.3210     6.0442
 2674.5000   136.9145     9.1947     0.0030     2.5052   -13.5371     4.3210     6.0445
 2675.0000   134.2887     9.1944     0.0171     2.5067   -13.6995     4.3210     6.1045
 2675.5000   133.1012     9.1632     0.0337     2.5083   -13.8622     4.3378     6.1657
 2676.0000   132.6454     9.1321     0.0463     2.4987   -14.0350     4.4753     6.2854
 2676.5000   132.0539     9.0700     0.0674     2.4874   -14.1873     4.6296     6.3478
 2677.0000   131.2722     8.9463     0.0910     2.5094   -14.1951     4.6579     6.4090
 2677.5000   130.4904     8.6682     0.1031     2.5159   -14.0222     4.8162     6.5269
 2678.0000   128.9079     8.5735     0.0789     2.4501   -13.9009     4.9383     6.6173
 2678.5000   125.4523     8.6985     0.0805     2.4829   -13.5990     4.9383     6.6737
 2679.0000   121.7117     8.8527     0.0851     2.5087   -13.2986     5.0926     6.7087
 2679.5000   119.7635     9.0087     0.0856     2.5161   -12.9954     5.1402     6.7340
 2680.0000   121.2575     9.1317     0.0559     2.5132   -12.6935     5.2469     6.7403
 2680.5000   121.7585     9.1632     0.0389     2.4996   -12.3917     5.3022     6.7710
 2681.0000   124.1182     9.1908     0.0235     2.4917   -12.4005     5.4012     6.9199
 2681.5000   127.7473     9.1905     0.0174     2.5189   -12.4082     5.4642     7.2294
 2682.0000   130.3279     9.1902     0.0220     2.5300   -12.4159     5.5556     7.6048
 2682.5000   127.5073     9.1898     0.0224     2.5082   -12.4236     5.4848     7.7299
 2683.0000   126.3301     9.1895     0.0188     2.5287   -12.7408     5.3266     7.7809
 2683.5000   128.7051     9.1892     0.0499     2.5551   -13.0581     5.1685     7.7113
 2684.0000   129.3111     9.1889     0.0654     2.5629   -13.0658     4.9383     7.5403
 2684.5000   130.4383     9.1886     0.0344     2.5241   -13.0735     4.9383     7.1610
 2685.0000   128.5180     9.1883     0.0252     2.5106   -13.0811     4.6939     6.6059
 2685.5000   129.0639     9.1880     0.0186     2.5032   -12.7792     4.6296     6.2522
 2686.0000   134.2820     9.1877     0.0048     2.4898   -12.7869     4.4753     6.0717
 2686.5000   135.5910     9.1874    -0.0024     2.4853   -12.7946     4.4753     5.9621
 2687.0000   132.5900     9.1870     0.0059     2.4899   -12.8022     4.6296     6.0221
 2687.5000   130.5759     9.1867     0.0119     2.4914   -12.8099     4.6296     6.0523
 2688.0000   129.0120     9.1864     0.0166     2.4916   -12.8176     4.7840     6.1720
 2688.5000   127.2231     9.1861     0.0155     2.4870   -12.5155     4.9383     6.3812
 2689.0000   125.2589     9.1857     0.0112     2.4900   -12.5233     5.2469     6.6502
 2689.5000   124.3828     9.1854     0.0101     2.4991   -12.5310     5.4012     6.9191
 2690.0000   122.1594     9.1543     0.0159     2.5081   -12.5387     5.5556     7.2179
 2690.5000   120.3851     9.1540     0.0195     2.5129   -12.5465     5.5556     7.2779
 2691.0000   123.1017     9.1537     0.0195     2.5201   -12.5542     5.5556     7.2782
 2691.5000   121.7765     9.1534     0.0274     2.5187   -12.5619     5.7099     7.3084
 2692.0000   120.4513     9.1531     0.0234     2.5217   -12.5697     5.7099     7.3389
 2692.5000   120.0224     9.1836     0.0312     2.5203   -12.5774     5.7099     7.3985
 2693.0000   121.3937     9.1833     0.0272     2.5284   -12.5852     5.7099     7.3626
 2693.5000   124.1104     9.1521     0.0243     2.5338   -12.5929     5.5529     7.1516
 2694.0000   127.2762     9.1518     0.0259     2.5290   -12.6006     4.9279     6.9080
 2694.5000   128.2109     9.1515     0.0228     2.5222   -12.6084     4.3120     6.5368
 2695.0000   127.3204     9.1512     0.0136     2.5170   -12.6677     3.9867     6.0328
 2695.5000   131.4758     9.1509     0.0152     2.5092   -12.9334     3.6869     5.5429
