~VERSION INFORMATION
 VERS.                2.0:   CWLS LOG ASCII STANDARD - VERSION 2.0
 WRAP.                 NO:   ONE LINE PER DEPTH STEP
~WELL INFORMATION
#MNEM.UNIT      DATA TYPE    INFORMATION
#----------   ------------   ------------------------------
 STRT.F           57.0000:   START DEPTH
 STOP.F         5817.0000:   STOP DEPTH
 STEP.F            0.5000:   STEP LENGTH
 NULL.          -999.2500:   NO VALUE
 COMP. DEPARTMENT OF ENERGY:   COMPANY
 WELL. DEPARTMENT NPR 371 "X" #1-4:   WELL
 FLD .              NPR-3:   FIELD
 LOC .       S4 T38N R78W:   LOCATION
 CNTY.            NATRONA:   COUNTY
 STAT.            WYOMING:   STATE
 CTRY. UNITED STATES OF AMERICA:   COUNTRY
 SRVC.       SCHLUMBERGER:   SERVICE COMPANY
 DATE.        25-AUG-2002:   LOGDATE
 API .     49025230480000:   API NUMBER
~CURVE INFORMATION
#MNEM.UNIT       API CODE    CURVE DESCRIPTION
#----------   ------------   ------------------------------
 DEPT.F                  :   
 HCAL.IN     07 280 01 00:   HRLT CALIPER
 RLA1.OHMM   06 120 01 00:   HRLT RESISTIVITY 1
 RLA2.OHMM   06 120 02 00:   HRLT RESISTIVITY 2
 RLA3.OHMM   06 120 03 00:   HRLT RESISTIVITY 3
 RXOZ.OHMM   06 270 04 00:   STAN RES. MICROCFL RESISTIVITY
 TENR.LBS    06 635 01 00:   TENSION FROM RESITIVITY
 GRR .GAPI   07 310 01 00:   GAMMA RAY FROM RESISTIVITY
 SPHI.DEC    60 890 22 00:   SONIC POROSITY SANDSTONE
 DT  .US/F   60 520 00 00:   DELTA TIME
 TENS.LBS    60 635 01 00:   TENSION FROM SONIC
 RT  .OHMM   06 120 00 00:   HRLT TRUE RESISTIVITY
~PARAMETER INFORMATION
#MNEM.UNIT          VALUE    DESCRIPTION
#----------   ------------   ------------------------------
 EKB .F         5196.0000:   Kelly bushing
 EGL .F         5186.0000:   Ground level
 EDF .F         5194.0000:   Drilling floor
 TD  .F         5803.0000:   Total depth
 CLNT.            A2DTECH:   Client Code
 SL  . 794' FEL & 333' FNL:   Surface Location
 PD  .                 GL:   Permanent Datum
 EPD .F              5186:   Elevation Permanent Datum
 LMF .                 KB:   Log Measured From
 DMF .                 KB:   Drilling Measured From
 DAPD.F                10:   Feet Above Permanent Datum
 DATE.        25-AUG-2002:   Date Logged [DD-MMM-YYYY]
 DD  .F              5800:   Depth driller
 DL  .F              5803:   Depth logger
 BLI .F              5803:   Bottom log interval
 TLI .F               656:   Top log interval
 CS1 .IN            9.625:   Casing size
 CBD1.      9.625" @ 660':   Casing driller 1
 CBL1.F               656:   Casing logger 1
 BS1 .IN            8.750:   Bit size
 BSD1.F              5800:   Depth drilled with bit1
 DFT .           GEL CHEM:   Type fluid in hole
 DFD .                  9:   Density
 DFV .                 36:   Viscosity
 DFPH.                8.5:   pH
 DFL .                7.6:   Fluid loss
 MSS .           FLOWLINE:   Source of sample
 RMS .OHMM          0.846:   Rm
 MST .F                90:   Rm Meas. temp.
 RMF .OHMM          0.670:   Rmf
 MFST.F                90:   Rmf Meas. temp.
 MFSS.               MEAS:   Source Rmf.
 RMC .OHMM          1.075:   Rmc
 MCST.F                90:   Rmc Meas. temp.
 MCSS.               CALC:   Source Rmc.
 TCS .HRS            0300:   Time Circ. stopped
 TLAB.HRS            0915:   Time logger at bottom
 MRT .F               156:   Maximum recorded temp.
 LUN .               2211:   Logging unit number
 LUL .             CASPER:   Logging unit location
 ENGI.        J.L. FLORES:   Recorded By
 WITN.        STEVE HARDY:   Witnessed by
 ORIG.        2" 5" PRINT:   Origin of data
 UWI .     49025230480000:   Unique Well ID
 DICO. A2D TECHNOLOGIES, INC.:   Digitizing Company
~OTHER INFORMATION
~A   DEPT     HCAL       RLA1       RLA2       RLA3       RXOZ       TENR         GRR      SPHI         DT       TENS         RT   
# ...
  667.0000     9.7397     4.7366     5.0520     5.2427     3.9288  1033.3334   102.6435  -999.2500   101.3070   692.4454     5.2537
  667.5000    10.1310     3.9836     5.1576     5.3895     1.8342  1033.3334    99.4713  -999.2500   102.4376   692.0180     5.3262
  668.0000    10.2964     5.4780     6.1313     7.9423     1.5641  1033.3334    97.4320  -999.2500   106.4845   691.5035     6.5089
  668.5000     9.8291     6.4685     6.6617     9.1214     1.9253  1033.3334    95.3927  -999.2500   110.9628   706.2497     8.7616
  669.0000     9.6482     6.6964     6.7541     9.0579     3.4925  1033.3334    94.4864  -999.2500   112.3957   690.6626     9.4555
  669.5000     9.6478     6.6964     6.9913     8.5100     5.3654  1033.3334    92.6737  -999.2500   111.8656   690.1428     8.9449
  670.0000     9.6325     6.7429     7.2370     8.6281     5.7501  1033.3334    96.2991  -999.2500   107.9394   689.7241     8.5208
  670.5000     9.6473     6.7898     7.5432     9.1189     5.7901  1033.3334   100.4530  -999.2500   102.5040   689.3055     8.8194
  671.0000     9.6620     7.1270     7.7544     9.1184     5.9527  1033.3334   103.7764  -999.2500   100.6158   688.7821     9.1288
  671.5000     9.6617     7.3272     7.7538     9.5705     6.2918  1033.3334    98.5650  -999.2500   100.3880   688.3635     9.4487
  672.0000     9.6614     7.4294     7.7533     9.7034     6.3831  1033.3334    98.5650  -999.2500   100.4621   703.0051     9.6457
  672.5000     9.6611     7.5330     7.7527     9.7702     6.3355  1033.3334    98.5650  -999.2500   100.2339   702.4817     9.7789
  673.0000     9.6457     7.7446     7.7523     9.9057     6.4685  1033.3334    98.5650  -999.2500    99.7716   702.0630     9.8456
  673.5000     9.6454     7.7446     7.8598     9.9050     6.6502  1033.3334    99.0181  -999.2500    99.0987   701.6566     9.8438
  674.0000     9.6452     7.7446     7.9687     9.9044     6.7429  1033.3334    99.2447  -999.2500    98.5690   701.1210     9.9800
  674.5000     9.6448     7.8526     8.0793     9.9036     6.8370  1033.3334   100.8308  -999.2500    97.9598   700.7024    10.0478
  675.0000     9.6445     7.8526     8.1914     9.9030     6.8845  1033.3334    97.4320  -999.2500    97.5092   715.4486    10.0462
  675.5000     9.6442     7.8526     8.1906     9.9022     6.9805  1033.3334    95.8459  -999.2500    97.3568   714.9096     9.9754
  676.0000     9.7042     7.8526     8.1901     9.9016     6.9311  1033.3334    96.5257  -999.2500    97.2045   714.4020     9.8371
  676.5000     9.7641     7.8526     8.2465     9.7647     6.8370  1033.3334    95.3927  -999.2500    97.3537   713.9833     9.7680
  677.0000     9.7789     7.9621     8.3032     9.7641     6.8370  1033.3334    94.0332  -999.2500    97.6542   713.5541     9.6991
  677.5000     9.7785     8.0732     8.3025     9.8997     6.9323  1033.3334    99.2447  -999.2500    97.8038   713.0413     9.7653
  678.0000     9.7632     8.2427     8.3020     9.8989     7.0290  1033.3334   101.0574  -999.2500    97.8778   697.5624     9.8319
  678.5000     9.7629     8.2999     8.4170     9.8981     7.0779  1033.3334   109.4411  -999.2500    97.8006   697.1385     9.8986
  679.0000     9.7174     8.4157     8.4165     9.8975     7.1270  1033.3334   104.9094  -999.2500    97.4973   696.6867    10.0353
  679.5000     9.7021     8.4157     8.4743    10.0348     7.1270  1033.3334   101.5106  -999.2500    96.8780   696.2017    10.1034
  680.0000     9.6566     8.2427     8.5327    10.0342     7.1270  1033.3334   101.2840  -999.2500    96.0602   710.8433    10.0267
  680.5000     9.6563     8.0732     8.5319    10.0334     7.1270  1033.3334   105.5891  -999.2500    96.1342   725.3802     9.8771
  681.0000     9.6409     7.9072     8.5314     9.8893     7.0290  1033.3334   108.3082  -999.2500    96.7387   709.9014     9.6885
  681.5000     9.6406     8.1293     8.4135     9.4913     7.0290  1033.3334   104.9094  -999.2500    97.7915   709.4827     9.1653
  682.0000     9.6403     8.1858     8.1269     8.7778     7.0290  1033.3334   101.7372  -999.2500    98.5448   693.9759     8.6109
  682.5000     9.6249     7.5330     7.6356     7.9814     6.9805  1033.3334   100.1511  -999.2500    98.8453   693.4805     7.5488
  683.0000     9.6096     7.3272     7.4267     7.6032     6.8370  1033.3334   104.0030  -999.2500    99.0038   693.0618     7.3928
  683.5000     9.5792     7.2264     7.3241     7.4981     6.6964  1033.3334   106.9486  -999.2500    99.2195   692.5385     7.3917
  684.0000     9.5789     7.1270     7.3745     7.4975     6.3795  1033.3334   101.2840  -999.2500    99.4445   692.1198     7.4423
  684.5000     9.5711     7.2264     7.4252     7.4971     6.1199  1033.3334    99.0181  -999.2500    99.8956   706.8660     7.5487
  685.0000     9.5482     7.1270     7.4247     7.7606     5.9527  1033.3334    99.4713  -999.2500   100.2715   721.4030     7.6490
  685.5000     9.5328     7.3272     7.5277     7.9232     6.1199  1033.3334   101.0574  -999.2500   100.3459   720.8796     7.7544
  686.0000     9.5476     7.5330     7.5794     7.9224     6.2918  1033.3334   100.8308  -999.2500   100.1932   720.4610     7.8615
  686.5000     9.5472     7.5330     7.5265     7.8130     6.4685  1033.3334    99.2447  -999.2500    99.5877   720.0301     7.9149
  687.0000     9.5621     7.3272     7.4741     7.5990     6.2918  1033.3334    98.5650  -999.2500    99.3599   704.4587     7.8049
  687.5000     9.5467     7.1270     7.4220     7.5460     6.2918  1033.3334    98.1118  -999.2500    99.5849   688.9799     7.6967
  688.0000     9.5615     7.2264     7.5250     7.7040     6.3355  1033.3334    97.6586  -999.2500    99.8096   688.5541     7.6424
  688.5000     9.5762     7.3272     7.5767     7.9199     6.3795  1033.3334    97.2054  -999.2500    99.6572   688.0378     7.5887
  689.0000     9.5758     7.6381     7.6288     8.0855     6.5135  1033.3334    99.9245  -999.2500    99.2785   702.6794     7.6405
  689.5000     9.5907     7.6381     7.6813     7.9737     6.6502  1033.3334    97.4320  -999.2500    98.6729   702.2590     7.7996
  690.0000     9.5903     7.5330     7.6278     7.8091     6.8370  1033.3334    95.3927  -999.2500    98.4451   701.8072     7.7446
  690.5000     9.6052     7.3272     7.4190     7.7013     6.8411  1033.3285    94.4864  -999.2500    98.3682   716.4837     7.5845
  691.0000     9.6047     7.0779     7.4185     7.8623     6.6043  1033.3209    97.2054  -999.2500    98.3665   715.7139     7.5313
  691.5000     9.6196     6.9805     7.5214     7.9166     6.8370  1033.2814   100.8308  -999.2500    98.3651   715.4370     7.5824
  692.0000     9.6192     7.0290     7.6257     7.8612     6.8370  1038.4601    98.1118  -999.2500    98.2127   715.0183     7.6341
  692.5000     9.6189     7.0290     7.4169     7.8065     6.6502  1053.8967    97.6586  -999.2500    98.0604   714.5997     7.6329
  693.0000     9.6338     7.1270     7.4164     7.8059     6.6043  1069.3334    96.2991  -999.2500    98.1341   714.0764     7.5793
  693.5000     9.6334     7.3272     7.4674     7.8054     6.5587  1084.7699    96.9789  -999.2500    98.3595   713.6577     7.4740
  694.0000     9.6180     7.3272     7.6235     7.9687     6.5135  1100.2065    97.4320  -999.2500    98.5841   713.2390     7.5772
  694.5000     9.6177     7.4294     7.8369     8.1356     6.6502  1115.6432    97.2054  -999.2500    98.3560   712.7157     7.7889
  695.0000     9.6024     7.6381     7.9456     8.2484     6.8370  1131.0798    95.6193  -999.2500    97.7508   712.2971     8.0063
  695.5000     9.5870     7.9621     8.1118     8.1343     7.0290  1146.5165   101.7372  -999.2500    97.1456   711.8784     8.1168
  696.0000     9.5716     7.8526     8.1675     7.9115     7.0290  1161.9530   105.5891  -999.2500    96.3892   711.4457     8.1722
  696.5000     9.5713     7.5330     7.9439     7.8022     6.8370  1177.3896   106.0423  -999.2500    96.2368   710.9364     8.0028
  697.0000     9.5710     7.5330     7.6204     7.8559     6.6964  1192.8304    95.1662  -999.2500    96.2354   710.5178     7.8374
