~VERSION INFORMATION
 VERS.                2.0:   CWLS LOG ASCII STANDARD - VERSION 2.0
 WRAP.                 NO:   ONE LINE PER DEPTH STEP
~WELL INFORMATION
#MNEM.UNIT      DATA TYPE    INFORMATION
#----------   ------------   ------------------------------
 STRT.F           40.0000:   START DEPTH
 STOP.F         3326.0000:   STOP DEPTH
 STEP.F            0.5000:   STEP LENGTH
 NULL.          -999.2500:   NO VALUE
 COMP.    FENIX & SCISSON:   COMPANY
 WELL.  FENIX "AX" #53-15:   WELL
 FLD .              NPR-3:   FIELD
 LOC .      S15 T38N R78W:   LOCATION
 CNTY.            NATRONA:   COUNTY
 STAT.            WYOMING:   STATE
 CTRY. UNITED STATES OF AMERICA:   COUNTRY
 SRVC.              WELEX:   SERVICE COMPANY
 DATE.        02-MAR-1977:   LOGDATE
 API .     49025102640000:   API NUMBER
~CURVE INFORMATION
#MNEM.UNIT       API CODE    CURVE DESCRIPTION
#----------   ------------   ------------------------------
 DEPT.F                  :   
 CALD.IN     42 280 60 00:   CALIPER
 TEND.LBS    42 635 01 00:   TENSION FROM NEUTRON POROSITY LOG
 GRD .GAPI   42 310 30 00:   GAMMA RAY
 NPHI.DEC    42 890 03 00:   NEUTRON POROSITY SANDSTONE
 DPHI.DEC    45 890 12 00:   DENSITY POROSITY SANDSTONE
 SPR .MV     07 010 01 00:   SPONTANEOUS POTENTIAL
 ILD .OHMM   07 120 46 00:   DEEP INDUCTION RESISTIVITY
 ILM .OHMM   07 120 44 00:   INDUCTION LOG MEDIUM RESISTIVITY
 SGRD.OHMM   07 220 05 00:   SHALLOW SHORT GUARD RESISTIVITY
~PARAMETER INFORMATION
#MNEM.UNIT          VALUE    DESCRIPTION
#----------   ------------   ------------------------------
 EKB .F            0.0000:   Kelly bushing
 EGL .F         5251.0000:   Ground level
 EDF .F            0.0000:   Drilling floor
 TD  .F          750.0000:   Total depth
 DATE.        02-MAR-1977:   Date logged
 CLNT.            A2DTECH:   Client Code
 SL  . 1650' FNL & 2360' FEL:   Surface Location
 PD  .                 GL:   Permanent Datum
 EPD .F              5253:   Elevation Permanent Datum
 LMF .                 GL:   Log Measured From
 DMF .                 GL:   Drilling Measured From
 DD  .F               750:   Depth driller
 DL  .F               747:   Depth logger
 BLI .F               745:   Bottom log interval
 CS1 .IN            8.625:   Casing size
 CBD1.       8.625" @ 40':   Casing driller 1
 CBL1.F                44:   Casing logger 1
 BS1 .IN            7.875:   Bit size
 BSD1.F               750:   Depth drilled with bit1
 DFT .           CHEM-GEL:   Type fluid in hole
 MSS .           FLOWLINE:   Source of sample
 RMS .OHMM          0.425:   Rm
 MST .F                56:   Rm Meas. temp.
 RMF .OHMM          0.466:   Rmf
 MFST.F                56:   Rmf Meas. temp.
 RMC .OHMM          0.712:   Rmc
 MCST.F                56:   Rmc Meas. temp.
 MFSS.               MEAS:   Source Rmf.
 MCSS.               MEAS:   Source Rmc.
 RMB .OHMM          0.350:   Rm. at BHT
 BHT .F                68:   BHT.
 TCS .HRS               2:   Time Circ. stopped
 MRT .F                68:   Maximum recorded temp.
 LUN .               8611:   Logging unit number
 LUL .            GILLETH:   Logging unit location
 ENGI.          D. LAWSON:   Recorded By
 WITN.           S. BURKL:   Witnessed by
 ORIG.           5" PRINT:   Origin of data
 UWI .     49025102640000:   Unique Well ID
 DICO. A2D TECHNOLOGIES, INC.:   Digitizing Company
~OTHER INFORMATION
~A   DEPT     CALD       TEND         GRD        NPHI     DPHI        SPR        ILD        ILM       SGRD   
# ...
 3252.0000     7.6940   236.7270   139.6580     0.2440     0.1140  -999.2500  -999.2500  -999.2500  -999.2500
 3252.5000     7.6940   238.0180   138.6780     0.2570     0.1170  -999.2500  -999.2500  -999.2500  -999.2500
 3253.0000     7.6930   239.3090   130.5090     0.2590     0.1140  -999.2500  -999.2500  -999.2500  -999.2500
 3253.5000     7.6930   240.6000   124.1920     0.2590     0.1100  -999.2500  -999.2500  -999.2500  -999.2500
 3254.0000     7.6920   241.8910   127.2560     0.2550     0.1050  -999.2500  -999.2500  -999.2500  -999.2500
 3254.5000     7.6910   243.1820   121.1670     0.2500     0.1000  -999.2500  -999.2500  -999.2500  -999.2500
 3255.0000     7.6910   244.4730   123.0980     0.2480     0.1060  -999.2500  -999.2500  -999.2500  -999.2500
 3255.5000     7.6900   245.7640   133.6720     0.2540     0.1100  -999.2500  -999.2500  -999.2500  -999.2500
 3256.0000     7.6900   247.0560   125.7820     0.2650     0.1120  -999.2500  -999.2500  -999.2500  -999.2500
 3256.5000     7.6900   248.3470   116.9670     0.2690     0.1120  -999.2500  -999.2500  -999.2500  -999.2500
 3257.0000     7.6900   249.6380   125.4560     0.2610     0.1080  -999.2500  -999.2500  -999.2500  -999.2500
 3257.5000     7.6900   250.9290   134.6250     0.2570     0.1030  -999.2500  -999.2500  -999.2500  -999.2500
 3258.0000     7.6900   252.2200   128.3600     0.2540     0.0870  -999.2500  -999.2500  -999.2500  -999.2500
 3258.5000     7.6900   253.5110   133.9470     0.2540     0.0890  -999.2500  -999.2500  -999.2500  -999.2500
 3259.0000     7.6900   254.7450   137.8560     0.2580     0.0940  -999.2500  -999.2500  -999.2500  -999.2500
 3259.5000     7.6900   258.7870   141.6500     0.2660     0.0990  -999.2500  -999.2500  -999.2500  -999.2500
 3260.0000     7.6900   262.6600   132.3450     0.2680     0.1040  -999.2500  -999.2500  -999.2500  -999.2500
 3260.5000     7.6900   274.7250   133.8130     0.2710     0.1140  -999.2500  -999.2500  -999.2500  -999.2500
 3261.0000     7.6900   273.2160   136.4250     0.2710     0.1090  -999.2500  -999.2500  -999.2500  -999.2500
 3261.5000     7.6900   271.4800   138.5650     0.2680     0.1020  -999.2500  -999.2500  -999.2500  -999.2500
 3262.0000     7.6900   269.7440   140.3590     0.2640     0.0970  -999.2500  -999.2500  -999.2500  -999.2500
 3262.5000     7.6900   268.0080   138.0340     0.2580     0.0890  -999.2500  -999.2500  -999.2500  -999.2500
 3263.0000     7.6900   266.2720   139.2450     0.2530     0.0890  -999.2500  -999.2500  -999.2500  -999.2500
 3263.5000     7.6900   265.8940   133.6090     0.2500     0.0900  -999.2500  -999.2500  -999.2500  -999.2500
 3264.0000     7.6900   275.9640   126.6130     0.2480     0.0940  -999.2500  -999.2500  -999.2500  -999.2500
 3264.5000     7.6900   284.7150   130.3980     0.2390     0.0940  -999.2500  -999.2500  -999.2500  -999.2500
 3265.0000     7.6900   284.7150   140.5900     0.2290     0.0990  -999.2500  -999.2500  -999.2500  -999.2500
 3265.5000     7.6900   284.7150   139.2880     0.2280     0.1050  -999.2500  -999.2500  -999.2500  -999.2500
 3266.0000     7.6900   284.7150   141.6910     0.2390     0.1060  -999.2500  -999.2500  -999.2500  -999.2500
 3266.5000     7.6900   284.7150   141.4800     0.2510     0.1140  -999.2500  -999.2500  -999.2500  -999.2500
 3267.0000     7.6900   289.8570   141.7050     0.2530     0.1180  -999.2500  -999.2500  -999.2500  -999.2500
 3267.5000     7.6900   296.5700   141.3900     0.2610     0.1150  -999.2500  -999.2500  -999.2500  -999.2500
 3268.0000     7.6900   303.2830   137.7520     0.2720     0.1080  -999.2500  -999.2500  -999.2500  -999.2500
 3268.5000     7.6900   304.6950   133.4490     0.2830     0.1010  -999.2500  -999.2500  -999.2500  -999.2500
 3269.0000     7.6900   304.6950   134.9550     0.2850     0.1040  -999.2500  -999.2500  -999.2500  -999.2500
 3269.5000     7.6900   304.6950   141.3430     0.2730     0.1090  -999.2500  -999.2500  -999.2500  -999.2500
 3270.0000     7.6900   315.0180   138.3490     0.2630     0.1200  -999.2500  -999.2500  -999.2500  -999.2500
 3270.5000     7.6900   331.8020   133.2260     0.2610     0.1090  -999.2500  -999.2500  -999.2500  -999.2500
 3271.0000     7.6900   341.9250   129.5880     0.2600     0.1000  -999.2500  -999.2500  -999.2500  -999.2500
 3271.5000     7.6900   339.5370   135.8700     0.2580     0.1020  -999.2500  -999.2500  -999.2500  -999.2500
 3272.0000     7.6900   327.9180   142.3890     0.2550     0.1020  -999.2500  -999.2500  -999.2500  -999.2500
 3272.5000     7.6900   316.2990   135.4730     0.2610     0.1040  -999.2500  -999.2500  -999.2500  -999.2500
 3273.0000     7.6900   330.9440   137.3700     0.2700     0.1030  -999.2500  -999.2500  -999.2500  -999.2500
 3273.5000     7.6900   344.6550   147.6920     0.2760     0.1040  -999.2500  -999.2500  -999.2500  -999.2500
 3274.0000     7.6900   344.6550   141.0880     0.2790     0.1090  -999.2500  -999.2500  -999.2500  -999.2500
 3274.5000     7.6900   344.6550   144.8210     0.2920     0.1080  -999.2500  -999.2500  -999.2500  -999.2500
 3275.0000     7.6900   351.7540   152.3430     0.2990     0.1070  -999.2500  -999.2500  -999.2500  -999.2500
 3275.5000     7.6900   359.7030   148.0100     0.2990     0.1120  -999.2500  -999.2500  -999.2500  -999.2500
 3276.0000     7.6900   367.6530   145.9940     0.2980     0.1150  -999.2500  -999.2500  -999.2500  -999.2500
 3276.5000     7.6900   374.6250   143.2040     0.2990     0.1040  -999.2500  -999.2500  -999.2500  -999.2500
 3277.0000     7.6890   374.6250   149.6760     0.2990     0.1000  -999.2500  -999.2500  -999.2500  -999.2500
 3277.5000     7.6880   374.6250   146.9000     0.2950     0.1020  -999.2500  -999.2500  -999.2500  -999.2500
 3278.0000     7.6870   374.6250   141.0520     0.2950     0.1020  -999.2500  -999.2500  -999.2500  -999.2500
 3278.5000     7.6860   374.6250   149.5980     0.3050     0.1160  -999.2500  -999.2500  -999.2500  -999.2500
 3279.0000     7.6850   374.6250   151.0880     0.3130     0.1160  -999.2500  -999.2500  -999.2500  -999.2500
 3279.5000     7.6840   374.6250   147.2930     0.3140     0.1100  -999.2500  -999.2500  -999.2500  -999.2500
 3280.0000     7.6830   382.9740   148.8450     0.3140     0.1010  -999.2500  -999.2500  -999.2500  -999.2500
 3280.5000     7.6810   393.7630   144.6400     0.3140     0.0920  -999.2500  -999.2500  -999.2500  -999.2500
 3281.0000     7.6800   404.5950   148.2840     0.3180     0.0870  -999.2500  -999.2500  -999.2500  -999.2500
 3281.5000     7.6790   404.5950  -999.2500     0.3210     0.0990  -999.2500  -999.2500  -999.2500  -999.2500
 3282.0000     7.6780   400.7070  -999.2500     0.3190     0.1170  -999.2500  -999.2500  -999.2500  -999.2500
 3282.5000     7.6770   396.8340  -999.2500     0.3230     0.1150  -999.2500  -999.2500  -999.2500  -999.2500
 3283.0000     7.6760   394.6050  -999.2500     0.3290     0.1180  -999.2500  -999.2500  -999.2500  -999.2500
 3283.5000     7.6750   411.8550  -999.2500     0.3350     0.1160  -999.2500  -999.2500  -999.2500  -999.2500
 3284.0000     7.6740   428.6380  -999.2500     0.3420     0.1210  -999.2500  -999.2500  -999.2500  -999.2500
 3284.5000     7.6730   444.5550  -999.2500     0.3380     0.1410  -999.2500  -999.2500  -999.2500  -999.2500
 3285.0000     7.6720   436.0930  -999.2500     0.3320     0.1420  -999.2500  -999.2500  -999.2500  -999.2500
 3285.5000     7.6700   442.0170  -999.2500     0.3290     0.1350  -999.2500  -999.2500  -999.2500  -999.2500
 3286.0000     7.6690   447.9400  -999.2500     0.3310     0.1240  -999.2500  -999.2500  -999.2500  -999.2500
 3286.5000     7.6680   453.8640  -999.2500     0.3230     0.1200  -999.2500  -999.2500  -999.2500  -999.2500
 3287.0000     7.6670   459.8630  -999.2500     0.3190     0.1240  -999.2500  -999.2500  -999.2500  -999.2500
 3287.5000     7.6660   467.6090  -999.2500     0.3220     0.1290  -999.2500  -999.2500  -999.2500  -999.2500
 3288.0000     7.6650   474.9880  -999.2500     0.3140     0.1430  -999.2500  -999.2500  -999.2500  -999.2500
