~VERSION INFORMATION
 VERS.                2.0:   CWLS LOG ASCII STANDARD - VERSION 2.0
 WRAP.                 NO:   ONE LINE PER DEPTH STEP
~WELL INFORMATION
#MNEM.UNIT      DATA TYPE    INFORMATION
#----------   ------------   ------------------------------
 STRT.F           10.0000:   START DEPTH
 STOP.F         4008.0000:   STOP DEPTH
 STEP.F            0.5000:   STEP LENGTH
 NULL.          -999.2500:   NO VALUE
 COMP. LAWRENCE ALLISON & ASSOC.:   COMPANY
 WELL. LAWRENCE NPR 3 "AX" #75-28:   WELL
 FLD .                NPR:   FIELD
 LOC .      S28 T39N R78W:   LOCATION
 CNTY.            NATRONA:   COUNTY
 STAT.            WYOMING:   STATE
 CTRY. UNITED STATES OF AMERICA:   COUNTRY
 SRVC.      DRESSER ATLAS:   SERVICE COMPANY
 DATE.        28-APR-1983:   LOGDATE
 API .     49025109060000:   API NUMBER
~CURVE INFORMATION
#MNEM.UNIT       API CODE    CURVE DESCRIPTION
#----------   ------------   ------------------------------
 DEPT.F                  :   
 RHOB.G/C3   45 350 01 00:   BULK DENSITY
 CORR.G/C3   45 356 01 00:   DENSITY CORRECTION
 TEND.LBS    45 635 01 00:   TENSION FROM DENSITY LOG
 NPHI.DEC    42 890 03 00:   NEUTRON POROSITY SANDSTONE
 GRR .GAPI   07 310 01 00:   GAMMA RAY FROM RESISTIVITY
 CALR.IN     07 280 01 00:   CALIPER FROM RESISTIVITY
 RFOC.OHMM   07 220 01 00:   RESISTIVITY FOCUSED LOG RES.
 RILD.OHMM   07 120 46 00:   DEEP INDUCTION RESISTIVITY
 TENR.LBS    01 635 01 00:   TENSION FROM RES.
 RILM.OHMM   07 120 44 00:   INDUCTION LOG MEDIUM RESISTIVITY
 TENS.LBS    60 635 01 00:   TENSION FROM SONIC LOG
 DT  .US/F   60 520 00 00:   DELTA TIME
 SPR .MV     07 010 01 00:   SPONTANEOUS POTENTIAL
~PARAMETER INFORMATION
#MNEM.UNIT          VALUE    DESCRIPTION
#----------   ------------   ------------------------------
 EKB .F         5068.0000:   Kelly bushing
 EGL .F         5058.0000:   Ground level
 EDF .F            0.0000:   Drilling floor
 TD  .F         4003.0000:   Total depth
 DATE.        28-APR-1983:   Date logged
 CLNT.            A2DTECH:   Client Code
 SL  . 2100' FSL & 1050' FEL:   Surface Location
 PD  .                 GL:   Permanent Datum
 EPD .F              5058:   Elevation Permanent Datum
 LMF .                 KB:   Log Measured From
 DMF .                 KB:   Drilling Measured From
 DAPD.F                10:   Feet Above Permanent Datum
 DD  .F              4000:   Depth driller
 DL  .F              4003:   Depth logger
 BLI .F              4000:   Bottom log interval
 CS1 .IN            8.625:   Casing size
 CBD1.      8.625" @ 498':   Casing driller 1
 CBL1.F               497:   Casing logger 1
 BS1 .IN            7.875:   Bit size
 BSD1.F              4000:   Depth drilled with bit1
 DFT .            KCL/GEL:   Type fluid in hole
 DFD .                  9:   Density
 DFV .                 43:   Viscosity
 DFPH.                8.5:   pH
 DFL .               12.4:   Fluid loss
 MSS .           MUD/TANK:   Source of sample
 RMS .OHMM            .45:   Rm
 MST .F                43:   Rm Meas. temp.
 RMF .OHMM            .27:   Rmf
 MFST.F                51:   Rmf Meas. temp.
 RMC .OHMM            .56:   Rmc
 MCST.F                43:   Rmc Meas. temp.
 MFSS.               MEAS:   Source Rmf.
 MCSS.               CALC:   Source Rmc.
 RMB .OHMM            .16:   Rm. at BHT
 BHT .F               121:   BHT.
 TCS .HRS               7:   Time Circ. stopped
 MRT .F               121:   Maximum recorded temp.
 LUN .               6274:   Logging unit number
 LUL .               GLTE:   Logging unit location
 ENGI.            WACDELL:   Recorded By
 WITN.             STRONG:   Witnessed by
 ORIG.           5" PRINT:   Origin of data
 UWI .     49025109060000:   Unique Well ID
 DICO. A2D TECHNOLOGIES, INC.:   Digitizing Company
~OTHER INFORMATION
~A   DEPT     RHOB       CORR       TEND       NPHI         GRR      CALR       RFOC       RILD       TENR       RILM       TENS         DT        SPR   
# ...
 1206.0000  -999.2500  -999.2500  -999.2500  -999.2500   107.7030     8.8450     7.8590     8.4680   -79.6590     7.9030  -999.2500  -999.2500   -26.9070
 1206.5000  -999.2500  -999.2500  -999.2500  -999.2500    98.6810     8.8420     7.9470     8.5170   -79.6590     7.9440  -999.2500  -999.2500   -26.9460
 1207.0000  -999.2500  -999.2500  -999.2500  -999.2500    87.8000     8.8390     7.9470     8.5640   -79.6590     7.9750  -999.2500  -999.2500   -26.9850
 1207.5000  -999.2500  -999.2500  -999.2500  -999.2500    81.0800     8.8360     7.9470     8.5910   -79.6590     8.0230  -999.2500  -999.2500   -27.0250
 1208.0000  -999.2500  -999.2500  -999.2500  -999.2500    81.0120     8.8330     7.8760     8.6670   -79.6590     8.0630  -999.2500  -999.2500   -27.0640
 1208.5000  -999.2500  -999.2500  -999.2500  -999.2500    85.6290     8.8310     7.8310     8.7160   -79.6590     7.9470  -999.2500  -999.2500   -27.1030
 1209.0000  -999.2500  -999.2500  -999.2500  -999.2500    90.9000     8.8280     7.7860     8.5560   -79.6590     7.9280  -999.2500  -999.2500   -27.1420
 1209.5000  -999.2500  -999.2500  -999.2500  -999.2500    93.4150     8.8250     7.7410     8.5300   -79.6590     7.9030  -999.2500  -999.2500   -27.1820
 1210.0000  -999.2500  -999.2500  -999.2500  -999.2500    91.6770     8.8220     7.6960     8.5030   -79.6590     7.8790  -999.2500  -999.2500   -27.2220
 1210.5000  -999.2500  -999.2500  -999.2500  -999.2500    86.5440     8.8190     7.6510     8.4770   -79.6590     7.8540  -999.2500  -999.2500   -27.2620
 1211.0000  -999.2500  -999.2500  -999.2500  -999.2500    80.9550     8.8160     7.6060     8.4500   -79.6590     7.8300  -999.2500  -999.2500   -27.2990
 1211.5000  -999.2500  -999.2500  -999.2500  -999.2500    78.3240     8.8130     7.5610     8.4240   -79.6590     7.8020  -999.2500  -999.2500   -27.3370
 1212.0000  -999.2500  -999.2500  -999.2500  -999.2500    79.9840     8.8100     7.5190     8.4000   -79.6590     7.7990  -999.2500  -999.2500   -27.3780
 1212.5000  -999.2500  -999.2500  -999.2500  -999.2500    84.0230     8.8070     7.5190     8.3950   -79.6590     7.7940  -999.2500  -999.2500   -27.4220
 1213.0000  -999.2500  -999.2500  -999.2500  -999.2500    87.2050     8.8040     7.6220     8.3910   -79.6590     7.7900  -999.2500  -999.2500   -27.4640
 1213.5000  -999.2500  -999.2500  -999.2500  -999.2500    88.1470     8.8020     7.7020     8.3860   -79.6590     7.7860  -999.2500  -999.2500   -27.4970
 1214.0000  -999.2500  -999.2500  -999.2500  -999.2500    88.2150     8.7980     7.8020     8.3820   -79.6590     7.7820  -999.2500  -999.2500   -27.5130
 1214.5000  -999.2500  -999.2500  -999.2500  -999.2500    89.4180     8.7950     7.7950     8.3770   -79.6590     7.7780  -999.2500  -999.2500   -27.5150
 1215.0000  -999.2500  -999.2500  -999.2500  -999.2500    91.9590     8.7920     7.7860     8.3730   -79.6590     7.7740  -999.2500  -999.2500   -27.5110
 1215.5000  -999.2500  -999.2500  -999.2500  -999.2500    94.2750     8.7910     7.7770     8.3690   -79.6590     7.7700  -999.2500  -999.2500   -27.5090
 1216.0000  -999.2500  -999.2500  -999.2500  -999.2500    95.0190     8.7920     7.7680     8.3640   -79.6590     7.7650  -999.2500  -999.2500   -27.5090
 1216.5000  -999.2500  -999.2500  -999.2500  -999.2500    94.3570     8.7930     7.7590     8.3600   -79.6590     7.7610  -999.2500  -999.2500   -27.5110
 1217.0000  -999.2500  -999.2500  -999.2500  -999.2500    93.2240     8.7950     7.7500     8.3550   -79.6590     7.7570  -999.2500  -999.2500   -27.5110
 1217.5000  -999.2500  -999.2500  -999.2500  -999.2500    91.9560     8.7960     7.7410     8.3510   -79.6590     7.7530  -999.2500  -999.2500   -27.5110
 1218.0000  -999.2500  -999.2500  -999.2500  -999.2500    90.2090     8.7980     7.7320     8.3460   -79.6590     7.7490  -999.2500  -999.2500   -27.5100
 1218.5000  -999.2500  -999.2500  -999.2500  -999.2500    88.0820     8.7990     7.7230     8.3420   -79.6590     7.7450  -999.2500  -999.2500   -27.5100
 1219.0000  -999.2500  -999.2500  -999.2500  -999.2500    86.6930     8.8000     7.7140     8.3380   -79.6590     7.7410  -999.2500  -999.2500   -27.5100
 1219.5000  -999.2500  -999.2500  -999.2500  -999.2500    87.2590     8.8020     7.7050     8.3330   -79.6590     7.7370  -999.2500  -999.2500   -27.5100
 1220.0000  -999.2500  -999.2500  -999.2500  -999.2500    89.5480     8.8030     7.6960     8.3290   -79.6590     7.7330  -999.2500  -999.2500   -27.5100
 1220.5000  -999.2500  -999.2500  -999.2500  -999.2500    91.7170     8.8050     7.6870     8.3240   -79.6590     7.7290  -999.2500  -999.2500   -27.5100
 1221.0000  -999.2500  -999.2500  -999.2500  -999.2500    91.8210     8.8060     7.6780     8.3200   -79.6590     7.7250  -999.2500  -999.2500   -27.5100
 1221.5000  -999.2500  -999.2500  -999.2500  -999.2500    89.5850     8.8070     7.6690     8.3160   -79.6590     7.7210  -999.2500  -999.2500   -27.5100
 1222.0000  -999.2500  -999.2500  -999.2500  -999.2500    86.4590     8.8090     7.6590     8.3110   -79.6590     7.7170  -999.2500  -999.2500   -27.5100
 1222.5000  -999.2500  -999.2500  -999.2500  -999.2500    84.0710     8.8100     7.5210     8.3070   -79.6590     7.7130  -999.2500  -999.2500   -27.5110
 1223.0000  -999.2500  -999.2500  -999.2500  -999.2500    82.8680     8.8120     7.3720     8.3030   -79.6590     7.7080  -999.2500  -999.2500   -27.5100
 1223.5000  -999.2500  -999.2500  -999.2500  -999.2500    82.3100     8.8130     7.2470     8.2990   -79.6590     7.7040  -999.2500  -999.2500   -27.5080
 1224.0000  -999.2500  -999.2500  -999.2500  -999.2500    82.0700     8.8150     7.3980     8.2940   -79.6590     7.7000  -999.2500  -999.2500   -27.5090
 1224.5000  -999.2500  -999.2500  -999.2500  -999.2500    82.5600     8.8160     7.5290     8.2890   -79.6590     7.6960  -999.2500  -999.2500   -27.5140
 1225.0000  -999.2500  -999.2500  -999.2500  -999.2500    84.1450     8.8170     7.6590     8.2850   -79.6590     7.6920  -999.2500  -999.2500   -27.5240
 1225.5000  -999.2500  -999.2500  -999.2500  -999.2500    86.2220     8.8190     7.6410     8.2800   -79.6590     7.6880  -999.2500  -999.2500   -27.5400
 1226.0000  -999.2500  -999.2500  -999.2500  -999.2500    87.5340     8.8200     7.6220     8.2760   -79.6590     7.6840  -999.2500  -999.2500   -27.5570
 1226.5000  -999.2500  -999.2500  -999.2500  -999.2500    87.4830     8.8210     7.6030     8.2710   -79.6590     7.6800  -999.2500  -999.2500   -27.5740
 1227.0000  -999.2500  -999.2500  -999.2500  -999.2500    86.8940     8.8230     7.5850     8.2670   -79.6590     7.6750  -999.2500  -999.2500   -27.5900
 1227.5000  -999.2500  -999.2500  -999.2500  -999.2500    87.2230     8.8250     7.5660     8.2630   -79.6590     7.6710  -999.2500  -999.2500   -27.6050
 1228.0000  -999.2500  -999.2500  -999.2500  -999.2500    89.0530     8.8260     7.5480     8.2580   -79.6590     7.6670  -999.2500  -999.2500   -27.6210
 1228.5000  -999.2500  -999.2500  -999.2500  -999.2500    91.4480     8.8270     7.5190     8.2540   -79.6590     7.6630  -999.2500  -999.2500   -27.6370
 1229.0000  -999.2500  -999.2500  -999.2500  -999.2500    92.7690     8.8280     7.5190     8.2490   -79.6590     7.6590  -999.2500  -999.2500   -27.6530
 1229.5000  -999.2500  -999.2500  -999.2500  -999.2500    92.0380     8.8300     7.2950     8.2460   -79.6590     7.5010  -999.2500  -999.2500   -27.6690
 1230.0000  -999.2500  -999.2500  -999.2500  -999.2500    89.6790     8.8320     7.1450     8.0430   -79.6590     7.3550  -999.2500  -999.2500   -27.6850
 1230.5000  -999.2500  -999.2500  -999.2500  -999.2500    87.2680     8.8330     6.9840     7.8860   -79.6590     7.2100  -999.2500  -999.2500   -27.7010
 1231.0000  -999.2500  -999.2500  -999.2500  -999.2500    86.5820     8.8320     6.9840     7.7300   -79.6590     7.0650  -999.2500  -999.2500   -27.7160
 1231.5000  -999.2500  -999.2500  -999.2500  -999.2500    88.4680     8.8260     6.9840     7.5740   -79.6590     6.8560  -999.2500  -999.2500   -27.7310
