~VERSION INFORMATION
 VERS.                2.0:   CWLS LOG ASCII STANDARD - VERSION 2.0
 WRAP.                 NO:   ONE LINE PER DEPTH STEP
~WELL INFORMATION
#MNEM.UNIT      DATA TYPE    INFORMATION
#----------   ------------   ------------------------------
 STRT.F            0.0000:   START DEPTH
 STOP.F         3040.0000:   STOP DEPTH
 STEP.F            0.5000:   STEP LENGTH
 NULL.          -999.2500:   NO VALUE
 COMP.    FENIX & SCISSON:   COMPANY
 WELL.  FENIX "AX" #43-28:   WELL
 FLD .             TEAPOT:   FIELD
 LOC .      S28 T39N R78W:   LOCATION
 CNTY.            NATRONA:   COUNTY
 STAT.            WYOMING:   STATE
 CTRY. UNITED STATES OF AMERICA:   COUNTRY
 SRVC.              WELEX:   SERVICE COMPANY
 DATE.        20-JUL-1980:   LOGDATE
 API .     49025108450000:   API NUMBER
~CURVE INFORMATION
#MNEM.UNIT       API CODE    CURVE DESCRIPTION
#----------   ------------   ------------------------------
 DEPT.F                  :   
 GRD .GAPI   45 310 01 00:   GAMMA RAY FROM DENSITY LOG
 CALD.IN     45 280 60 00:   CALIPER FROM DENSITY LOG
 RHOB.G/C3   45 350 01 00:   BULK DENSITY
 CORR.G/C3   45 356 01 00:   DENSITY CORRECTION
 SPR .MV     07 010 01 00:   SPONTANEOUS POTENTIAL
 ILD .OHMM   07 120 46 00:   DEEP INDUCTION RESISTIVITY
 ILM .OHMM   07 120 44 00:   INDUCTION LOG MEDIUM RESISTIVITY
 SGRD.OHMM   07 220 05 00:   SHALLOW SHORT GUARD RESISTIVITY
 NEUT.CPS    35 330 30 00:   NEUTRON
~PARAMETER INFORMATION
#MNEM.UNIT          VALUE    DESCRIPTION
#----------   ------------   ------------------------------
 EKB .F         5042.0000:   Kelly bushing
 EGL .F         5032.0000:   Ground level
 EDF .F            0.0000:   Drilling floor
 TD  .F         3038.0000:   Total depth
 DATE.        20-JUL-1980:   Date logged
 CLNT.            A2DTECH:   Client Code
 SL  . 1500' FNL & 2500' FWL:   Surface Location
 PD  .                 GL:   Permanent Datum
 EPD .F              5032:   Elevation Permanent Datum
 LMF .                 KB:   Log Measured From
 DMF .                 KB:   Drilling Measured From
 DD  .F              3000:   Depth driller
 DL  .F              3038:   Depth logger
 BLI .F              3036:   Bottom log interval
 TLI .F               432:   Top log interval
 CS1 .IN            8.625:   Casing size
 CBD1.      8.625" @ 443':   Casing driller 1
 CBL1.F               432:   Casing logger 1
 BS1 .IN            7.875:   Bit size
 BSD1.F              3000:   Depth drilled with bit1
 DFT .     WATER BASE MUD:   Type fluid in hole
 DFD .                9.3:   Density
 DFV .                 45:   Viscosity
 DFPH.                  9:   pH
 DFL .                  8:   Fluid loss
 MSS .                PIT:   Source of sample
 RMS .OHMM           0.85:   Rm
 MST .F                75:   Rm Meas. temp.
 RMF .OHMM           0.68:   Rmf
 MFST.F                75:   Rmf Meas. temp.
 RMC .OHMM           1.02:   Rmc
 MCST.F                75:   Rmc Meas. temp.
 MFSS.               MEAS:   Source Rmf.
 MCSS.               MEAS:   Source Rmc.
 RMB .OHMM           0.57:   Rm. at BHT
 BHT .F               112:   BHT.
 TCS .HRS               3:   Time Circ. stopped
 MRT .F               112:   Maximum recorded temp.
 LUN .               9865:   Logging unit number
 LUL .             CASPER:   Logging unit location
 ENGI.            TOTHILL:   Recorded By
 WITN.           DINSMORE:   Witnessed by
 ORIG.     2.5", 5" PRINT:   Origin of data
 UWI .     49025108450000:   Unique Well ID
 DICO. A2D TECHNOLOGIES, INC.:   Digitizing Company
~OTHER INFORMATION
~A    DEPT     GRD       CALD       RHOB       CORR        SPR        ILD        ILM       SGRD        NEUT  
# ...
 1788.5000   124.0830     9.2330     2.3970     0.0280   -23.2060     4.4250     5.9850     8.1380   248.0100
 1789.0000   127.2450     9.2280     2.3960     0.0300   -23.2850     4.4610     5.6230     8.3940   243.0140
 1789.5000   130.4380     9.2220     2.4010     0.0360   -23.3920     4.4970     5.1860     8.6500   225.8110
 1790.0000   133.7770     9.2130     2.4070     0.0280   -23.4590     4.5400     4.9990     7.7450   198.7560
 1790.5000   136.1450     9.1910     2.4260     0.0190   -23.6860     4.6170     4.7980     6.7370   202.6180
 1791.0000   138.6040     9.1700     2.4440     0.0300   -24.0680     4.7130     4.7100     5.4770   211.6550
 1791.5000   141.1860     9.1490     2.4480     0.0380   -24.4260     4.8100     4.9240     4.2170   224.6270
 1792.0000   142.9000     9.1280     2.4410     0.0450   -24.8420     4.8870     5.4600     5.7730   192.2890
 1792.5000   144.6700     9.1060     2.4340     0.0450   -25.3160     5.0700     5.9950     7.3290   196.6670
 1793.0000   146.5800     9.1010     2.4280     0.0370   -25.8470     5.2640     6.2750     8.2360   209.6420
 1793.5000   148.2330     9.1000     2.4280     0.0320   -25.9200     5.4580     6.3860     9.1420   224.1290
 1794.0000   153.4280     9.1010     2.4380     0.0230   -25.9720     5.8590     6.4960    10.0490   212.6050
 1794.5000   154.1290     9.0890     2.4520     0.0150   -26.0020     6.2600     6.8870    10.7550   195.1660
 1795.0000   154.8380     9.0720     2.4560     0.0190   -26.0490     6.6610     7.6980    11.1600   206.3700
 1795.5000   155.3700     9.0560     2.4570     0.0220   -26.0870     7.0620     8.3150    11.5650   236.4620
 1796.0000   155.7560     9.0410     2.4550     0.0250   -26.1300     7.4630     8.6400    12.0510   267.1940
 1796.5000   155.5050     9.0410     2.4510     0.0290   -26.1700     7.8640     8.9650    11.2400   275.0690
 1797.0000   155.2800     9.0410     2.4510     0.0330   -26.2100     8.1850     9.2900    10.0240   283.4610
 1797.5000   154.5780     9.0420     2.4520     0.0360   -26.2620     8.5750     9.4850    11.0070   262.7890
 1798.0000   153.5290     9.0570     2.4540     0.0390   -26.0270     8.9000     9.4850    12.9730   272.2790
 1798.5000   150.4430     9.1170     2.4560     0.0490   -24.7100     9.2250     9.4850    11.6150   232.6960
 1799.0000   146.4420     9.1440     2.4570     0.0550   -24.6460     9.4850     9.6730    13.4600   235.1150
 1799.5000   140.5370     9.1080     2.4560     0.0590   -25.3820     9.6190     9.9860    12.0510   243.8580
 1800.0000   133.2030     8.9880     2.4540     0.0630   -25.8540     9.7310    10.2990    12.8640   228.3780
 1800.5000   126.3870     8.8850     2.4500     0.0610   -25.5360     9.8430    10.6120    14.2240   212.7920
 1801.0000   121.5220     8.8830     2.4460     0.0590   -25.2590     9.9550    10.9250    14.2240   222.1880
 1801.5000   117.8380     8.8840     2.4430     0.0570   -25.1780    10.0240    10.9910    13.9190   220.7080
 1802.0000   115.1420     8.8840     2.4430     0.0600   -25.4780    10.0240    10.7080    13.7100   210.6850
 1802.5000   112.5930     8.8840     2.4430     0.0640   -25.7440    10.0240    10.2270    12.5640   214.4650
 1803.0000   110.4830     8.8840     2.4490     0.0690   -26.0020     9.8780    10.0240    10.9910   218.6910
 1803.5000   108.4670     8.8840     2.4570     0.0740   -26.2620     9.6270    10.1450    11.4520   213.9170
 1804.0000   106.4300     8.8840     2.4660     0.0790   -26.1530     9.3750    10.4000    12.7530   209.2100
 1804.5000   103.8400     8.8930     2.4780     0.0840   -26.0300     9.1230    10.1920    12.3420   205.9100
 1805.0000    99.2680     8.9030     2.4870     0.0880   -25.8900     8.8110     9.6220    11.5190   202.9090
 1805.5000    94.7700     8.9130     2.4970     0.0890   -25.7660     8.8390     9.3120    10.5190   214.7730
 1806.0000    91.2580     8.9240     2.5060     0.0800   -25.6290     8.9170     9.3120     8.3370   225.8050
 1806.5000    88.9430     8.9420     2.5160     0.0730   -25.4830     8.9950     9.6460    12.5030   204.8530
 1807.0000    87.7450     8.9600     2.5250     0.0650   -25.1010     9.0730     9.9360    12.3480   179.2670
 1807.5000    87.2360     8.9500     2.5310     0.0580   -24.6880     9.1510    10.2260    15.0320   216.9820
 1808.0000    87.6340     8.9360     2.5370     0.0520   -24.2730     9.2280    10.5930    13.9790   210.7310
 1808.5000    88.2090     8.9210     2.5400     0.0450   -23.8560     9.3120    10.4980    16.5360   194.2530
 1809.0000    89.5700     8.9060     2.5350     0.0380   -23.4460     9.1530    10.2130    20.1850   171.5520
 1809.5000    91.3550     8.8910     2.5240     0.0260   -23.0360     8.9830     9.9270    13.2140   179.5410
 1810.0000    93.1440     8.8770     2.5120     0.0120   -22.5820     8.8130     9.6420    18.0730   195.2590
 1810.5000    94.9350     8.8620     2.5060     0.0110   -22.3140     8.6430     9.3560     8.3370   208.7200
 1811.0000    96.7020     8.8470     2.5060     0.0130   -22.3320     8.4730     9.0700     8.3370   191.6760
 1811.5000    98.1850     8.8540     2.5060     0.0190   -22.3380     8.3030     8.7850     8.5540   223.4570
 1812.0000    99.6400     8.8650     2.5060     0.0210   -22.3850     8.1330     8.4990     8.6500   216.3360
 1812.5000   100.5350     8.8760     2.5020     0.0200   -23.1060     7.9620     8.1850    10.4000   181.6510
 1813.0000   100.5750     8.8880     2.4970     0.0170   -23.7770     7.7920     8.1850    10.4000   185.2970
 1813.5000   100.6870     8.8990     2.4910     0.0100   -24.4680     7.6040     8.1850    10.1870   208.1410
 1814.0000   100.7930     8.9280     2.4860     0.0020   -25.0890     7.4530     8.1850     9.8800   206.4980
 1814.5000   100.7210     8.9690     2.4810    -0.0020   -24.8930     7.2830     8.1850     9.6610   186.8280
 1815.0000   100.5310     9.0100     2.4770    -0.0050   -24.5390     7.1730     8.1850     9.7480   196.4570
 1815.5000   100.3410     9.0520     2.4730    -0.0080   -24.3050     7.1270     8.1850     9.9290   214.1060
 1816.0000   100.1470     9.0610     2.4720    -0.0110   -24.3160     7.0810     8.1850    10.0240   204.2640
 1816.5000    99.9500     9.0610     2.4700    -0.0150   -24.2930     7.0350     8.1480    10.0140   191.8140
 1817.0000   100.2080     9.0610     2.4690    -0.0160   -24.3430     6.9890     8.0100     9.9760   193.6050
 1817.5000   100.5410     9.0590     2.4680    -0.0160   -23.9450     6.9440     7.8720     9.9380   198.0570
 1818.0000   100.8750     9.0550     2.4670    -0.0150   -23.2780     6.8980     7.7340     9.9000   185.7210
 1818.5000   101.2080     9.0510     2.4660    -0.0150   -22.6630     6.8520     7.5960     9.8620   195.5100
 1819.0000   101.4300     9.0470     2.4680    -0.0150   -22.0120     6.8080     7.4650     9.8410   192.8760
 1819.5000   101.4320     9.0430     2.4690    -0.0140   -21.3150     6.7050     7.4220     9.8410   184.6720
 1820.0000   101.4430     9.0540     2.4720    -0.0100   -20.6130     6.6060     7.3560     9.8410   204.6330
 1820.5000   100.7960     9.0750     2.4770    -0.0050   -20.2290     6.5080     7.2900     9.7820   199.1840
 1821.0000   100.0420     9.0970     2.4820     0.0000   -20.0280     6.4090     7.2240     9.5330   184.5730
 1821.5000    99.3380     9.1190     2.4840     0.0010   -20.0480     6.3110     7.1580     9.2850   186.4090
 1822.0000    98.6390     9.1420     2.4860     0.0030   -20.2230     6.2120     7.0920     8.9390   201.2980
 1822.5000    97.8970     9.1640     2.4880     0.0030   -20.5670     6.0960     7.0260     8.4630   187.8750
 1823.0000    96.6530     9.1860     2.4900     0.0010   -21.4470     5.9850     6.9350     8.0360   175.9970
 1823.5000    95.2820     9.2080     2.4960     0.0070   -22.3570     5.9850     6.9670     8.0360   188.7650
 1824.0000    94.8340     9.2220     2.5020     0.0150   -23.2120     5.9850     7.0200     8.4270   203.7260
 1824.5000    94.4230     9.2290     2.5080     0.0220   -24.2220     5.9850     7.0730     8.8110   196.8150
