~VERSION INFORMATION
 VERS.                2.0:   CWLS LOG ASCII STANDARD - VERSION 2.0
 WRAP.                 NO:   ONE LINE PER DEPTH STEP
~WELL INFORMATION
#MNEM.UNIT      DATA TYPE    INFORMATION
#----------   ------------   ------------------------------
 STRT.F          634.0000:   START DEPTH
 STOP.F         3464.0000:   STOP DEPTH
 STEP.F            0.5000:   STEP LENGTH
 NULL.          -999.2500:   NO VALUE
 COMP. LAWRENCE-ALLISON & ASSOCIATES W:   COMPANY
 WELL. LAWRENCE "TX" #44-27:   WELL
 FLD .   NAVAL RESERVE #3:   FIELD
 LOC .      S27 T39N R78W:   LOCATION
 CNTY.            NATRONA:   COUNTY
 STAT.            WYOMING:   STATE
 CTRY. UNITED STATES OF AMERICA:   COUNTRY
 SRVC.       SCHLUMBERGER:   SERVICE COMPANY
 DATE.        13-MAR-1982:   LOGDATE
 API .     49025108870000:   API NUMBER
~CURVE INFORMATION
#MNEM.UNIT       API CODE    CURVE DESCRIPTION
#----------   ------------   ------------------------------
 DEPT.F                  :   
 TENR.LBS    07 635 01 00:   TENSION FROM RESISTIVITY
 ILD .OHMM   07 120 46 00:   DEEP INDUCTION RESISTIVITY
 ILM .OHMM   07 120 44 00:   INDUCTION LOG MEDIUM RESISTIVITY
 SFLU.OHMM   07 220 01 00:   SPHERICALLY FOCUSED LOG UNAVERAGED RESISTIVITY
 SPR .MV     07 010 01 00:   SPONTANEOUS POTENTIAL
 TENN.LBS    42 635 01 00:   TENSION FROM COMPENSATE NEUTRON
 CALD.IN     45 280 60 00:   CALIPER FROM DENSITY LOG
 GRD .GAPI   45 310 01 00:   GAMMA RAY FROM DENSITY LOG
 RHOB.G/C3   45 350 01 00:   BULK DENSITY
 DRHO.G/C3   45 356 01 00:   DENSITY CORRECTION
 NPHI.DEC    42 890 03 00:   NEUTRON POROSITY SANDSTONE
~PARAMETER INFORMATION
#MNEM.UNIT          VALUE    DESCRIPTION
#----------   ------------   ------------------------------
 EKB .F         5049.0000:   Kelly bushing
 EGL .F         5039.0000:   Ground level
 EDF .F            0.0000:   Drilling floor
 EPD .F            0.0000:   Permanent datum
 TD  .F         3440.0000:   Total depth
 DATE.        13-MAR-1982:   Date logged
 CLNT.            A2DTECH:   Client Code
 PD  .                 GL:   Permanent Datum
 DD  .F              3440:   Depth driller
 DL  .F              3439:   Depth logger
 BLI .F              3433:   Bottom log interval
 CS1 .IN            9.625:   Casing size
 CBD1.      9.625" @ 650':   Casing driller 1
 CBL1.F               647:   Casing logger 1
 BS1 .IN            7.875:   Bit size
 DFT .                GEL:   Type fluid in hole
 DFD .                9.3:   Density
 DFV .                 48:   Viscosity
 DFPH.                 10:   pH
 DFL .                  8:   Fluid loss
 MSS .                PIT:   Source of sample
 RMS .OHMM           1.82:   Rm
 MST .F                67:   Rm Meas. temp.
 RMF .OHMM           1.32:   Rmf
 MFST.F                67:   Rmf Meas. temp.
 MFSS.               MEAS:   Source Rmf.
 RMB .OHMM           1.09:   Rm. at BHT
 BHT .F               112:   BHT.
 TCS .HRS            1300:   Time Circ. stopped
 MRT .F               112:   Maximum recorded temp.
 LUN .               8039:   Logging unit number
 LUL .               CSPR:   Logging unit location
 ENGI.   WAGNER/CONOSENTI:   Recorded By
 WITN.           JENNINGS:   Witnessed by
 ORIG.           5" PRINT:   Origin of data
 UWI .     49025108870000:   Unique Well ID
 DICO. A2D TECHNOLOGIES, INC.:   Digitizing Company
 DAPD.                 10:   Feet Above Permanent Datum
 BSD1.F              3440:   Depth drilled with bit1
 TLI .F               647:   Top log interval
 TLAB.HRS            1800:   Time logger at bottom
~OTHER INFORMATION
~A   DEPT     TENR        ILD        ILM       SFLU        SPR       TENN       CALD         GRD      RHOB       DRHO       NPHI   
# ...
 1549.0000   963.3440     7.3100     6.1050     7.0580   -25.0020  1398.8101    10.3760    98.8330     2.5060     0.0110     0.3130
 1549.5000   963.6350     7.3160     6.0820     7.0460   -24.8090  1398.8101    10.3810    96.9250     2.5220     0.0280     0.3100
 1550.0000   963.9260     7.3280     6.1270     7.2150   -24.7220  1398.8101    10.3860    95.0970     2.5390     0.0400     0.3070
 1550.5000   964.2170     7.3400     6.1680     7.3460   -24.6410  1397.7780    10.3910    93.2980     2.5470     0.0380     0.3050
 1551.0000   964.5080     7.3520     6.2090     7.4780   -24.5590  1396.8390    10.3970    92.2370     2.5470     0.0300     0.3020
 1551.5000   964.7990     7.3640     6.2500     7.6090   -24.4790  1395.9010    10.4020    93.1820     2.5450     0.0260     0.2960
 1552.0000   965.0910     7.3770     6.3100     7.7240   -24.4780  1394.9630    10.4070    92.8930     2.5370     0.0230     0.2910
 1552.5000   965.3820     7.3300     6.2950     7.6640   -25.0160  1394.0250    10.4120    92.5080     2.5300     0.0210     0.2940
 1553.0000   965.6730     7.2790     6.2670     7.5810   -25.5650  1393.0861    10.4170    92.9950     2.5240     0.0180     0.2960
 1553.5000   965.9640     7.2280     6.2400     7.4980   -25.8710  1392.1479    10.4220    94.2620     2.5260     0.0150     0.2970
 1554.0000   966.2550     7.1770     6.2120     7.4150   -26.0750  1391.2100    10.4280    95.5280     2.5280     0.0150     0.2980
 1554.5000   966.5460     7.1260     6.1840     7.3320   -26.2700  1390.2720    10.4280    96.8030     2.5300     0.0160     0.2990
 1555.0000   966.8370     7.0750     6.1560     7.2490   -26.4640  1389.3330    10.4280    97.3060     2.5290     0.0170     0.3010
 1555.5000   967.1280     7.0240     6.1280     7.1660   -26.6570  1388.3950    10.4280    96.4020     2.5280     0.0180     0.3020
 1556.0000   967.4190     6.9810     6.1000     7.0830   -26.8320  1387.4570    10.4280    95.5040     2.5320     0.0180     0.3040
 1556.5000   967.7100     6.9870     6.0720     6.9810   -26.5950  1386.5190    10.4280    94.7010     2.5360     0.0160     0.3050
 1557.0000   968.0010     7.0000     6.0440     7.0860   -26.3100  1385.5800    10.4280    94.7230     2.5380     0.0140     0.2920
 1557.5000   965.8740     7.0140     6.0170     7.1560   -26.0070  1384.6420    10.4280    94.4290     2.5330     0.0120     0.2980
 1558.0000   963.0850     7.0270     5.9890     7.2260   -25.3500  1383.7040    10.4300    93.5580     2.5280     0.0110     0.3040
 1558.5000   960.2960     7.1110     5.9610     7.3100   -24.6720  1382.7660    10.4330    92.6920     2.5250     0.0160     0.3100
 1559.0000   957.5070     7.0910     5.9330     7.2870   -24.0240  1381.8270    10.4350    92.7340     2.5320     0.0220     0.3140
 1559.5000   954.7180     7.0430     5.9050     7.2310   -24.0030  1380.8890    10.4370    93.4350     2.5380     0.0280     0.3130
 1560.0000   951.9290     6.9940     5.8770     7.1750   -24.0060  1379.9510    10.4400    94.1340     2.5320     0.0220     0.3180
 1560.5000   949.1410     6.9460     5.8490     7.1190   -24.0060  1378.9680    10.4420    94.7420     2.5260     0.0150     0.3190
 1561.0000   948.4430     6.8970     5.8210     7.0640   -24.0040  1381.6250    10.4440    94.6280     2.5220     0.0140     0.3180
 1561.5000   948.9830     6.8490     5.7940     7.0080   -24.0190  1384.4139    10.4470    94.5220     2.5210     0.0220     0.3090
 1562.0000   949.5220     6.8010     5.7590     6.9520   -24.3850  1387.2020    10.4480    94.4330     2.5220     0.0260     0.3060
 1562.5000   950.0620     6.7520     5.8090     6.8960   -24.7550  1389.9910    10.4480    92.7960     2.5230     0.0240     0.3060
 1563.0000   950.6020     6.7040     5.7880     6.8540   -25.1230  1392.7800    10.4480    90.1590     2.5440     0.0270     0.3140
 1563.5000   951.1420     6.6680     5.7740     7.0780   -25.4910  1395.5690    10.4480    87.5190     2.5680     0.0340     0.3300
 1564.0000   951.6820     6.6680     5.7590     7.2910   -25.8600  1398.3580    10.4480    84.8800     2.5790     0.0400     0.3310
 1564.5000   952.2210     6.6680     5.7450     7.4450   -26.2210  1398.8101    10.4480    83.7170     2.5640     0.0420     0.3240
 1565.0000   952.7610     6.6680     5.7310     7.1640   -26.6450  1398.8101    10.4480    85.2840     2.5500     0.0370     0.3140
 1565.5000   953.3010     6.6670     5.7160     6.9180   -26.8080  1398.8101    10.4480    89.0180     2.5440     0.0330     0.3040
 1566.0000   953.8410     6.7060     5.7030     6.9450   -26.9830  1398.8101    10.4480    92.7620     2.5500     0.0360     0.3130
 1566.5000   954.3800     6.7410     5.8010     6.9850   -27.1600  1398.8101    10.4480    95.2830     2.5590     0.0390     0.3270
 1567.0000   954.9200     6.7750     5.8520     7.0250   -27.3310  1398.8101    10.4480    95.4420     2.5580     0.0410     0.3260
 1567.5000   955.4600     6.8100     5.9020     7.0650   -27.2930  1398.8101    10.4480    94.7040     2.5470     0.0390     0.3160
 1568.0000   956.0000     6.8450     5.9220     7.1050   -26.8150  1398.8101    10.4480    93.9570     2.5340     0.0380     0.3050
 1568.5000   956.5400     6.8800     5.9290     7.1450   -26.3520  1398.8101    10.4480    93.9540     2.5280     0.0360     0.3050
 1569.0000   957.0790     6.9180     5.9360     7.1840   -25.8890  1398.8101    10.4480    94.9130     2.5300     0.0340     0.3050
 1569.5000   957.6190     6.8880     5.9430     7.2240   -25.4320  1398.8101    10.4560    95.8670     2.5310     0.0320     0.3060
 1570.0000   958.1590     6.8560     5.9500     7.2430   -24.9450  1398.8101    10.4730    96.8250     2.5250     0.0300     0.3130
 1570.5000   958.6990     6.8250     5.9570     7.1660   -24.6690  1398.8101    10.4900    97.7780     2.5200     0.0280     0.3210
 1571.0000   959.2390     6.7920     5.9640     7.1080   -24.3940  1398.8101    10.5080    98.7250     2.5140     0.0260     0.3250
 1571.5000   959.7780     6.7420     5.9710     7.0510   -24.2950  1398.8101    10.5250    98.8090     2.5080     0.0220     0.3250
 1572.0000   960.3180     6.6540     5.8700     6.9930   -24.1810  1398.8101    10.5430    97.1120     2.5070     0.0170     0.3180
 1572.5000   960.8580     6.5650     5.7360     6.9360   -24.0580  1398.8101    10.5480    94.5230     2.5090     0.0150     0.3110
 1573.0000   961.3980     6.4760     5.5990     6.8780   -24.3440  1398.8101    10.5480    91.8470     2.5150     0.0180     0.3070
 1573.5000   961.9370     6.3880     5.5350     6.7810   -24.6440  1398.8101    10.5480    90.6150     2.5220     0.0240     0.3080
 1574.0000   962.4770     6.3100     5.5010     6.6550   -24.9560  1398.8101    10.5480    91.3640     2.5280     0.0300     0.3110
 1574.5000   963.0170     6.3100     5.4500     6.5280   -25.2730  1398.8101    10.5440    92.9820     2.5340     0.0350     0.3160
 1575.0000   963.5570     6.3100     5.4650     6.4270   -25.5890  1398.8101    10.5290    96.6560     2.5400     0.0370     0.3200
 1575.5000   964.0970     6.3100     5.5090     6.4020   -25.9050  1398.8101    10.5140    99.9790     2.5420     0.0340     0.3240
 1576.0000   964.6360     6.3100     5.5540     6.3680   -26.2200  1398.8101    10.4990   100.7170     2.5400     0.0300     0.3280
 1576.5000   965.1760     6.3100     5.5980     6.4430   -26.5360  1398.8101    10.4840    99.2980     2.5390     0.0300     0.3340
 1577.0000   965.7160     6.3100     5.6420     6.6220   -26.8530  1398.8101    10.4680    98.3240     2.5470     0.0340     0.3420
 1577.5000   966.2560     6.3040     5.6980     6.8020   -27.1760  1398.8101    10.4770    97.7020     2.5620     0.0390     0.3470
 1578.0000   966.7950     6.2950     5.6730     6.9810   -27.0330  1398.8101    10.4890    97.0790     2.5780     0.0430     0.3430
 1578.5000   967.3350     6.2860     5.6260     7.0460   -26.8110  1398.8101    10.5010    96.5640     2.5810     0.0460     0.3300
 1579.0000   967.8750     6.2770     5.5790     7.0020   -26.5860  1398.8101    10.5130    96.7660     2.5630     0.0390     0.3220
