~VERSION INFORMATION
 VERS.                2.0:   CWLS LOG ASCII STANDARD - VERSION 2.0
 WRAP.                 NO:   ONE LINE PER DEPTH STEP
~WELL INFORMATION
#MNEM.UNIT      DATA TYPE    INFORMATION
#----------   ------------   ------------------------------
 STRT.F           41.0000:   START DEPTH
 STOP.F          925.0000:   STOP DEPTH
 STEP.F            0.5000:   STEP LENGTH
 NULL.          -999.2500:   NO VALUE
 COMP. LAWRENCE ALLISON & ASSOCIATION:   COMPANY
 WELL. LAWRENCE ALLISON #48-2:   WELL
 FLD .       N.P.R. NO. 3:   FIELD
 LOC .       S2 T38N R78W:   LOCATION
 CNTY.            NATRONA:   COUNTY
 STAT.            WYOMING:   STATE
 CTRY. UNITED STATES OF AMERICA:   COUNTRY
 SRVC.       SCHLUMBERGER:   SERVICE COMPANY
 DATE.        06-SEP-1982:   LOGDATE
 API .     49025109110000:   API NUMBER
~CURVE INFORMATION
#MNEM.UNIT       API CODE    CURVE DESCRIPTION
#----------   ------------   ------------------------------
 DEPT.F                  :   
 ILM .OHMM   07 120 44 00:   INDUCTION LOG MEDIUM RESISTIVITY
 ILD .OHMM   07 120 46 00:   DEEP INDUCTION RESISTIVITY
 CALD.IN     45 280 60 00:   CALIPER FROM DENSITY LOG
 GRD .GAPI   45 310 01 00:   GAMMA RAY FROM DENSITY LOG
 TEND.LBS    45 635 01 00:   TENSION FROM DENSITY LOG
 CORR.G/C3   45 356 01 00:   DENSITY CORRECTION
 RHOB.G/C3   45 350 01 00:   BULK DENSITY
 NPHI.DEC    42 890 03 00:   NEUTRON POROSITY SANDSTONE
~PARAMETER INFORMATION
#MNEM.UNIT          VALUE    DESCRIPTION
#----------   ------------   ------------------------------
 EKB .F         5192.0000:   Kelly bushing
 EGL .F         5182.0000:   Ground level
 TD  .F          920.0000:   Total depth
 CLNT.            A2DTECH:   Client Code
 DATE.         6-SEP-1982:   Date Logged [DD-MMM-YYYY]
 DD  .F               920:   Depth driller
 DL  .F               918:   Depth logger
 BLI .F               908:   Bottom log interval
 TLI .F                49:   Top log interval
 CBL1.IN               49:   Casing logger 1
 BSD1.F               920:   Depth drilled with bit1
 DFT .                AIR:   Type fluid in hole
 TCS .HRS            0730:   Time Circ. stopped
 TLAB.HRS            0900:   Time logger at bottom
 LUN .               8035:   Logging unit number
 LUL .               CSPR:   Logging unit location
 ENGI.              PENNY:   Recorded By
 WITN.           JENNINGS:   Witnessed by
 ORIG.           5" PRINT:   Origin of data
 UWI .     49025109110000:   Unique Well ID
 DICO. A2D TECHNOLOGIES, INC.:   Digitizing Company
 PD  .                 GL:   Permanent Datum
 EPD .               5180:   Elevation Permanent Datum
 LMF .                 KB:   Log Measured From
 DMF .                 KB:   Drilling Measured From
 DAPD.                 10:   Feet Above Permanent Datum
~OTHER INFORMATION
~A   DEPT      ILM        ILD       CALD         GRD      TEND       CORR       RHOB       NPHI   
# ...
  891.5000     6.0405     6.2820    12.5822    88.6245   620.8655     0.0360     2.4882     0.2621
  892.0000     6.5238     7.0560    12.5682    89.8668   620.7110     0.0352     2.4802     0.2683
  892.5000     7.2956     7.6199    12.5695    87.2255   620.5287     0.0446     2.4891     0.2760
  893.0000     7.7739     8.1717    12.5705    85.0240   620.3777     0.0501     2.5000     0.2807
  893.5000     8.1615     8.3456    12.5715    84.5897   620.2266     0.0500     2.5008     0.2810
  894.0000     8.2794     8.2311    12.5873    86.5944   620.0756     0.0469     2.4930     0.2767
  894.5000     8.2240     8.1181    12.5883    88.1539   619.9246     0.0437     2.4867     0.2732
  895.0000     8.1697     8.1192    12.5894    88.3833   619.7736     0.0413     2.4875     0.2775
  895.5000     8.0594     8.1772    12.5904    86.8482   619.6225     0.0388     2.4867     0.2822
  896.0000     8.6446     8.4689    12.5914    86.1954   604.0156     0.0357     2.4821     0.2843
  896.5000     8.9540     8.7708    12.5927    85.9832   603.8640     0.0429     2.4867     0.2760
  897.0000     9.1462     9.0202    12.5937    85.9874   619.1694     0.0523     2.4945     0.2679
  897.5000     9.2134     9.2123    12.5947    85.9916   618.9806     0.0586     2.5055     0.2670
  898.0000     9.2817     9.4084    12.5957    85.9959   618.8296     0.0640     2.5149     0.2691
  898.5000     9.4151     9.6760    12.5967    86.0001   618.6785     0.0679     2.5211     0.2754
  899.0000     9.5504     9.8184    12.5978    86.0043   633.9835     0.0664     2.5117     0.2854
  899.5000     9.6877     9.9529    12.5988    86.0086   633.8324     0.0608     2.4906     0.2880
  900.0000     9.9648    10.1648    12.5998    86.0128   633.6814     0.0522     2.4743     0.2815
  900.5000    10.1081    10.2374    12.6008    86.0171   633.5303     0.0446     2.4680     0.2759
  901.0000    10.2534    10.2388    12.6018    86.0213   633.3793     0.0407     2.4649     0.2743
  901.5000    10.4008    10.3119    12.6028    86.0255   617.7723     0.0446     2.4774     0.2756
  902.0000    10.4044    10.3855    12.6039    86.0298   617.6198     0.0469     2.4844     0.2759
  902.5000    10.4815    10.4596    12.6049    86.0340   632.9262     0.0508     2.4924     0.2743
  903.0000    10.4850    10.4610    12.6059    86.0383   632.7374     0.0540     2.4995     0.2718
  903.5000    10.4149    10.5360    12.6069    86.0425   632.5864     0.0581     2.5057     0.2706
  904.0000    10.4921    10.5375    12.6082    86.0467   632.4353     0.0633     2.5097     0.2722
  904.5000    10.4957    10.5389    12.6092    86.0510   632.2843     0.0657     2.5073     0.2780
  905.0000    10.4992    10.5403    12.6102    86.0552   632.1332     0.0680     2.5035     0.2804
  905.5000    10.5028    10.4684    12.6112    86.0595   631.9822     0.0695     2.4989     0.2801
  906.0000    10.5064    10.4699    12.6122    86.0637   631.8312     0.0648     2.4857     0.2798
  906.5000    10.5108    10.4713    12.6133    86.0679   631.6802     0.0538     2.4678     0.2817
  907.0000    10.5143    10.4727    12.6143    86.0722   631.5291     0.0428     2.4592     0.2851
  907.5000    10.5179    10.4745    12.6153    86.0764   631.3756     0.0350     2.4624     0.2801
  908.0000    10.5215    10.4027    12.6163    86.0807   631.2211     0.0334     2.4718     0.2723
  908.5000  -999.2500  -999.2500    12.6173    86.0849   631.0383     0.0420     2.4773     0.2668
  909.0000  -999.2500  -999.2500    12.6036    86.0891   630.8872     0.0459     2.4796     0.2668
  909.5000  -999.2500  -999.2500    12.6046    86.0934   630.7361     0.0451     2.4852     0.2726
  910.0000  -999.2500  -999.2500    12.5908    86.0976   630.5851     0.0435     2.4899     0.2779
  910.5000  -999.2500  -999.2500    12.5919    86.1018   630.4341     0.0410     2.4852     0.2800
  911.0000  -999.2500  -999.2500    12.5781    86.1061   630.2831     0.0379     2.4806     0.2810
  911.5000  -999.2500  -999.2500    12.5794    86.1103   630.1320     0.0340     2.4775     0.2810
  912.0000  -999.2500  -999.2500    12.5804    86.1146   629.9810     0.0348     2.4791     0.2813
  912.5000  -999.2500  -999.2500    12.5814    86.1188   629.8300     0.0395     2.4877     0.2812
  913.0000  -999.2500  -999.2500    12.5824    86.1230   629.6755     0.0465     2.5026     0.2812
  913.5000  -999.2500  -999.2500    12.5834    86.1273   660.4020     0.0559     2.5104     0.2809
  914.0000  -999.2500  -999.2500    12.5845    86.1315   722.1126     0.0590     2.4871     0.2809
  914.5000  -999.2500  -999.2500    12.5855    86.1358   737.4175     0.0457     2.4676     0.2809
  915.0000  -999.2500  -999.2500    12.5865    86.1400   582.6692     0.0331     2.4598     0.2806
  915.5000  -999.2500  -999.2500  -999.2500  -999.2500   427.9587  -999.2500  -999.2500  -999.2500
  916.0000  -999.2500  -999.2500  -999.2500  -999.2500   226.8803  -999.2500  -999.2500  -999.2500
  916.5000  -999.2500  -999.2500  -999.2500  -999.2500   195.8551  -999.2500  -999.2500  -999.2500
  917.0000  -999.2500  -999.2500  -999.2500  -999.2500   211.1283  -999.2500  -999.2500  -999.2500
  917.5000  -999.2500  -999.2500  -999.2500  -999.2500   210.9712  -999.2500  -999.2500  -999.2500
  918.0000  -999.2500  -999.2500  -999.2500  -999.2500   210.8192  -999.2500  -999.2500  -999.2500
  918.5000  -999.2500  -999.2500  -999.2500  -999.2500   210.6646  -999.2500  -999.2500  -999.2500
  919.0000  -999.2500  -999.2500  -999.2500  -999.2500   210.4804  -999.2500  -999.2500  -999.2500
  919.5000  -999.2500  -999.2500  -999.2500  -999.2500   194.8734  -999.2500  -999.2500  -999.2500
  920.0000  -999.2500  -999.2500  -999.2500  -999.2500   179.2664  -999.2500  -999.2500  -999.2500
  920.5000  -999.2500  -999.2500  -999.2500  -999.2500   179.1153  -999.2500  -999.2500  -999.2500
  921.0000  -999.2500  -999.2500  -999.2500  -999.2500   178.9643  -999.2500  -999.2500  -999.2500
  921.5000  -999.2500  -999.2500  -999.2500  -999.2500   163.3573  -999.2500  -999.2500  -999.2500
  922.0000  -999.2500  -999.2500  -999.2500  -999.2500   163.2063  -999.2500  -999.2500  -999.2500
  922.5000  -999.2500  -999.2500  -999.2500  -999.2500   147.5993  -999.2500  -999.2500  -999.2500
  923.0000  -999.2500  -999.2500  -999.2500  -999.2500   147.4483  -999.2500  -999.2500  -999.2500
  923.5000  -999.2500  -999.2500  -999.2500  -999.2500   146.4760  -999.2500  -999.2500  -999.2500
  924.0000  -999.2500  -999.2500  -999.2500  -999.2500   131.6847  -999.2500  -999.2500  -999.2500
  924.5000  -999.2500  -999.2500  -999.2500  -999.2500   131.5014  -999.2500  -999.2500  -999.2500
  925.0000  -999.2500  -999.2500  -999.2500  -999.2500   115.8945  -999.2500  -999.2500  -999.2500
