~VERSION INFORMATION
 VERS.                2.0:   CWLS LOG ASCII STANDARD - VERSION 2.0
 WRAP.                 NO:   ONE LINE PER DEPTH STEP
~WELL INFORMATION
#MNEM.UNIT      DATA TYPE    INFORMATION
#----------   ------------   ------------------------------
 STRT.F           10.0000:   START DEPTH
 STOP.F         4008.0000:   STOP DEPTH
 STEP.F            0.5000:   STEP LENGTH
 NULL.          -999.2500:   NO VALUE
 COMP. LAWRENCE ALLISON & ASSOC.:   COMPANY
 WELL. LAWRENCE NPR 3 "AX" #75-28:   WELL
 FLD .                NPR:   FIELD
 LOC .      S28 T39N R78W:   LOCATION
 CNTY.            NATRONA:   COUNTY
 STAT.            WYOMING:   STATE
 CTRY. UNITED STATES OF AMERICA:   COUNTRY
 SRVC.      DRESSER ATLAS:   SERVICE COMPANY
 DATE.        28-APR-1983:   LOGDATE
 API .     49025109060000:   API NUMBER
~CURVE INFORMATION
#MNEM.UNIT       API CODE    CURVE DESCRIPTION
#----------   ------------   ------------------------------
 DEPT.F                  :   
 RHOB.G/C3   45 350 01 00:   BULK DENSITY
 CORR.G/C3   45 356 01 00:   DENSITY CORRECTION
 TEND.LBS    45 635 01 00:   TENSION FROM DENSITY LOG
 NPHI.DEC    42 890 03 00:   NEUTRON POROSITY SANDSTONE
 GRR .GAPI   07 310 01 00:   GAMMA RAY FROM RESISTIVITY
 CALR.IN     07 280 01 00:   CALIPER FROM RESISTIVITY
 RFOC.OHMM   07 220 01 00:   RESISTIVITY FOCUSED LOG RES.
 RILD.OHMM   07 120 46 00:   DEEP INDUCTION RESISTIVITY
 TENR.LBS    01 635 01 00:   TENSION FROM RES.
 RILM.OHMM   07 120 44 00:   INDUCTION LOG MEDIUM RESISTIVITY
 TENS.LBS    60 635 01 00:   TENSION FROM SONIC LOG
 DT  .US/F   60 520 00 00:   DELTA TIME
 SPR .MV     07 010 01 00:   SPONTANEOUS POTENTIAL
~PARAMETER INFORMATION
#MNEM.UNIT          VALUE    DESCRIPTION
#----------   ------------   ------------------------------
 EKB .F         5068.0000:   Kelly bushing
 EGL .F         5058.0000:   Ground level
 EDF .F            0.0000:   Drilling floor
 TD  .F         4003.0000:   Total depth
 DATE.        28-APR-1983:   Date logged
 CLNT.            A2DTECH:   Client Code
 SL  . 2100' FSL & 1050' FEL:   Surface Location
 PD  .                 GL:   Permanent Datum
 EPD .F              5058:   Elevation Permanent Datum
 LMF .                 KB:   Log Measured From
 DMF .                 KB:   Drilling Measured From
 DAPD.F                10:   Feet Above Permanent Datum
 DD  .F              4000:   Depth driller
 DL  .F              4003:   Depth logger
 BLI .F              4000:   Bottom log interval
 CS1 .IN            8.625:   Casing size
 CBD1.      8.625" @ 498':   Casing driller 1
 CBL1.F               497:   Casing logger 1
 BS1 .IN            7.875:   Bit size
 BSD1.F              4000:   Depth drilled with bit1
 DFT .            KCL/GEL:   Type fluid in hole
 DFD .                  9:   Density
 DFV .                 43:   Viscosity
 DFPH.                8.5:   pH
 DFL .               12.4:   Fluid loss
 MSS .           MUD/TANK:   Source of sample
 RMS .OHMM            .45:   Rm
 MST .F                43:   Rm Meas. temp.
 RMF .OHMM            .27:   Rmf
 MFST.F                51:   Rmf Meas. temp.
 RMC .OHMM            .56:   Rmc
 MCST.F                43:   Rmc Meas. temp.
 MFSS.               MEAS:   Source Rmf.
 MCSS.               CALC:   Source Rmc.
 RMB .OHMM            .16:   Rm. at BHT
 BHT .F               121:   BHT.
 TCS .HRS               7:   Time Circ. stopped
 MRT .F               121:   Maximum recorded temp.
 LUN .               6274:   Logging unit number
 LUL .               GLTE:   Logging unit location
 ENGI.            WACDELL:   Recorded By
 WITN.             STRONG:   Witnessed by
 ORIG.           5" PRINT:   Origin of data
 UWI .     49025109060000:   Unique Well ID
 DICO. A2D TECHNOLOGIES, INC.:   Digitizing Company
~OTHER INFORMATION
~A   DEPT     RHOB       CORR       TEND       NPHI         GRR      CALR       RFOC       RILD       TENR       RILM       TENS         DT        SPR   
# ...
  738.0000  -999.2500  -999.2500  -999.2500  -999.2500    94.1630     9.5570     7.2470     9.1190  -111.5710     9.1090  -999.2500  -999.2500   -13.7820
  738.5000  -999.2500  -999.2500  -999.2500  -999.2500    92.7700     9.5530     7.2470     9.1140  -111.8880     9.1020  -999.2500  -999.2500   -13.8800
  739.0000  -999.2500  -999.2500  -999.2500  -999.2500    89.4710     9.5500     7.2470     9.1090  -112.2040     9.0940  -999.2500  -999.2500   -13.9080
  739.5000  -999.2500  -999.2500  -999.2500  -999.2500    86.0900     9.5460     7.2470     9.1040  -112.5210     9.0870  -999.2500  -999.2500   -13.9130
  740.0000  -999.2500  -999.2500  -999.2500  -999.2500    84.7200     9.5420     7.2470     9.0990  -112.8380     9.0790  -999.2500  -999.2500   -13.9280
  740.5000  -999.2500  -999.2500  -999.2500  -999.2500    85.9940     9.5380     7.2470     9.0950  -113.1550     9.0720  -999.2500  -999.2500   -13.9620
  741.0000  -999.2500  -999.2500  -999.2500  -999.2500    88.6750     9.5350     7.2470     9.0900  -113.4720     9.0640  -999.2500  -999.2500   -14.0000
  741.5000  -999.2500  -999.2500  -999.2500  -999.2500    90.9800     9.5310     7.2470     9.0850  -113.7890     9.0570  -999.2500  -999.2500   -14.0300
  742.0000  -999.2500  -999.2500  -999.2500  -999.2500    92.2070     9.5280     7.2470     9.0800  -114.1060     9.0490  -999.2500  -999.2500   -14.0540
  742.5000  -999.2500  -999.2500  -999.2500  -999.2500    92.9870     9.5230     7.2470     9.0760  -114.4230     9.0440  -999.2500  -999.2500   -14.0790
  743.0000  -999.2500  -999.2500  -999.2500  -999.2500    93.9500     9.5190     7.2470     9.0710  -114.7390     9.0230  -999.2500  -999.2500   -14.1070
  743.5000  -999.2500  -999.2500  -999.2500  -999.2500    94.5340     9.5150     7.2470     9.0660  -115.0560     9.0060  -999.2500  -999.2500   -14.1360
  744.0000  -999.2500  -999.2500  -999.2500  -999.2500    93.4980     9.5140     7.2470     9.0600  -115.3730     8.9900  -999.2500  -999.2500   -14.1650
  744.5000  -999.2500  -999.2500  -999.2500  -999.2500    90.6470     9.5150     7.2480     9.0570  -115.6900     8.9730  -999.2500  -999.2500   -14.1930
  745.0000  -999.2500  -999.2500  -999.2500  -999.2500    87.6840     9.5170     7.2470     9.0490  -116.0070     8.9560  -999.2500  -999.2500   -14.2200
  745.5000  -999.2500  -999.2500  -999.2500  -999.2500    86.9160     9.5190     7.2450     9.0460  -116.3240     8.9400  -999.2500  -999.2500   -14.2480
  746.0000  -999.2500  -999.2500  -999.2500  -999.2500    89.0280     9.5200     7.2410     9.0420  -116.6410     8.9230  -999.2500  -999.2500   -14.2760
  746.5000  -999.2500  -999.2500  -999.2500  -999.2500    92.2540     9.5220     7.2350     9.0060  -116.9580     8.9060  -999.2500  -999.2500   -14.3040
  747.0000  -999.2500  -999.2500  -999.2500  -999.2500    93.9520     9.5230     7.2290     8.9760  -117.2750     8.8890  -999.2500  -999.2500   -14.3330
  747.5000  -999.2500  -999.2500  -999.2500  -999.2500    93.0250     9.5240     7.2230     8.9530  -117.5910     8.8780  -999.2500  -999.2500   -14.3600
  748.0000  -999.2500  -999.2500  -999.2500  -999.2500    90.8260     9.5260     7.2180     8.9240  -117.9080     8.7310  -999.2500  -999.2500   -14.3870
  748.5000  -999.2500  -999.2500  -999.2500  -999.2500    89.6870     9.5270     7.2130     8.9000  -118.2250     8.6210  -999.2500  -999.2500   -14.4150
  749.0000  -999.2500  -999.2500  -999.2500  -999.2500    90.7050     9.5290     7.2080     8.8730  -118.5420     8.5110  -999.2500  -999.2500   -14.4460
  749.5000  -999.2500  -999.2500  -999.2500  -999.2500    92.8980     9.5300     7.2020     8.8470  -118.8590     8.4010  -999.2500  -999.2500   -14.4760
  750.0000  -999.2500  -999.2500  -999.2500  -999.2500    94.3630     9.5320     7.1970     8.8200  -119.1760     8.2910  -999.2500  -999.2500   -14.5010
  750.5000  -999.2500  -999.2500  -999.2500  -999.2500    94.1710     9.5330     7.1910     8.7940  -119.4930     8.1810  -999.2500  -999.2500   -14.5230
  751.0000  -999.2500  -999.2500  -999.2500  -999.2500    93.0500     9.5340     7.1860     8.7680  -119.7390     8.0960  -999.2500  -999.2500   -14.5490
  751.5000  -999.2500  -999.2500  -999.2500  -999.2500    92.3140     9.5360     7.1800     8.7420  -117.2630     8.0690  -999.2500  -999.2500   -14.5860
  752.0000  -999.2500  -999.2500  -999.2500  -999.2500    92.1830     9.5370     7.1750     8.7150  -115.2340     8.0470  -999.2500  -999.2500   -14.6280
  752.5000  -999.2500  -999.2500  -999.2500  -999.2500    91.4030     9.5390     7.1700     8.6890  -113.2060     8.0250  -999.2500  -999.2500   -14.6470
  753.0000  -999.2500  -999.2500  -999.2500  -999.2500    88.5850     9.5400     7.1640     8.6630  -111.1780     8.0030  -999.2500  -999.2500   -14.6100
  753.5000  -999.2500  -999.2500  -999.2500  -999.2500    83.8650     9.5420     7.1590     8.6370  -109.1500     7.9820  -999.2500  -999.2500   -14.5030
  754.0000  -999.2500  -999.2500  -999.2500  -999.2500    79.1750     9.5430     7.1540     8.6100  -107.1220     7.9600  -999.2500  -999.2500   -14.3400
  754.5000  -999.2500  -999.2500  -999.2500  -999.2500    76.7310     9.5450     7.1480     8.5840  -105.0940     7.9380  -999.2500  -999.2500   -14.1620
  755.0000  -999.2500  -999.2500  -999.2500  -999.2500    77.1920     9.5460     7.1430     8.5580  -103.0660     7.9160  -999.2500  -999.2500   -14.0090
  755.5000  -999.2500  -999.2500  -999.2500  -999.2500    79.2830     9.5470     7.1370     8.5310  -101.0380     7.8940  -999.2500  -999.2500   -13.9020
  756.0000  -999.2500  -999.2500  -999.2500  -999.2500    81.1150     9.5480     7.1320     8.5050   -99.0100     7.8720  -999.2500  -999.2500   -13.8420
  756.5000  -999.2500  -999.2500  -999.2500  -999.2500    81.8030     9.5500     7.1260     8.4790   -96.9820     7.8510  -999.2500  -999.2500   -13.8250
  757.0000  -999.2500  -999.2500  -999.2500  -999.2500    82.0050     9.5530     7.1210     8.4530   -94.9540     7.8290  -999.2500  -999.2500   -13.8510
  757.5000  -999.2500  -999.2500  -999.2500  -999.2500    83.2250     9.5540     7.1140     8.4260   -92.9260     7.8020  -999.2500  -999.2500   -13.9170
  758.0000  -999.2500  -999.2500  -999.2500  -999.2500    86.5970     9.5510     7.1000     8.4000   -90.8980     7.7920  -999.2500  -999.2500   -14.0130
  758.5000  -999.2500  -999.2500  -999.2500  -999.2500    91.7990     9.5440     7.0820     8.3860   -88.8700     7.7800  -999.2500  -999.2500   -14.1280
  759.0000  -999.2500  -999.2500  -999.2500  -999.2500    96.6660     9.5330     7.0630     8.3730   -86.8420     7.7670  -999.2500  -999.2500   -14.2590
  759.5000  -999.2500  -999.2500  -999.2500  -999.2500    98.1410     9.5210     7.0450     8.3600   -84.8140     7.7550  -999.2500  -999.2500   -14.4040
  760.0000  -999.2500  -999.2500  -999.2500  -999.2500    94.4490     9.5090     7.0280     8.3460   -82.7860     7.7420  -999.2500  -999.2500   -14.5410
  760.5000  -999.2500  -999.2500  -999.2500  -999.2500    86.9270     9.4990     7.0070     8.3330   -79.6590     7.7300  -999.2500  -999.2500   -14.6230
  761.0000  -999.2500  -999.2500  -999.2500  -999.2500    79.4820     9.4880     6.9860     8.3190   -79.6590     7.7170  -999.2500  -999.2500   -14.6110
  761.5000  -999.2500  -999.2500  -999.2500  -999.2500    75.6670     9.4780     6.9760     8.3060   -80.6590     7.7040  -999.2500  -999.2500   -14.5000
  762.0000  -999.2500  -999.2500  -999.2500  -999.2500    76.1150     9.4660     6.9700     8.2920   -81.3440     7.6920  -999.2500  -999.2500   -14.3360
  762.5000  -999.2500  -999.2500  -999.2500  -999.2500    78.8580     9.4540     6.9590     8.2790   -82.0290     7.6790  -999.2500  -999.2500   -14.1730
  763.0000  -999.2500  -999.2500  -999.2500  -999.2500    81.8730     9.4440     6.9500     8.2650   -82.7140     7.6670  -999.2500  -999.2500   -14.0360
  763.5000  -999.2500  -999.2500  -999.2500  -999.2500    84.7020     9.4360     6.9410     8.2520   -83.3990     7.6540  -999.2500  -999.2500   -13.9160
