~VERSION INFORMATION
 VERS.                2.0:   CWLS LOG ASCII STANDARD - VERSION 2.0
 WRAP.                 NO:   ONE LINE PER DEPTH STEP
~WELL INFORMATION
#MNEM.UNIT      DATA TYPE    INFORMATION
#----------   ------------   ------------------------------
 STRT.F          206.0000:   START DEPTH
 STOP.F         3218.0000:   STOP DEPTH
 STEP.F            0.5000:   STEP LENGTH
 NULL.          -999.2500:   NO VALUE
 COMP.    FENIX & SCISSON:   COMPANY
 WELL.     FENIX AX #16-2:   WELL
 FLD .              NPR 3:   FIELD
 LOC .       S2 T38N R78W:   LOCATION
 CNTY.            NATRONA:   COUNTY
 STAT.            WYOMING:   STATE
 CTRY. UNITED STATES OF AMERICA:   COUNTRY
 SRVC.       SCHLUMBERGER:   SERVICE COMPANY
 DATE.        10-OCT-1977:   LOGDATE
 API .     49025105780000:   API NUMBER
~CURVE INFORMATION
#MNEM.UNIT       API CODE    CURVE DESCRIPTION
#----------   ------------   ------------------------------
 DEPT.F                  :   
 GRD .GAPI   45 310 01 00:   GAMMA RAY FROM DENSITY LOG
 CALD.IN     45 280 60 00:   CALIPER FROM DENSITY LOG
 RHOB.G/C3   45 350 01 00:   BULK DENSITY
 CORR.G/C3   45 356 01 00:   DENSITY CORRECTION
 SPR .MV     07 010 01 00:   SPONTANEOUS POTENTIAL FROM RES.
 RILD.OHMM   07 120 46 00:   DEEP INDUCTION RESISTIVITY
 RILM.OHMM   07 120 44 00:   INDUCTION LOG MEDIUM RESISTIVITY
 RLL8.OHMM   07 220 08 00:   LATEROLOG-8 RES.
~PARAMETER INFORMATION
#MNEM.UNIT          VALUE    DESCRIPTION
#----------   ------------   ------------------------------
 EKB .F         5123.0000:   Kelly bushing
 EGL .F         5113.0000:   Ground level
 EDF .F            0.0000:   Drilling floor
 TD  .F         3220.0000:   Total depth
 CLNT.            A2DTECH:   Client Code
 SL  . 1772' FSL & 576' FWL:   Surface Location
 PD  .                 GL:   Permanent Datum
 EPD .F              5113:   Elevation Permanent Datum
 LMF .                 KB:   Log Measured From
 DMF .                 KB:   Drilling Measured From
 DAPD.F                10:   Feet Above Permanent Datum
 DATE.        10-OCT-1977:   Date Logged [DD-MMM-YYYY]
 DD  .F              3220:   Depth driller
 DL  .F              3218:   Depth logger
 BLI .F              3212:   Bottom log interval
 TLI .F               223:   Top log interval
 CS1 .IN            8.625:   Casing size
 CBD1.      8.625" @ 222':   Casing driller 1
 CBL1.F               223:   Casing logger 1
 BS1 .IN            7.875:   Bit size
 BSD1.F              3220:   Depth drilled with bit1
 DFT .                KCL:   Type fluid in hole
 DFD .                8.6:   Density
 DFV .                 32:   Viscosity
 DFPH.                 11:   pH
 MSS .            MUD PIT:   Source of sample
 RMS .OHMM           0.29:   Rm
 MST .F                82:   Rm Meas. temp.
 RMF .OHMM          0.228:   Rmf
 MFST.F                81:   Rmf Meas. temp.
 MFSS.               MEAS:   Source Rmf.
 RMB .OHMM           0.21:   Rm. at BHT
 BHT .F               122:   BHT.
 TCS .HRS            0600:   Time Circ. stopped
 MRT .F               122:   Maximum recorded temp.
 LUN .               5642:   Logging unit number
 ENGI. CHALUPSKY PETERSON:   Recorded By
 WITN.     WES PETTINGILL:   Witnessed by
 ORIG.           5" PRINT:   Origin of data
 UWI .     49025105780000:   Unique Well ID
 DICO. A2D TECHNOLOGIES, INC.:   Digitizing Company
 TLAB.HRS            1000:   Time logger at bottom
 LUL .               CSPR:   Logging unit location
~OTHER INFORMATION
~A   DEPT       GRD      CALD       RHOB       CORR        SPR       RILD       RILM       RLL8   
# ...
  408.5000   109.2838    11.0837     2.4466    -0.0005   -60.3087     6.4631     5.4573     6.7751
  409.0000   109.1321    11.0394     2.4338    -0.0020   -60.7830     6.3322     5.5818     7.3884
  409.5000   110.0636    11.0399     2.4420     0.0043   -60.3198     6.1160     5.5881     7.3999
  410.0000   111.2309    11.0404     2.4540     0.0109   -59.8599     5.7818     5.5943     6.8437
  410.5000   112.2805    11.0409     2.4247     0.0080   -59.3257     5.3884     5.4428     6.1074
  411.0000   113.4803    11.0583     2.4329     0.0065   -58.3962     4.9152     5.2939     6.0734
  411.5000   113.9296    11.1020     2.4307    -0.0010   -56.5428     4.5157     4.9967     5.8676
  412.0000   113.6275    11.1174     2.4044    -0.0017   -54.9954     4.2996     4.6889     4.3828
  412.5000   111.6740    11.1629     2.3351     0.0006   -54.5210     4.2125     4.5093     3.0700
  413.0000   109.1200    11.1783     2.2824     0.0059   -54.8994     4.1272     4.3872     2.6076
  413.5000   108.5180    11.2387     2.2002     0.0240   -54.6338     4.1314     4.3921     2.8437
  414.0000   108.8168    11.3740     2.1552     0.0497   -53.9408     4.3797     4.4285     3.5013
  414.5000   113.0437    12.0781     2.1559    -0.0113   -53.9563     4.9149     4.4973     4.2196
  415.0000   116.1410    12.6025     2.2714    -0.0066   -54.4280     5.3220     4.6329     4.9070
  415.5000   120.6739    11.4054     2.4267     0.0159   -54.8802     5.7629     4.7726     5.3895
  416.0000   120.2220    11.4660     2.4401    -0.0014   -55.4531     6.1958     4.9165     5.9619
  416.5000   116.6169    11.5413     2.4461     0.0001   -55.9998     6.6612     5.1376     6.4632
  417.0000   113.1620    11.6317     2.4581     0.0017   -56.5419     7.0599     5.4072     6.7448
  417.5000   111.5089    11.7070     2.4536     0.0040   -57.0886     7.1686     5.5312     6.5160
  418.0000   110.9068    11.7674     2.4543     0.0100   -57.9667     7.0234     5.6974     6.3371
  418.5000   111.2056    11.7979     2.4618     0.0161   -59.1118     6.9305     5.8002     6.3904
  419.0000   111.5045    11.8133     2.4722     0.0169   -59.7152     6.9872     5.9618     6.4886
  419.5000   111.2027    11.8291     2.4830     0.0041   -60.0516     7.1039     6.0979     6.4620
  420.0000   106.5466    11.8892     2.4992     0.0041   -60.3850     7.2572     6.2370     6.4239
  420.5000   109.4161    11.9497     2.5127     0.0103   -60.4478     7.2643     6.2888     6.3860
  421.0000   112.2490    12.0401     2.5065     0.0118   -59.5488     7.1172     6.3410     6.3941
  421.5000   112.6980    12.1304     2.5004     0.0141   -58.9780     7.0213     6.3481     6.3548
  422.0000   112.9972    12.1908     2.4863     0.0194   -58.8939     7.0299     6.3082     6.4071
  422.5000   112.6950    12.2362     2.4712     0.0149   -57.6434     7.0368     6.2703     6.4136
  423.0000   109.8407    12.2816     2.4637     0.0044   -55.9428     6.9420     6.1459     6.4647
  423.5000   106.5359    12.3270     2.4667     0.0059   -54.6462     6.8031     6.1089     6.4712
  424.0000   107.5855    12.3725     2.4824     0.0135   -53.7740     6.8586     5.9425     6.4331
  424.5000   109.6861    12.4050     2.4899     0.0135   -53.4016     6.8655     5.6528     6.3510
  425.0000   109.6847    12.4634     2.4786     0.0121   -53.5637     6.9299     5.3837     6.2268
  425.5000   108.1396    12.5238     2.4643     0.0008   -53.3976     7.0800     5.2439     6.1009
  426.0000   107.4291    12.5992     2.4485    -0.0014   -53.9980     7.4504     5.6000     5.9046
  426.5000   106.6769    12.6745     2.4410    -0.0037   -54.9454     8.4209     6.2853     6.1189
  427.0000   104.4232    12.7649     2.4425    -0.0044   -54.9788     9.1184     6.7103     6.8428
  427.5000   104.1214    12.8552     2.4522     0.0183   -55.4126     9.8736     7.0121     7.3409
  428.0000   103.9698    12.9455     2.5032     0.0131   -55.9072     9.7431     7.3275     7.4508
  428.5000   101.5659    13.0368     2.4807    -0.0005   -56.3776     8.2746     7.2316     7.5624
  429.0000   100.5134    13.1134     2.4574    -0.0004   -57.4544     5.8360     6.7888     7.5178
  429.5000   100.8123    13.1867     2.4102    -0.0012   -58.6361     4.7825     5.8494     7.1198
  430.0000   100.5105    13.2171     2.3308    -0.0041   -59.1309     4.0234     4.6925     4.6714
  430.5000    98.5571    13.2476     2.2468    -0.0094   -59.6916     3.9794     4.4367     3.2787
  431.0000    98.8739    13.2930     2.0979    -0.0011   -59.4906     4.9004     4.5735     2.1556
  431.5000    99.6048    13.3833     2.0754     0.0767   -59.1804     4.6338     4.7478     2.0269
  432.0000    96.4502    13.6383     1.9943     0.0128   -58.9877     4.3185     4.8864     2.8891
  432.5000    92.2445    15.5550     1.9973    -0.0130   -58.7546     3.9675     4.8919     4.6960
  433.0000    94.6455    15.0323     2.3536     0.0021   -57.4456     4.6475     5.0035     8.5866
  433.5000    96.1455    13.6998     2.4663     0.0014   -55.7934     8.0647     5.2660     8.8367
  434.0000    95.8437    13.7004     2.4863    -0.0023   -54.7152    10.4406     5.5029     8.7163
  434.5000    96.8933    13.7608     2.4803    -0.0038   -53.4826    11.7166     5.9171     8.4378
  435.0000    98.8438    13.8061     2.5005    -0.0008   -52.5657    12.2418     6.4081     7.9360
  435.5000   100.6441    13.8217     2.5042     0.0061   -52.2168    12.2538     6.6963     7.4640
  436.0000   102.3103    13.8821     2.4867    -0.0075   -52.2343     9.3491     6.7106     7.1675
  436.5000   102.8934    13.9425     2.4629    -0.0067   -52.1839     8.2309     6.5690     7.0761
  437.0000   102.7415    14.0029     2.4681    -0.0036   -52.3841     8.2390     6.3453     7.0832
  437.5000   101.9893    14.0633     2.4771    -0.0036   -52.5840     8.4257     6.3075     7.0904
  438.0000   100.9367    14.1386     2.4718    -0.0019   -52.8727     8.6167     6.3221     7.1008
  438.5000   100.6353    14.2140     2.4733     0.0073   -53.4382     8.8752     6.6954     7.1542
  439.0000   101.2345    14.3206     2.4935     0.0199   -54.0256     9.2070     7.3030     7.2819
  439.5000   100.1816    14.4269     2.4943     0.0177   -54.1554     9.6887     7.5772     8.8262
  440.0000    95.4023    14.5450     2.4628     0.0170   -54.2619    10.2687     7.7500    10.7257
  440.5000    89.0900    14.6503     2.4392     0.0110   -54.9104    10.7291     7.7587    11.1921
  441.0000    82.3091    14.7257     2.3974     0.0042   -55.1553    11.3753     8.4628    11.4386
  441.5000    77.2025    14.8010     2.3658     0.0178   -55.1733    11.8084     9.7739    11.6099
  442.0000    73.1470    14.9063     2.3538     0.0117   -54.7603    12.3283    10.8888    11.7838
  442.5000    70.5929    14.9817     2.3515     0.0149   -53.8522    12.8809     9.5198    12.6415
  443.0000    68.3392    15.0421     2.3485     0.0157   -53.0660    12.9860     9.3951    13.7699
  443.5000    66.0855    14.9970     2.3385     0.0174   -51.0052    12.7230     9.3388    12.4011
  444.0000    64.1321    15.0030     2.3244     0.0316   -48.9444    12.3766     9.2827    11.6479
  444.5000    63.3799    15.2084     2.3019     0.0211   -46.5526    12.0397     9.0863    10.7520
  445.0000    65.3804    15.3287     2.2883     0.0060   -44.3448    12.0514     8.7266    10.3940
  445.5000    67.6292    15.4190     2.2867     0.0068   -43.1243    12.1497     8.6100    10.4795
  446.0000    68.9307    15.5093     2.2823     0.0076   -42.6512    12.2489     8.8089    11.0112
  446.5000    69.2299    15.6146     2.2703     0.0107   -42.3275    12.4407     9.9578    11.7528
  447.0000    65.9247    15.6900     2.2620     0.0167   -42.1533    12.8225    11.0968    12.8493
  447.5000    62.7701    15.7654     2.2680     0.0213   -41.9791    13.4840    11.9321    14.3694
  448.0000    61.2671    15.8116     2.2844    -0.0013   -41.8049    13.8885    11.4442    15.8484
  448.5000    62.4669    15.8562     2.3032     0.0071   -41.7802    13.8031    10.2926    15.8644
