~VERSION INFORMATION
 VERS.                2.0:   CWLS LOG ASCII STANDARD - VERSION 2.0
 WRAP.                 NO:   ONE LINE PER DEPTH STEP
~WELL INFORMATION
#MNEM.UNIT      DATA TYPE    INFORMATION
#----------   ------------   ------------------------------
 STRT.F          720.0000:   START DEPTH
 STOP.F         3416.0000:   STOP DEPTH
 STEP.F            0.5000:   STEP LENGTH
 NULL.          -999.2500:   NO VALUE
 COMP.    FENIX & SCISSON:   COMPANY
 WELL.  FENIX "AX" #31-14:   WELL
 FLD .                NPR:   FIELD
 LOC .      S14 T38N R78W:   LOCATION
 CNTY.            NATRONA:   COUNTY
 STAT.            WYOMING:   STATE
 CTRY. UNITED STATES OF AMERICA:   COUNTRY
 SRVC.       SCHLUMBERGER:   SERVICE COMPANY
 DATE.        04-JUN-1981:   LOGDATE
 API .     49025108730000:   API NUMBER
~CURVE INFORMATION
#MNEM.UNIT       API CODE    CURVE DESCRIPTION
#----------   ------------   ------------------------------
 DEPT.F                  :   
 TEND.LBS    45 635 01 00:   TENSION FROM DENSITY LOG
 CORR.G/C3   45 356 01 00:   DENSITY CORRECTION
 RHOB.G/C3   45 350 01 00:   BULK DENSITY
 CALD.IN     45 280 60 00:   CALIPER FROM DENSITY LOG
 GRD .GAPI   45 310 01 00:   GAMMA RAY FROM DENSITY LOG
 SPR .MV     07 010 01 00:   SPONTANEOUS POTENTIAL
 SFL .OHMM   07 220 01 00:   SHALLOW FOCUSED LOG RESISTIVITY
 ILD .OHMM   07 120 46 00:   INDUCTION LOG DEEP RESISTIVITY
 ILM .OHMM   07 120 44 00:   INDUCTION LOG MEDIUM RESISTIVITY
 TENR.LBS    07 635 01 00:   TENSION FROM RESISTIVITY
~PARAMETER INFORMATION
#MNEM.UNIT          VALUE    DESCRIPTION
#----------   ------------   ------------------------------
 EKB .F         5196.0000:   Kelly bushing
 EGL .F         5186.0000:   Ground level
 EDF .F            0.0000:   Drilling floor
 TD  .F         3402.0000:   Total depth
 DATE.        04-JUN-1981:   Date logged
 CLNT.            A2DTECH:   Client Code
 SL  . 377' FWL & 1733' FWL:   Surface Location
 PD  .                 GL:   Permanent Datum
 DD  .F              3400:   Depth driller
 DL  .F              3402:   Depth logger
 BLI .F              3395:   Bottom log interval
 TLI .F               720:   Top log interval
 CS1 .IN            8.625:   Casing size
 CBD1.      8.625" @ 707':   Casing driller 1
 CBL1.F               751:   Casing logger 1
 BS1 .IN            7.875:   Bit size
 BSD1.F              3400:   Depth drilled with bit1
 DFT .                FGM:   Type fluid in hole
 DFD .                8.8:   Density
 DFV .                 55:   Viscosity
 DFPH.                9.5:   pH
 DFL .                  9:   Fluid loss
 MSS .           MUD TANK:   Source of sample
 RMS .OHMM            1.7:   Rm
 MST .F                78:   Rm Meas. temp.
 RMF .OHMM           1.45:   Rmf
 MFST.F                78:   Rmf Meas. temp.
 MFSS.               MEAS:   Source Rmf.
 RMB .OHMM           1.12:   Rm. at BHT
 BHT .F               118:   BHT.
 TCS .HRS            1200:   Time Circ. stopped
 TLAB.HRS            1600:   Time logger at bottom
 MRT .F               118:   Maximum recorded temp.
 LUN .               8043:   Logging unit number
 LUL .             CASPER:   Logging unit location
 ENGI.             LARSON:   Recorded By
 WITN.              FIVAS:   Witnessed by
 ORIG.      2.5" 5" PRINT:   Origin of data
 UWI .     49025108730000:   Unique Well ID
 DICO. A2D TECHNOLOGIES, INC.:   Digitizing Company
 EPD .               5186:   Elevation Permanent Datum
 LMF .                 KB:   Log Measured From
 DMF .                 KB:   Drilling Measured From
 DAPD.                 10:   Feet Above Permanent Datum
~OTHER INFORMATION
~A   DEPT     TEND       CORR       RHOB       CALD         GRD       SPR        SFL        ILD        ILM       TENR   
# ...
 1289.5000  1022.2670    -0.0010     2.4930     8.7240   105.0570   -13.2640     8.6070     8.1600     7.2860  1088.2960
 1290.0000  1022.2670     0.0010     2.5110     8.7230   103.1630   -13.2670     8.7410     8.1600     7.2860  1088.2960
 1290.5000  1022.2670     0.0280     2.5430     8.7230   100.1990   -13.2630     8.8000     8.1590     7.2860  1088.2960
 1291.0000  1022.2670     0.0380     2.5650     8.7230    97.0990   -13.2540     8.8000     8.1580     7.2860  1088.2960
 1291.5000  1022.2670     0.0320     2.5560     8.7220    97.0120   -13.0250     8.8000     8.1240     7.2860  1088.2960
 1292.0000  1022.2670     0.0140     2.5440     8.7220    98.6820   -12.7770     8.7540     8.0860     7.2860  1088.2960
 1292.5000  1022.2670     0.0000     2.5410     8.7220   100.6130   -12.5170     8.6920     8.0490     7.2860  1088.2960
 1293.0000  1022.2670     0.0130     2.5540     8.7210   101.7000   -12.2690     8.6300     8.0090     7.2870  1088.2960
 1293.5000  1022.2670     0.0230     2.5690     8.7210    99.7530   -12.0560     8.5680     7.9840     7.2860  1088.2960
 1294.0000  1022.2670     0.0230     2.5740     8.7210    97.6770   -12.1290     8.4740     7.9590     7.2880  1088.2960
 1294.5000  1022.2670     0.0150     2.5500     8.7210    97.7180   -12.1980     8.5230     7.9330     7.2910  1088.2960
 1295.0000  1022.2670     0.0030     2.5210     8.7200    98.2360   -12.2790     8.6350     7.9080     7.2810  1088.2960
 1295.5000  1022.2670     0.0000     2.5100     8.7200    98.7740   -12.3520     8.6350     7.8830     7.3010  1088.2960
 1296.0000  1022.2670    -0.0010     2.5010     8.7200    98.5020   -12.4280     8.5560     7.8570     7.1360  1088.2960
 1296.5000  1022.2670     0.0000     2.5020     8.7190    97.5410   -12.5050     8.4830     7.8320     7.1550  1088.2960
 1297.0000  1022.2670     0.0020     2.5030     8.7190    96.9620   -12.5800     8.4090     7.8060     7.1460  1088.2960
 1297.5000  1022.2670     0.0010     2.4980     8.7190    97.2770   -12.6560     8.3350     7.7810     7.1520  1088.2960
 1298.0000  1022.2670     0.0010     2.4950     8.7180   100.4770   -12.7320     8.2620     7.7550     7.1480  1088.2960
 1298.5000  1022.2670     0.0010     2.5020     8.7180   103.0810   -12.8080     8.1880     7.7300     7.1540  1088.2960
 1299.0000  1022.2670     0.0040     2.5120     8.7180   102.7460   -12.8840     8.1600     7.7040     7.1450  1088.2960
 1299.5000  1022.2670     0.0070     2.5220     8.7180   102.7330   -12.9600     8.1410     7.6790     7.1640  1088.2960
 1300.0000  1022.2670     0.0090     2.5170     8.7170   104.4280   -13.0350     8.0940     7.6540     7.0020  1088.2960
 1300.5000  1022.2670     0.0080     2.5110     8.7170   105.7040   -13.1130     8.0470     7.6280     7.0210  1088.2960
 1301.0000  1022.2670     0.0070     2.5050     8.7170   103.9390   -13.1860     8.0000     7.6020     7.0120  1088.2960
 1301.5000  1022.2670     0.0050     2.5060     8.7160   103.4180   -13.2570     7.9530     7.5680     7.0150  1088.2960
 1302.0000  1022.2670     0.0030     2.5070     8.7160   104.0190   -13.1970     7.9060     7.5860     7.0160  1088.2960
 1302.5000  1022.2670     0.0020     2.5110     8.7160   103.2030   -13.1300     7.8580     7.6250     7.0170  1088.2960
 1303.0000  1022.2670     0.0040     2.5150     8.7150   102.3630   -13.0590     7.9290     7.6640     7.0160  1088.2960
 1303.5000  1022.2670     0.0060     2.5190     8.7150   102.3890   -12.9910     8.0560     7.7010     7.0290  1088.2960
 1304.0000  1022.2670     0.0080     2.5190     8.7150   106.2330   -12.9220     8.1830     7.7390     7.0460  1088.2960
 1304.5000  1022.2940     0.0110     2.5170     8.7140   108.0760   -12.8530     8.3110     7.7760     7.0640  1088.2960
 1305.0000  1022.5370     0.0110     2.5150     8.7140   105.8000   -12.7840     8.4380     7.8140     7.0810  1088.2960
 1305.5000  1022.7800     0.0120     2.5150     8.7140   102.9540   -12.7150     8.5250     7.8520     7.0980  1088.2960
 1306.0000  1023.0240     0.0140     2.5100     8.7140   100.2960   -12.6460     8.6860     7.8900     7.1150  1088.2960
 1306.5000  1023.2670     0.0180     2.5070     8.7130    99.9930   -12.5770     8.8000     7.9270     7.1320  1088.2960
 1307.0000  1023.5110     0.0210     2.5110     8.7130   100.0100   -12.5080     8.7540     7.9640     7.1490  1088.2960
 1307.5000  1023.7540     0.0210     2.5190     8.7130   100.2700   -12.4390     8.7030     8.0090     7.1670  1088.2960
 1308.0000  1023.9970     0.0170     2.5180     8.7120    98.7280   -12.3700     8.6520     8.0070     7.1840  1088.2960
 1308.5000  1024.2410     0.0080     2.5160     8.7120    96.7950   -12.3010     8.6350     8.0080     7.2010  1088.2960
 1309.0000  1024.4840     0.0060     2.5150     8.7120    95.7290   -12.2320     8.6620     8.0080     7.2180  1088.2960
 1309.5000  1024.7280     0.0080     2.5150     8.7110    97.0040   -12.1630     8.7210     8.0070     7.2350  1088.2960
 1310.0000  1024.9709     0.0120     2.5190     8.7110    98.3510   -12.0920     8.7800     8.0070     7.2520  1088.2960
 1310.5000  1025.2140     0.0140     2.5300     8.7110    98.1410   -12.0580     8.8390     8.0070     7.2690  1088.2960
 1311.0000  1025.4580     0.0120     2.5410     8.7110    97.7740   -12.1260     8.8980     8.0070     7.2860  1088.2960
 1311.5000  1025.7010     0.0080     2.5450     8.7100    98.6530   -12.1910     8.9670     8.0070     7.2740  1088.2960
 1312.0000  1025.9440     0.0030     2.5350     8.7100    99.0250   -12.2590     9.1380     8.0070     7.2640  1088.2960
 1312.5000  1026.1880    -0.0020     2.5190     8.7100    97.8120   -12.3270     9.1380     8.0070     7.2530  1088.2960
 1313.0000  1026.4310    -0.0030     2.5020     8.7090    96.5680   -12.3940     8.9350     8.0070     7.2410  1088.2960
 1313.5000  1026.6750    -0.0030     2.4920     8.7090    96.0880   -12.4610     8.6800     8.0070     7.2300  1088.2960
 1314.0000  1026.9180     0.0040     2.4950     8.7090   100.0610   -12.5290     8.4240     8.0070     7.2190  1088.2960
 1314.5000  1027.1610     0.0050     2.5060     8.7080   104.8700   -12.5970     8.3150     8.0070     7.2080  1088.2960
 1315.0000  1027.4050     0.0040     2.5160     8.7080   105.3280   -12.6620     8.3150     8.0070     7.1970  1088.2960
 1315.5000  1027.6479     0.0020     2.5160     8.7080   104.8680   -12.7340     8.3150     8.0070     7.1860  1088.2960
 1316.0000  1027.8910     0.0030     2.5160     8.7080   104.5190   -12.7970     8.4150     8.0070     7.1740  1088.2960
 1316.5000  1028.1350     0.0120     2.5180     8.7070   105.9680   -12.8380     8.5490     8.0070     7.1630  1088.2960
 1317.0000  1028.3781     0.0170     2.5290     8.7070   106.8690   -12.6210     8.6820     8.0070     7.1520  1088.2960
 1317.5000  1028.6219     0.0200     2.5400     8.7070   105.3650   -12.4280     8.8000     8.0070     7.1410  1088.2960
 1318.0000  1028.8650     0.0150     2.5410     8.7060   104.8850   -12.2220     8.8000     8.0070     7.1300  1088.2960
 1318.5000  1029.1080     0.0080     2.5370     8.7060   105.7760   -12.0180     8.6950     8.0080     7.1190  1088.2960
 1319.0000  1029.3521     0.0060     2.5320     8.7060   107.5320   -11.8180     8.5790     8.0070     7.1080  1088.2960
 1319.5000  1029.5950     0.0050     2.5280     8.7050   108.6440   -11.6460     8.4740     8.0080     7.0960  1088.2960
 1320.0000  1029.8390     0.0010     2.5130     8.7050   106.8830   -11.7100     8.8000     8.0060     7.0850  1088.2960
 1320.5000  1030.0820    -0.0020     2.4930     8.7050   105.6730   -11.7710     8.8730     8.0120     7.0740  1088.2960
 1321.0000  1030.3250    -0.0050     2.4910     8.7050   108.1050   -11.8430     8.9670     7.9090     7.0630  1088.2960
 1321.5000  1030.5690    -0.0080     2.4910     8.7040   111.2370   -11.9080     8.9670     7.8180     7.0510  1088.2960
 1322.0000  1030.8120    -0.0080     2.4910     8.7040   114.3650   -11.9760     8.8490     7.7270     7.0400  1088.2960
 1322.5000  1031.0551    -0.0070     2.4950     8.7040   116.8860   -12.0440     8.6660     7.6360     7.0280  1088.2960
