~VERSION INFORMATION
 VERS.                2.0:   CWLS LOG ASCII STANDARD - VERSION 2.0
 WRAP.                 NO:   ONE LINE PER DEPTH STEP
~WELL INFORMATION
#MNEM.UNIT      DATA TYPE    INFORMATION
#----------   ------------   ------------------------------
 STRT.F          517.0000:   START DEPTH
 STOP.F         3222.0000:   STOP DEPTH
 STEP.F            0.5000:   STEP LENGTH
 NULL.          -999.2500:   NO VALUE
 COMP.    FENIX & SCISSON:   COMPANY
 WELL.  FENIX "TX" #53-33:   WELL
 FLD .             NPR #3:   FIELD
 LOC .      S33 T39N R78W:   LOCATION
 CNTY.            NATRONA:   COUNTY
 STAT.            WYOMING:   STATE
 CTRY. UNITED STATES OF AMERICA:   COUNTRY
 SRVC.              WELEX:   SERVICE COMPANY
 DATE.        24-AUG-1980:   LOGDATE
 API .     49025108460000:   API NUMBER
~CURVE INFORMATION
#MNEM.UNIT       API CODE    CURVE DESCRIPTION
#----------   ------------   ------------------------------
 DEPT.F                  :   
 CALD.IN     45 280 60 00:   CALIPER FROM DENSITY LOG
 GRD .GAPI   45 310 01 00:   GAMMA RAY FROM DENSITY LOG
 CORR.G/C3   45 356 01 00:   DENSITY CORRECTION
 RHOB.G/C3   45 350 01 00:   BULK DENSITY
 SPR .MV     07 010 01 00:   SPONTANEOUS POTENTIAL
 ILD .OHMM   07 120 46 00:   DEEP INDUCTION RESISTIVITY
 ILM .OHMM   07 120 44 00:   INDUCTION LOG MEDIUM RESISTIVITY
 SGRD.OHMM   07 220 05 00:   SHALLOW SHORT GUARD RESISTIVITY
~PARAMETER INFORMATION
#MNEM.UNIT          VALUE    DESCRIPTION
#----------   ------------   ------------------------------
 EKB .F         5173.0000:   Kelly bushing
 EGL .F         5163.0000:   Ground level
 EDF .F            0.0000:   Drilling floor
 EPD .F            0.0000:   Permanent datum
 TD  .F         3224.0000:   Total depth
 CLNT.            A2DTECH:   Client Code
 SL  . 1650' FNL & 2500' FEL:   Surface Location
 PD  .                 GL:   Permanent Datum
 DAPD.F                10:   Feet Above Permanent Datum
 DATE.        24-AUG-1980:   Date Logged [DD-MMM-YYYY]
 DD  .F              3190:   Depth driller
 DL  .F              3224:   Depth logger
 BLI .F              3222:   Bottom log interval
 TLI .F               528:   Top log interval
 CS1 .IN            8.625:   Casing size
 CBD1.      8.625" @ 532':   Casing driller 1
 CBL1.F               528:   Casing logger 1
 BS1 .IN            7.875:   Bit size
 BSD1.F              3190:   Depth drilled with bit1
 DFT .     WATER BASE MUD:   Type fluid in hole
 DFD .                8.8:   Density
 DFV .                 45:   Viscosity
 DFL .                9.4:   Fluid loss
 MSS .            MUD PIT:   Source of sample
 RMS .OHMM           2.10:   Rm
 MST .F                65:   Rm Meas. temp.
 RMF .OHMM           1.68:   Rmf
 MFST.F                65:   Rmf Meas. temp.
 MFSS.               CALC:   Source Rmf.
 RMC .OHMM           2.52:   Rmc
 MCST.F                65:   Rmc Meas. temp.
 MCSS.               CALC:   Source Rmc.
 RMB .OHMM           1.14:   Rm. at BHT
 BHT .F               120:   BHT.
 TCS .HRS               3:   Time Circ. stopped
 MRT .F               120:   Maximum recorded temp.
 LUN .               1892:   Logging unit number
 LUL .             CASPER:   Logging unit location
 ENGI.           WACHTEIL:   Recorded By
 ORIG.         2.5" PRINT:   Origin of data
 UWI .     49025108460000:   Unique Well ID
 DICO. A2D TECHNOLOGIES, INC.:   Digitizing Company
~OTHER INFORMATION
~A   DEPT     CALD         GRD      CORR       RHOB        SPR        ILD        ILM       SGRD   
# ...
 2663.5000     9.9251    95.9570     0.0776     2.5829   -22.1370     6.4759     8.9010     9.5788
 2664.0000     9.9239    97.9497     0.0715     2.5751   -22.1501     6.3848     9.0224     9.4437
 2664.5000     9.9227    98.3923     0.0653     2.5776   -22.1637     6.3832     9.0196     9.4400
 2665.0000     9.9214    97.9281     0.0774     2.5902   -21.8754     6.3815     9.0172     9.4492
 2665.5000     9.9202    97.4655     0.0865     2.5949   -21.7914     6.3798     9.1405     9.5904
 2666.0000     9.9188    97.0029     0.0743     2.5868   -21.6036     6.3781     9.2652     9.8277
 2666.5000     9.9177    96.5039     0.0773     2.5748   -21.3168     6.4723     9.4020    10.0163
 2667.0000     9.9165    95.6259     0.0613     2.5461   -21.0325     6.5695     9.5200    10.3073
 2667.5000     9.9154    96.0670     0.0482     2.5430   -21.0454     6.7355     9.6500    10.5165
 2668.0000     9.9142    95.2772     0.0496     2.5627   -21.0583     6.8627     9.7818    10.8059
 2668.5000     9.9130    94.4824     0.0587     2.5778   -21.0712     6.9658     9.9148    11.1045
 2669.0000     9.9118    93.5675     0.0678     2.5854   -21.0859     7.1224     9.9907    11.4105
 2669.5000     9.9106    94.2131     0.0647     2.5847   -21.4289     7.2643    10.3287    11.4060
 2670.0000     9.9094    91.0377     0.0463     2.5722   -21.7717     7.4544    10.6155    11.5601
 2670.5000     9.9082    89.6715     0.0368     2.5650   -22.1144     7.6718    10.7605    11.5550
 2671.0000     9.9069    89.2089     0.0377     2.5639   -22.3393     7.8264    11.2134    11.5502
 2671.5000     9.9055    90.5535     0.0401     2.5668   -22.3528     7.9336    11.3665    11.6165
 2672.0000     9.9045    88.1390     0.0412     2.5820   -22.3690     8.1536    11.5218    12.3068
 2672.5000     9.9032    85.5610     0.0460     2.5971   -22.6822     8.2650    11.6791    13.2431
 2673.0000     9.9323    85.0979     0.0673     2.6108   -22.3948     8.3779    11.8387    13.4226
 2673.5000     9.9311    85.0866     0.0886     2.6153   -22.4077     8.3897    11.8348    13.4167
 2674.0000     9.9299    85.5271     0.0861     2.6061   -22.4206     8.5158    11.8316    13.2275
 2674.5000     9.9287    85.7750     0.0763     2.6015   -22.1125     8.6060    11.6653    12.8507
 2675.0000     9.9275    87.3100     0.0671     2.6047   -21.8458     8.6033    11.5021    12.3067
 2675.5000     9.9263    87.2992     0.0609     2.6098   -21.5584     8.6009    11.3411    11.9057
 2676.0000     9.9251    86.8366     0.0761     2.6120   -21.3694     8.4800    11.0288    11.4435
 2676.5000     9.9239    86.8258     0.0602     2.5913   -21.2868     8.2465    10.5712    11.0311
 2677.0000     9.9224    88.2062     0.0388     2.5444   -21.3003     8.0194    10.2661    10.8744
 2677.5000     9.9213    89.6959     0.0271     2.5267   -21.2162     7.7986     9.9698    10.5740
 2678.0000     9.9201    91.0626     0.0362     2.5510   -21.0270     7.5832     9.7274    10.4249
 2678.5000     9.9190    91.3007     0.0483     2.5646   -21.0416     7.3642     9.4025    10.2779
 2679.0000     9.9178    90.1974     0.0513     2.5721   -21.3547     7.1517     9.0641     9.4570
 2679.5000     9.9166    89.0458     0.0513     2.5751   -21.3789     6.9453     8.5815     8.8107
 2680.0000     9.9457    88.5542     0.0543     2.5749   -21.7217     6.7448     8.1175     8.5318
 2680.5000     9.9444    88.0911     0.0606     2.5713   -22.0644     6.5055     7.6786     8.1928
 2681.0000     9.9526    88.7363     0.0724     2.5644   -22.4075     6.1525     7.2635     7.8459
 2681.5000     9.9724    90.3696     0.0614     2.5519   -22.6231     5.9831     6.9610     7.5653
 2682.0000    10.0012    92.5734     0.0528     2.5398   -22.6366     5.7580     6.5669     7.1565
 2682.5000    10.0000    93.9180     0.0555     2.5246   -22.3523     5.3824     6.2815     6.6764
 2683.0000     9.9986    94.3599     0.0630     2.5231   -22.0649     5.0067     6.0082     6.1431
 2683.5000     9.9974    96.1554     0.0721     2.5215   -22.0778     4.6311     5.6678     5.4985
 2684.0000    10.0266    97.0602     0.0629     2.5215   -21.7898     4.2874     5.3296     4.7839
 2684.5000    10.0253    99.4881     0.0690     2.5168   -21.5030     4.0556     4.8542     4.3816
 2685.0000    10.0544   105.8818     0.0780     2.4954   -21.5165     3.7759     4.5287     3.8351
 2685.5000    10.0532   110.7796     0.0966     2.4603   -21.4710     3.4605     4.2250     4.6950
 2686.0000    10.0520   121.6889     0.0993     2.4241   -21.2414     3.1712     3.9417     4.7879
 2686.5000    10.0508   128.6007     0.0523     2.3928   -21.2568     2.8529     3.6751     4.3887
 2687.0000    10.0495   126.1499     0.0138     2.3979   -20.9700     2.5751     3.3173     3.8818
 2687.5000    10.0483   122.2685     0.0290     2.4238   -20.9862     2.3242     2.8892     3.4745
 2688.0000    10.0773   124.0650     0.0502     2.4344   -20.9991     2.0840     2.4004     3.1531
 2688.5000    10.0759   132.1867     0.0654     2.4404   -21.3123     1.9176     2.1361     2.8222
 2689.0000    10.0748   137.5976     0.0837     2.4434   -21.6254     1.7890     1.9845     2.6673
 2689.5000    10.1039   143.1344     0.1080     2.4434   -21.6383     1.6923     1.9165     2.5957
 2690.0000    10.1027   148.8694     0.1354     2.4334   -21.9520     1.6216     1.8897     2.5946
 2690.5000    10.1015   152.4731     0.1573     2.4071   -22.0144     1.5539     1.8632     2.6298
 2691.0000    10.0701   153.8177     0.1706     2.3770   -22.2793     1.5090     1.8372     2.7379
 2691.5000    10.0387   155.2340     0.1818     2.3589   -22.5931     1.4721     1.8115     2.9647
 2692.0000    10.0375   156.9588     0.1839     2.3490   -22.6066     1.4717     1.8386     3.2755
 2692.5000    10.0060   150.6745     0.1640     2.3606   -22.6201     1.5027     1.8973     3.0982
 2693.0000    10.0048   139.3131     0.1868     2.3548   -22.3356     1.5981     2.0439     3.1838
 2693.5000     9.9880   137.0433     0.1990     2.3274   -22.3485     1.7600     2.4743     4.1372
 2694.0000     9.9720   134.7734     0.1715     2.2757   -22.3614     1.9654     2.9750     6.3788
 2694.5000     9.9708   131.1482     0.1226     2.2012   -22.3743     2.1646     3.3694     6.5203
 2695.0000     9.9697   116.8007     0.0098     2.2731   -22.0869     2.3795     3.6599     6.2529
 2695.5000     9.9685   109.7624     0.0243     2.4360   -21.7995     2.6345     3.9755     6.2503
 2696.0000     9.9976    96.8616     0.0639     2.5361   -21.8138     2.8894     4.3183     6.3792
 2696.5000     9.9964    88.6352     0.0797     2.5313   -21.8273     3.1444     4.6263     6.6911
 2697.0000     9.9952    89.9774     0.0723     2.5169   -21.7146     3.3994     4.9778     7.0682
 2697.5000     9.9872    87.6471     0.0643     2.5055   -21.5541     3.6764     5.4234     7.5705
 2698.0000     9.9625    84.9829     0.0521     2.5011   -21.5701     3.9109     5.8339     7.9973
 2698.5000     9.9613    84.5203     0.0459     2.5275   -21.5830     4.2409     6.2757     8.5712
 2699.0000     9.9601    83.1541     0.0489     2.5381   -21.5958     4.5858     6.8448     9.0966
 2699.5000     9.9589    83.1433     0.0610     2.5532   -21.6087     5.0699     7.5253    10.1255
 2700.0000     9.9575    82.6807     0.0671     2.5729   -21.9219     5.9222     8.8442    11.9255
 2700.5000     9.9564    81.3140     0.0637     2.5856   -22.5650     6.7054     9.8762    13.3626
 2701.0000     9.9552    80.1457     0.0556     2.5941   -23.1502     7.5921    11.1823    14.3545
 2701.5000     9.9540    74.3962     0.0558     2.5891   -23.1637     8.1335    11.9797    14.6406
 2702.0000     9.9529    70.7257     0.0644     2.5835   -23.2932     8.8431    12.3227    14.2352
 2702.5000     9.9517    69.7704     0.0633     2.5622   -23.4910     9.3673    12.4806    13.8419
 2703.0000     9.9505    71.0062     0.0394     2.5578   -23.2042     9.7867    12.4769    13.4596
 2703.5000     9.9492    72.2259     0.0278     2.5817   -23.2198    10.2243    12.3021    12.8982
