~VERSION INFORMATION
 VERS.                2.0:   CWLS LOG ASCII STANDARD - VERSION 2.0
 WRAP.                 NO:   ONE LINE PER DEPTH STEP
~WELL INFORMATION
#MNEM.UNIT      DATA TYPE    INFORMATION
#----------   ------------   ------------------------------
 STRT.F          213.5000:   START DEPTH
 STOP.F         3198.0000:   STOP DEPTH
 STEP.F            0.5000:   STEP LENGTH
 NULL.          -999.2500:   NO VALUE
 COMP.    FENIX & SCISSON:   COMPANY
 WELL.   FENIX "AX" #14-2:   WELL
 FLD .              NPR-3:   FIELD
 LOC .       S2 T38N R78W:   LOCATION
 CNTY.            NATRONA:   COUNTY
 STAT.            WYOMING:   STATE
 CTRY. UNITED STATES OF AMERICA:   COUNTRY
 SRVC.              WELEX:   SERVICE COMPANY
 DATE.        14-MAY-1977:   LOGDATE
 API .     49025103620000:   API NUMBER
~CURVE INFORMATION
#MNEM.UNIT       API CODE    CURVE DESCRIPTION
#----------   ------------   ------------------------------
 DEPT.F                  :   
 GRD .GAPI   45 310 01 00:   GAMMA RAY FROM DENSITY LOG
 CALD.IN     45 280 60 00:   CALIPER FROM DENSITY LOG
 CORR.G/C3   45 356 01 00:   DENSITY CORRECTION
 RHOB.G/C3   45 350 01 00:   BULK DENSITY
 SPR .MV     07 010 01 00:   SPONTANEOUS POTENTIAL FROM RES.
 ILD .OHMM   07 120 46 00:   DEEP INDUCTION RESISTIVITY
 ILM .OHMM   07 120 44 00:   INDUCTION LOG MEDIUM RESISTIVITY
 SGRD.OHMM   07 220 05 00:   SHALLOW SHORT GUARD RESISTIVITY
~PARAMETER INFORMATION
#MNEM.UNIT          VALUE    DESCRIPTION
#----------   ------------   ------------------------------
 EKB .F         5119.0000:   Kelly bushing
 EGL .F         5110.0000:   Ground level
 TD  .F         3200.0000:   Total depth
 CLNT.            A2DTECH:   Client Code
 SL  . 2400' FNL & 150' FWL:   Surface Location
 PD  .                 GL:   Permanent Datum
 EPD .F              5110:   Elevation Permanent Datum
 LMF .                 KB:   Log Measured From
 DMF .                 KB:   Drilling Measured From
 DAPD.F                 9:   Feet Above Permanent Datum
 DATE.        14-MAY-1977:   Date Logged [DD-MMM-YYYY]
 DD  .F              3200:   Depth driller
 DL  .F              3199:   Depth logger
 BLI .F              3197:   Bottom log interval
 TLI .F               217:   Top log interval
 CS1 .IN            8.625:   Casing size
 BS1 .IN            7.875:   Bit size
 BSD1.F              3200:   Depth drilled with bit1
 DFT .            KCL MUD:   Type fluid in hole
 DFD .                8.8:   Density
 TCS .HRS             2.5:   Time Circ. stopped
 MRT .F               130:   Maximum recorded temp.
 ENGI.          T. JOYNER:   Recorded By
 WITN.      W. PETTINGILL:   Witnessed by
 ORIG.           5" PRINT:   Origin of data
 UWI .     49025103620000:   Unique Well ID
 DICO. A2D TECHNOLOGIES, INC.:   Digitizing Company
 DFV .                 31:   Viscosity
 DFPH.                7.5:   pH
 DFL .                6.4:   Fluid loss
 MSS .          FLOW LINE:   Source of sample
 RMS .OHMM            .13:   Rm
 MST .F               62.:   Rm Meas. temp.
 RMF .OHMM            .12:   Rmf
 MFST.F                62:   Rmf Meas. temp.
 MFSS.           FANN KIT:   Source Rmf.
 RMC .OHMM            .28:   Rmc
 MCST.F                62:   Rmc Meas. temp.
 RMB .OHMM            .06:   Rm. at BHT
 BHT .F               130:   BHT.
~OTHER INFORMATION
~A   DEPT      GRD       CALD       CORR       RHOB        SPR        ILD        ILM       SGRD   
# ...
 3170.0000   133.9304     7.8140     0.0481     2.5095   -50.8876     3.0300     3.0771     4.0867
 3170.5000   134.8402     7.8297     0.0466     2.5154   -50.9621     3.0323     3.0392     4.0253
 3171.0000   133.9538     7.8307     0.0438     2.5170   -51.0143     3.0127     3.0217     3.9664
 3171.5000   131.8715     7.8318     0.0424     2.5111   -51.0944     2.9735     3.0036     3.8997
 3172.0000   132.4798     7.8330     0.0455     2.5104   -51.1396     2.9547     2.9849     3.8436
 3172.5000   136.0776     7.8340     0.0486     2.5105   -51.1512     2.9565     2.9676     3.7752
 3173.0000   132.7959     7.8200     0.0547     2.5113   -51.2659     2.9274     2.9618     3.7777
 3173.5000   130.7172     7.8212     0.0563     2.5129   -51.2524     2.8917     2.9527     3.8064
 3174.0000   130.7302     7.8222     0.0565     2.5175   -51.2415     2.8789     2.9310     3.8088
 3174.5000   131.9364     7.8232     0.0551     2.5205   -51.3794     2.8433     2.8974     3.8114
 3175.0000   133.1426     7.8242     0.0537     2.5221   -51.3683     2.8251     2.8782     3.7879
 3175.5000   134.6477     7.8253     0.0508     2.5192   -51.3569     2.8071     2.8436     3.7904
 3176.0000   135.5550     7.8265     0.0494     2.5148   -51.3461     2.8092     2.8260     3.7158
 3176.5000   136.4596     7.8275     0.0465     2.5103   -51.3351     2.7910     2.8013     3.6673
 3177.0000   134.3797     7.8285     0.0466     2.5074   -51.3819     2.7357     2.7544     3.5946
 3177.5000   135.5934     7.8145     0.0467     2.5060   -51.4615     2.6810     2.7451     3.5232
 3178.0000   138.3619     7.8157     0.0484     2.5061   -51.4480     2.6457     2.7028     3.4773
 3178.5000   140.3928     7.8167     0.0485     2.5076   -51.4372     2.5840     2.6680     3.5037
 3179.0000   141.0011     7.8177     0.0501     2.5107   -51.4263     2.5410     2.6280     3.5794
 3179.5000   133.8365     7.8188     0.0487     2.5123   -51.4155     2.5236     2.5999     3.5572
 3180.0000   107.5399     7.8200     0.0488     2.5108   -51.4046     2.4732     2.5849     3.4885
 3180.5000  -999.2500     7.8210     0.0459     2.5077   -51.3317     2.4590     2.5689     3.3945
 3181.0000  -999.2500     7.8220     0.0445     2.5018   -51.2352     2.4355     2.5716     3.3496
 3181.5000  -999.2500     7.8378     0.0416     2.4991   -51.0762     2.3949     2.5921     3.3524
 3182.0000  -999.2500     7.8388     0.0387     2.5052   -50.7692     2.3964     2.6126     3.3547
 3182.5000  -999.2500     7.8545     0.0389     2.5112   -50.6081     2.3811     2.6421     3.5232
 3183.0000  -999.2500     7.8555     0.0394     2.5188   -50.3014     2.3499     2.6911     3.7257
 3183.5000  -999.2500     7.8566     0.0511     2.5294   -50.1427     2.3513     2.7507     3.7282
 3184.0000  -999.2500     7.8578     0.0602     2.5399   -49.9839     2.3855     2.8504     3.7566
 3184.5000  -999.2500     7.8736     0.0678     2.5497   -49.8251     2.4546     2.9741     3.9234
 3185.0000  -999.2500     7.8746     0.0710     2.5588   -49.7627     2.5663     3.1249     4.2017
 3185.5000  -999.2500     7.8756     0.0756     2.5656   -49.5081     2.7834     3.2832     4.3824
 3186.0000  -999.2500     7.8766     0.0757     2.5724   -49.3488     3.0055     3.4258     4.8304
 3186.5000  -999.2500     7.8776     0.0788     2.5785   -49.3380     3.2453     3.5994     5.3982
 3187.0000  -999.2500     7.8786     0.0804     2.5853   -49.1654     3.5531     3.7819     5.7879
 3187.5000  -999.2500     7.8796     0.0820     2.5839   -48.5740     3.8633     3.8947     6.0368
 3188.0000  -999.2500     7.8661     0.0791     2.5795   -47.0839     4.1142     4.1470     6.0924
 3188.5000  -999.2500     7.8671     0.0762     2.5721   -45.0020     4.3511     4.5108     5.6807
 3189.0000  -999.2500     7.8681     0.0733     2.5804   -40.1095     4.5700     5.1505     5.4163
 3189.5000  -999.2500     7.8540     0.0765     2.5954   -32.8502     4.7338     6.3466     5.9710
 3190.0000  -999.2500     7.8553     0.0886     2.6112   -23.0826     4.8360    13.8381     6.7192
 3190.5000  -999.2500     7.8563     0.0977     2.6233   -12.4524     4.8390    27.8319     7.3551
 3191.0000  -999.2500     7.8417     0.0978     2.6256    -0.4048     4.8477    72.4238     7.0614
 3191.5000  -999.2500     7.8288     0.0932     2.6257  -999.2500     5.3018   132.5600     6.7794
 3192.0000  -999.2500     7.8300     0.0890     2.6249  -999.2500     8.1498   564.5869     6.9259
 3192.5000  -999.2500     7.8310     0.0907     2.6296  -999.2500    18.3351  1954.6575     7.5292
 3193.0000  -999.2500     7.8170     0.0953     2.6379  -999.2500   133.9603  1943.2291     7.9621
 3193.5000  -999.2500     7.8035     0.1014     2.6462  -999.2500   867.6177  1959.9797     7.7979
 3194.0000  -999.2500     7.8045     0.1090     2.6568  -999.2500  1968.2902  1934.3832     7.5444
 3194.5000  -999.2500     7.8055     0.1181     2.6718  -999.2500  1959.9797  1927.9423     7.4975
 3195.0000  -999.2500     7.8065     0.1318     2.6824  -999.2500  1959.9797  1927.9423     7.7139
 3195.5000  -999.2500     7.8077     0.1484     2.6997  -999.2500  1959.9797  1927.9423     7.8265
 3196.0000  -999.2500     7.8087     0.1770     2.7200  -999.2500  1959.9797  1927.9423     7.9406
 3196.5000  -999.2500     7.8097     0.2387     2.7321  -999.2500  1959.9797  1927.9423     7.9459
 3197.0000  -999.2500     7.8108     0.2644     2.7411  -999.2500  1959.9797  1927.9423     7.8429
 3197.5000  -999.2500  -999.2500  -999.2500  -999.2500  -999.2500  1959.9797  1927.9423     7.8429
 3198.0000  -999.2500  -999.2500  -999.2500  -999.2500  -999.2500  1959.9797  1927.9423     7.8429
