~VERSION INFORMATION
 VERS.                2.0:   CWLS LOG ASCII STANDARD - VERSION 2.0
 WRAP.                 NO:   ONE LINE PER DEPTH STEP
~WELL INFORMATION
#MNEM.UNIT      DATA TYPE    INFORMATION
#----------   ------------   ------------------------------
 STRT.F            1.0000:   START DEPTH
 STOP.F         2854.0000:   STOP DEPTH
 STEP.F            0.5000:   STEP LENGTH
 NULL.          -999.2500:   NO VALUE
 COMP.          INTEX OIL:   COMPANY
 WELL. INTEX N.P.R. "AX" #42-29:   WELL
 FLD .             TEAPOT:   FIELD
 LOC .      S29 T39N R78W:   LOCATION
 CNTY.            NATRONA:   COUNTY
 STAT.            WYOMING:   STATE
 CTRY. UNITED STATES OF AMERICA:   COUNTRY
 SRVC.       SCHLUMBERGER:   SERVICE COMPANY
 DATE.        30-MAY-1986:   LOGDATE
 API .     49025095240000:   API NUMBER
~CURVE INFORMATION
#MNEM.UNIT       API CODE    CURVE DESCRIPTION
#----------   ------------   ------------------------------
 DEPT.F                  :   
 SPR .MV     05 010 01 00:   SPONTANEOUS POTENTIAL FROM RES.
 ASN .OHMM   05 041 16 00:   AMPLIFIED SHORT NORMAL 16"
 ILD .OHMM   05 120 46 00:   INDUCTION LOG DEEP
 GRD .GAPI   45 310 01 00:   GAMMA RAY FROM DENSITY LOG
 CALD.IN     45 280 60 00:   CALIPER FROM DENSITY LOG
 CORR.G/C3   45 356 01 00:   DENSITY CORRECTION
 RHOB.G/C3   45 350 01 00:   BULK DENSITY
 CALI.IN     30 280 01 00:   CALIPER FROM GAMMA RAY LOG
 GR  .GAPI   30 310 01 00:   GAMMA RAY
~PARAMETER INFORMATION
#MNEM.UNIT          VALUE    DESCRIPTION
#----------   ------------   ------------------------------
 EKB .F         5020.3000:   Kelly bushing
 EGL .F         5010.0000:   Ground level
 EDF .F            0.0000:   Drilling floor
 TD  .F         2860.0000:   Total depth
 CLNT.            A2DTECH:   Client Code
 DATE.        30-MAY-1986:   Date Logged [DD-MMM-YYYY]
 DD  .F              2860:   Depth driller
 DL  .F              2855:   Depth logger
 BLI .F              2854:   Bottom log interval
 TLI .F               164:   Top log interval
 CS1 .              8.625:   Casing size
 CBD1.      8.625" @ 167':   Casing driller 1
 CBL1.IN              164:   Casing logger 1
 BS1 .IN            7.875:   Bit size
 BSD1.F              2860:   Depth drilled with bit1
 DFT .  LIGND-SULFATE LCM:   Type fluid in hole
 DFD .                8.9:   Density
 DFV .                 33:   Viscosity
 DFPH.               11.0:   pH
 DFL .                9.2:   Fluid loss
 MSS .           FLOWLINE:   Source of sample
 RMS .OHMM           1.47:   Rm
 MST .F                55:   Rm Meas. temp.
 RMF .OHMM           1.13:   Rmf
 MFST.F                75:   Rmf Meas. temp.
 RMB .OHMM           0.78:   Rm. at BHT
 BHT .F               108:   BHT.
 TCS .HRS               3:   Time Circ. stopped
 MRT .F               108:   Maximum recorded temp.
 LUN .               3527:   Logging unit number
 LUL .               CSPR:   Logging unit location
 ENGI.            MANGOLO:   Recorded By
 WITN.             TUTTLE:   Witnessed by
 ORIG.      1" 2.5" PRINT:   Origin of data
 UWI .     49025095240000:   Unique Well ID
 DICO. A2D TECHNOLOGIES, INC.:   Digitizing Company
 PD  .                 GL:   Permanent Datum
 EPD .               5010:   Elevation Permanent Datum
 LMF .                 KB:   Log Measured From
 DMF .                 KB:   Drilling Measured From
 DAPD.              10.32:   Feet Above Permanent Datum
 MFSS.         MEAS PRESS:   Source Rmf.
~OTHER INFORMATION
~A    DEPT     SPR        ASN        ILD        GRD       CALD       CORR       RHOB        CALI        GR   
# ...
 2738.5000   -31.7014     9.5780     6.3872   116.1467     8.6970    -0.0041     2.5382  -999.2500  -999.2500
 2739.0000   -31.6999     9.3720     6.2380   117.1598     8.6957     0.0028     2.5362  -999.2500  -999.2500
 2739.5000   -31.6984    10.1707     5.7857   121.8546     8.6945     0.0114     2.5353  -999.2500  -999.2500
 2740.0000   -31.6969     9.8354     5.4849   132.1746     8.6933     0.0160     2.5230  -999.2500  -999.2500
 2740.5000   -31.6954     9.4152     5.1842   141.0463     8.6859     0.0262     2.5206  -999.2500  -999.2500
 2741.0000   -31.6939     8.8747     4.8834   142.8180     8.6601     0.0209     2.5165  -999.2500  -999.2500
 2741.5000   -31.6924     8.3651     4.5826   145.0335     8.6589     0.0123     2.5020  -999.2500  -999.2500
 2742.0000   -31.6909     7.9376     4.2818   147.5148     8.6518     0.0189     2.5026  -999.2500  -999.2500
 2742.5000   -31.6894     7.3316     3.9811   154.2345     8.6258     0.0266     2.5128  -999.2500  -999.2500
 2743.0000   -31.3848     7.0206     3.9833   153.0843     8.6246     0.0407     2.5223  -999.2500  -999.2500
 2743.5000   -31.0803     6.8979     3.9879   140.9091     8.6233     0.0598     2.5304  -999.2500  -999.2500
 2744.0000   -31.0788     6.8344     4.2949   119.7041     8.6221     0.0685     2.5278  -999.2500  -999.2500
 2744.5000   -30.7742     6.8985     4.5962   103.9556     8.6152     0.0506     2.5266  -999.2500  -999.2500
 2745.0000   -31.0859     7.5146     4.9091   101.0357     8.5890     0.0300     2.5348  -999.2500  -999.2500
 2745.5000   -31.9929     8.3593     5.2161   101.8900     8.5877     0.0239     2.5428  -999.2500  -999.2500
 2746.0000   -32.2849     9.1329     5.6747   104.3765     8.5865     0.0195     2.5449  -999.2500  -999.2500
 2746.5000   -31.9803     9.8279     5.9945   103.0341     8.5853     0.0197     2.5441  -999.2500  -999.2500
 2747.0000   -32.0020    10.0590     6.4404   101.6917     8.5895     0.0302     2.5503  -999.2500  -999.2500
 2747.5000   -32.6111     9.7345     6.5795    99.9055     8.6136     0.0437     2.5576  -999.2500  -999.2500
 2748.0000   -32.8849     9.7050     6.5637    99.4506     8.6123     0.0282     2.5721  -999.2500  -999.2500
 2748.5000   -32.2404     9.9705     6.4126    98.9958     8.6110     0.0223     2.5487  -999.2500  -999.2500
 2749.0000   -31.6697     9.8230     6.1101   100.7599     8.6098     0.0298     2.5426  -999.2500  -999.2500
 2749.5000   -31.7141     9.5870     5.8076   104.2991     8.6086     0.0359     2.5444  -999.2500  -999.2500
 2750.0000   -32.3232     9.2920     5.4799   107.8384     8.6074     0.0373     2.5471  -999.2500  -999.2500
 2750.5000   -32.6294     8.8304     5.0511   110.4901     8.5755     0.0388     2.5456  -999.2500  -999.2500
 2751.0000   -32.8759     8.3707     4.5969   111.8104     8.5742     0.0433     2.5456  -999.2500  -999.2500
 2751.5000   -32.2040     8.0795     4.1124   113.5745     8.5423     0.0463     2.5382  -999.2500  -999.2500
 2752.0000   -31.8950     7.7578     3.5374   120.2202     8.5411     0.0402     2.5265  -999.2500  -999.2500
 2752.5000   -31.6591     7.2834     3.0834   134.8542     8.5399     0.0295     2.5221  -999.2500  -999.2500
 2753.0000   -31.6576     6.6763     2.7449   150.3488     8.5386     0.0233     2.5103  -999.2500  -999.2500
 2753.5000   -31.3530     6.1513     2.3267   161.5125     8.5374     0.0187     2.4853  -999.2500  -999.2500
 2754.0000   -31.3515     5.6899     2.0242   183.0530     8.5362     0.0156     2.4426  -999.2500  -999.2500
 2754.5000   -31.0470     5.3052     1.7626   192.7457     8.5350     0.0262     2.4221  -999.2500  -999.2500
 2755.0000   -31.0454     4.7449     1.9166   197.4696     8.5337     0.0414     2.4103  -999.2500  -999.2500
 2755.5000   -31.0439     4.2265     1.9189   191.9099     8.5325     0.0627     2.4132  -999.2500  -999.2500
 2756.0000   -31.0424     3.9651     1.9677   170.0884     8.5313     0.0748     2.4103  -999.2500  -999.2500
 2756.5000   -31.0409     4.0285     2.1232   123.5942     8.4994     0.0793     2.3985  -999.2500  -999.2500
 2757.0000   -31.0394     4.3229     2.4303   109.5877     8.4631     0.0671     2.4015  -999.2500  -999.2500
 2757.5000   -31.0379     4.8935     2.7891   109.5692     8.4312     0.0457     2.4324  -999.2500  -999.2500
 2758.0000   -31.0364     5.6505     3.5526   110.0276     8.4037     0.0252     2.4912  -999.2500  -999.2500
 2758.5000   -31.0349     6.9230     4.3711   110.9286     8.3982     0.0349     2.5103  -999.2500  -999.2500
 2759.0000   -31.0334     7.7850     5.0793   111.8217     8.3663     0.0394     2.5147  -999.2500  -999.2500
 2759.5000   -31.0318     8.2697     5.7838   112.2647     8.3386     0.0424     2.5162  -999.2500  -999.2500
 2760.0000   -31.0303     8.4334     5.8788   112.2462     8.3067     0.0332     2.5103  -999.2500  -999.2500
 2760.5000   -31.0288     8.5223     5.8187   114.5353     8.2748     0.0347     2.5088  -999.2500  -999.2500
 2761.0000   -31.3303     8.5749     5.6677   117.7475     8.2736     0.0331     2.5092  -999.2500  -999.2500
 2761.5000   -31.6318     8.5978     5.5826   118.6523     8.2685     0.0285     2.5015  -999.2500  -999.2500
 2762.0000   -31.9333     8.5988     5.4333   116.7874     8.2366     0.0361     2.5103  -999.2500  -999.2500
 2762.5000   -32.3990     8.6288     5.4356   119.5381     8.2086     0.0421     2.5191  -999.2500  -999.2500
 2763.0000   -32.8394     8.6383     5.4379   120.4660     8.2035     0.0421     2.5265  -999.2500  -999.2500
 2763.5000   -32.5348     8.6686     5.4401   119.0395     8.1754     0.0481     2.5324  -999.2500  -999.2500
 2764.0000   -32.5333     8.7280     5.4424   118.0978     8.1435     0.0572     2.5368  -999.2500  -999.2500
 2764.5000   -32.8345     8.7968     5.5212   120.3870     8.1423     0.0510     2.5397  -999.2500  -999.2500
 2765.0000   -32.8330     8.9147     5.5985   121.3308     8.1411     0.0449     2.5265  -999.2500  -999.2500
 2765.5000   -33.1346     9.0036     5.6008   119.4268     8.1363     0.0418     2.5260  -999.2500  -999.2500
 2766.0000   -32.8300     9.1008     5.6030   121.2545     8.1079     0.0356     2.5265  -999.2500  -999.2500
 2766.5000   -32.2225     9.1017     5.6053   124.0052     8.1067     0.0539     2.5265  -999.2500  -999.2500
 2767.0000   -31.6149     9.1318     5.6076   122.6020     8.1089     0.0599     2.5250  -999.2500  -999.2500
 2767.5000   -31.6134     9.1731     5.6970   120.7373     8.1350     0.0721     2.5279  -999.2500  -999.2500
 2768.0000   -31.6119     9.2442     5.7636   122.1034     8.1370     0.0872     2.5382  -999.2500  -999.2500
 2768.5000   -31.6104     9.3621     5.7664   124.3925     8.2277     0.0918     2.5397  -999.2500  -999.2500
 2769.0000   -31.6089     9.5090     5.7686   126.2201     8.2910     0.0643     2.5441  -999.2500  -999.2500
 2769.5000   -31.6074     9.6686     5.7709   127.5862     8.3817     0.0505     2.5500  -999.2500  -999.2500
 2770.0000   -31.6059     9.8740     5.7731   127.8007     8.4970     0.0474     2.5559  -999.2500  -999.2500
 2770.5000   -31.6044     9.9367     5.7754   124.7799     8.5294     0.0565     2.5529  -999.2500  -999.2500
 2771.0000   -31.6029     9.9825     5.6257   123.8383     8.5559     0.0656     2.5500  -999.2500  -999.2500
 2771.5000   -32.1534     9.9835     5.4765   125.2044     8.4174     0.0808     2.5500  -999.2500  -999.2500
 2772.0000   -32.1534     9.8693     5.3272   126.1089     8.1125     0.0655     2.5515  -999.2500  -999.2500
 2772.5000   -32.4484     9.0552     5.1784   126.5538     7.9358     0.0532     2.5221  -999.2500  -999.2500
 2773.0000   -33.0383     8.7209     5.0291   126.9949     7.8761     0.0593     2.5206  -999.2500  -999.2500
 2773.5000   -33.0383     8.5229     4.8799   127.4379     7.9082     0.0653     2.5294  -999.2500  -999.2500
 2774.0000   -33.0383     8.4185     4.8821   129.2655     7.9683     0.0790     2.5441  -999.2500  -999.2500
 2774.5000   -33.0383     8.3844     4.7326   130.1701     7.9977     0.0896     2.5553  -999.2500  -999.2500
