~VERSION INFORMATION
 VERS.                2.0:   CWLS LOG ASCII STANDARD - VERSION 2.0
 WRAP.                 NO:   ONE LINE PER DEPTH STEP
~WELL INFORMATION
#MNEM.UNIT      DATA TYPE    INFORMATION
#----------   ------------   ------------------------------
 STRT.F           60.0000:   START DEPTH
 STOP.F         3178.0000:   STOP DEPTH
 STEP.F            0.5000:   STEP LENGTH
 NULL.          -999.2500:   NO VALUE
 COMP. LAWRENCE-ALLISON & ASSOSCIATES:   COMPANY
 WELL. LAWRENCE "AX" #46-21:   WELL
 FLD .             NPR #3:   FIELD
 LOC .      S21 T39N R78W:   LOCATION
 CNTY.            NATRONA:   COUNTY
 STAT.            WYOMING:   STATE
 CTRY. UNITED STATES OF AMERICA:   COUNTRY
 SRVC.       SCHLUMBERGER:   SERVICE COMPANY
 DATE.        03-JUN-1982:   LOGDATE
 API .     49025108890000:   API NUMBER
~CURVE INFORMATION
#MNEM.UNIT       API CODE    CURVE DESCRIPTION
#----------   ------------   ------------------------------
 DEPT.F                  :   
 TEND.LBS    45 635 01 00:   TENSION FORM DENSITY LOG
 CALD.IN     45 280 60 00:   CALIPER FROM DENSITY LOG
 CORR.G/C3   45 356 01 00:   DENSITY CORRECTION
 RHOB.G/C3   45 350 01 00:   BULK DENSITY
 NPHI.DEC    42 890 03 00:   NEUTRON POROSITY SANDSTONE
 GRR .GAPI   07 310 01 00:   GAMMA RAY FROM RESISTIVITY
 SPR .MV     07 010 01 00:   SPONTANEOUS POTENTIAL
 SFL .OHMM   07 220 01 00:   SHALLOW FOCUSED LOG RESISTIVITY
 ILD .OHMM   07 120 46 00:   DEEP INDUCTION RESISTIVITY
 ILM .OHMM   07 120 44 00:   INDUCTION LOG MEDIUM RESISTIVITY
 TENR.LBS    07 635 01 00:   TENSION FROM RESISTIVITY
~PARAMETER INFORMATION
#MNEM.UNIT          VALUE    DESCRIPTION
#----------   ------------   ------------------------------
 EKB .F         5008.0000:   Kelly bushing
 EGL .F         4998.0000:   Ground level
 EDF .F         5007.0000:   Drilling floor
 TD  .F         3230.0000:   Total depth
 CLNT.            A2DTECH:   Client Code
 SL  . 1864' FSL & 2484' FWL:   Surface Location
 PD  .                 GL:   Permanent Datum
 EPD .F              4998:   Elevation Permanent Datum
 LMF .                 KB:   Log Measured From
 DMF .                 KB:   Drilling Measured From
 DAPD.F                10:   Feet Above Permanent Datum
 DATE.        03-JUN-1982:   Date Logged [DD-MMM-YYYY]
 DD  .F              3230:   Depth driller
 DL  .F              3200:   Depth logger
 BLI .F              3190:   Bottom log interval
 TLI .F               475:   Top log interval
 CS1 .IN            9.625:   Casing size
 CBD1.      9.625" @ 465':   Casing driller 1
 CBL1.F               475:   Casing logger 1
 BS1 .IN             8.75:   Bit size
 BSD1.F              3230:   Depth drilled with bit1
 DFT .   FORM WATER / AIR:   Type fluid in hole
 TCS .HRS            1530:   Time Circ. stopped
 TLAB.HRS            1900:   Time logger at bottom
 MRT .F               135:   Maximum recorded temp.
 LUN .               8035:   Logging unit number
 LUL .               CSPR:   Logging unit location
 ENGI.              PENNY:   Recorded By
 WITN.           JENNINGS:   Witnessed by
 ORIG.      2.5" 5" PRINT:   Origin of data
 UWI .     49025108890000:   Unique Well ID
 DICO. A2D TECHNOLOGIES, INC.:   Digitizing Company
~OTHER INFORMATION
~A   DEPT     TEND       CALD       CORR       RHOB       NPHI        GRR        SPR        SFL        ILD        ILM       TENR   
# ...
  853.0000  1305.7162    10.1629     0.0162     2.4720  -999.2500   171.8909  -999.2500  -999.2500     9.4739     9.7207  1288.7880
  853.5000  1333.6227    10.1645     0.0193     2.4684  -999.2500   172.4197  -999.2500  -999.2500     9.4714     9.7181  1319.2693
  854.0000  1347.3770    10.1513     0.0224     2.4715  -999.2500   169.5455  -999.2500  -999.2500     9.4689     9.7155  1349.7173
  854.5000  1360.3885    10.1381     0.0262     2.4808  -999.2500   165.9091  -999.2500  -999.2500     9.4664     9.7128  1349.8623
  855.0000  1373.6920    10.1401     0.0255     2.4874  -999.2500   165.4394  -999.2500  -999.2500     9.4639     9.7100  1319.6970
  855.5000  1357.1002    10.1265     0.0151     2.4811  -999.2500   166.8757  -999.2500  -999.2500     9.4612     9.7073  1319.8492
  856.0000  1340.2166    10.0990     0.0091     2.4702  -999.2500   168.7091  -999.2500  -999.2500     9.4851     9.7046  1289.6912
  856.5000  1338.6254    10.0847     0.0122     2.4725  -999.2500   169.0909  -999.2500  -999.2500     9.5890     9.7019  1289.8485
  857.0000  1366.9294    10.0727     0.0153     2.4748  -999.2500   169.2515  -999.2500  -999.2500     9.5859     9.6992  1290.0000
  857.5000  1365.3383    10.0746     0.0161     2.4689  -999.2500   170.0000  -999.2500  -999.2500     9.5833     9.6960  1290.1516
  858.0000  1348.7994    10.0762     0.0079     2.4480  -999.2500   170.7030  -999.2500  -999.2500     9.5801     9.8302  1290.3030
  858.5000  1325.3148    10.0925    -0.0041     2.4210  -999.2500   169.5455  -999.2500  -999.2500     9.5776     9.8272  1290.4546
  859.0000  1285.7997    10.1087    -0.0057     2.4159  -999.2500   166.3636  -999.2500  -999.2500     9.5750     9.8246  1260.3306
  859.5000  1283.8373    10.1545    -0.0040     2.4302  -999.2500   166.2894  -999.2500  -999.2500     9.5725     9.8219  1260.4755
  860.0000  1297.5914    10.1712    -0.0024     2.4453  -999.2500   173.6364  -999.2500  -999.2500     9.5699     9.8192  1260.6205
  860.5000  1310.9480    10.1580     0.0023     2.4663  -999.2500   179.1454  -999.2500  -999.2500     9.4349     9.8165  1260.7655
  861.0000  1323.9066    10.1595     0.0233     2.4822  -999.2500   181.3636  -999.2500  -999.2500     9.4323     9.8137  1260.9105
  861.5000  1322.4215    10.1316     0.0369     2.4943  -999.2500   179.6954  -999.2500  -999.2500     9.4296     9.8110  1263.1793
  862.0000  1305.7766    10.1332     0.0430     2.4995  -999.2500   172.9092  -999.2500  -999.2500     9.4270     9.8082  1291.5151
  862.5000  1289.2377    10.1200     0.0386     2.4966  -999.2500   169.6212  -999.2500  -999.2500     9.4244     9.7375  1291.6667
  863.0000  1302.5942    10.1364     0.0463     2.5050  -999.2500   168.6364  -999.2500  -999.2500     9.4212     9.6662  1291.8182
  863.5000  1315.9506    10.1383     0.0539     2.5148  -999.2500   169.5455  -999.2500  -999.2500     9.4187     9.6636  1291.9697
  864.0000  1328.9094    10.1398     0.0585     2.5133  -999.2500   171.3636  -999.2500  -999.2500     9.4162     9.6610  1292.1212
  864.5000  1327.3182    10.1561     0.0541     2.5044  -999.2500   171.3636  -999.2500  -999.2500     9.4137     9.6584  1292.3010
  865.0000  1325.8595    10.1724     0.0496     2.4936  -999.2500   169.0909  -999.2500  -999.2500     9.4112     9.5218  1292.4460
  865.5000  1324.1357    10.1739     0.0377     2.4806  -999.2500   165.0000  -999.2500  -999.2500     9.4086     9.5192  1292.5909
  866.0000  1307.6233    10.1756     0.0242     2.4739  -999.2500   162.7273  -999.2500  -999.2500     9.4060     9.5166  1292.7360
  866.5000  1291.0315    10.1775     0.0138     2.4650  -999.2500   163.5271  -999.2500  -999.2500     9.4034     9.5139  1292.8810
  867.0000  1289.0688    10.1790     0.0086     2.4613  -999.2500   167.2091  -999.2500  -999.2500     9.4008     9.5113  1293.0304
  867.5000  1302.4253    10.1806     0.0072     2.4636  -999.2500   170.0683  -999.2500  -999.2500     9.3981     9.5086  1293.1818
  868.0000  1316.1797    10.1821     0.0156     2.4721  -999.2500   172.0363  -999.2500  -999.2500     9.3950     9.5059  1293.3334
  868.5000  1314.1906    10.1837     0.0247     2.4743  -999.2500   172.2727  -999.2500  -999.2500     9.3925     9.5033  1303.4879
  869.0000  1327.9449    10.2000     0.0248     2.4646  -999.2500   172.2727  -999.2500  -999.2500     9.3900     9.5002  1323.9395
  869.5000  1340.9037    10.1868     0.0272     2.4587  -999.2500   172.2727  -999.2500  -999.2500     9.3875     9.4976  1324.0909
  870.0000  1339.3123    10.1887     0.0318     2.4573  -999.2500   172.7273  -999.2500  -999.2500     9.3851     9.4951  1324.2714
  870.5000  1322.7205    10.1903     0.0372     2.4573  -999.2500   173.1818  -999.2500  -999.2500     9.3824     9.4925  1324.4164
  871.0000  1319.0814    10.1620     0.0448     2.4542  -999.2500   174.1454  -999.2500  -999.2500     9.3798     9.3583  1324.5614
  871.5000  1304.2456    10.1492     0.0253     2.4305  -999.2500   174.5455  -999.2500  -999.2500     9.3772     9.3557  1324.7064
  872.0000  1318.0000    10.1508     0.0073     2.4104  -999.2500   173.0666  -999.2500  -999.2500     9.3746     9.3531  1324.8513
  872.5000  1316.0109    10.1527     0.0029     2.4007  -999.2500   172.7273  -999.2500  -999.2500     9.3720     9.3505  1294.6934
  873.0000  1329.7651    10.1543     0.0211     2.4300  -999.2500   173.5879  -999.2500  -999.2500     9.3689     9.2181  1299.0925
  873.5000  1327.7760    10.1706     0.0377     2.4503  -999.2500   175.7410  -999.2500  -999.2500     9.2368     9.1635  1325.3030
  874.0000  1326.1584    10.1869     0.0514     2.4624  -999.2500   175.4545  -999.2500  -999.2500     9.1066     9.0851  1315.7606
  874.5000  1324.1959    10.2032     0.0590     2.4775  -999.2500   173.6364  -999.2500  -999.2500     9.1041     9.0094  1295.2733
  875.0000  1322.8699    10.2047     0.0621     2.4805  -999.2500   172.2727  -999.2500  -999.2500     9.1017     8.9536  1295.4546
  875.5000  1321.4114    10.2063     0.0667     2.4821  -999.2500   171.3636  -999.2500  -999.2500     9.0300     8.9512  1295.6359
  876.0000  1334.5292    10.2229     0.0650     2.4837  -999.2500   172.3090  -999.2500  -999.2500     8.9708     8.8246  1295.7808
  876.5000  1341.5216    10.2540     0.0496     2.4807  -999.2500   174.1470  -999.2500  -999.2500     8.9311     8.8222  1326.2288
  877.0000  1346.1884    10.2702     0.0384     2.4748  -999.2500   174.5455  -999.2500  -999.2500     8.8417     8.8198  1326.3738
  877.5000  1329.5963    10.3013     0.0370     2.4672  -999.2500   173.6592  -999.2500  -999.2500     8.8393     8.8174  1356.8219
  878.0000  1327.8727    10.3323     0.0379     2.4690  -999.2500   169.5151  -999.2500  -999.2500     8.7141     8.8149  1358.1837
  878.5000  1326.0162    10.3651     0.0387     2.4743  -999.2500   165.9000  -999.2500  -999.2500     8.7117     8.8125  1387.4242
  879.0000  1324.6637    10.4241     0.0420     2.4796  -999.2500   165.2757  -999.2500  -999.2500     8.5889     8.6877  1387.5758
  879.5000  1322.8339    10.4699     0.0495     2.4782  -999.2500   165.9091  -999.2500  -999.2500     8.5866     8.6315  1387.7273
  880.0000  1321.2426    10.5303     0.0518     2.4573  -999.2500   170.4545  -999.2500  -999.2500     8.4656     8.5623  1387.8788
  880.5000  1319.7310    10.5909     0.0414     2.4430  -999.2500   173.6364  -999.2500  -999.2500     8.4632     8.4407  1388.0303
  881.0000  1318.0868    10.5774     0.0339     2.4537  -999.2500   175.0000  -999.2500  -999.2500     8.3438     8.4385  1370.6030
  881.5000  1311.1281    10.4910     0.0288     2.4695  -999.2500   177.0229  -999.2500  -999.2500     8.3415     8.3191  1358.0304
  882.0000  1299.5322    10.4189     0.0289     2.4838  -999.2500   182.1574  -999.2500  -999.2500     8.3391     8.2015  1358.1992
  882.5000  1297.9410    10.3753     0.0312     2.4951  -999.2500   185.0000  -999.2500  -999.2500     8.2791     8.0855  1358.3442
  883.0000  1296.5619    10.3484     0.0313     2.4862  -999.2500   184.6545  -999.2500  -999.2500     8.2187     8.0832  1358.4893
