~VERSION INFORMATION
 VERS.                2.0:   CWLS LOG ASCII STANDARD - VERSION 2.0
 WRAP.                 NO:   ONE LINE PER DEPTH STEP
~WELL INFORMATION
#MNEM.UNIT      DATA TYPE    INFORMATION
#----------   ------------   ------------------------------
 STRT.F          200.0000:   START DEPTH
 STOP.F         3098.0000:   STOP DEPTH
 STEP.F            0.5000:   STEP LENGTH
 NULL.          -999.2500:   NO VALUE
 COMP.    FENIX & SCISSON:   COMPANY
 WELL.   FENIX "AX" #74-3:   WELL
 FLD .              N P R:   FIELD
 LOC .       S3 T38N R78W:   LOCATION
 CNTY.            NATRONA:   COUNTY
 STAT.            WYOMING:   STATE
 CTRY. UNITED STATES OF AMERICA:   COUNTRY
 SRVC.              WELEX:   SERVICE COMPANY
 DATE.        17-AUG-1977:   LOGDATE
 API .     49025104120000:   API NUMBER
~CURVE INFORMATION
#MNEM.UNIT       API CODE    CURVE DESCRIPTION
#----------   ------------   ------------------------------
 DEPT.F                  :   
 CALD.IN     45 280 60 00:   CALIPER FROM DENSITY LOG
 SPR .MV     07 010 01 00:   SPONTANEOUS POTENTIAL
 NPHI.DEC    42 890 00 00:   NEUTRON POROSITY
 GRD .GAPI   45 310 01 00:   GAMMA RAY FROM DENSITY LOG
 CORR.G/C3   45 356 01 00:   DENSITY CORRECTION
 RHOB.G/C3   45 350 01 00:   BULK DENSITY
 SGRD.OHMM   07 220 05 00:   SHALLOW SHORT GUARD RESISTIVITY
 ILD .OHMM   07 120 46 00:   DEEP INDUCTION RESISTIVITY
 ILM .OHMM   07 120 44 00:   INDUCTION LOG MEDIUM RESISTIVITY
~PARAMETER INFORMATION
#MNEM.UNIT          VALUE    DESCRIPTION
#----------   ------------   ------------------------------
 EKB .F         5141.0000:   Kelly bushing
 EGL .F         5131.0000:   Ground level
 EDF .F            0.0000:   Drilling floor
 TD  .F         3100.0000:   Total depth
 DATE.        17-AUG-1977:   Date logged
 CLNT.            A2DTECH:   Client Code
 SL  . 2272' FNL & 1060' FEL:   Surface Location
 PD  .                 GL:   Permanent Datum
 EPD .F              5131:   Elevation Permanent Datum
 LMF .                 KB:   Log Measured From
 DMF .                 KB:   Drilling Measured From
 DD  .F              3100:   Depth driller
 DL  .F              3100:   Depth logger
 BLI .F              3098:   Bottom log interval
 TLI .F               200:   Top log interval
 CS1 .IN            8.625:   Casing size
 CBD1.      8.625" @ 215':   Casing driller 1
 CBL1.F               218:   Casing logger 1
 BS1 .IN            7.875:   Bit size
 DFT .            KCL MUD:   Type fluid in hole
 DFD .                8.8:   Density
 DFV .                 33:   Viscosity
 DFPH.                9.5:   pH
 DFL .               10.6:   Fluid loss
 MSS .           FLOWLINE:   Source of sample
 RMS .OHMM            .67:   Rm
 MST .F                98:   Rm Meas. temp.
 RMF .OHMM            .64:   Rmf
 MFST.F                98:   Rmf Meas. temp.
 RMC .OHMM            .31:   Rmc
 MCST.F                98:   Rmc Meas. temp.
 MFSS.           MEASURED:   Source Rmf.
 RMB .OHMM            .57:   Rm. at BHT
 BHT .F               115:   BHT.
 TCS .HRS               3:   Time Circ. stopped
 MRT .F               115:   Maximum recorded temp.
 LUN .               8611:   Logging unit number
 LUL .             CASPER:   Logging unit location
 ENGI.            C. DOAK:   Recorded By
 WITN.     MR. PETTINGILL:   Witnessed by
 ORIG.           5" PRINT:   Origin of data
 UWI .     49025104120000:   Unique Well ID
 DICO. A2D TECHNOLOGIES, INC.:   Digitizing Company
 BSD1.               3100:   Depth drilled with bit1
~OTHER INFORMATION
~A   DEPT       CALD      SPR       NPHI          GRD      CORR        RHOB     SGRD        ILD        ILM   
# ...
  784.0000    11.0110   -70.4640     0.3150    10.5760     0.0580     2.5140     9.9280     8.0490     9.2370
  784.5000    11.0110   -70.4900     0.3140     9.8950     0.0580     2.5100     9.9280     7.9230     9.1800
  785.0000    11.0120   -70.5170     0.3140     9.2120     0.0580     2.5070     9.9280     7.7980     9.1230
  785.5000    11.0120   -70.5440     0.3130     8.5290     0.0620     2.5040     9.9280     7.6720     9.0660
  786.0000    11.0130   -70.5700     0.3120     7.8440     0.0660     2.5100     9.9280     7.5880     9.0090
  786.5000    11.0130   -70.5970     0.3100     7.0990     0.0710     2.5170     9.9280     7.5160     8.9510
  787.0000    11.0140   -70.6240     0.3080     6.9040     0.0740     2.5240     9.9280     7.4750     8.8940
  787.5000    11.0140   -70.6510     0.3060     7.1710     0.0730     2.5250     9.9280     7.4940     8.8370
  788.0000    11.0150   -70.6770     0.3030     7.5380     0.0700     2.5240     9.9280     7.5100     8.7800
  788.5000    11.0150   -70.7040     0.3020     7.9020     0.0680     2.5230     9.9280     7.5250     8.7340
  789.0000    11.0160   -70.7310     0.3010     7.1870     0.0660     2.5220     9.9280     7.5410     8.7000
  789.5000    11.0160   -70.7580     0.3010     6.1740     0.0630     2.5200     9.9280     7.5560     8.6210
  790.0000    11.0170   -70.7840     0.3010     6.6420     0.0650     2.5190     9.9280     7.5720     8.5420
  790.5000    11.0170   -70.8110     0.3010     7.3070     0.0690     2.5280     9.9280     7.5880     8.4630
  791.0000    11.0180   -70.8380     0.3010     7.1790     0.0730     2.5380     9.9280     7.6030     8.3840
  791.5000    11.0180   -70.8650     0.3040     5.9570     0.0780     2.5480     9.9280     7.6190     8.3060
  792.0000    11.0190   -70.8920     0.3070     4.7480     0.0820     2.5550     9.9280     7.6340     8.2270
  792.5000    11.0190   -70.9180     0.3080     3.5420     0.0790     2.5420     9.9280     7.6500     8.1910
  793.0000    11.0190   -70.9450     0.3050     2.8190     0.0710     2.5290     9.9290     7.6650     8.1910
  793.5000    11.0220   -70.9720     0.3030     2.7980     0.0620     2.5160     9.8940     7.6810     8.2360
  794.0000    11.0250   -70.9990     0.3010     3.8570     0.0540     2.5040     9.8200     7.6830     8.2670
  794.5000    11.0290   -71.0250     0.3010     5.0970     0.0470     2.4900     9.7450     7.6620     8.2670
  795.0000    11.0320   -71.0520     0.3010     6.3220     0.0450     2.4870     9.6710     7.6230     8.3430
  795.5000    11.0360   -71.0790     0.3010     6.9290     0.0430     2.4850     9.5970     7.5850     8.3130
  796.0000    11.0390   -71.1060     0.3010     5.6380     0.0410     2.4840     9.5220     7.5430     8.2830
  796.5000    11.0430   -71.1320     0.3020     4.3800     0.0450     2.4970     9.4480     7.5430     8.2530
  797.0000    11.0460   -71.1590     0.3040     3.1730     0.0550     2.5140     9.3730     7.5400     8.2240
  797.5000    11.0500   -71.1860     0.3050     3.7300     0.0630     2.5320     9.2990     7.5360     8.1940
  798.0000    11.0540   -71.2130     0.3050     5.3520     0.0660     2.5330     9.2250     7.5330     8.1640
  798.5000    11.0570   -71.2390     0.3060     6.9930     0.0600     2.5230     9.1500     7.5290     8.1350
  799.0000    11.0540   -71.2660     0.3080     8.6320     0.0540     2.5130     9.0760     7.5260     8.1170
  799.5000    11.0470   -71.2930     0.3090    10.2700     0.0480     2.5070     9.0010     7.5230     8.1470
  800.0000    11.0400   -71.3200     0.3090    11.9670     0.0470     2.5090     8.9770     7.5190     8.2190
  800.5000    11.0330   -71.3460     0.3050    12.3160     0.0500     2.5120     8.8140     7.5160     8.2670
  801.0000    11.0260   -71.3730     0.3070    10.3680     0.0540     2.5150     8.8140     7.5130     8.2890
  801.5000    11.0190   -71.4000     0.3080     8.3930     0.0570     2.5170     8.8140     7.5090     8.3190
  802.0000    11.0120   -71.4180     0.3090     6.5750     0.0600     2.5200     8.8140     7.5060     8.3490
  802.5000    11.0050   -71.4250     0.3110     7.1330     0.0630     2.5170     8.8140     7.5020     8.3790
  803.0000    10.9980   -71.4320     0.3120     8.4790     0.0670     2.5130     8.8140     7.4990     8.4090
  803.5000    10.9910   -71.4400     0.3110     9.8140     0.0700     2.5150     8.8140     7.4960     8.4390
  804.0000    10.9840   -71.4470     0.3100    11.1440     0.0700     2.5140     8.8140     7.4920     8.4690
  804.5000    10.9770   -71.4540     0.3100    11.9960     0.0570     2.5060     8.8130     7.4890     8.4980
  805.0000    10.9700   -71.4610     0.3060    10.8070     0.0510     2.4980     8.8110     7.4860     8.4960
  805.5000    10.9630   -71.4680     0.3020     9.2640     0.0490     2.4960     8.8070     7.4820     8.4970
  806.0000    10.9520   -71.4750     0.3000     7.2400     0.0480     2.4960     8.8910     7.4790     8.5750
  806.5000    10.9390   -71.4830     0.2990     5.3570     0.0460     2.4950     8.8980     7.4750     8.5750
  807.0000    10.9260   -71.4900     0.2980     4.3800     0.0450     2.4950     8.9050     7.4720     8.5750
  807.5000    10.9130   -71.4970     0.2950     3.3720     0.0430     2.4920     8.9110     7.4690     8.5750
  808.0000    10.9000   -71.5040     0.2910     2.3540     0.0410     2.4900     8.9170     7.4650     8.5750
  808.5000    10.8860   -71.5110     0.2880     1.3160     0.0410     2.4880     8.9230     7.4620     8.5730
  809.0000    10.8700   -71.5190     0.2880     1.2590     0.0430     2.4940     8.9290     7.4580     8.5790
  809.5000    10.8510   -71.5260     0.2920     1.2610     0.0450     2.5010     8.9350     7.4550     8.4930
  810.0000    10.8430   -71.5330     0.2960     1.7130     0.0480     2.5010     8.9410     7.4520     8.4960
  810.5000    10.8410   -71.5400     0.2990     2.4470     0.0500     2.4950     8.9470     7.4480     8.4860
  811.0000    10.8380   -71.5470     0.3010     3.2170     0.0520     2.4890     8.9530     7.4450     8.4790
  811.5000    10.8360   -71.5550     0.3040     4.2800     0.0550     2.4920     8.9590     7.4420     8.4730
  812.0000    10.8340   -71.5620     0.3060     6.4750     0.0570     2.4980     8.9650     7.4380     8.4670
  812.5000    10.8310   -71.5690     0.3090     8.6520     0.0600     2.5030     8.9710     7.4350     8.4610
  813.0000    10.8290   -71.5760     0.3100    10.8620     0.0550     2.5000     8.9770     7.4310     8.4550
  813.5000    10.8260   -71.5830     0.3120    11.7410     0.0510     2.4960     8.9830     7.4280     8.4490
  814.0000    10.8240   -71.5910     0.3140    11.6940     0.0460     2.4920     8.9890     7.4250     8.4430
  814.5000    10.8220   -71.5980     0.3160    10.6850     0.0420     2.4880     8.9950     7.4210     8.4370
  815.0000    10.8190   -71.6050     0.3170     9.6670     0.0440     2.4900     9.0010     7.4180     8.4310
  815.5000    10.8170   -71.5920     0.3180     8.6570     0.0460     2.4940     9.0070     7.4150     8.4240
  816.0000    10.8140   -71.4660     0.3170     7.7030     0.0480     2.4980     9.0130     7.4110     8.4190
  816.5000    10.8120   -71.3390     0.3150     8.1300     0.0500     2.5020     9.0190     7.4050     8.4190
  817.0000    10.8100   -71.2230     0.3120     9.2580     0.0520     2.5060     9.0250     7.4100     8.4200
  817.5000    10.8070   -71.2200     0.3070     7.7610     0.0510     2.5070     9.0310     7.3360     8.3970
  818.0000    10.8050   -71.2210     0.3020     5.8340     0.0470     2.4970     9.0370     7.3400     8.3630
  818.5000    10.8020   -71.2250     0.2990     6.1330     0.0420     2.4860     9.0430     7.3390     8.3290
  819.0000    10.8000   -71.2300     0.3000     8.0720     0.0390     2.4760     9.0490     7.3390     8.2950
  819.5000    10.7980   -71.2350     0.3010     9.9720     0.0350     2.4660     9.0550     7.3390     8.2620
  820.0000    10.7950   -71.2400     0.3030    11.8720     0.0380     2.4600     9.0590     7.3390     8.2280
