~VERSION INFORMATION
 VERS.                2.0:   CWLS LOG ASCII STANDARD - VERSION 2.0
 WRAP.                 NO:   ONE LINE PER DEPTH STEP
~WELL INFORMATION
#MNEM.UNIT      DATA TYPE    INFORMATION
#----------   ------------   ------------------------------
 STRT.F         1053.5000:   START DEPTH
 STOP.F         3062.0000:   STOP DEPTH
 STEP.F            0.5000:   STEP LENGTH
 NULL.          -999.2500:   NO VALUE
 COMP.    FENIX & SCISSON:   COMPANY
 WELL.  FENIX "A" #301-11:   WELL
 FLD .              NPR-3:   FIELD
 LOC .      S11 T38N R78W:   LOCATION
 CNTY.            NATRONA:   COUNTY
 STAT.            WYOMING:   STATE
 CTRY. UNITED STATES OF AMERICA:   COUNTRY
 SRVC.      NL MCCULLOUGH:   SERVICE COMPANY
 DATE.        13-OCT-1977:   LOGDATE
 API .     49025104410000:   API NUMBER
~CURVE INFORMATION
#MNEM.UNIT       API CODE    CURVE DESCRIPTION
#----------   ------------   ------------------------------
 DEPT.F                  :   
 GR  .GAPI   35 310 01 00:   GAMMA RAY
 NEUT.NAPI   35 330 01 00:   NEUTRON
~PARAMETER INFORMATION
#MNEM.UNIT          VALUE    DESCRIPTION
#----------   ------------   ------------------------------
 EDF .F         5165.0000:   Drilling floor
 TD  .F         3097.0000:   Total depth
 CLNT.            A2DTECH:   Client Code
 PD  .                 DF:   Permanent Datum
 EPD .F              5165:   Elevation Permanent Datum
 LMF .                 GL:   Log Measured From
 DMF .                 DF:   Drilling Measured From
 DATE.        13-OCT-1977:   Date Logged [DD-MMM-YYYY]
 DD  .F              3097:   Depth driller
 BLI .F              3060:   Bottom log interval
 TLI .F              1060:   Top log interval
 BSD1.F              3097:   Depth drilled with bit1
 DFT .              WATER:   Type fluid in hole
 ENGI.            MUNDELL:   Recorded By
 ORIG.           5" PRINT:   Origin of data
 UWI .     49025104410000:   Unique Well ID
 DICO. A2D TECHNOLOGIES, INC.:   Digitizing Company
~OTHER INFORMATION
~A  DEPT         GR      NEUT   
# ...
 2268.5000   110.5979   267.7102
 2269.0000   110.9113   271.9490
 2269.5000   105.9371   273.6166
 2270.0000   104.3837   271.9369
 2270.5000   107.0320   274.7198
 2271.0000   107.9931   276.4362
 2271.5000   112.1722   272.9590
 2272.0000   112.9523   268.5682
 2272.5000   112.0219   266.3322
 2273.0000   112.4924   264.6539
 2273.5000   112.8065   260.7450
 2274.0000   112.1430   257.9514
 2274.5000   105.9678   257.9461
 2275.0000   106.2826   246.5092
 2275.5000   105.9745   241.7622
 2276.0000   106.1330   242.8721
 2276.5000   106.6027   242.8667
 2277.0000   107.2280   242.8614
 2277.5000   107.5839   242.8560
 2278.0000   109.1014   242.8505
 2278.5000   109.5711   242.8439
 2279.0000   113.1520   242.8386
 2279.5000   113.4653   243.9485
 2280.0000   113.4691   243.9431
 2280.5000   113.9389   242.8225
 2281.0000   110.6750   246.2150
 2281.5000   110.3668   252.8481
 2282.0000   109.7476   255.6309
 2282.5000   110.0625   256.7422
 2283.0000   110.9988   255.0626
 2283.5000   112.0990   253.9419
 2284.0000   107.1165   255.0518
 2284.5000   103.3861   259.5077
 2285.0000   103.2327   267.3080
 2285.5000   103.2365   272.3215
 2286.0000   103.5506   269.5279
 2286.5000   105.1136   268.4072
 2287.0000   107.6019   269.5173
 2287.5000   107.2938   272.9967
 2288.0000   106.8293   290.6957
 2288.5000   107.2998   299.6128
 2289.0000   107.3027   309.6451
 2289.5000   106.9946   316.8892
 2290.0000   107.1741   320.2297
 2290.5000   107.9347   320.7820
 2291.0000   107.3155   311.8528
 2291.5000   107.0066   311.8475
 2292.0000   107.9437   311.2845
 2292.5000   110.2801   309.6062
 2293.0000   110.1131   307.3702
 2293.5000   109.8194   301.2307
 2294.0000   111.2232   298.4369
 2294.5000   111.5365   310.1410
 2295.0000   111.0729   322.9615
 2295.5000   110.4543   319.6103
 2296.0000   106.7069   318.4897
 2296.5000   105.1713   318.4843
 2297.0000   105.9528   302.7968
 2297.5000   105.7995   291.7050
 2298.0000   107.6700   275.5279
 2298.5000   107.9841   268.2731
 2299.0000   109.8538   261.5759
 2299.5000   106.5908   243.7258
 2300.0000   101.1491   242.6051
 2300.5000   101.1521   241.3971
 2301.0000   101.9329   240.3625
 2301.5000   101.4692   238.1265
 2302.0000   101.4722   235.8905
 2302.5000   101.1641   234.2122
 2303.0000   101.4790   235.3222
 2303.5000   103.0375   247.1338
 2304.0000   103.9739   235.8677
 2304.5000   105.2214   231.4012
 2305.0000   105.5355   228.0499
 2305.5000   104.9162   228.0446
 2306.0000   105.0755   220.2321
 2306.5000   105.3896   213.5349
 2307.0000   105.8593   216.8741
 2307.5000   106.7957   236.3865
 2308.0000   107.1098   239.1693
 2308.5000   106.6206   241.3959
 2309.0000   102.1386   241.3892
 2309.5000   102.1416   241.3838
 2310.0000   102.4557   233.4219
 2310.5000   103.3920   232.4507
 2311.0000   104.0173   233.5607
 2311.5000   104.8003   232.4386
 2312.0000   105.2307   232.4333
 2312.5000   105.2579   237.4468
 2313.0000   104.3003   241.3855
 2313.5000   103.6796   251.3773
 2314.0000   105.2371   267.2987
 2314.5000   103.0607   269.5347
 2315.0000   102.2844   269.5401
 2315.5000   102.1300   266.1996
 2316.0000   101.3540   262.3015
 2316.5000   100.5777   261.1916
 2317.0000   100.1125   261.7548
 2317.5000   100.4256   261.2025
 2318.0000   100.2715   253.4021
 2318.5000    99.8063   248.3887
 2319.0000    99.8078   246.7212
 2319.5000    99.9649   266.2443
 2320.0000   100.1219   280.1909
 2320.5000   102.1911   295.8105
 2321.0000   103.7032   317.5643
 2321.5000   104.3270   315.6310
 2322.0000   104.3285   297.5010
 2322.5000   104.7967   294.7169
 2323.0000   105.4204   295.2813
 2323.5000   106.5108   295.2867
 2324.0000   106.9790   293.6192
 2324.5000   103.5586   291.9515
 2325.0000   101.2267   295.8606
 2325.5000   100.6055   310.1384
 2326.0000   102.4741   363.3483
 2326.5000   101.8530   361.6808
 2327.0000   101.5438   354.4367
 2327.5000   101.5504   339.9433
 2328.0000   102.1694   318.7580
 2328.5000    99.3708   269.6903
 2329.0000    96.7278   248.5051
 2329.5000    95.6400   246.8376
 2330.0000    95.3304   245.7290
 2330.5000    95.6434   240.1580
 2331.0000    95.6449   234.0292
 2331.5000    94.9284   219.5358
 2332.0000    90.6703   209.5035
 2332.5000    89.4269   208.3923
 2333.0000    90.2066   209.5143
 2333.5000    90.0522   218.6217
 2334.0000    90.6763   234.6194
 2334.5000    91.4556   231.8365
 2335.0000    91.4779   239.6504
 2335.5000    92.7035   245.2323
 2336.0000    94.7273   247.4683
 2336.5000   100.6401   255.8385
 2337.0000   100.4857   260.8627
 2337.5000   104.6877   264.7717
 2338.0000   104.8530   272.6314
 2338.5000   102.9268   294.8969
 2339.0000   101.2699   294.3446
 2339.5000   102.0496   285.4277
 2340.0000   100.9621   264.8001
 2340.5000    99.5636   255.3255
 2341.0000    99.7206   260.3497
 2341.5000   102.6778   275.9693
 2342.0000   101.6881   284.6089
 2342.5000   100.3478   289.9227
 2343.0000   100.6604   310.0035
 2343.5000   102.6842   320.6042
 2344.0000   100.3519   333.4356
 2344.5000   100.0423   330.6527
 2345.0000   101.9109   313.9287
 2345.5000   103.2474   314.4917
 2346.0000   107.3589   316.7502
 2346.5000   105.6492   318.9640
 2347.0000   103.0062   318.9706
 2347.5000   103.4744   312.2841
 2348.0000   101.2980   301.1353
 2348.5000   100.6773   308.9491
 2349.0000   100.3677   309.5108
 2349.5000   101.3029   306.7293
 2350.0000   103.1712   297.8123
 2350.5000   106.1283   293.9142
 2351.0000   107.8410   304.5163
 2351.5000   111.4204   310.0982
 2352.0000   116.2443   314.5648
 2352.5000   117.0236   319.0314
 2353.0000   110.0252   319.0369
 2353.5000   108.7819   319.0423
 2354.0000   107.5389   319.0477
 2354.5000   108.4741   316.7777
 2355.0000   107.8534   314.5987
 2355.5000   106.2992   309.0276
 2356.0000   104.8897   315.7248
 2356.5000   102.4744   320.1901
 2357.0000   100.2373   307.9272
 2357.5000    99.7717   314.6257
 2358.0000    99.4621   316.8618
 2358.5000    99.1525   330.2508
 2359.0000    99.6211   330.2563
 2359.5000   100.0893   331.9359
 2360.0000   103.2850   335.8448
 2360.5000   101.9594   348.1185
 2361.0000    99.4719   370.1849
 2361.5000    99.3175   365.7170
 2362.0000    96.9859   367.3846
 2362.5000    97.6097   367.9368
 2363.0000    97.3001   366.8148
 2363.5000    97.6480   366.8094
 2364.0000   101.9971   367.9206
 2364.5000   105.4393   369.0305
 2365.0000   106.3757   366.7932
 2365.5000   106.8454   361.2113
 2366.0000   106.6929   354.4926
 2366.5000   102.5660   353.3921
 2367.0000    99.8550   353.3867
 2367.5000    99.5461   356.1696
 2368.0000   100.1721   363.4136
 2368.5000   101.4196   370.6577
 2369.0000   101.4227   381.2476
 2369.5000   101.7368   384.5881
 2370.0000   101.9057   380.5674
 2370.5000    99.8586   314.3122
 2371.0000    99.5680   276.3867
 2371.5000   101.2829   240.1341
 2372.0000    99.8859   221.7263
 2372.5000    99.8889   218.3764
 2373.0000    99.5801   233.9838
 2373.5000    96.6282   241.8868
 2374.0000    95.2310   253.4894
 2374.5000    95.8702   264.0793
 2375.0000    97.1820   269.6504
 2375.5000   101.7745   277.4521
 2376.0000   101.1553   287.4844
 2376.5000   101.1583   291.9402
 2377.0000   101.4725   297.5371
 2377.5000   101.4755   297.5045
 2378.0000    98.6783   292.4803
 2378.5000    98.6720   287.4561
 2379.0000    96.3164   272.9518
 2379.5000    93.3984   251.7558
 2380.0000    93.8688   249.5198
 2380.5000    93.5607   251.1941
 2381.0000    89.3636   272.5144
 2381.5000    89.0547   290.2106
 2382.0000    85.9473   292.9948
 2382.5000    84.7058   292.4318
 2383.0000    84.8645   295.2133
 2383.5000    84.4015   295.7669
 2384.0000    82.2267   298.5484
 2384.5000    81.6067   297.3194
 2385.0000    81.6105   294.0764
 2385.5000    80.3690   302.9921
 2386.0000    79.1274   307.4492
 2386.5000    80.0652   285.1365
 2387.0000    83.0621   276.2087
 2387.5000    85.6709   276.2034
 2388.0000    87.5406   272.8520
 2388.5000    85.5214   273.9620
 2389.0000    82.8799   272.8399
 2389.5000    81.7939   267.2581
