~VERSION INFORMATION
 VERS.                2.0:   CWLS LOG ASCII STANDARD - VERSION 2.0
 WRAP.                 NO:   ONE LINE PER DEPTH STEP
~WELL INFORMATION
#MNEM.UNIT      DATA TYPE    INFORMATION
#----------   ------------   ------------------------------
 STRT.F            0.0000:   START DEPTH
 STOP.F         1077.0000:   STOP DEPTH
 STEP.F            0.5000:   STEP LENGTH
 NULL.          -999.2500:   NO VALUE
 COMP.         JOHN BROWN:   COMPANY
 WELL.       JOHN X #66-2:   WELL
 FLD .                NPR:   FIELD
 LOC .       S2 T38N R78W:   LOCATION
 CNTY.            NATRONA:   COUNTY
 STAT.            WYOMING:   STATE
 CTRY. UNITED STATES OF AMERICA:   COUNTRY
 SRVC.     ATLAS WIRELINE:   SERVICE COMPANY
 DATE.        04-DEC-1991:   LOGDATE
 API .     49025224820000:   API NUMBER
~CURVE INFORMATION
#MNEM.UNIT       API CODE    CURVE DESCRIPTION
#----------   ------------   ------------------------------
 DEPT.F                  :   
 TENR.LBS    07 635 01 00:   TENSION
 RILD.OHMM   07 120 46 00:   INDUCTION LOG DEEP RESISTIVITY
 RILM.OHMM   07 120 44 00:   INDUCTION LOG MEDIUM RESISTIVITY
 GRR .GAPI   07 310 01 00:   GAMMA RAY FROM RESISTIVITY
~PARAMETER INFORMATION
#MNEM.UNIT          VALUE    DESCRIPTION
#----------   ------------   ------------------------------
 EKB .F         5189.0000:   Kelly bushing
 EGL .F         5179.0000:   Ground level
 EDF .F         5188.0000:   Drilling floor
 EPD .F         5179.0000:   Permanent datum
 TD  .F         1072.0000:   Total depth
 DATE.        04-DEC-1991:   Date logged
 CLNT.            A2DTECH:   Client Code
 SL  . 1893' FSL & 1937' FEL:   Surface Location
 PD  .                 GL:   Permanent Datum
 LMF .                 KB:   Log Measured From
 DMF .                 KB:   Drilling Measured From
 DAPD.F                10:   Feet Above Permanent Datum
 DD  .F              1072:   Depth driller
 DL  .F              1073:   Depth logger
 BLI .F              1071:   Bottom log interval
 CS1 .IN            9.625:   Casing size
 CBD1.       9.625" @ 40':   Casing driller 1
 CBL1.F                50:   Casing logger 1
 BS1 .IN            7.875:   Bit size
 BSD1.F              1072:   Depth drilled with bit1
 DFT .                AIR:   Type fluid in hole
 LUN .            HL 6387:   Logging unit number
 LUL .             CASPER:   Logging unit location
 WITN.        GARY STRONG:   Witnessed by
 ORIG.         2.5" PRINT:   Origin of data
 UWI .     49025224820000:   Unique Well ID
 DICO. A2D TECHNOLOGIES, INC.:   Digitizing Company
~OTHER INFORMATION
~A    DEPT    TENR       RILD       RILM         GRR  
# ...
 1022.0000   155.3340     4.1280     4.4010   158.0310
 1022.5000   156.8890     4.2120     4.1680   165.8260
 1023.0000   158.4430     4.3790     4.4370   170.2310
 1023.5000   159.9980     4.5470     4.9470   157.8460
 1024.0000   161.5520     4.7140     5.4570   145.1320
 1024.5000   163.1060     5.0740     5.9670   125.1580
 1025.0000   164.6610     5.8820     6.4770   127.2540
 1025.5000   166.2150     6.4240     6.9880   127.4960
 1026.0000   167.7700     7.0980     7.3120   129.2350
 1026.5000   169.3240     7.7720     7.6840   130.6600
 1027.0000   170.8780     8.0610     7.9160   132.2410
 1027.5000   172.4330     8.2720     8.1480   131.1630
 1028.0000   173.9870     8.4840     8.3800   129.8450
 1028.5000   175.5420     8.6960     8.6110   128.7290
 1029.0000   177.0960     8.9070     8.8430   131.6870
 1029.5000   178.6500     9.0890     9.0750   136.7640
 1030.0000   180.2050     9.2570     9.3070   138.4460
 1030.5000   181.7590     9.4050     9.5390   134.4160
 1031.0000   183.3140     9.5520     9.7730   130.5830
 1031.5000   184.8680     9.6990     9.8040   130.3430
 1032.0000   186.4220     9.8470     9.8550   132.3950
 1032.5000   187.9770     9.9940     9.9070   134.4920
 1033.0000   189.5310    10.1330     9.9590   131.7720
 1033.5000   191.0860    10.1710    10.0110   130.6050
 1034.0000   192.6400    10.2070    10.0630   130.2470
 1034.5000   194.1940    10.2430    10.1150   131.1340
 1035.0000   195.7490    10.2790    10.1670   131.6700
 1035.5000   197.3030    10.3150    10.2180   132.2890
 1036.0000   198.8580    10.3510    10.2700   130.7250
 1036.5000   200.4120    10.3870    10.3220   129.0020
 1037.0000   201.9660    10.4230    10.3740   127.1410
 1037.5000   203.5210    10.4590    10.4260   125.2720
 1038.0000   205.0750    10.4950    10.5080   121.4060
 1038.5000   206.6300    10.5310    10.4840   117.4730
 1039.0000   208.1840    10.5670    10.4290   114.1180
 1039.5000   209.7380    10.6030    10.3750   114.4470
 1040.0000   211.2930    10.6400    10.3200   116.2880
 1040.5000   212.8470    10.6970    10.2650   118.0680
 1041.0000   214.4020    10.6760    10.2100   119.9020
 1041.5000   215.9560    10.5940    10.1550   120.9660
 1042.0000   217.5110    10.5120    10.1000   123.9390
 1042.5000   219.0650    10.4310    10.0450   130.1530
 1043.0000   220.6190    10.3500     9.9910   130.2200
 1043.5000   222.1740    10.2690     9.9360   128.5560
 1044.0000   223.7280    10.1880     9.8810   126.7750
 1044.5000   225.2830    10.1060     9.8260   126.2590
 1045.0000   226.8370    10.0250     9.7710   126.5990
 1045.5000   228.3910     9.9440     9.7160   126.7660
 1046.0000   229.9460     9.8630     9.6620   127.6710
 1046.5000   231.5000     9.7730     9.6070   129.3190
 1047.0000   232.7940     9.6460     9.5520   130.9880
 1047.5000   233.8220     9.5030     9.4970   132.5730
 1048.0000   234.8510     9.3610     9.4420   133.6600
 1048.5000   235.8800     9.2180     9.3870   130.3850
 1049.0000   236.9080     9.0750     9.3320   127.5400
 1049.5000   237.9370     8.9330     9.2780   124.0550
 1050.0000   238.9660     8.7900     9.2550   124.7750
 1050.5000   239.9950     8.6480     9.0890   128.5070
 1051.0000   241.0230     8.5050     8.9260   132.2280
 1051.5000   242.0520     8.3630     8.7650   132.9660
 1052.0000   243.0810     8.2200     8.4530   129.6590
 1052.5000   244.1090     8.0770     8.4530   126.5280
 1053.0000   245.1380     7.9350     8.3010   125.7170
 1053.5000   246.1670     7.8620     8.1520   126.6780
 1054.0000   247.1950     7.8620     8.1520  -999.2500
 1054.5000   248.2240     7.8620     8.1520  -999.2500
 1055.0000   249.2530     7.8620     8.1520  -999.2500
 1055.5000   250.2810     7.8620     8.3010  -999.2500
 1056.0000   251.3100     7.8620     8.2800  -999.2500
 1056.5000   252.3390     7.8620     8.2220  -999.2500
 1057.0000   253.3670     7.8290     8.1630  -999.2500
 1057.5000   254.3960     7.8020     8.1050  -999.2500
 1058.0000   255.4250     7.7740     8.0460  -999.2500
 1058.5000   256.4530     7.7470     7.9870  -999.2500
 1059.0000   257.4820     7.7200     7.9290  -999.2500
 1059.5000   258.5110     7.2360     7.8620  -999.2500
 1060.0000   259.5390     6.7710     7.7200  -999.2500
 1060.5000   260.5680     6.3050     7.5820  -999.2500
 1061.0000   261.5970     5.8820     7.4460  -999.2500
 1061.5000   262.6260  -999.2500     7.0510  -999.2500
 1062.0000   263.6540  -999.2500     6.9250  -999.2500
 1062.5000   264.6830  -999.2500  -999.2500  -999.2500
 1063.0000   265.7120  -999.2500  -999.2500  -999.2500
 1063.5000   266.7400  -999.2500  -999.2500  -999.2500
 1064.0000   267.7690  -999.2500  -999.2500  -999.2500
 1064.5000   268.7980  -999.2500  -999.2500  -999.2500
 1065.0000   269.8260  -999.2500  -999.2500  -999.2500
 1065.5000   270.8550  -999.2500  -999.2500  -999.2500
 1066.0000   273.5130  -999.2500  -999.2500  -999.2500
 1066.5000   281.8240  -999.2500  -999.2500  -999.2500
 1067.0000   290.1360  -999.2500  -999.2500  -999.2500
 1067.5000   298.4470  -999.2500  -999.2500  -999.2500
 1068.0000   306.7590  -999.2500  -999.2500  -999.2500
 1068.5000   311.0240  -999.2500  -999.2500  -999.2500
 1069.0000   256.5620  -999.2500  -999.2500  -999.2500
 1069.5000   232.2830  -999.2500  -999.2500  -999.2500
 1070.0000    88.8640  -999.2500  -999.2500  -999.2500
 1070.5000   -39.3700  -999.2500  -999.2500  -999.2500
 1071.0000  -139.7640  -999.2500  -999.2500  -999.2500
 1071.5000  -181.1020  -999.2500  -999.2500  -999.2500
 1072.0000  -187.2500  -999.2500  -999.2500  -999.2500
 1072.5000  -192.4990  -999.2500  -999.2500  -999.2500
 1073.0000  -197.7480  -999.2500  -999.2500  -999.2500
 1073.5000  -202.9980  -999.2500  -999.2500  -999.2500
 1074.0000  -208.2470  -999.2500  -999.2500  -999.2500
 1074.5000  -213.4960  -999.2500  -999.2500  -999.2500
 1075.0000  -218.7460  -999.2500  -999.2500  -999.2500
 1075.5000  -220.4720  -999.2500  -999.2500  -999.2500
 1076.0000  -220.4720  -999.2500  -999.2500  -999.2500
 1076.5000  -240.1570  -999.2500  -999.2500  -999.2500
 1077.0000  -240.1570  -999.2500  -999.2500  -999.2500
