~VERSION INFORMATION
 VERS.                2.0:   CWLS LOG ASCII STANDARD - VERSION 2.0
 WRAP.                 NO:   ONE LINE PER DEPTH STEP
~WELL INFORMATION
#MNEM.UNIT      DATA TYPE    INFORMATION
#----------   ------------   ------------------------------
 STRT.F          634.0000:   START DEPTH
 STOP.F         3464.0000:   STOP DEPTH
 STEP.F            0.5000:   STEP LENGTH
 NULL.          -999.2500:   NO VALUE
 COMP. LAWRENCE-ALLISON & ASSOCIATES W:   COMPANY
 WELL. LAWRENCE "TX" #44-27:   WELL
 FLD .   NAVAL RESERVE #3:   FIELD
 LOC .      S27 T39N R78W:   LOCATION
 CNTY.            NATRONA:   COUNTY
 STAT.            WYOMING:   STATE
 CTRY. UNITED STATES OF AMERICA:   COUNTRY
 SRVC.       SCHLUMBERGER:   SERVICE COMPANY
 DATE.        13-MAR-1982:   LOGDATE
 API .     49025108870000:   API NUMBER
~CURVE INFORMATION
#MNEM.UNIT       API CODE    CURVE DESCRIPTION
#----------   ------------   ------------------------------
 DEPT.F                  :   
 TENR.LBS    07 635 01 00:   TENSION FROM RESISTIVITY
 ILD .OHMM   07 120 46 00:   DEEP INDUCTION RESISTIVITY
 ILM .OHMM   07 120 44 00:   INDUCTION LOG MEDIUM RESISTIVITY
 SFLU.OHMM   07 220 01 00:   SPHERICALLY FOCUSED LOG UNAVERAGED RESISTIVITY
 SPR .MV     07 010 01 00:   SPONTANEOUS POTENTIAL
 TENN.LBS    42 635 01 00:   TENSION FROM COMPENSATE NEUTRON
 CALD.IN     45 280 60 00:   CALIPER FROM DENSITY LOG
 GRD .GAPI   45 310 01 00:   GAMMA RAY FROM DENSITY LOG
 RHOB.G/C3   45 350 01 00:   BULK DENSITY
 DRHO.G/C3   45 356 01 00:   DENSITY CORRECTION
 NPHI.DEC    42 890 03 00:   NEUTRON POROSITY SANDSTONE
~PARAMETER INFORMATION
#MNEM.UNIT          VALUE    DESCRIPTION
#----------   ------------   ------------------------------
 EKB .F         5049.0000:   Kelly bushing
 EGL .F         5039.0000:   Ground level
 EDF .F            0.0000:   Drilling floor
 EPD .F            0.0000:   Permanent datum
 TD  .F         3440.0000:   Total depth
 DATE.        13-MAR-1982:   Date logged
 CLNT.            A2DTECH:   Client Code
 PD  .                 GL:   Permanent Datum
 DD  .F              3440:   Depth driller
 DL  .F              3439:   Depth logger
 BLI .F              3433:   Bottom log interval
 CS1 .IN            9.625:   Casing size
 CBD1.      9.625" @ 650':   Casing driller 1
 CBL1.F               647:   Casing logger 1
 BS1 .IN            7.875:   Bit size
 DFT .                GEL:   Type fluid in hole
 DFD .                9.3:   Density
 DFV .                 48:   Viscosity
 DFPH.                 10:   pH
 DFL .                  8:   Fluid loss
 MSS .                PIT:   Source of sample
 RMS .OHMM           1.82:   Rm
 MST .F                67:   Rm Meas. temp.
 RMF .OHMM           1.32:   Rmf
 MFST.F                67:   Rmf Meas. temp.
 MFSS.               MEAS:   Source Rmf.
 RMB .OHMM           1.09:   Rm. at BHT
 BHT .F               112:   BHT.
 TCS .HRS            1300:   Time Circ. stopped
 MRT .F               112:   Maximum recorded temp.
 LUN .               8039:   Logging unit number
 LUL .               CSPR:   Logging unit location
 ENGI.   WAGNER/CONOSENTI:   Recorded By
 WITN.           JENNINGS:   Witnessed by
 ORIG.           5" PRINT:   Origin of data
 UWI .     49025108870000:   Unique Well ID
 DICO. A2D TECHNOLOGIES, INC.:   Digitizing Company
 DAPD.                 10:   Feet Above Permanent Datum
 BSD1.F              3440:   Depth drilled with bit1
 TLI .F               647:   Top log interval
 TLAB.HRS            1800:   Time logger at bottom
~OTHER INFORMATION
~A   DEPT     TENR        ILD        ILM       SFLU        SPR       TENN       CALD         GRD      RHOB       DRHO       NPHI   
# ...
 2860.5000  1407.1860    15.4720    12.5730    17.6620   -25.5060  1855.1591     9.2430    92.0130     2.5160     0.0240     0.2150
 2861.0000  1407.1860    15.9670    12.4380    21.8250   -25.8450  1855.1591     9.2430    80.6630     2.5230     0.0260     0.1960
 2861.5000  1407.1860    15.4500    11.9260    21.6250   -26.0870  1855.1591     9.2430    71.7810     2.5110     0.0290     0.1760
 2862.0000  1407.1860    14.9270    11.2160    19.2560   -26.2240  1855.1591     9.2550    70.5830     2.5010     0.0240     0.1560
 2862.5000  1407.1860    14.4040    10.5070    16.8670   -26.3530  1855.1591     9.2810    71.9150     2.4910     0.0160     0.1510
 2863.0000  1407.1860    13.8810    10.0940    14.4780   -26.4830  1855.1591     9.3070    76.0740     2.4910     0.0100     0.1580
 2863.5000  1407.1860    13.3580     9.7550    11.1960   -26.6120  1855.1591     9.3340    80.2120     2.4970     0.0150     0.1670
 2864.0000  1407.1860    12.8350     9.4170    11.3760   -26.7420  1855.1591     9.3600    83.4980     2.5040     0.0270     0.1790
 2864.5000  1407.1860    12.3120     9.0780    11.7350   -26.8340  1855.1591     9.3600    83.5740     2.4960     0.0300     0.1990
 2865.0000  1407.1860    11.8190     8.8400    12.2140   -26.3770  1855.1591     9.3560    82.2420     2.4830     0.0250     0.2080
 2865.5000  1407.1860    11.3660     8.7220    12.1450   -25.8430  1855.1591     9.3530    80.9570     2.4700     0.0200     0.2080
 2866.0000  1407.1860    10.9130     8.6030    12.0060   -25.3100  1855.1591     9.3490    82.1060     2.4710     0.0170     0.2060
 2866.5000  1407.1860    10.6090     8.4850    11.8680   -24.9720  1855.1591     9.3450    85.8120     2.4770     0.0140     0.2040
 2867.0000  1407.1860    10.5010     8.3660    11.5840   -24.6850  1855.1591     9.3410    89.5000     2.4840     0.0150     0.2020
 2867.5000  1407.1860    10.3920     8.2480    11.1720   -24.3980  1855.1591     9.3370    93.2110     2.4860     0.0170     0.2010
 2868.0000  1407.1860    10.2840     8.1300    10.7590   -24.1020  1855.1591     9.3330    94.8730     2.4830     0.0150     0.2000
 2868.5000  1407.1860    10.1760     8.0880    10.3660   -24.2130  1855.1591     9.3300    94.2840     2.4770     0.0070     0.2010
 2869.0000  1407.1860    10.0670     8.0880    10.2390   -24.4610  1855.1591     9.3260    92.6950     2.4670     0.0040     0.2030
 2869.5000  1407.1860     9.9590     8.0880    10.2010   -24.7030  1855.1591     9.3230    92.1520     2.4590     0.0020     0.2020
 2870.0000  1407.1860     9.9000     8.0880    10.1640   -24.9450  1855.1591     9.3230    91.9140     2.4690     0.0080     0.2000
 2870.5000  1407.1860     9.9160     8.0880    10.1260   -25.1880  1855.1591     9.3230    91.9510     2.4830     0.0160     0.1990
 2871.0000  1407.1860     9.9290     8.0880    10.0890   -25.4110  1855.1591     9.3230    93.5920     2.4970     0.0220     0.2030
 2871.5000  1407.1860     9.9420     8.0880    10.3610   -25.4640  1855.1591     9.3230    95.2730     2.4990     0.0200     0.2070
 2872.0000  1407.1860     9.9540     8.0880    10.6560   -25.6690  1855.1591     9.3230    95.5150     2.4870     0.0160     0.2070
 2872.5000  1407.1860     9.9670     8.0880    10.5700   -25.8710  1855.1591     9.3230    95.3820     2.4780     0.0140     0.2020
 2873.0000  1406.8170     9.9800     8.0880    10.4730   -26.0740  1855.1591     9.3230    95.2420     2.4790     0.0180     0.2020
 2873.5000  1406.2750     9.9910     8.0880    10.3820   -26.2780  1855.1591     9.3230    95.0960     2.4930     0.0230     0.2020
 2874.0000  1405.7330     9.9920     8.0880    10.2910   -26.3970  1855.1591     9.3240    95.8690     2.4990     0.0260     0.2040
 2874.5000  1405.1920     9.9920     8.0860    10.2010   -25.8270  1855.1591     9.3230    97.2670     2.5020     0.0220     0.2080
 2875.0000  1404.6500     9.9920     8.0880    10.0840   -25.2750  1855.1591     9.3450    98.7190     2.5000     0.0220     0.2180
 2875.5000  1404.1090     9.9960     8.0300    10.1820   -24.7280  1855.1591     9.3440    97.7260     2.5020     0.0230     0.2280
 2876.0000  1403.5670    10.0340     8.1870    10.3220   -24.1850  1855.1591     9.3430    96.2500     2.5060     0.0270     0.2310
 2876.5000  1403.0250    10.0730     8.3440    10.4620   -23.7980  1855.1591     9.3430    95.4520     2.5130     0.0290     0.2190
 2877.0000  1402.4840    10.1120     8.5460    10.7480   -23.8060  1855.1591     9.3430    95.5330     2.5150     0.0310     0.2090
 2877.5000  1401.9420    10.1510     8.4480    11.3510   -23.8060  1855.1591     9.3430    92.3390     2.5120     0.0320     0.2050
 2878.0000  1401.4000    10.1770     8.3120    11.9530   -23.8060  1855.1591     9.3430    89.0530     2.4990     0.0230     0.1970
 2878.5000  1400.8590     9.7000     8.1760    12.1190   -23.8070  1855.1591     9.3470    86.1510     2.4870     0.0150     0.1920
 2879.0000  1400.3170     9.3390     8.0400    10.8520   -23.8070  1855.1591     9.3630    89.3760     2.4770     0.0060     0.1910
 2879.5000  1399.7760     8.9790     7.9030     9.8970   -23.9580  1855.1591     9.3640    94.1500     2.4780     0.0020     0.2030
 2880.0000  1399.2340     8.6180     7.7030     9.0900   -24.2370  1855.1591     9.3640    98.8130     2.4740     0.0010     0.2210
 2880.5000  1398.6920     8.2380     7.4790     8.4110   -24.5180  1855.1591     9.3630   101.3320     2.4680     0.0010     0.2330
 2881.0000  1398.1510     8.0900     7.3100     8.2190   -24.7960  1855.1591     9.3630   101.3260     2.4670     0.0010     0.2340
 2881.5000  1397.6090     7.9340     7.1780     8.1940   -24.9550  1855.1591     9.3630   101.1320     2.4760     0.0010     0.2310
 2882.0000  1397.0670     7.7780     7.0010     8.1680   -25.1410  1855.1591     9.3630   103.2150     2.4950     0.0120     0.2250
 2882.5000  1396.5260     7.6220     6.8250     8.0960   -25.3310  1855.1591     9.3630   105.2520     2.5090     0.0220     0.2200
 2883.0000  1395.9840     7.4660     6.6480     8.0090   -25.4650  1855.1591     9.3630   107.2910     2.5020     0.0180     0.2190
 2883.5000  1395.4430     7.3100     6.5750     7.8790   -25.6190  1855.1591     9.3630   108.1160     2.4960     0.0130     0.2220
 2884.0000  1394.9010     7.1790     6.5180     7.9170   -25.7710  1856.2740     9.3630   104.6030     2.5010     0.0090     0.2260
 2884.5000  1394.3590     7.0670     6.4610     8.0490   -25.9250  1857.8580     9.3630   101.2270     2.5080     0.0110     0.2280
 2885.0000  1393.8180     6.9550     6.4040     8.2380   -26.0020  1859.4420     9.3640    97.8600     2.5160     0.0150     0.2240
 2885.5000  1393.2760     6.8430     6.3140     8.0850   -25.3940  1861.0260     9.3640    96.7740     2.5210     0.0180     0.2190
 2886.0000  1392.7350     6.7290     6.1730     7.6870   -24.7540  1862.6100     9.3730    99.9380     2.5150     0.0180     0.2160
 2886.5000  1392.1930     6.5660     6.0320     7.2880   -24.1200  1864.1940     9.3900   101.1670     2.5050     0.0150     0.2190
 2887.0000  1391.6510     6.3510     5.8910     6.8900   -23.5330  1865.7791     9.4080   101.4040     2.4960     0.0100     0.2210
 2887.5000  1391.1100     6.1370     5.7520     6.6940   -23.2480  1867.3630     9.4260   101.7050     2.4920     0.0070     0.2200
 2888.0000  1390.5680     5.9230     5.5680     6.6070   -22.9500  1868.9470     9.4430   105.0710     2.5030     0.0070     0.2190
 2888.5000  1390.0260     5.7080     5.3830     6.5190   -22.6510  1870.5310     9.4470   104.3440     2.5110     0.0150     0.2190
 2889.0000  1389.4850     5.4940     5.1990     6.4310   -22.3500  1872.1150     9.4510   103.6840     2.5150     0.0240     0.2190
 2889.5000  1388.9430     5.2790     5.0140     6.3440   -22.0370  1873.6990     9.4560   103.4950     2.5200     0.0260     0.2180
 2890.0000  1388.4020     5.0850     4.8290     6.1620   -22.3960  1874.6870     9.4610   108.2340     2.5240     0.0280     0.2160
 2890.5000  1387.8600     4.9180     4.6450     5.4890   -22.8750  1872.9360     9.4640   113.2040     2.5250     0.0300     0.2240
