~VERSION INFORMATION
 VERS.                2.0:   CWLS LOG ASCII STANDARD - VERSION 2.0
 WRAP.                 NO:   ONE LINE PER DEPTH STEP
~WELL INFORMATION
#MNEM.UNIT      DATA TYPE    INFORMATION
#----------   ------------   ------------------------------
 STRT.F          207.0000:   START DEPTH
 STOP.F         3130.0000:   STOP DEPTH
 STEP.F            0.5000:   STEP LENGTH
 NULL.          -999.2500:   NO VALUE
 COMP. FENIX & SCISSON U.S. NAVY:   COMPANY
 WELL.    FENIX "A" #61-3:   WELL
 FLD .             NPR #3:   FIELD
 LOC .       S3 T38N R78W:   LOCATION
 CNTY.            NATRONA:   COUNTY
 STAT.            WYOMING:   STATE
 CTRY. UNITED STATES OF AMERICA:   COUNTRY
 SRVC.              WELEX:   SERVICE COMPANY
 DATE.        13-MAY-1977:   LOGDATE
 API .     49025103630000:   API NUMBER
~CURVE INFORMATION
#MNEM.UNIT       API CODE    CURVE DESCRIPTION
#----------   ------------   ------------------------------
 DEPT.F                  :   
 SPR .MV     07 010 01 00:   SPONTANEOUS POTENTIAL
 SFLU.OHMM   07 220 01 00:   SPHERICALLY FOCUSED LOG UNAVERAGED RESISTIVITY
 ILD .OHMM   07 120 46 00:   INDUCTION LOG DEEP RESISTIVITY
 ILM .OHMM   07 120 44 00:   INDUCTION LOG MEDIUM RESISTIVITY
 CALD.IN     45 280 60 00:   CALIPER FROM DENSITY LOG
 GRD .GAPI   45 310 01 00:   GAMMA RAY FROM DENSITY LOG
 RHOB.G/C3   45 350 01 00:   BULK DENSITY
 CORR.G/C3   45 356 01 00:   DENSITY CORRECTION
~PARAMETER INFORMATION
#MNEM.UNIT          VALUE    DESCRIPTION
#----------   ------------   ------------------------------
 EKB .F         5109.0000:   Kelly bushing
 EGL .F         5099.0000:   Ground level
 EDF .F            0.0000:   Drilling floor
 TD  .F         3130.0000:   Total depth
 DATE.        13-MAY-1977:   Date logged
 CLNT.            A2DTECH:   Client Code
 SL  . 330' FNL & 1650' FEL:   Surface Location
 PD  .                 GL:   Permanent Datum
 EPD .F              5099:   Elevation Permanent Datum
 LMF .                 KB:   Log Measured From
 DMF .                 KB:   Drilling Measured From
 DAPD.F                10:   Feet Above Permanent Datum
 DD  .F              3126:   Depth driller
 DL  .F              3129:   Depth logger
 BLI .F              3127:   Bottom log interval
 TLI .F               210:   Top log interval
 CS1 .IN            8.625:   Casing size
 CBD1.      8.625" @ 200':   Casing driller 1
 CBL1.F               216:   Casing logger 1
 BS1 .IN            7.875:   Bit size
 BSD1.F              3126:   Depth drilled with bit1
 DFT .            KCL MUD:   Type fluid in hole
 DFD .                9.1:   Density
 DFV .                 32:   Viscosity
 DFPH.                  8:   pH
 DFL .                8.4:   Fluid loss
 MSS .           FLOWLINE:   Source of sample
 RMS .OHMM            .29:   Rm
 MST .F                68:   Rm Meas. temp.
 RMF .OHMM            .28:   Rmf
 MFST.F                68:   Rmf Meas. temp.
 RMC .OHMM            .43:   Rmc
 MCST.F                68:   Rmc Meas. temp.
 MFSS.           FANN KIT:   Source Rmf.
 MCSS.           FANN KIT:   Source Rmc.
 RMB .OHMM            .16:   Rm. at BHT
 BHT .F               123:   BHT.
 TCS .HRS             2.5:   Time Circ. stopped
 MRT .F               123:   Maximum recorded temp.
 LUN .               9685:   Logging unit number
 LUL .           BRIGHTON:   Logging unit location
 ENGI.          T. JOYNER:   Recorded By
 WITN.      B. HARRINGTON:   Witnessed by
 ORIG.           5" PRINT:   Origin of data
 UWI .     49025103630000:   Unique Well ID
 DICO. A2D TECHNOLOGIES, INC.:   Digitizing Company
~OTHER INFORMATION
~A   DEPT      SPR       SFLU        ILD        ILM       CALD        GRD       RHOB       CORR   
# ...
  409.5000   -43.6969     3.5812     4.4664     2.2195    11.2976    97.7414     2.1425    -0.0018
  410.0000   -43.2915     3.7506     3.8207     2.9529    11.5752    97.1837     2.3939     0.0127
  410.5000   -42.6862     6.3394     3.5505     4.7661    12.4279    95.9918     2.4179     0.0227
  411.0000   -42.2809     7.0162     3.4867     5.1316    11.3370    94.8033     2.4179     0.0227
  411.5000   -42.0755     7.4164     3.5851     5.3255    11.2774    93.6115     2.4149     0.0227
  412.0000   -41.8701     7.5567     3.7551     5.4758    11.0988    92.0231     2.4109     0.0287
  412.5000   -40.8650     7.5588     3.8259     5.8420    11.1185    90.4348     2.4069     0.0307
  413.0000   -40.4597     7.8443     3.9341     5.9521    11.2176    90.4330     2.3959     0.0287
  413.5000   -39.8545     7.8465     4.0453     6.4678    11.2571    88.0515     2.3839     0.0286
  414.0000   -39.6491     7.1587     4.0094     6.8368    11.2570    86.4637     2.3726     0.0226
  414.5000   -38.2441     7.0297     3.9013     6.7761    11.2768    82.4957     2.3556     0.0266
  415.0000   -37.4390     7.0321     3.8312     6.7779    11.2965    80.9078     2.3466     0.0306
  415.5000   -37.0337     7.0986     3.8675     6.8421    11.2964    79.3198     2.3326     0.0326
  416.0000   -36.4286     7.5738     4.0884     6.9076    11.2764    77.3354     2.3215     0.0366
  416.5000   -35.8234     7.7158     4.3616     7.0371    11.3160    70.1958     2.3017     0.0406
  417.0000   -35.4182     8.0813     4.6104     7.2369    11.3555    66.2288     2.2937     0.0426
  417.5000   -34.8131     9.1106     5.1501     7.7918    11.4546    61.4689     2.2777     0.0425
  418.0000   -34.0080    11.1586     5.8598     8.3889    11.4743    59.4850     2.2616     0.0445
  418.5000   -33.8027    11.5795     6.7289     8.5485    11.5535    57.5012     2.2486     0.0485
  419.0000   -33.1976    11.7978     6.7929     8.8699    11.6129    55.9102     2.2135     0.0485
  419.5000   -32.3926    11.8017     6.7326     9.4621    11.6524    55.5128     2.1965     0.0405
  420.0000   -31.3877    11.5884     5.6542     9.6405    11.7316    55.5116     2.1923     0.0365
  420.5000   -30.7826    11.5916     5.7078     9.8223    11.9496    55.5105     2.1903     0.0344
  421.0000   -30.3775    11.5948     5.9234    10.0081    12.0287    55.5097     2.1893     0.0324
  421.5000   -30.1723    11.4924     5.9250    10.0103    12.1079    56.3013     2.1925     0.0324
  422.0000   -29.9671    11.2860     5.7125     9.9213    12.2069    56.6967     2.2005     0.0284
  422.5000   -29.9618    11.1857     5.7672     9.5654    12.2861    56.2991     2.2055     0.0304
  423.0000   -29.9565    11.0857     6.1526     9.9273    12.3256    55.5050     2.2105     0.0324
  423.5000   -29.7513    10.9872     7.2629     9.7490    12.3651    54.3141     2.2105     0.0323
  424.0000   -29.9459    10.8896     7.9646     9.8413    12.4047    55.1068     2.2225     0.0343
  424.5000   -29.7407    10.9939     9.1459     9.9350    12.3847    57.0874     2.2245     0.0343
  425.0000   -29.7355    11.3047     9.0642     9.9372    12.4044    57.0863     2.2295     0.0343
  425.5000   -29.7302    12.0608     9.0657     9.9411    12.4043    57.0861     2.2255     0.0343
  426.0000   -29.7249    12.6328     9.4102     9.9422    12.4240    57.4605     2.2335     0.0343
  426.5000   -29.1199    13.1086    10.2249     9.9465    12.4040    57.8349     2.2355     0.0343
  427.0000   -28.9147    13.4792    10.9076     9.9487    12.4039    58.2093     2.2446     0.0322
  427.5000   -28.7096    13.4829    11.0115     9.9520    12.4236    58.5838     2.2636     0.0382
  428.0000   -28.7043    13.4859    10.1397     9.9548    12.4234    58.9582     2.2636     0.0382
  428.5000   -28.6990    12.0801     8.5939     9.9575    12.4233    59.3326     2.2636     0.0382
  429.0000   -28.6937    11.2259     8.8374     9.9603    12.4232    59.7070     2.2576     0.0362
  429.5000   -28.8883    11.0242     9.0045     9.9625    12.4231    60.2464     2.2536     0.0362
  430.0000   -28.6832    11.0267     8.9235     9.9652    12.4626    60.2459     2.2626     0.0361
  430.5000   -28.6779    11.0297     8.2170     9.8767    12.4624    59.8520     2.2706     0.0381
  431.0000   -28.2729    11.0328     7.9955     9.6993    12.4623    60.2472     2.2774     0.0381
  431.5000   -28.2676    11.0364     8.2975     9.7025    12.4424    60.2460     2.2824     0.0381
  432.0000   -28.2623    11.0395     9.0164     9.6157    12.4224    60.2448     2.2894     0.0381
  432.5000   -28.2570    11.1434     9.4435     9.6184    12.4223    61.0362     2.2954     0.0381
  433.0000   -28.2518    11.4591     9.6216     9.6216    12.4023    61.8234     2.2954     0.0381
  433.5000   -28.6462    11.5682     9.6237     9.8030    12.4022    61.8227     2.2866     0.0381
  434.0000   -28.6410    11.3610     9.6264    10.0801    12.3823    61.0289     2.2726     0.0340
  434.5000   -28.4358    11.2594     9.9007    10.3651    12.3624    61.0276     2.2776     0.0280
  435.0000   -28.6304    10.9565     9.9013    10.5611    12.3622    63.0078     2.2856     0.0280
  435.5000   -28.4253    10.8591     9.9040    10.5629    12.3621    64.1953     2.2876     0.0260
  436.0000   -28.6198    10.7626     9.7266    10.5664    12.3422    63.4015     2.2826     0.0280
  436.5000   -28.6146    10.7656     9.5519    10.5687    12.3420    63.0040     2.2886     0.0279
  437.0000   -28.6093    10.6700     9.5540    10.4754    12.3221    63.3992     2.2936     0.0299
  437.5000   -28.6040    10.6717     9.3824    10.3823    12.3022    64.1904     2.3046     0.0299
  438.0000   -28.5987    10.6764     9.2990    10.1013    12.3020    65.3778     2.3286     0.0359
  438.5000   -28.5935    10.6788     9.3021    10.0121    12.2425    66.5652     2.3346     0.0379
  439.0000   -28.7880    10.6817     9.3047     9.9237    12.2225    67.7525     2.3456     0.0419
  439.5000   -28.9826    10.6847     9.3072     9.9264    12.2026    67.7549     2.3576     0.0419
  440.0000   -29.3770    10.6865     9.3098     9.9275    12.1233    67.3574     2.3566     0.0358
  440.5000   -28.9720    10.6900     9.2271     9.9319    12.0835    67.3560     2.3536     0.0418
  441.0000   -28.9668    10.5956     9.2286     9.9347    12.0636    67.3547     2.3486     0.0398
  441.5000   -28.7617    10.4047     9.0638     9.9363    12.0437    66.5610     2.3504     0.0418
  442.0000   -29.3559    10.3128     9.0658     9.8486    12.0237    66.5597     2.3544     0.0418
  442.5000   -28.5513    10.2206     8.9035     9.8518    11.9840    66.1622     2.3564     0.0418
  443.0000   -28.5460    10.2240     8.7435     9.8540    11.9641    67.3493     2.3564     0.0401
  443.5000   -28.5407    11.2125     8.5865     9.8573    11.9837    67.3480     2.3564     0.0397
  444.0000   -28.5354    11.5295     8.3550     9.8600    11.9440    69.3268     2.3544     0.0397
  444.5000   -28.3303    11.0135     8.3573     9.8622    11.9439    69.3259     2.3504     0.0377
  445.0000   -28.5249    10.3299     8.2830     9.7751    11.9240    68.1362     2.3454     0.0337
  445.5000   -28.5196    10.3322     8.2853     9.5110    11.9040    68.1349     2.3444     0.0317
  446.0000   -28.5143    11.4371     8.2876     9.2541    11.9039    68.9254     2.3444     0.0317
  446.5000   -28.5091    12.0897     8.2899     8.9227    11.9038    68.9246     2.3464     0.0316
  447.0000   -28.5038    11.9816     8.2922     8.8439    11.9037    68.1311     2.3484     0.0356
  447.5000   -28.4985    11.3424     8.2945     8.8453    11.8838    68.5258     2.3484     0.0356
  448.0000   -28.4933    12.3237     8.3735     8.8487    11.7450    68.5244     2.3396     0.0356
  448.5000   -28.0884    13.5152     8.3758     8.9325    11.6855    68.1270     2.3355     0.0356
  449.0000   -27.8833    14.4176     8.4555     9.0176    11.5666    68.1257     2.3295     0.0276
  449.5000   -27.8780    14.8252     8.4579     9.1034    11.5467    68.5204     2.3245     0.0275
