~VERSION INFORMATION
 VERS.                2.0:   CWLS LOG ASCII STANDARD - VERSION 2.0
 WRAP.                 NO:   ONE LINE PER DEPTH STEP
~WELL INFORMATION
#MNEM.UNIT      DATA TYPE    INFORMATION
#----------   ------------   ------------------------------
 STRT.F          190.0000:   START DEPTH
 STOP.F         3050.0000:   STOP DEPTH
 STEP.F            0.5000:   STEP LENGTH
 NULL.          -999.2500:   NO VALUE
 COMP.    FENIX & SCISSON:   COMPANY
 WELL. FENIX NPR 3 "AX" #86-29:   WELL
 FLD .      NPR - WILDCAT:   FIELD
 LOC .      S29 T39N R78W:   LOCATION
 CNTY.            NATRONA:   COUNTY
 STAT.            WYOMING:   STATE
 CTRY. UNITED STATES OF AMERICA:   COUNTRY
 SRVC.              WELEX:   SERVICE COMPANY
 DATE.        24-JUN-1977:   LOGDATE
 API .     49025103830000:   API NUMBER
~CURVE INFORMATION
#MNEM.UNIT       API CODE    CURVE DESCRIPTION
#----------   ------------   ------------------------------
 DEPT.F                  :   
 SPR .MV     07 010 01 00:   SPONTANEOUS POTENTIAL
 ILD .OHMM   07 120 46 00:   DEEP INDUCTION RESISTIVITY
 ILM .OHMM   07 120 44 00:   INDUCTION LOG MEDIUM RESISTIVITY
 SGRD.OHMM   07 220 05 00:   SHALLOW SHORT GUARD RESISTIVITY
 GRD .GAPI   45 310 01 00:   GAMMA RAY FROM DENSITY LOG
 CALD.IN     45 280 60 00:   CALIPER FROM DENSITY LOG
 RHOB.G/C3   45 350 01 00:   BULK DENSITY
 CORR.G/C3   45 356 01 00:   DENSITY CORRECTION
~PARAMETER INFORMATION
#MNEM.UNIT          VALUE    DESCRIPTION
#----------   ------------   ------------------------------
 EKB .F         5056.0000:   Kelly bushing
 EGL .F         5046.0000:   Ground level
 EDF .F            0.0000:   Drilling floor
 TD  .F         3051.0000:   Total depth
 DATE.        24-JUN-1977:   Date logged
 CLNT.            A2DTECH:   Client Code
 SL  . 1746' FSL & 534' FEL:   Surface Location
 PD  .                 GL:   Permanent Datum
 EPD .F              5046:   Elevation Permanent Datum
 LMF .                 KB:   Log Measured From
 DMF .                 KB:   Drilling Measured From
 DAPD.F                10:   Feet Above Permanent Datum
 DD  .F              3038:   Depth driller
 DL  .F              3051:   Depth logger
 BLI .F              3049:   Bottom log interval
 TLI .F               200:   Top log interval
 CS1 .IN            8.625:   Casing size
 CBD1.      8.625" @ 217':   Casing driller 1
 CBL1.F               213:   Casing logger 1
 BS1 .IN            7.875:   Bit size
 BSD1.F              3038:   Depth drilled with bit1
 DFT .            KCL/MUD:   Type fluid in hole
 DFD .                8.7:   Density
 DFV .                134:   Viscosity
 DFPH.                7.5:   pH
 DFL .                7.2:   Fluid loss
 MSS .           FLOWLINE:   Source of sample
 RMS .OHMM            .62:   Rm
 MST .F                82:   Rm Meas. temp.
 RMF .OHMM            .28:   Rmf
 MFST.F                82:   Rmf Meas. temp.
 RMC .OHMM            .78:   Rmc
 MCST.F                82:   Rmc Meas. temp.
 MFSS.               MEAS:   Source Rmf.
 MCSS.               MEAS:   Source Rmc.
 RMB .OHMM            .45:   Rm. at BHT
 BHT .F               111:   BHT.
 TCS .HRS               2:   Time Circ. stopped
 MRT .F               111:   Maximum recorded temp.
 LUN .               8766:   Logging unit number
 LUL .             CASPER:   Logging unit location
 ENGI.          D. LAWSON:   Recorded By
 WITN.      B. HARRINGTON:   Witnessed by
 ORIG.           5" PRINT:   Origin of data
 UWI .     49025103830000:   Unique Well ID
 DICO. A2D TECHNOLOGIES, INC.:   Digitizing Company
~OTHER INFORMATION
~A   DEPT      SPR        ILD        ILM       SGRD        GRD       CALD         RHOB      CORR  
# ...
 1526.5000   -64.8670     8.8480     9.2630    12.6480    73.6570     8.3650     2.5530     0.0400
 1527.0000   -64.8720     8.8110     9.2200    12.7650    73.9280     8.3660     2.5530     0.0390
 1527.5000   -64.8770     8.7750     9.1770    13.5610    74.1980     8.3680     2.5420     0.0370
 1528.0000   -64.8820     8.7380     9.1570    14.9160    74.4690     8.3690     2.5310     0.0350
 1528.5000   -64.8870     8.7020     9.1310    14.4790    74.6050     8.3700     2.5250     0.0310
 1529.0000   -64.8920     8.6510     9.0940    13.3490    74.6060     8.3720     2.5180     0.0260
 1529.5000   -64.8980     8.5580     9.1370    12.2180    74.6090     8.3710     2.5110     0.0220
 1530.0000   -64.9030     8.4650     9.2500    11.9710    74.6000     8.3680     2.5050     0.0170
 1530.5000   -64.9080     8.3720     9.3630    12.4270    74.0160     8.3660     2.4990     0.0140
 1531.0000   -64.9130     8.2800     9.4920    12.7800    73.4300     8.3640     2.4990     0.0150
 1531.5000   -64.9180     8.2220     9.6490    13.0010    73.2460     8.3610     2.5010     0.0160
 1532.0000   -64.9210     8.3000     9.8050    12.4180    73.0350     8.3590     2.5070     0.0170
 1532.5000   -64.9210     8.3660     9.9660    12.7190    72.4440     8.3560     2.5120     0.0190
 1533.0000   -64.9210     8.4320     9.8570    13.1200    71.7910     8.3540     2.5180     0.0200
 1533.5000   -64.9210     8.4980     9.6960    12.7660    71.7270     8.3520     2.5210     0.0210
 1534.0000   -64.9210     8.5650     9.7230    12.5330    72.2550     8.3560     2.5260     0.0230
 1534.5000   -64.9210     8.6310     9.7720    13.1080    72.7820     8.3600     2.5310     0.0240
 1535.0000   -64.9210     8.6970     9.8200    13.4860    73.3110     8.3650     2.5320     0.0260
 1535.5000   -64.9210     8.7660     9.8680    13.3190    73.8370     8.3690     2.5330     0.0270
 1536.0000   -64.9210     8.8000     9.9160    12.8550    74.2290     8.3730     2.5340     0.0270
 1536.5000   -64.9210     8.8360     9.9660    12.6130    74.3990     8.3780     2.5360     0.0270
 1537.0000   -64.9210     8.8710     9.9660    12.5330    74.5720     8.3820     2.5390     0.0280
 1537.5000   -64.9210     8.9060     9.9660    12.7830    74.7420     8.3860     2.5430     0.0280
 1538.0000   -64.9210     8.9420     9.9660    13.0820    74.9120     8.3900     2.5450     0.0280
 1538.5000   -64.9210     8.9770     9.9660    13.6300    74.8470     8.3950     2.5390     0.0250
 1539.0000   -64.9210     9.0120     9.9660    14.0070    74.5420     8.3990     2.5320     0.0230
 1539.5000   -64.9210     9.0480     9.9670    14.1240    74.2140     8.4030     2.5250     0.0210
 1540.0000   -64.9210     9.0830     9.9660    14.2480    74.7640     8.4080     2.5190     0.0190
 1540.5000   -64.9210     9.1190     9.9860    13.4140    75.5720     8.4110     2.5140     0.0190
 1541.0000   -64.9210     9.1540    10.0230    12.6480    75.5510     8.4110     2.5150     0.0200
 1541.5000   -64.9210     9.1770    10.0600    12.6480    75.1010     8.4110     2.5180     0.0210
 1542.0000   -64.9210     9.1020    10.0970    14.0900    74.6300     8.4110     2.5200     0.0210
 1542.5000   -64.9210     8.9990    10.1340    14.3800    74.7390     8.4110     2.5220     0.0220
 1543.0000   -64.9210     8.8960    10.1510    12.8820    74.8920     8.4110     2.5230     0.0220
 1543.5000   -64.9210     8.7940     9.8320    12.8250    75.0020     8.4110     2.5220     0.0220
 1544.0000   -64.9210     8.6910     9.5920    12.7640    75.0000     8.4110     2.5220     0.0220
 1544.5000   -64.9210     8.5880     9.3530    12.7020    75.0000     8.4110     2.5200     0.0210
 1545.0000   -64.9210     8.4850     9.0940    12.6480    75.0010     8.4110     2.5180     0.0190
 1545.5000   -64.9210     8.3740     9.1190    12.5090    75.0290     8.4110     2.5160     0.0180
 1546.0000   -64.9210     8.3850     9.1460    12.3590    75.1430     8.4110     2.5110     0.0160
 1546.5000   -64.9210     8.3970     9.1730    12.2080    75.2520     8.4110     2.5050     0.0140
 1547.0000   -64.9210     8.4090     9.2000    12.0570    75.3530     8.4110     2.4990     0.0130
 1547.5000   -64.9210     8.4200     9.2270    11.8620    75.9130     8.4110     2.4990     0.0150
 1548.0000   -64.9210     8.4320     9.2540    12.2750    76.6440     8.4110     2.5040     0.0170
 1548.5000   -64.9210     8.4440     9.4040    13.0850    77.3890     8.4110     2.5100     0.0210
 1549.0000   -64.9210     8.4560     9.6050    13.6100    77.9460     8.4110     2.5160     0.0250
 1549.5000   -64.9210     8.4680     9.7890    12.8440    77.7740     8.4110     2.5220     0.0290
 1550.0000   -64.9210     8.4800     9.8250    12.0820    77.3720     8.4120     2.5280     0.0330
 1550.5000   -64.9210     8.4920     9.8610    12.3050    76.9580     8.4130     2.5280     0.0330
 1551.0000   -64.9250     8.5040     9.8970    12.5330    76.5450     8.4150     2.5210     0.0320
 1551.5000   -64.9410     8.5160     9.9330    12.3920    76.1870     8.4170     2.5140     0.0290
 1552.0000   -64.9560     8.5290     9.9690    12.3050    76.4490     8.4180     2.5080     0.0270
 1552.5000   -64.9720     8.4880    10.0050    13.5400    76.7480     8.4200     2.5050     0.0240
 1553.0000   -64.9870     8.4430    10.0410    13.9900    77.0490     8.4210     2.5060     0.0210
 1553.5000   -65.0030     8.3980    10.0770    13.4610    77.3430     8.4230     2.5110     0.0210
 1554.0000   -65.0180     8.3530    10.1130    12.6480    76.8870     8.4250     2.5150     0.0220
 1554.5000   -65.0340     8.3080    10.1490    12.5150    76.3680     8.4260     2.5160     0.0220
 1555.0000   -65.0490     8.2630    10.1850    12.3720    75.8510     8.4280     2.5170     0.0230
 1555.5000   -65.0650     8.2180    10.2210    12.1930    75.3440     8.4290     2.5220     0.0240
 1556.0000   -65.0800     8.1730    10.2440    12.7700    75.1420     8.4310     2.5260     0.0270
 1556.5000   -65.0950     8.1280    10.2220    13.8620    75.6490     8.4300     2.5300     0.0310
 1557.0000   -65.1110     8.0720    10.2050    13.5320    76.1290     8.4280     2.5350     0.0350
 1557.5000   -65.1260     8.1540    10.1880    12.6360    76.6090     8.4260     2.5390     0.0390
 1558.0000   -65.1420     8.2620    10.1710    12.0820    77.0890     8.4250     2.5430     0.0430
 1558.5000   -65.1570     8.3700    10.1510    12.3300    77.5710     8.4230     2.5470     0.0440
 1559.0000   -65.1730     8.4780    10.2440    13.0090    78.0550     8.4210     2.5460     0.0430
 1559.5000   -65.1880     8.5860    10.1850    13.6870    78.5260     8.4200     2.5370     0.0400
 1560.0000   -65.2030     8.6940    10.1410    14.3800    78.4800     8.4180     2.5270     0.0350
 1560.5000   -65.2190     8.8020    10.0970    14.3800    78.4090     8.4160     2.5160     0.0290
 1561.0000   -65.2340     8.8470    10.0540    14.0260    78.3400     8.4150     2.5060     0.0240
 1561.5000   -65.2500     8.8010    10.0100    13.5760    78.2720     8.4130     2.5010     0.0200
 1562.0000   -65.2650     8.7620     9.9660    13.1250    78.2040     8.4110     2.5060     0.0200
 1562.5000   -65.2810     8.7230     9.9970    12.7650    78.1360     8.4100     2.5130     0.0200
 1563.0000   -65.2960     8.6840    10.0580    13.0970    78.0680     8.4080     2.5200     0.0210
 1563.5000   -65.3120     8.6460     9.9580    13.4540    78.0000     8.4060     2.5230     0.0220
 1564.0000   -65.3270     8.6070     9.7110    13.7360    77.9310     8.4050     2.5220     0.0220
 1564.5000   -65.3420     8.5200     9.4650    13.5890    77.8640     8.4030     2.5200     0.0210
 1565.0000   -65.3580     8.4340     9.2180    12.9060    77.7970     8.4010     2.5190     0.0200
 1565.5000   -65.3730     8.3480     8.9720    12.6480    77.8020     8.4000     2.5180     0.0190
 1566.0000   -65.3890     8.2620     8.8440    12.6480    77.9130     8.3980     2.5200     0.0190
 1566.5000   -65.4040     8.1760     8.7420    12.6480    78.0220     8.3960     2.5220     0.0190
