~VERSION INFORMATION
 VERS.                2.0:   CWLS LOG ASCII STANDARD - VERSION 2.0
 WRAP.                 NO:   ONE LINE PER DEPTH STEP
~WELL INFORMATION
#MNEM.UNIT      DATA TYPE    INFORMATION
#----------   ------------   ------------------------------
 STRT.F           85.5000:   START DEPTH
 STOP.F         2750.0000:   STOP DEPTH
 STEP.F            0.5000:   STEP LENGTH
 NULL.          -999.2500:   NO VALUE
 COMP.          INTEX OIL:   COMPANY
 WELL. INTEX NPR 3 "AX" #74-20:   WELL
 FLD .             TEAPOT:   FIELD
 LOC .      S20 T39N R78W:   LOCATION
 CNTY.            NATRONA:   COUNTY
 STAT.            WYOMING:   STATE
 CTRY. UNITED STATES OF AMERICA:   COUNTRY
 SRVC.       SCHLUMBERGER:   SERVICE COMPANY
 DATE.        08-MAY-1966:   LOGDATE
 API .     49025095210000:   API NUMBER
~CURVE INFORMATION
#MNEM.UNIT       API CODE    CURVE DESCRIPTION
#----------   ------------   ------------------------------
 DEPT.F                  :   
 CALD.IN     45 280 60 00:   CALIPER FROM DENSITY LOG
 GRD .GAPI   45 310 01 00:   GAMMA RAY FROM DENSITY LOG
 RHOB.G/C3   45 350 01 00:   BULK DENSITY
 CORR.G/C3   45 356 01 00:   DENSITY CORRECTION
 SPR .MV     05 010 01 00:   SPONTANEOUS POTENTIAL FROM RES.
 ILD .OHMM   05 120 46 00:   INDUCTION LOG DEEP
 SN  .OHMM   05 040 00 00:   SHORT NORMAL
~PARAMETER INFORMATION
#MNEM.UNIT          VALUE    DESCRIPTION
#----------   ------------   ------------------------------
 EKB .F         5018.3000:   Kelly bushing
 EGL .F         5008.0000:   Ground level
 EDF .F            0.0000:   Drilling floor
 EPD .F         5008.0000:   Permanent datum
 TD  .F         2750.0000:   Total depth
 DATE.        08-MAY-1966:   Date logged
 CLNT.            A2DTECH:   Client Code
 DAPD.F              10.3:   Feet Above Permanent Datum
 DD  .F              2750:   Depth driller
 DL  .F              2749:   Depth logger
 BLI .F              2748:   Bottom log interval
 TLI .F                87:   Top log interval
 CS1 .IN            10.75:   Casing size
 CBD1.       10.75" @ 30':   Casing driller 1
 BS1 .IN            7.875:   Bit size
 BSD1.F              2750:   Depth drilled with bit1
 DFT .           OIL EMUL:   Type fluid in hole
 DFD .               10.1:   Density
 DFV .                 54:   Viscosity
 MSS .         CIRCULATED:   Source of sample
 RMS .OHMM           1.90:   Rm
 MST .F                72:   Rm Meas. temp.
 RMF .OHMM           1.15:   Rmf
 MFST.F                72:   Rmf Meas. temp.
 MFSS.                 FP:   Source Rmf.
 RMB .OHMM           1.23:   Rm. at BHT
 BHT .F               111:   BHT.
 TCS .HRS             1.5:   Time Circ. stopped
 MRT .F               111:   Maximum recorded temp.
 LUN .               4507:   Logging unit number
 LUL .               CSPR:   Logging unit location
 ENGI.               HAUG:   Recorded By
 WITN.             TUTTLE:   Witnessed by
 ORIG.        2" 5" PRINT:   Origin of data
 UWI .     49025095210000:   Unique Well ID
 DICO. A2D TECHNOLOGIES, INC.:   Digitizing Company
~OTHER INFORMATION
~A   DEPT     CALD        GRD       RHOB       CORR        SPR        ILD         SN   
# ...
 2133.0000     9.2100   108.3160     2.5290     0.0210   -55.2560     3.6220     5.3820
 2133.5000     9.2060   110.9780     2.5380     0.0250   -55.2320     3.7600     5.5050
 2134.0000     9.2020   109.7170     2.5660     0.0430   -55.2080     3.8920     5.7430
 2134.5000     9.1970   108.9010     2.5780     0.0480   -55.1840     4.0410     6.0100
 2135.0000     9.1930   107.7090     2.5510     0.0300   -55.1600     4.1230     6.2370
 2135.5000     9.1890   103.5980     2.5400     0.0220   -55.1370     4.2120     6.4110
 2136.0000     9.1850   102.2850     2.5480     0.0240   -55.1130     4.2960     6.3680
 2136.5000     9.1810   104.4700     2.5550     0.0250   -55.0890     4.3850     6.3340
 2137.0000     9.1760   106.6120     2.5640     0.0270   -55.0650     4.4700     6.2930
 2137.5000     9.1720   109.5900     2.5600     0.0290   -55.0410     4.5570     6.2410
 2138.0000     9.1680   107.5410     2.5520     0.0220   -55.0170     4.6460     6.3130
 2138.5000     9.1640   101.9380     2.5440     0.0100   -54.9940     4.7660     6.5590
 2139.0000     9.1590   100.1320     2.5390     0.0090   -54.9700     4.8880     6.7890
 2139.5000     9.1550   103.8460     2.5370     0.0090   -54.9460     5.0110     7.0250
 2140.0000     9.1510   109.4030     2.5420     0.0090   -54.9220     5.1330     7.2600
 2140.5000     9.1470   111.2970     2.5550     0.0090   -54.8970     5.2560     7.4940
 2141.0000     9.1430   112.8130     2.5520     0.0120   -54.8710     5.3780     7.7300
 2141.5000     9.1380   112.3430     2.5600     0.0260   -54.8450     5.5010     7.9650
 2142.0000     9.1340   110.1230     2.5640     0.0370   -54.8200     5.6230     8.1950
 2142.5000     9.1310   108.2470     2.5600     0.0510   -54.7940     5.7460     8.4530
 2143.0000     9.1260   107.0100     2.5800     0.0470   -54.7680     5.8670     8.6100
 2143.5000     9.1170   105.0780     2.5730     0.0360   -54.7420     5.9880     8.5890
 2144.0000     9.1090   106.6280     2.5830     0.0270   -54.7170     6.0560     8.6010
 2144.5000     9.1010   110.7670     2.5650     0.0180   -54.6910     6.1330     8.5900
 2145.0000     9.0930   108.9200     2.5560     0.0240   -54.6650     6.2170     8.6560
 2145.5000     9.0850   111.1020     2.5620     0.0310   -54.6400     6.2260     8.7650
 2146.0000     9.0770   115.3980     2.5710     0.0360   -54.6140     6.2270     8.8600
 2146.5000     9.0690   114.1510     2.5850     0.0330   -54.5880     6.2210     8.9600
 2147.0000     9.0610   111.7580     2.5980     0.0330   -54.5630     6.2850     9.0570
 2147.5000     9.0530   109.2250     2.6070     0.0380   -54.5370     6.5040     9.1510
 2148.0000     9.0450   109.0440     2.5950     0.0300   -54.5270     6.7280     9.2590
 2148.5000     9.0370   112.2200     2.5900     0.0390   -54.5280     6.9440     9.5280
 2149.0000     9.0290   114.5790     2.6090     0.0540   -54.5280     7.1890     9.7900
 2149.5000     9.0220   115.6700     2.6150     0.0680   -54.5280     7.2080    10.0750
 2150.0000     9.0130   113.9480     2.6050     0.0540   -54.5270     7.1700    10.1850
 2150.5000     9.0120   115.0690     2.5910     0.0400   -54.5270     7.1180    10.1690
 2151.0000     9.0120   118.0560     2.5740     0.0210   -54.5270     7.0810    10.1880
 2151.5000     9.0120   120.8600     2.5560     0.0260   -54.5260     7.0310    10.0450
 2152.0000     9.0120   118.5840     2.5580     0.0300   -54.5290     6.9910     9.6870
 2152.5000     9.0120   112.6770     2.5520     0.0250   -54.5010     6.7600     9.3550
 2153.0000     9.0120   109.8830     2.5560     0.0280   -54.4310     6.5410     8.9840
 2153.5000     9.0120   108.0960     2.5610     0.0350   -54.3650     6.4090     8.7670
 2154.0000     9.0120   109.0280     2.5660     0.0310   -54.2960     6.4310     8.9010
 2154.5000     9.0120   113.6650     2.5610     0.0250   -54.2290     6.3970     9.0800
 2155.0000     9.0120   113.5670     2.5550     0.0290   -54.1610     6.3310     9.2630
 2155.5000     9.0120   110.7310     2.5630     0.0310   -54.0940     6.2660     9.4440
 2156.0000     9.0090   107.9860     2.5800     0.0310   -54.0250     6.1990     9.5500
 2156.5000     9.0070   107.1180     2.5590     0.0200   -53.9590     6.1350     9.2490
 2157.0000     9.0040   109.0630     2.5640     0.0300   -53.8880     6.0650     8.9540
 2157.5000     9.0020   110.5000     2.5550     0.0300   -53.8250     6.0230     8.6340
 2158.0000     8.9990   113.1840     2.5360     0.0220   -53.7510     6.0650     8.3170
 2158.5000     8.9960   116.8670     2.5400     0.0160   -53.8230     6.1250     8.0270
 2159.0000     8.9940   120.2310     2.5590     0.0230   -53.9270     6.2010     8.0760
 2159.5000     8.9910   128.8330     2.5770     0.0290   -54.0310     6.2110     8.8140
 2160.0000     8.9890   132.8410     2.5830     0.0250   -54.1340     6.4290     9.4350
 2160.5000     8.9860   126.8970     2.5630     0.0200   -54.2370     6.8490    10.1310
 2161.0000     8.9840   115.7530     2.5710     0.0280   -54.3410     7.2210    10.3920
 2161.5000     8.9810   102.8570     2.5650     0.0300   -54.4450     7.5820    10.3660
 2162.0000     8.9790   104.1910     2.5500     0.0260   -54.5190     7.5910    10.3760
 2162.5000     8.9760   105.9180     2.5730     0.0360   -54.4670     7.4410    10.3700
 2163.0000     8.9730   105.9700     2.5940     0.0450   -54.4230     7.3050    10.3680
 2163.5000     8.9710   104.2750     2.6080     0.0480   -54.3720     7.1670    10.1970
 2164.0000     8.9680   105.1490     2.5980     0.0380   -54.3260     7.0330     9.9690
 2164.5000     8.9660   104.6640     2.5910     0.0340   -54.2770     6.8940     9.7510
 2165.0000     8.9630   102.4620     2.5990     0.0420   -54.2300     6.7600     9.5080
 2165.5000     8.9610   100.2160     2.5940     0.0570   -54.1820     6.6300     9.3910
 2166.0000     8.9580   100.8910     2.5730     0.0410   -54.1340     6.6230     9.4470
 2166.5000     8.9560   103.5260     2.5780     0.0460   -54.0860     6.6220     9.4800
 2167.0000     8.9530   107.8250     2.5770     0.0470   -54.0380     6.6190     9.5180
 2167.5000     8.9500   105.3610     2.5710     0.0340   -53.9900     6.6730     9.5580
 2168.0000     8.9480    97.8760     2.5650     0.0230   -53.9420     6.8160     9.5930
 2168.5000     8.9450   100.1510     2.5610     0.0120   -53.8950     6.9490     9.6880
 2169.0000     8.9430   105.8800     2.5620     0.0190   -53.8450     7.0880     9.7800
 2169.5000     8.9400   112.2580     2.5810     0.0280   -53.8000     7.2230    10.0770
 2170.0000     8.9380   110.2590     2.6050     0.0500   -53.7470     7.3610    10.4420
 2170.5000     8.9350   105.8050     2.6240     0.0720   -53.7960     7.5000    10.8330
 2171.0000     8.9340   101.6640     2.6170     0.0700   -53.8670     7.6010    10.9120
 2171.5000     8.9380    97.5060     2.6050     0.0630   -53.9370     7.5660    10.7640
 2172.0000     8.9420    94.3410     2.5960     0.0570   -54.0070     7.5370    10.6470
 2172.5000     8.9460    95.1650     2.6060     0.0410   -54.0780     7.5020    10.5240
 2173.0000     8.9500    95.4260     2.5990     0.0360   -54.1270     7.4700    10.3990
 2173.5000     8.9540    95.2770     2.5850     0.0220   -54.0770     7.4370    10.2750
 2174.0000     8.9580    96.4400     2.5740     0.0290   -54.0340     7.4040    10.1600
 2174.5000     8.9630    98.0810     2.5930     0.0520   -53.9860     7.3710    10.0150
 2175.0000     8.9660   100.2050     2.5850     0.0440   -53.9420     7.3390    10.1100
 2175.5000     8.9710   103.0790     2.5620     0.0230   -53.8950     7.3040    10.3830
 2176.0000     8.9670   108.2140     2.5540     0.0280   -53.8500     7.2730    10.5710
 2176.5000     8.9560   106.1790     2.5860     0.0400   -53.8040     7.2390    10.5160
 2177.0000     8.9450   105.4040     2.5790     0.0330   -53.7580     7.2030    10.3760
 2177.5000     8.9350   106.0110     2.5730     0.0200   -53.7130     7.0920    10.2330
 2178.0000     8.9250   108.0300     2.5730     0.0160   -53.6670     6.9980    10.1420
