~VERSION INFORMATION
 VERS.                2.0:   CWLS LOG ASCII STANDARD - VERSION 2.0
 WRAP.                 NO:   ONE LINE PER DEPTH STEP
~WELL INFORMATION
#MNEM.UNIT      DATA TYPE    INFORMATION
#----------   ------------   ------------------------------
 STRT.F          176.0000:   START DEPTH
 STOP.F         3380.0000:   STOP DEPTH
 STEP.F            0.5000:   STEP LENGTH
 NULL.          -999.2500:   NO VALUE
 COMP.    PENIX & SCISSON:   COMPANY
 WELL.  FENIX "AX" #85-15:   WELL
 FLD .             NPR #3:   FIELD
 LOC .      S15 T38N R78W:   LOCATION
 CNTY.            NATRONA:   COUNTY
 STAT.            WYOMING:   STATE
 CTRY. UNITED STATES OF AMERICA:   COUNTRY
 SRVC.       SCHLUMBERGER:   SERVICE COMPANY
 DATE.        28-APR-1981:   LOGDATE
 API .     49025108700000:   API NUMBER
~CURVE INFORMATION
#MNEM.UNIT       API CODE    CURVE DESCRIPTION
#----------   ------------   ------------------------------
 DEPT.F                  :   
 TEND.LBS    45 635 01 00:   TENSION FROM DENSITY LOG
 CALD.IN     45 280 60 00:   CALIPER FROM DENSITY LOG
 CORR.G/C3   45 356 01 00:   DENSITY CORRECTION
 GRD .GAPI   45 310 01 00:   GAMMA RAY FROM DENSITY LOG
 RHOB.G/C3   45 350 01 00:   BULK DENSITY
 SFL .OHMM   07 220 01 00:   SHALLOW FOCUSED LOG RESISTIVITY
 ILD .OHMM   07 120 46 00:   INDUCTIONLOG DEEP RESISTIVITY
 ILM .OHMM   07 120 44 00:   INDUCTION LOG MEDIUM RESISTIVITY
 TENR.LBS    07 635 01 00:   TENSION FROM RESISTIVITY
 SPR .MV     07 010 01 00:   SPONTANEOUS POTENTIAL
~PARAMETER INFORMATION
#MNEM.UNIT          VALUE    DESCRIPTION
#----------   ------------   ------------------------------
 EKB .F         5259.0000:   Kelly bushing
 EGL .F         5249.0000:   Ground level
 EDF .F            0.0000:   Drilling floor
 TD  .F         3333.0000:   Total depth
 DATE.        28-APR-1981:   Date logged
 CLNT.            A2DTECH:   Client Code
 SL  . 1927' FSL & 140' FEL:   Surface Location
 PD  .                 GL:   Permanent Datum
 DD  .F              3333:   Depth driller
 DL  .F              3382:   Depth logger
 BLI .F              3376:   Bottom log interval
 TLI .F               182:   Top log interval
 CS1 .IN            8.625:   Casing size
 CBD1.      8.625" @ 181':   Casing driller 1
 CBL1.F               182:   Casing logger 1
 BS1 .IN            7.875:   Bit size
 BSD1.F              3333:   Depth drilled with bit1
 DFT .                GEL:   Type fluid in hole
 DFD .                8.7:   Density
 DFV .                 35:   Viscosity
 DFPH.                9.5:   pH
 DFL .                  7:   Fluid loss
 MSS .               TANK:   Source of sample
 RMS .OHMM           1.79:   Rm
 MST .F                58:   Rm Meas. temp.
 RMF .OHMM           1.43:   Rmf
 MFST.F                58:   Rmf Meas. temp.
 MFSS.               MEAS:   Source Rmf.
 RMB .OHMM            .93:   Rm. at BHT
 BHT .F               112:   BHT.
 TCS .HRS             800:   Time Circ. stopped
 TLAB.HRS             200:   Time logger at bottom
 MRT .F               112:   Maximum recorded temp.
 LUN .               8039:   Logging unit number
 LUL .               CAPR:   Logging unit location
 ENGI.           HARRINER:   Recorded By
 WITN.              SCOTT:   Witnessed by
 ORIG.           5" PRINT:   Origin of data
 UWI .     49025108700000:   Unique Well ID
 DICO. A2D TECHNOLOGIES, INC.:   Digitizing Company
 EPD .               5249:   Elevation Permanent Datum
 LMF .                 KB:   Log Measured From
 DMF .                 KB:   Drilling Measured From
 DAPD.                 10:   Feet Above Permanent Datum
~OTHER INFORMATION
~A   DEPT     TEND       CALD       CORR         GRD      RHOB        SFL        ILD        ILM       TENR        SPR   
# ...
 2487.5000  1573.6071     8.7810     0.0500   131.3770     2.4760     5.1480     5.4350     4.9650  1579.2740   -21.8330
 2488.0000  1574.4200     8.7050     0.0220   135.1060     2.4570     7.3220     5.5020     5.3040  1579.7950   -21.9320
 2488.5000  1575.2321     8.6370     0.0040   133.1340     2.4630     9.1300     5.5850     5.5340  1580.3160   -22.2850
 2489.0000  1576.0450     8.6050     0.0020   129.2710     2.4650     9.6980     5.6690     5.6350  1580.8370   -22.2230
 2489.5000  1576.8580     8.6070     0.0020   125.2880     2.4640     9.1880     5.7380     5.6350  1581.3580   -22.2520
 2490.0000  1577.6700     8.6060     0.0050   125.7700     2.4630     8.6010     5.8430     5.5340  1581.8790   -22.2470
 2490.5000  1578.4830     8.6040     0.0070   126.1350     2.4730     8.0130     5.6510     5.2590  1582.4000   -22.3280
 2491.0000  1579.2960     8.6040     0.0090   125.1370     2.4750     7.3930     5.3070     4.9710  1582.9210   -22.4310
 2491.5000  1580.1090     8.6020     0.0110   123.8420     2.4660     7.1300     4.9630     4.6830  1583.4420   -22.5200
 2492.0000  1580.9210     8.6010     0.0120   123.4210     2.4460     6.1310     4.6180     4.3960  1583.9640   -22.6400
 2492.5000  1581.7340     8.6000     0.0090   127.2530     2.4220     5.2520     4.4540     4.1430  1584.4850   -22.5380
 2493.0000  1582.5470     8.5990     0.0040   130.8800     2.4110     4.2960     4.6010     3.9240  1585.0060   -22.3220
 2493.5000  1583.3590     8.5980     0.0000   133.2030     2.4010     4.2960     4.7320     4.1220  1585.5270   -22.1090
 2494.0000  1584.1720     8.5970    -0.0050   128.5940     2.4000     6.5270     4.8760     4.3380  1586.0480   -21.7930
 2494.5000  1584.9850     8.5960    -0.0060   123.3150     2.4230     8.5470     4.8760     4.6180  1586.5690   -21.4170
 2495.0000  1585.7980     8.5940     0.0050   117.8780     2.4670    10.8100     4.6120     4.4460  1587.0900   -21.4780
 2495.5000  1586.6100     8.5930     0.0160   114.9870     2.5330    10.8100     4.3700     4.1930  1587.6110   -21.4040
 2496.0000  1587.4230     8.5920     0.0440   118.7190     2.5290     8.8060     4.1280     3.9410  1588.1320   -21.3030
 2496.5000  1588.2360     8.5910     0.0750   123.7360     2.4910     6.6660     3.8860     3.6890  1588.6530   -21.1940
 2497.0000  1589.0490     8.5900     0.0710   129.1210     2.4570     4.5260     3.6440     3.4370  1589.1750   -21.0130
 2497.5000  1589.8610     8.5890     0.0590   131.5100     2.4320     3.2750     3.4020     3.1850  1589.6960   -20.5910
 2498.0000  1590.6740     8.5880     0.0450   130.1480     2.4090     3.4670     3.2160     2.9910  1590.2170   -21.0060
 2498.5000  1591.4871     8.5870     0.0320   127.7960     2.4130     4.0320     3.1410     2.9380  1590.7380   -21.0510
 2499.0000  1592.2990     8.5860     0.0270   125.5080     2.4300     4.7030     3.0990     2.8980  1591.3560   -21.1710
 2499.5000  1593.1121     8.5850     0.0330   122.3690     2.4440     4.7890     3.0570     2.8590  1591.3560   -21.3550
 2500.0000  1593.9250     8.5840     0.0390   123.5850     2.4480     4.3870     3.0160     2.8210  1591.3560   -21.5440
 2500.5000  1594.7380     8.5820     0.0470   126.7700     2.4520     3.9890     2.9910     2.7830  1591.3560   -21.7230
 2501.0000  1595.5500     8.5810     0.0510   129.7840     2.4520     3.5910     2.9380     2.7830  1591.3560   -21.9080
 2501.5000  1596.3630     8.5800     0.0430   132.2710     2.4530     3.2160     2.9380     2.7830  1591.3560   -22.0910
 2502.0000  1597.1760     8.5790     0.0340   133.9110     2.4540     3.1580     3.0460     2.7830  1591.3560   -22.2740
 2502.5000  1597.9880     8.5780     0.0240   135.7810     2.4730     3.2700     3.1020     2.8850  1591.3560   -22.4560
 2503.0000  1598.8010     8.5770     0.0130   137.5410     2.4800     3.4990     3.2430     2.9380  1591.3560   -22.6420
 2503.5000  1599.6140     8.5760     0.0060   140.6800     2.4780     3.7270     3.4440     3.0460  1591.3560   -22.8210
 2504.0000  1600.4270     8.5750     0.0040   143.3740     2.4770     3.9550     3.6450     3.2750  1591.3560   -23.0140
 2504.5000  1601.2390     8.5740     0.0010   145.0630     2.4800     4.1430     3.8450     3.5550  1591.3560   -23.0160
 2505.0000  1602.0520     8.5730     0.0020   141.6520     2.4930     4.4540     4.0460     3.8470  1591.3560   -22.8280
 2505.5000  1602.8650     8.5710     0.0020   135.1660     2.5050     5.0160     4.2470     4.1380  1591.3560   -22.6410
 2506.0000  1603.6770     8.5700     0.0080   130.0080     2.5100     5.8070     4.4480     4.4300  1591.3560   -22.4500
 2506.5000  1603.9600     8.5690     0.0210   128.0030     2.5250     6.5980     4.6480     4.7220  1591.3560   -22.2630
 2507.0000  1603.9600     8.5690     0.0340   129.1800     2.5500     7.3890     4.8490     4.9290  1591.3560   -22.0750
 2507.5000  1603.9600     8.5690     0.0410   130.8000     2.5670     7.9480     5.0500     4.9650  1591.3560   -21.8800
 2508.0000  1603.9600     8.5690     0.0290   132.2510     2.5490     7.5770     5.2420     4.9650  1591.3560   -21.7050
 2508.5000  1603.9600     8.5690     0.0120   134.2590     2.5270     6.8490     5.4930     4.9650  1591.3560   -21.5010
 2509.0000  1603.9600     8.5690     0.0010   134.3830     2.5050     6.1210     5.6660     5.0560  1591.3560   -21.4500
 2509.5000  1603.9600     8.5690     0.0020   134.1960     2.5000     5.7380     5.8430     5.3690  1591.3560   -21.5370
 2510.0000  1603.9600     8.5690     0.0030   133.9250     2.5000     5.7380     6.0990     5.6590  1591.3560   -21.9010
 2510.5000  1603.9600     8.5690     0.0090   133.8210     2.5000     6.9780     6.3530     5.9480  1591.3560   -22.0240
 2511.0000  1603.9600     8.5690     0.0150   134.8840     2.5000     8.0150     6.6070     6.2380  1591.3560   -22.2440
 2511.5000  1603.9600     8.5690     0.0150   136.3530     2.5000     9.0510     6.8610     6.3960  1591.3560   -22.4380
 2512.0000  1603.9600     8.5690     0.0150   137.7810     2.5000    10.0880     7.1150     6.6320  1591.3560   -22.6350
 2512.5000  1603.9600     8.5690     0.0150   139.3580     2.5000    11.0080     7.3690     6.7530  1591.3560   -22.8340
 2513.0000  1603.9600     8.5690     0.0100   139.6950     2.5000    11.4130     7.6230     6.9990  1591.3560   -23.0230
 2513.5000  1603.9600     8.5690     0.0050   137.7070     2.5000    11.1080     7.8770     7.2220  1591.3560   -22.9840
 2514.0000  1603.9600     8.5690     0.0000   133.3360     2.4960    10.5310     8.1310     7.4460  1591.3560   -22.7880
 2514.5000  1603.9600     8.5690    -0.0050   129.4560     2.4910    10.0560     8.2410     7.6690  1591.3560   -22.6400
 2515.0000  1603.9600     8.5690    -0.0080   124.3920     2.4950    10.6880     8.3910     7.9480  1591.3560   -22.6400
 2515.5000  1603.9600     8.5690    -0.0050   126.3160     2.5040    11.4950     8.3910     7.9480  1591.3560   -22.6370
 2516.0000  1603.9600     8.5690     0.0110   130.9560     2.5130    12.2700     8.3910     7.8820  1591.3560   -22.6380
 2516.5000  1603.9600     8.5690     0.0260   135.5230     2.5220    11.8940     8.3910     7.8020  1591.3560   -22.6380
 2517.0000  1603.9600     8.5700     0.0460   138.6290     2.5290    11.5330     8.2410     7.7220  1591.3560   -22.6370
 2517.5000  1603.9600     8.5720     0.0400   139.6560     2.4980    11.1710     8.2790     7.6650  1591.3560   -22.6390
 2518.0000  1603.9600     8.5750     0.0180   140.3140     2.4530    10.8090     8.4090     7.6650  1591.3560   -22.6350
 2518.5000  1603.9600     8.5770     0.0060   140.9820     2.4460    10.4260     8.5390     7.6650  1591.3560   -22.6420
 2519.0000  1603.9600     8.5800     0.0050   141.6010     2.4540    10.4260     8.6700     7.8050  1591.3560   -22.6360
 2519.5000  1603.9600     8.5820     0.0010   142.4530     2.4590    11.5040     8.7000     7.9480  1591.3560   -22.6280
 2520.0000  1603.9600     8.5840    -0.0010   141.2350     2.4700    13.1910     8.6540     7.9480  1591.3560   -22.6800
 2520.5000  1603.9600     8.5870     0.0020   137.8500     2.4820    13.1910     8.5750     7.8510  1591.3560   -22.2450
