~VERSION INFORMATION
 VERS.                2.0:   CWLS LOG ASCII STANDARD - VERSION 2.0
 WRAP.                 NO:   ONE LINE PER DEPTH STEP
~WELL INFORMATION
#MNEM.UNIT      DATA TYPE    INFORMATION
#----------   ------------   ------------------------------
 STRT.F          196.5000:   START DEPTH
 STOP.F         2376.0000:   STOP DEPTH
 STEP.F            0.5000:   STEP LENGTH
 NULL.          -999.2500:   NO VALUE
 COMP.    FENIX & SCISSON:   COMPANY
 WELL. FENIX & SCISSON NPR-3 #55-10:   WELL
 FLD .  TEAPOT DOME NPR-3:   FIELD
 LOC .      S10 T38N R78W:   LOCATION
 CNTY.            NATRONA:   COUNTY
 STAT.            WYOMING:   STATE
 CTRY. UNITED STATES OF AMERICA:   COUNTRY
 SRVC.           BIRDWELL:   SERVICE COMPANY
 DATE.        09-MAY-1979:   LOGDATE
 API .     49025107780000:   API NUMBER
~CURVE INFORMATION
#MNEM.UNIT       API CODE    CURVE DESCRIPTION
#----------   ------------   ------------------------------
 DEPT.F                  :   
 CALD.IN     45 280 60 00:   CALIPER FROM DENSITY LOG
 GRD .GAPI   45 310 01 00:   GAMMA RAY FROM DENSITY LOG
 RHOB.G/C3   45 350 01 00:   BULK DENSITY
 CORR.G/C3   45 356 01 00:   DENSITY CORRECTION
~PARAMETER INFORMATION
#MNEM.UNIT          VALUE    DESCRIPTION
#----------   ------------   ------------------------------
 EKB .F         5203.0000:   Kelly bushing
 EGL .F         5193.0000:   Ground level
 EDF .F            0.0000:   Drilling floor
 TD  .F         2376.0000:   Total depth
 CLNT.            A2DTECH:   Client Code
 SL  . 2283' FSL & 2107' FEL:   Surface Location
 PD  .                 GL:   Permanent Datum
 EPD .F              5193:   Elevation Permanent Datum
 LMF .                 KB:   Log Measured From
 DMF .                 KB:   Drilling Measured From
 DAPD.F                10:   Feet Above Permanent Datum
 DATE.        09-MAY-1979:   Date Logged [DD-MMM-YYYY]
 DD  .F              2360:   Depth driller
 DL  .F              2376:   Depth logger
 BLI .F              2376:   Bottom log interval
 TLI .F               196:   Top log interval
 CS1 .IN            9.625:   Casing size
 CBD1.             9.625":   Casing driller 1
 CBL1.F               545:   Casing logger 1
 BS1 .IN             8.75:   Bit size
 BSD1.F              2360:   Depth drilled with bit1
 DFT .                AIR:   Type fluid in hole
 TCS .HRS               3:   Time Circ. stopped
 LUN .               2959:   Logging unit number
 LUL .             CASPER:   Logging unit location
 ENGI.         B. ROLLINS:   Recorded By
 WITN.             RHODES:   Witnessed by
 ORIG.           5" PRINT:   Origin of data
 UWI .     49025107780000:   Unique Well ID
 DICO. A2D TECHNIOLOGIES,INC.:   Digitizing Company
~OTHER INFORMATION
~A  DEPTH     CALD        GRD       RHOB       CORR
# ...
 2167.5000     8.9173   154.7210     2.4546     0.0441
 2168.0000     8.9021   155.1493     2.4561     0.0516
 2168.5000     8.9020   156.5052     2.4515     0.0546
 2169.0000     8.9171   157.8612     2.4453     0.0409
 2169.5000     8.9019   158.9263     2.4376     0.0243
 2170.0000     8.9018   159.9699     2.4447     0.0046
 2170.5000     8.9017   152.4564     2.4696     0.0166
 2171.0000     8.9016   145.3265     2.4854     0.0452
 2171.5000     8.9016   135.8323     2.4959     0.0542
 2172.0000     8.9166   131.1551     2.5012     0.0587
 2172.5000     8.9317   127.8353     2.4891     0.0526
 2173.0000     8.9316   122.1023     2.4838     0.0450
 2173.5000     8.9315   121.4975     2.4831     0.0404
 2174.0000     8.9163   124.2109     2.4868     0.0569
 2174.5000     8.9162   136.4266     2.4989     0.0719
 2175.0000     8.9313   140.6484     2.5132     0.0839
 2175.5000     8.9312   130.3905     2.5275     0.0899
 2176.0000     8.9311   119.3784     2.5019     0.0517
 2176.5000     8.9310   115.9079     2.4635     0.0304
 2177.0000     8.9310   116.8113     2.4401     0.0108
 2177.5000     8.9309   119.3740     2.4337     0.0158
 2178.0000     8.9308   120.4283     2.4672     0.0338
 2178.5000     8.9307   119.3710     2.4875     0.0518
 2179.0000     8.9307   115.1462     2.4921     0.0699
 2179.5000     8.9306   110.3182     2.4959     0.0773
 2180.0000     8.9154   110.3066     2.5026     0.0713
 2180.5000     8.9153   111.2202     2.4748     0.0546
 2181.0000     8.9304   112.2775     2.4626     0.0440
 2181.5000     8.9152   113.0272     2.4732     0.0500
 2182.0000     8.9151   111.6192     2.4845     0.0574
 2182.5000     8.8848   110.4374     2.4852     0.0559
 2183.0000     8.8545   111.9665     2.4920     0.0513
 2183.5000     8.8544   113.0208     2.5070     0.0528
 2184.0000     8.8695   113.6227     2.5138     0.0647
 2184.5000     8.8845   112.8670     2.4935     0.0521
 2185.0000     8.8996   109.6981     2.4543     0.0263
 2185.5000     8.9297   108.1883     2.4181     0.0100
 2186.0000     8.9296   106.6785     2.4091     0.0027
 2186.5000     8.9295   106.2245     2.4595     0.0267
 2187.0000     8.9295   111.9546     2.4912     0.0583
 2187.5000     8.9143   112.2551     2.5047     0.0884
 2188.0000     8.9142   114.8174     2.5145     0.1110
 2188.5000     8.9141   130.9546     2.4957     0.1049
 2189.0000     8.8989   136.5338     2.4821     0.0928
 2189.5000     8.8989   135.9290     2.4964     0.0822
 2190.0000     8.8988   133.3634     2.4953     0.0776
 2190.5000     8.8836   130.7978     2.4833     0.0745
 2191.0000     8.8835   128.5339     2.4752     0.0669
 2191.5000     8.8683   128.0371     2.4723     0.0608
 2192.0000     8.8532   132.9050     2.4783     0.0683
 2192.5000     8.8380   141.2587     2.4881     0.0773
 2193.0000     8.8379   152.5125     2.4971     0.0848
 2193.5000     8.8378   166.5108     2.4745     0.0787
 2194.0000     8.8378   171.1909     2.4451     0.0620
 2194.5000     8.8377   169.4428     2.4248     0.0499
 2195.0000     8.8527   161.7041     2.4120     0.0393
 2195.5000     8.8526   158.5352     2.4022     0.0272
 2196.0000     8.8677   157.4779     2.3946     0.0317
 2196.5000     8.8676   157.3259     2.4368     0.0528
 2197.0000     8.8675   159.1340     2.4481     0.0541
 2197.5000     8.8826   164.1099     2.4225     0.0371
 2198.0000     8.8825   176.1748     2.3999     0.0203
 2198.5000     8.8824   191.1054     2.3938     0.0328
 2199.0000     8.8974   196.8358     2.4081     0.0524
 2199.5000     8.9124   198.9428     2.4337     0.0749
 2200.0000     8.9275   199.6981     2.4616     0.1005
 2200.5000     8.8823   192.1585     2.4638     0.0914
 2201.0000     8.8825   188.9925     2.4529     0.0732
 2201.5000     8.8826   188.6924     2.4395     0.0611
 2202.0000     8.8828   186.5822     2.4551     0.0746
 2202.5000     8.8829   166.6742     2.4954     0.0866
 2203.0000     8.8831   156.2340     2.5120     0.1047
 2203.5000     8.8983   153.9910     2.5210     0.1152
 2204.0000     8.8985   153.8582     2.4743     0.0759
 2204.5000     8.9138   156.4241     2.4811     0.0487
 2205.0000     8.9290   158.0847     2.5007     0.0351
 2205.5000     8.9292   157.4829     2.4954     0.0230
 2206.0000     8.9444   149.0379     2.4871     0.0244
 2206.5000     8.9446   146.7770     2.4818     0.0349
 2207.0000     8.9296   144.3652     2.4811     0.0348
 2207.5000     8.9298   139.3893     2.4863     0.0348
 2208.0000     8.9299   142.8598     2.4931     0.0377
 2208.5000     8.9301   145.8779     2.5021     0.0407
 2209.0000     8.9151   148.4435     2.5142     0.0452
 2209.5000     8.9001   143.7693     2.5202     0.0541
 2210.0000     8.8701   137.8884     2.5256     0.0661
 2210.5000     8.8703   140.0015     2.5232     0.0781
 2211.0000     8.8704   143.0474     2.5013     0.0720
 2211.5000     8.8706   144.3785     2.4998     0.0644
 2212.0000     8.8707   139.6583     2.5104     0.0538
 2212.5000     8.8709   136.8404     2.5171     0.0402
 2213.0000     8.8710   140.0093     2.5216     0.0371
 2213.5000     8.8560   142.1224     2.5262     0.0523
 2214.0000     8.8411   142.5764     2.5231     0.0611
 2214.5000     8.8261   137.1480     2.5141     0.0593
 2215.0000     8.8263   133.8312     2.5058     0.0504
 2215.5000     8.8264   133.2290     2.4998     0.0383
 2216.0000     8.8266   136.2475     2.5058     0.0277
 2216.5000     8.8267   141.6788     2.5208     0.0427
 2217.0000     8.8420   143.4903     2.5321     0.0592
 2217.5000     8.8573   143.6426     2.5381     0.0728
 2218.0000     8.8725   147.4148     2.5358     0.0817
 2218.5000     8.8727   149.6787     2.5250     0.0696
 2219.0000     8.8728   148.4625     2.5136     0.0439
 2219.5000     8.8881   146.9049     2.4990     0.0288
 2220.0000     8.8882   145.4600     2.4884     0.0453
 2220.5000     8.8884   152.2491     2.5019     0.0754
 2221.0000     8.8885   157.9821     2.5193     0.1115
 2221.5000     8.8887   161.1510     2.5336     0.1328
 2222.0000     8.8888   162.0575     2.5230     0.1401
 2222.5000     8.8738   161.6065     2.4153     0.0730
 2223.0000     8.8740   157.2339     2.4033     0.0284
 2223.5000     8.8742   153.4643     2.4356     0.0027
 2224.0000     8.8743   153.9187     2.4658    -0.0034
 2224.5000     8.8745   150.7527     2.4816     0.0161
 2225.0000     8.8746   150.0001     2.4898     0.0327
 2225.5000     8.8899   149.8507     2.4959     0.0462
 2226.0000     8.8900   149.5505     2.4830     0.0325
 2226.5000     8.8902   150.4857     2.4589     0.0144
 2227.0000     8.8904   154.9099     2.4659     0.0023
 2227.5000     8.8905   155.7390     2.4778     0.0218
 2228.0000     8.8755   148.6519     2.4646     0.0142
 2228.5000     8.8606   147.1447     2.4499     0.0051
 2229.0000     8.8456   150.4648     2.4506    -0.0010
 2229.5000     8.8306   152.2762     2.4499    -0.0087
 2230.0000     8.8308   152.7298     2.4461    -0.0076
 2230.5000     8.8310   148.3576     2.4657     0.0260
 2231.0000     8.8311   146.7000     2.5041     0.0440
 2231.5000     8.8313   149.7181     2.5078     0.0560
 2232.0000     8.8314   150.5801     2.5191     0.0755
 2232.5000     8.8316   149.5702     2.5492     0.1207
 2233.0000     8.8317   148.3651     2.5650     0.1372
 2233.5000     8.8319   147.3107     2.5658     0.1402
 2234.0000     8.8471   152.7421     2.5560     0.1416
 2234.5000     8.8473   158.1791     2.5462     0.1476
 2235.0000     8.8636   157.2243     2.5198     0.1114
 2235.5000     8.8796   157.1206     2.4715     0.0811
 2236.0000     8.8931   159.6866     2.4626     0.0570
 2236.5000     8.9083   161.6488     2.4882     0.0464
 2237.0000     8.9085   157.8796     2.4618     0.0402
 2237.5000     8.9086   152.6020     2.4460     0.0294
 2238.0000     8.8936   151.2460     2.4829     0.0322
 2238.5000     8.8938   150.9455     2.5024     0.0642
 2239.0000     8.8940   150.9474     2.5077     0.0521
 2239.5000     8.8941   151.0997     2.4776     0.0399
 2240.0000     8.8943   149.2912     2.4693     0.0324
