~VERSION INFORMATION
 VERS.                2.0:   CWLS LOG ASCII STANDARD - VERSION 2.0
 WRAP.                 NO:   ONE LINE PER DEPTH STEP
~WELL INFORMATION
#MNEM.UNIT      DATA TYPE    INFORMATION
#----------   ------------   ------------------------------
 STRT.F           32.0000:   START DEPTH
 STOP.F         5116.0000:   STOP DEPTH
 STEP.F            0.5000:   STEP LENGTH
 NULL.          -999.2500:   NO VALUE
 COMP. LAWRENCE ALLISON AND ASSOCIATES:   COMPANY
 WELL. LAWRENCE "X" #11-26:   WELL
 FLD .       N.P.R. NO. 3:   FIELD
 LOC .      S26 T38N R78W:   LOCATION
 CNTY.            NATRONA:   COUNTY
 STAT.            WYOMING:   STATE
 CTRY. UNITED STATES OF AMERICA:   COUNTRY
 SRVC.      DRESSER ATLAS:   SERVICE COMPANY
 DATE.        03-DEC-1984:   LOGDATE
 API .     49025110120000:   API NUMBER
~CURVE INFORMATION
#MNEM.UNIT       API CODE    CURVE DESCRIPTION
#----------   ------------   ------------------------------
 DEPT.F                  :   
 CALD.IN     45 280 60 00:   CALIPER FROM DENSITY LOG
 TEND.LBS    45 635 01 00:   TENSION FORM DENSITY LOG
 CORR.G/C3   45 356 01 00:   DENSITY CORRECTION
 DEN .G/C3   45 350 01 00:   BULK DENSITY
 NPHI.DEC    42 890 03 00:   NEUTRON POROSITY SANDSTONE
 GRR .GAPI   07 310 01 00:   GAMMA RAY FROM RESISTIVITY
 SPR .MV     07 010 01 00:   SPONTANEOUS POTENTIAL
 CALR.IN     07 280 01 00:   CALIPER FROM RESISTIVITY
 TENR.LBS    07 635 01 00:   TENSION FROM RESISTIVITY
 RILD.OHMM   07 120 46 00:   INDUCTION LOG DEEP RESISTIVITY
 RILM.OHMM   07 120 44 00:   INDUCTION LOG MEDIUM RESISTIVITY
 RFOC.OHMM   07 220 04 00:   RESISTIVITY FOCUSED LOG RES.
 TENS.LBS    60 635 01 00:   TENSION FROM SONIC
 DT  .US/F   60 520 00 00:   DELTA TIME
~PARAMETER INFORMATION
#MNEM.UNIT          VALUE    DESCRIPTION
#----------   ------------   ------------------------------
 EKB .F         5321.0000:   Kelly bushing
 EGL .F         5309.0000:   Ground level
 EDF .F         5320.0000:   Drilling floor
 TD  .F         5104.0000:   Total depth
 CLNT.            A2DTECH:   Client Code
 SL  . 509' FWL & 22' FNL:   Surface Location
 PD  .                 GL:   Permanent Datum
 EPD .F              5309:   Elevation Permanent Datum
 LMF .                 KB:   Log Measured From
 DMF .                 KB:   Drilling Measured From
 DAPD.F                12:   Feet Above Permanent Datum
 DATE.        03-DEC-1984:   Date Logged [DD-MMM-YYYY]
 DD  .F              5100:   Depth driller
 DL  .F              5104:   Depth logger
 BLI .F              5102:   Bottom log interval
 TLI .F              1400:   Top log interval
 CS1 .IN            9.625:   Casing size
 CBD1.     9.625' @ 1657':   Casing driller 1
 CBL1.F              1652:   Casing logger 1
 BS1 .IN            7.875:   Bit size
 DFT .            KCL GEL:   Type fluid in hole
 DFD .                90.:   Density
 DFV .                 41:   Viscosity
 DFPH.                8.9:   pH
 DFL .               12.6:   Fluid loss
 MSS .           FLOWLINE:   Source of sample
 RMS .OHMM           .327:   Rm
 MST .F                84:   Rm Meas. temp.
 RMF .OHMM            .29:   Rmf
 MFST.F                84:   Rmf Meas. temp.
 MFSS.               CALC:   Source Rmf.
 RMC .OHMM            .42:   Rmc
 MCST.F                84:   Rmc Meas. temp.
 MCSS.               CALC:   Source Rmc.
 RMB .OHMM            .23:   Rm. at BHT
 BHT .F               142:   BHT.
 TCS .HRS               4:   Time Circ. stopped
 MRT .F               142:   Maximum recorded temp.
 LUN .               6307:   Logging unit number
 LUL .               CLTE:   Logging unit location
 WITN.             STRONG:   Witnessed by
 ORIG.           5" PRINT:   Origin of data
 UWI .     49025110120000:   Unique Well ID
 DICO. A2D TECHNOLOGIES, INC.:   Digitizing Company
~OTHER INFORMATION
~A  DEPTH     CALD       TEND       CORR        DEN       NPHI        GRR        SPR       CALR       TENR       RILD       RILM       RFOC       TENS         DT
# ...
 1379.5000    12.5989   -47.4338     0.0424     2.5050     0.2472    90.9100   -81.3869  -999.2500   -27.8099     6.7797     5.6206     5.5683   -47.0852    92.8678
 1380.0000    12.6012   -41.1650     0.0142     2.4931     0.2456    92.7316   -81.3855  -999.2500   -28.1683     6.8845     5.6200     5.4161   -40.7323    93.1577
 1380.5000    12.6035   -42.4150     0.0025     2.4880     0.2385    94.5531   -81.3840  -999.2500   -28.5266     6.8845     5.6193     5.4161   -34.3679    93.2255
 1381.0000    12.5903   -51.0527     0.0042     2.4858     0.2387    96.0729   -81.5332  -999.2500   -28.8850     6.9323     5.6186     5.4581   -42.9745    92.9891
 1381.5000    12.5932   -52.4339     0.0074     2.4882     0.2384    95.1776   -81.6820  -999.2500   -29.2434     7.1766     5.7759     5.5683   -36.5501    92.3060
 1382.0000    12.6107   -53.6839    -0.0073     2.4914     0.2356    93.9873   -81.6805  -999.2500   -29.6018     7.6381     5.8966     5.7249   -37.9137    91.4613
 1382.5000    12.5979   -54.8871     0.0005     2.4945     0.2380    92.1889   -81.3779  -999.2500   -29.9602     7.7446     5.9370     5.8858   -46.4787    90.3182
 1383.0000    12.6003   -56.1843     0.0082     2.4984     0.2389    87.0722   -81.3764  -999.2500   -30.3185     7.7446     6.0611     5.9679   -47.5698    89.5806
 1383.5000    12.5882   -57.4437     0.0160     2.5038     0.2382    86.4775   -81.0738  -999.2500   -30.6769     7.5330     6.1025     6.0526   -40.9142    89.2717
 1384.0000    12.5905   -58.7218     0.0222     2.5087     0.2342    87.0953   -80.9036  -999.2500   -31.0353     6.9323     6.1441     6.0094   -27.0577    89.0377
 1384.5000    12.5779   -52.4156     0.0270     2.5161     0.2324    87.0286   -80.4681  -999.2500   -31.3275     6.0277     6.1010     5.8451   -28.4215    88.8037
 1385.0000    12.5802   -53.9780     0.0422     2.5215     0.2348    85.0058   -80.1655  -999.2500   -31.5545     4.9035     5.2840     5.9679   -29.5217    88.2702
 1385.5000    12.5825   -55.2284     0.0605     2.5224     0.2405    84.7157   -79.5616  -999.2500   -31.7815     4.2105     3.7550     5.8858   -38.1167    87.6620
 1386.0000    12.5849   -56.4784     0.0424     2.5165     0.2521    86.5401   -78.6566  -999.2500   -32.0084     3.9288     3.3605     5.2316   -39.4414    88.1016
 1386.5000    12.5871   -57.7284     0.0215     2.4926     0.2701    89.0918   -77.7515  -999.2500   -32.2354     3.9288     3.2910     3.8737   -40.5325    95.0639
 1387.0000    12.5895   -58.9784     0.0321     2.4416     0.2887    92.5993   -76.8223  -999.2500   -32.4624     3.9836     3.3135     3.4744   -49.0972   103.0333
 1387.5000    12.5745   -60.1504     0.0481     2.3703     0.2923    95.3257   -76.2422  -999.2500   -32.6894     4.1526     3.3391     3.4280   -42.4417   117.1127
 1388.0000    12.5200   -61.4785     0.0573     2.2846     0.2853    95.9406   -76.2408  -999.2500   -32.9164     5.4027     3.4774     3.5735   -43.8056   118.9020
 1388.5000    12.4775   -62.7285     0.0426     2.3122     0.2517    93.5389   -76.9924  -999.2500   -33.1433     6.7429     4.1348     4.9153   -37.1500   115.5219
 1389.0000    12.4798   -63.9851    -0.0007     2.3767     0.2285    88.6870   -77.8945  -999.2500   -33.3703     6.6964     5.1967     6.1357   -23.5427   103.1622
 1389.5000    12.4821   -65.2632    -0.0050     2.4686     0.2263    84.2134   -78.8007  -999.2500   -33.5973     7.0290     5.5732     6.7146   -24.6636    93.2725
 1390.0000    12.4845   -66.7913     0.0193     2.5281     0.2269    80.3034   -79.5479  -999.2500   -33.8243     8.2307     6.0404     6.8078   -25.7848    86.1522
 1390.5000    12.4717   -67.8195     0.0301     2.5358     0.2266    81.8232   -79.8477  -999.2500   -34.0513     8.9569     6.4276     6.8078   -27.1123    86.2925
 1391.0000    12.4741   -69.2914     0.0333     2.5322     0.2271    84.5497   -80.1474  -999.2500   -34.2783     8.8951     6.6988     6.7141   -28.2034    86.8084
 1391.5000    12.4765   -78.0605     0.0366     2.5278     0.2295    85.7679   -80.1460  -999.2500   -34.5052     8.8337     6.7442     6.6217   -44.2422    87.1063
 1392.0000    12.4639   -79.3106     0.0383     2.5279     0.2313    85.7798   -80.4458  -999.2500   -34.7322     8.6521     6.7421     6.6678   -52.8068    87.7587
 1392.5000    12.4668   -80.5606     0.0371     2.5295     0.2293    86.0955   -80.6050  -999.2500   -34.9592     8.4093     6.6938     6.6678   -38.9503    88.1983
 1393.0000    12.4837   -73.9794     0.0328     2.5297     0.2210    87.0121   -80.7441  -999.2500   -35.1862     8.1293     6.5997     6.7608   -32.2947    88.5631
 1393.5000    12.4861   -75.5418     0.0350     2.5291     0.2209    87.6269   -81.0435  -999.2500   -35.4132     7.9621     6.5527     6.6678   -26.1585    89.0027
 1394.0000    12.4887   -76.7919     0.0453     2.5277     0.2287    88.2418   -81.0420  -999.2500   -35.6402     7.9072     6.5056     6.4407   -34.7533    89.2178
 1394.5000    12.4761   -78.0419     0.0516     2.5286     0.2305    88.2534   -81.0406  -999.2500   -35.8671     7.9072     6.4591     6.4367   -35.8745    89.5077
 1395.0000    12.4635   -64.2543     0.0534     2.5302     0.2301    87.9632   -81.0391  -999.2500   -36.0941     7.9621     6.4128     6.4855   -37.2047    89.7231
 1395.5000    12.4658   -65.8171     0.0566     2.5334     0.2271    88.2793   -81.0377  -999.2500   -36.3211     8.1293     6.4112     6.6217   -38.2958    89.8631
 1396.0000    12.4532   -67.0671     0.0569     2.5342     0.2258    88.8942   -80.8853  -999.2500   -36.5481     8.2427     6.4093     6.7608   -31.9130    89.9284
 1396.5000    12.4561   -75.8359     0.0526     2.5291     0.2307    89.5090   -80.8838  -999.2500   -36.7751     8.4742     6.4527     6.7608   -33.0041    89.9938
 1397.0000    12.4584   -77.0860     0.0319     2.5270     0.2327    90.1239   -80.7318  -999.2500   -37.0021     8.7727     6.5407     6.8078   -34.0950    89.9820
 1397.5000    12.4607   -85.8548     0.0156     2.5225     0.2320    90.7391   -80.7304  -999.2500   -37.2290     9.2085     6.6342     6.9533   -42.6599    89.8977
 1398.0000    12.4630   -87.1051     0.0054     2.5190     0.2296    89.5466   -80.4277  -999.2500   -37.4560    10.2260     6.8620     7.3471   -43.7510    89.5888
 1398.5000    12.4654   -88.0424     0.0176     2.5177     0.2208    82.9216   -80.0808  -999.2500   -37.6830    10.7984     7.1022     7.9842   -44.8432    88.9057
 1399.0000    12.4522   -74.5676     0.0269     2.5065     0.2094    76.2967   -79.2196  -999.2500   -37.9100    11.4136     7.4534     8.5572   -45.9332    86.5758
 1399.5000    12.4251   -75.7895     0.0121     2.4848     0.2072    70.8783   -78.6158  -999.2500   -38.1370    12.3170     8.1540     9.1079   -39.5504    84.9945
 1400.0000    12.4126   -69.5488     0.0049     2.4714     0.2126    66.0633   -78.0119  -999.2500   -38.3640    13.1091     8.7977     9.5607   -48.3753    83.1886
 1400.5000    12.3700   -70.8270     0.0068     2.4625     0.2126    62.7486   -77.7093  -999.2500   -38.5909    13.6726     9.1057     9.3639   -34.1877    82.7275
 1401.0000    12.3574   -69.1478     0.0191     2.4597     0.2095    59.4332   -77.7078  -999.2500   -38.7789    14.2450     8.9776     9.1684   -35.4542    83.3122
 1401.5000    12.3603   -65.7804     0.0206     2.4575     0.2095    58.5309   -77.7120  -999.2500   -38.8497    14.3440     8.9139     8.9224   -36.4676    83.8994
 1402.0000    12.3626   -67.3429     0.0119     2.4423     0.2132    59.4395   -77.8380  -999.2500   -38.9204    14.2450     9.0355     8.9231   -44.9549    84.7860
 1402.5000    12.3650   -67.2933     0.0197     2.4300     0.2208    59.7433   -77.9639  -999.2500   -38.9912    13.9521     9.0961     8.9237   -45.9683    85.2984
 1403.0000    12.3620   -60.8185     0.0304     2.4249     0.2252    58.2385   -78.0120  -999.2500   -39.0619    13.9543     9.0309     9.2389   -47.0104    85.2868
 1403.5000    12.3696   -53.2338     0.0382     2.4258     0.2258    56.4292   -78.0120  -999.2500   -39.1327    14.2450     9.0077     9.9716   -48.2485    85.2003
