~VERSION INFORMATION
 VERS.                2.0:   CWLS LOG ASCII STANDARD - VERSION 2.0
 WRAP.                 NO:   ONE LINE PER DEPTH STEP
~WELL INFORMATION
#MNEM.UNIT      DATA TYPE    INFORMATION
#----------   ------------   ------------------------------
 STRT.F          906.0000:   START DEPTH
 STOP.F         3426.0000:   STOP DEPTH
 STEP.F            0.5000:   STEP LENGTH
 NULL.          -999.2500:   NO VALUE
 COMP.    FENIX & SCISSON:   COMPANY
 WELL. FENIX NPR 3 "AX" #46-11:   WELL
 FLD .                NPR:   FIELD
 LOC .      S11 T38N R78W:   LOCATION
 CNTY.            NATRONA:   COUNTY
 STAT.            WYOMING:   STATE
 CTRY. UNITED STATES OF AMERICA:   COUNTRY
 SRVC.       SCHLUMBERGER:   SERVICE COMPANY
 DATE.        16-MAY-1981:   LOGDATE
 API .     49025108720000:   API NUMBER
~CURVE INFORMATION
#MNEM.UNIT       API CODE    CURVE DESCRIPTION
#----------   ------------   ------------------------------
 DEPT.F                  :   
 SPR .MV     07 010 01 00:   SPONTANEOUS POTENTIAL
 ILD .OHMM   07 120 46 00:   INDUCTION LOG DEEP RESISTIVITY
 SFL .OHMM   07 220 01 00:   SHALLOW FOCUSED LOG RESISTIVITY
 TENR.LBS    07 635 01 00:   TENSION
 ILM .OHMM   07 120 44 00:   INDUCTION LOG MEDIUM RESISTIVITY
 CALD.IN     45 280 60 00:   CALIPER FROM DENSITY LOG
 GRD .GAPI   45 310 01 00:   GAMMA RAY FROM DENSITY LOG
 RHOB.G/C3   45 350 01 00:   BULK DENSITY
 TEND.LBS    45 635 01 00:   TENSION FROM DENSITY LOG
 CORR.G/C3   45 356 01 00:   DENSITY CORRECTION
~PARAMETER INFORMATION
#MNEM.UNIT          VALUE    DESCRIPTION
#----------   ------------   ------------------------------
 EKB .F         5199.0000:   Kelly bushing
 EGL .F         5189.0000:   Ground level
 EDF .F            0.0000:   Drilling floor
 TD  .F         3422.0000:   Total depth
 DATE.        16-MAY-1981:   Date logged
 CLNT.            A2DTECH:   Client Code
 SL  . 1867' FSL & 2100' FWL:   Surface Location
 PD  .                 GL:   Permanent Datum
 EPD .F              5189:   Elevation Permanent Datum
 LMF .                 KB:   Log Measured From
 DMF .                 KB:   Drilling Measured From
 DAPD.F                10:   Feet Above Permanent Datum
 DD  .F              3421:   Depth driller
 DL  .F              3422:   Depth logger
 BLI .F              3416:   Bottom log interval
 TLI .F               926:   Top log interval
 CS1 .IN            8.625:   Casing size
 CBD1.      8.625" @ 925':   Casing driller 1
 CBL1.F               926:   Casing logger 1
 BS1 .IN            7.875:   Bit size
 BSD1.F              3421:   Depth drilled with bit1
 DFT .                FGM:   Type fluid in hole
 DFD .                8.5:   Density
 DFV .                 60:   Viscosity
 DFPH.                  9:   pH
 DFL .                 12:   Fluid loss
 MSS .               PITS:   Source of sample
 RMS .OHMM           1.17:   Rm
 MST .F                73:   Rm Meas. temp.
 RMF .OHMM           1.03:   Rmf
 MFST.F                73:   Rmf Meas. temp.
 MFSS.               MEAS:   Source Rmf.
 RMB .OHMM            .71:   Rm. at BHT
 BHT .F               120:   BHT.
 TCS .HRS            1200:   Time Circ. stopped
 TLAB.HRS            1745:   Time logger at bottom
 MRT .F               120:   Maximum recorded temp.
 LUN .               8133:   Logging unit number
 LUL .               CSPR:   Logging unit location
 ENGI.             TAYLOR:   Recorded By
 WITN.              RIVAS:   Witnessed by
 ORIG.           5" PRINT:   Origin of data
 UWI .     49025108720000:   Unique Well ID
 DICO. A2D TECHNOLOGIES, INC.:   Digitizing Company
~OTHER INFORMATION
~A   DEPT      SPR        ILD        SFL       TENR        ILM       CALD         GRD        RHOB     TEND        CORR  
# ...
 2547.5000     4.7750     8.7020    11.2640   977.8010     8.3840     8.2600   104.8370     2.4870   989.6750     0.0200
 2548.0000     4.7910     8.8700    12.8880   977.9550     8.5640     8.6910   115.0470     2.4860   989.9000     0.0200
 2548.5000     4.8070     9.1010    12.7550   978.1080     8.7430     8.9980   137.7450     2.4740   990.1250     0.0210
 2549.0000     4.8220     9.0910    12.4440   978.2620     8.9230     8.8720   142.9400     2.4430   990.3490     0.0130
 2549.5000     4.8380     9.0460    12.1340   978.4160     9.1010     8.7140   158.5720     2.4170   990.5740     0.0000
 2550.0000     4.8540     9.0000    11.7600   978.5690     9.1010     8.4120   154.8650     2.4250   990.7990    -0.0040
 2550.5000     4.8700     8.9550    11.2640   978.7230     8.8850     8.1480   149.1490     2.4350   991.0230     0.0020
 2551.0000     4.8860     8.8790    10.9090   978.8770     8.7050     8.1420   141.9660     2.4450   991.2480     0.0130
 2551.5000     4.9010     8.7810    10.5370   979.0300     8.5260     8.1390   142.6100     2.4460   991.4730     0.0380
 2552.0000     4.9180     8.6830    11.5270   979.1840     8.3460     8.1350   143.4790     2.4600   991.6980     0.0830
 2552.5000     4.9310     8.5850    12.6540   979.3370     8.1670     8.1310   144.1620     2.4710   991.9220     0.1570
 2553.0000     4.9730     8.4880    12.3990   979.4910     8.0060     8.1270   145.1030     2.4470   992.1470     0.1420
 2553.5000     5.0430     8.4580    12.1220   979.6450     8.0350     8.1280   146.9970     2.4160   992.3720     0.0520
 2554.0000     5.1090     8.4580    10.1580   979.7980     8.0610     8.1280   148.5630     2.3970   992.5960     0.0200
 2554.5000     5.1760     8.4580    10.5300   979.9520     8.0870     8.1290   149.6230     2.4080   992.8210    -0.0080
 2555.0000     5.2440     8.4580    11.0880   980.1050     8.1140     8.1300   150.7020     2.4290   993.0460    -0.0040
 2555.5000     5.3090     8.4580    11.6450   980.2590     8.1400     8.1310   151.8220     2.4500   993.2700     0.0000
 2556.0000     5.3780     8.4580    12.1990   980.4130     8.1660     8.1310   151.1680     2.4710   993.4950     0.0060
 2556.5000     5.4440     8.3680    11.9490   980.5660     8.1920     8.1320   149.3060     2.4830   993.7200     0.0200
 2557.0000     5.5070     8.2180    11.5350   980.7200     8.2190     8.1330   144.2210     2.4870   993.9440     0.0330
 2557.5000     5.5920     8.1400    11.1200   980.8730     8.2450     8.1340   135.3640     2.4790   994.1690     0.0320
 2558.0000     5.6190     8.1160    10.7060   981.0270     8.2710     8.1350   134.8930     2.4610   994.3940     0.0180
 2558.5000     5.7270     8.0920    10.3450   981.1810     8.2990     8.1350   139.4740     2.4420   994.6190     0.0070
 2559.0000     5.0370     8.0670    10.1580   981.3340     8.2880     8.1360   140.5630     2.4320   994.8430    -0.0020
 2559.5000     5.0040     8.0430    10.6060   981.4880     8.2650     8.1370   142.9560     2.4410   995.0680     0.0010
 2560.0000     5.0480     8.0190    11.0990   981.6410     8.2410     8.1380   147.1120     2.4510   995.2930     0.0080
 2560.5000     5.1370     7.9730    11.7600   981.7950     8.2180     8.1380   149.3820     2.4610   995.5170     0.0090
 2561.0000     5.1850     7.9020    11.6000   981.9490     8.1960     8.1390   148.3380     2.4710   995.7420     0.0020
 2561.5000     5.2550     7.8310    10.9660   982.1020     8.1730     8.1400   146.7140     2.4820   995.9670     0.0000
 2562.0000     5.3180     7.7600    10.3320   982.2560     8.1060     8.1410   143.2880     2.4920   996.1910     0.0010
 2562.5000     5.3810     7.6030     9.6980   982.4090     7.8880     8.1410   140.1940     2.4980   996.4160     0.0010
 2563.0000     5.4450     7.3210     9.4400   982.5630     7.6710     8.1420   139.5660     2.4940   996.6410     0.0020
 2563.5000     5.5090     7.0390     9.6630   982.7170     7.4530     8.1430   139.0610     2.4900   996.8660     0.0030
 2564.0000     5.5730     6.7290     9.9730   982.8700     7.2350     8.1440   138.4790     2.4890   997.0900     0.0030
 2564.5000     5.6360     6.3980     9.7550   983.0240     7.0180     8.1440   136.2000     2.5020   997.3150     0.0020
 2565.0000     5.7000     5.9730     9.1170   983.1780     6.9150     8.1450   133.7240     2.5150   997.5400     0.0090
 2565.5000     5.7640     5.9850     7.5730   983.3310     6.9150     8.1460   131.2520     2.5280   997.7640     0.0160
 2566.0000     5.8280     6.0240     5.0650   983.4850     6.7130     8.1470   128.5030     2.5290   997.9890     0.0230
 2566.5000     5.8910     6.0630     5.7520   983.6380     6.3070     8.1470   125.6760     2.5090   998.2140     0.0250
 2567.0000     5.9550     6.1020     6.7590   983.7920     5.9000     8.1480   122.8420     2.4920   998.4380     0.0240
 2567.5000     6.0190     6.1410     7.7650   983.9460     5.7580     8.1490   120.0210     2.4840   998.6630     0.0230
 2568.0000     6.0830     6.1810     8.7710   984.0950     5.7580     8.1510   117.3090     2.4860   998.8880     0.0220
 2568.5000     6.1460     6.2980     9.9730   984.0950     5.9870     8.1520   117.9920     2.4900   998.9200     0.0180
 2569.0000     6.2100     6.4630     9.4590   984.0950     6.2110     8.1530   120.7680     2.4940   998.7720     0.0080
 2569.5000     6.2740     6.6290     8.8190   984.0950     6.4350     8.1540   123.5020     2.4990   998.6250    -0.0010
 2570.0000     6.3370     6.9120     8.1540   984.0950     6.6590     8.1550   123.6950     2.5060   998.4780     0.0040
 2570.5000     6.4020     7.2290     8.1540   984.0950     6.8830     8.1560   120.0330     2.5130   998.3300     0.0110
 2571.0000     6.4650     7.4580     8.6540   984.0950     7.1070     8.1570   113.8250     2.5020   998.1830     0.0120
 2571.5000     6.5140     7.5110    10.1550   984.0950     7.3060     8.1580   109.4320     2.4880   998.0360     0.0070
 2572.0000     6.4520     7.5630    12.4240   984.0950     7.3670     8.1590   105.4220     2.4790   997.8880     0.0010
 2572.5000     6.3940     7.6160    12.0430   984.0950     7.4230     8.1600   104.0530     2.4910   997.7410     0.0030
 2573.0000     6.3310     7.6680    11.2620   984.0950     7.4790     8.1610   103.8760     2.5030   997.5940     0.0080
 2573.5000     6.2720     7.7180    10.4810   984.0950     7.5340     8.1620   105.7820     2.5040   997.4470     0.0130
 2574.0000     6.2110     7.7840     9.7000   984.0950     7.5900     8.1630   107.7160     2.5040   997.2990     0.0100
 2574.5000     6.1500     7.8470     8.9190   984.0950     7.6450     8.1640   107.9930     2.5060   997.1520     0.0070
 2575.0000     6.0890     7.9090     8.6140   984.0950     7.7010     8.1650   107.0740     2.5040   997.0050     0.0090
 2575.5000     6.0290     7.9720     9.4380   984.0950     7.7570     8.1670   106.3950     2.4820   996.8570     0.0070
 2576.0000     5.9680     8.0350    11.1390   984.0950     7.8120     8.1680   106.3240     2.4580   996.7100     0.0000
 2576.5000     5.9080     8.0980    13.6150   984.0950     7.8680     8.1690   106.2210     2.4340   996.5630    -0.0010
 2577.0000     5.8460     8.1600    13.3970   984.0950     7.9230     8.1700   105.4220     2.4300   996.4160    -0.0010
 2577.5000     5.7860     8.2230    12.4950   984.0950     7.9790     8.1710   104.9210     2.4530   996.2680     0.0030
 2578.0000     5.7370     8.2860     9.9730   984.0950     8.0270     8.1720   105.6940     2.4780   996.1210     0.0070
 2578.5000     5.7240     8.3050    10.1800   984.0950     8.0670     8.1730   104.4930     2.4990   995.9740     0.0110
 2579.0000     5.8180     7.9680    10.8840   984.0950     8.1080     8.1740   102.7220     2.4890   995.8260     0.0100
 2579.5000     6.0220     7.5880    11.9770   984.0950     8.1540     8.1750   101.8700     2.4770   995.6790     0.0080
 2580.0000     6.2100     7.2080    10.5850   984.0950     8.1100     8.1760   109.7790     2.4700   995.5320     0.0070
 2580.5000     6.4190     6.9150     6.7900   984.0950     8.0580     8.1770   117.6040     2.4850   995.3840     0.0060
