~VERSION INFORMATION
 VERS.                2.0:   CWLS LOG ASCII STANDARD - VERSION 2.0
 WRAP.                 NO:   ONE LINE PER DEPTH STEP
~WELL INFORMATION
#MNEM.UNIT      DATA TYPE    INFORMATION
#----------   ------------   ------------------------------
 STRT.F            0.0000:   START DEPTH
 STOP.F         4022.0000:   STOP DEPTH
 STEP.F            0.5000:   STEP LENGTH
 NULL.          -999.2500:   NO VALUE
 COMP. LAWRENCE - ALLISON:   COMPANY
 WELL. LAWRENCE NPR 3 "MX" #58-10:   WELL
 FLD .                MPR:   FIELD
 LOC .      S10 T38N R78W:   LOCATION
 CNTY.            NATRONA:   COUNTY
 STAT.            WYOMING:   STATE
 CTRY. UNITED STATES OF AMERICA:   COUNTRY
 SRVC.      DRESSER ATLAS:   SERVICE COMPANY
 DATE.        12-FEB-1984:   LOGDATE
 API .     49025109610000:   API NUMBER
~CURVE INFORMATION
#MNEM.UNIT       API CODE    CURVE DESCRIPTION
#----------   ------------   ------------------------------
 DEPT.F                  :   
 GRR .GAPI   07 310 01 00:   GAMMA RAY FROM RESISTIVITY
 SPR .MV     07 010 01 00:   SPONTANEOUS POTENTIAL
 TENR.LBS    07 635 01 00:   TENSION FROM RESISTIVITY
 ILD .OHMM   07 120 46 00:   DEEP INDUCTION RESISTIVITY
 ILM .OHMM   07 120 44 00:   INDUCTION LOG MEDIUM RESISTIVITY
 SFL .OHMM   07 220 01 00:   SHALLOW FOCUSED LOG RESISTIVITY
 DT  .US/F   60 520 00 00:   DELTA TIME
 TENS.LBS    60 635 01 00:   TENSION FROM SONIC LOG
 CNC .DEC    42 890 03 00:   NEUTRON PORISITY SANDSTONE
 CALD.IN     45 280 60 00:   CALIPER FROM DENSITY LOG
 RHOB.G/C3   45 350 01 00:   BULK DENSITY
 CORR.G/C3   45 356 01 00:   DENSITY CORRECTION
 TEND.LBS    45 635 01 00:   TENSION FROM DENSITY LOG
~PARAMETER INFORMATION
#MNEM.UNIT          VALUE    DESCRIPTION
#----------   ------------   ------------------------------
 EKB .F         5218.0000:   Kelly bushing
 EGL .F         5208.0000:   Ground level
 EDF .F         5217.0000:   Drilling floor
 TD  .F         4014.0000:   Total depth
 DATE.        12-FEB-1984:   Date logged
 CLNT.            A2DTECH:   Client Code
 SL  . 500' FSL & 2150' FEL:   Surface Location
 PD  .                 GL:   Permanent Datum
 EPD .F              5208:   Elevation Permanent Datum
 LMF .                 KB:   Log Measured From
 DMF .                 KB:   Drilling Measured From
 DD  .F              4014:   Depth driller
 DL  .F              4011:   Depth logger
 BLI .F              4009:   Bottom log interval
 CS1 .IN            8.625:   Casing size
 CBD1.      8.625" @ 526':   Casing driller 1
 CBL1.F               525:   Casing logger 1
 BS1 .IN            7.875:   Bit size
 DFT .            GEL/KCL:   Type fluid in hole
 DFD .                8.9:   Density
 DFV .                 48:   Viscosity
 DFPH.                  8:   pH
 DFL .                1.3:   Fluid loss
 MSS .           MUD/TANK:   Source of sample
 RMS .OHMM           .556:   Rm
 MST .F                61:   Rm Meas. temp.
 RMF .OHMM           .423:   Rmf
 MFST.F                61:   Rmf Meas. temp.
 RMC .OHMM           .662:   Rmc
 MCST.F                61:   Rmc Meas. temp.
 MFSS.           MUD/TANK:   Source Rmf.
 RMB .OHMM            .80:   Rm. at BHT
 BHT .F               119:   BHT.
 TCS .HRS               5:   Time Circ. stopped
 MRT .F               119:   Maximum recorded temp.
 LUN .               6302:   Logging unit number
 ENGI.              GETTY:   Recorded By
 ORIG.           5" PRINT:   Origin of data
 UWI .     49025109610000:   Unique Well ID
 DICO. A2D TECHNOLOGIES, INC.:   Digitizing Company
 TLI .F                 0:   Top log interval
~OTHER INFORMATION
~A    DEPT      GRR       SPR       TENR        ILD        ILM        SFL         DT       TENS        CNC       CALD       RHOB       CORR       TEND   
# ...
 3068.0000    99.1240    -4.8220  -111.5280     6.5760     6.8010     7.0650    76.3680  -122.8080     0.1930     8.5660     2.4780    -0.0300   -88.4440
 3068.5000   101.5240    -4.7870  -109.3440     6.3970     6.6200     6.8400    77.1230  -121.6110     0.1930     8.5680     2.4780    -0.0080   -89.3080
 3069.0000   101.2300    -4.6980  -107.1590     6.2180     6.4250     6.6060    77.8770  -120.4130     0.1900     8.5710     2.4840     0.0150   -90.1710
 3069.5000   100.9150    -4.6070  -105.6740     6.0400     6.2260     6.7740    78.5310  -119.2150     0.1860     8.5730     2.4880     0.0130   -91.0350
 3070.0000   103.2190    -4.5170  -106.8160     5.8610     6.0260     6.9570    79.0340  -119.2150     0.1850     8.5760     2.4860     0.0090   -91.8980
 3070.5000   105.4380    -4.4440  -107.9580     5.6820     5.8600     6.6560    79.3360  -119.2150     0.1890     8.5780     2.4840     0.0380   -92.7620
 3071.0000   104.9870    -4.4470  -109.1000     5.5260     5.7140     6.4100    79.8390  -119.2150     0.1890     8.5790     2.4880     0.0560   -93.6250
 3071.5000   104.0590    -4.4470  -110.2420     5.4010     5.5680     6.1740    80.3420  -119.2150     0.1880     8.5770     2.4970     0.0500   -94.4890
 3072.0000   103.1600    -4.4470  -111.3840     5.2820     5.4290     6.1740    80.3420  -119.2150     0.1840     8.5750     2.5010     0.0350   -95.3520
 3072.5000   103.3310    -4.4460  -112.5260     4.8770     5.0870     6.2500    79.7380  -119.2150     0.1840     8.5730     2.5010    -0.0130   -95.4640
 3073.0000   105.5010    -4.4460  -113.6680     4.5180     4.7610     6.2880    79.7380  -119.2150     0.1900     8.5710     2.4900    -0.0190   -95.4640
 3073.5000   108.3340    -4.4480  -114.8100     4.2780     4.4360     6.0140    80.1410  -119.2150     0.1980     8.5690     2.4790    -0.0130   -95.4640
 3074.0000   110.1680    -4.4970  -115.4040     4.0530     4.1920     5.5410    80.7440  -119.2150     0.2050     8.5670     2.4690    -0.0040   -95.4640
 3074.5000   111.7180    -4.7020  -115.4040     3.8270     3.9590     5.0310    82.9580  -119.2150     0.2230     8.5650     2.4590    -0.0140   -98.6040
 3075.0000   116.1000    -4.9020  -115.4040     3.6250     3.7270     4.6580    85.2720  -119.2150     0.2290     8.5630     2.4490    -0.0040  -107.0950
 3075.5000   117.8780    -5.1000  -111.2160     3.5000     3.5850     4.4230    87.0620  -119.2150     0.2300     8.5610     2.4450     0.0080  -115.4040
 3076.0000   115.2780    -5.2400   -97.5120     3.3990     3.4940     4.1880    89.5980  -119.2150     0.2350     8.5610     2.4430     0.0180  -114.2210
 3076.5000   106.1200    -5.2370   -86.2210     3.3990     3.4940     4.1220    90.0000  -119.2150     0.2440     8.5660     2.4420     0.0060  -113.0630
 3077.0000   101.1120    -5.2370   -92.1320     3.5260     3.7200     4.2680    89.2710  -119.2150     0.2440     8.5710     2.4430    -0.0150  -111.9050
 3077.5000    99.4710    -5.2370   -98.0440     3.6660     3.9010     4.4680    88.3900  -119.2150     0.2260     8.5750     2.4440    -0.0180  -110.7470
 3078.0000    99.5140    -5.2370  -103.9560     3.9260     4.1780     4.8170    86.9820  -119.2150     0.2040     8.5800     2.4530     0.0080  -109.5890
 3078.5000    99.9780    -5.2290  -102.5350     4.1980     4.4720     5.2890    84.8690  -119.2150     0.1830     8.5700     2.4640    -0.0080  -108.4320
 3079.0000    99.0410    -5.1740   -98.6690     4.4550     4.7640     5.8040    82.7570  -119.2150     0.1830     8.5580     2.4810    -0.0100  -107.2740
 3079.5000    94.5670    -5.1170   -95.7930     4.7240     5.0530     6.5440    80.9460  -119.2150     0.1850     8.5460     2.4940    -0.0020  -106.1160
 3080.0000    91.4550    -5.0620   -97.7260     4.9980     5.2330     7.1510    79.4370  -119.2150     0.1930     8.5330     2.4950     0.0050  -105.4340
 3080.5000    92.6580    -4.9420   -99.6590     5.0240     5.2330     6.9940    78.3300  -119.2150     0.2010     8.5210     2.4870    -0.0130  -105.4340
 3081.0000    95.8870    -4.8860  -101.5910     5.0450     5.2160     6.6020    78.1290  -119.2150     0.2090     8.5090     2.4810    -0.0080  -105.4340
 3081.5000    99.0940    -5.0060  -103.5240     5.0250     5.1990     6.0200    80.0260  -119.2150     0.2080     8.4970     2.4810     0.0020  -105.4340
 3082.0000   101.7280    -5.1230  -105.4340     5.0060     5.1700     5.4390    81.6070  -119.2150     0.2050     8.4850     2.4890     0.0140  -105.4340
 3082.5000   102.2410    -5.2330  -105.4340     4.9450     5.0980     5.3300    82.9580  -119.2150     0.2040     8.4830     2.5030     0.0280  -105.4340
 3083.0000    98.6490    -5.2010  -105.4340     4.8590     5.0250     5.5310    83.1590  -119.2150     0.2090     8.4880     2.5120     0.0460  -105.4340
 3083.5000    94.4570    -5.1630  -105.4340     4.7720     4.9390     5.6960    82.9910  -119.2150     0.2110     8.4940     2.5080     0.0400  -106.3220
 3084.0000    91.6220    -5.1260  -105.4340     4.6860     4.8450     5.8600    82.5720  -119.2150     0.2130     8.4990     2.5000     0.0210  -108.7480
 3084.5000    94.8860    -5.0890  -105.4340     4.6000     4.7510     5.9510    82.1530  -119.2150     0.2140     8.5040     2.4920     0.0020  -111.1740
 3085.0000    99.8810    -5.0490  -105.4340     4.5180     4.6570     5.8150    82.1530  -119.2150     0.2210     8.5090     2.4810    -0.0170  -113.6000
 3085.5000   106.0690    -5.1280  -105.4340     4.3550     4.4830     5.6550    82.3540  -119.2150     0.2270     8.5140     2.4700    -0.0230  -115.2430
 3086.0000   106.7890    -5.2600  -105.4340     4.1660     4.2950     5.4940    83.4060  -119.2150     0.2270     8.5200     2.4590    -0.0100  -114.6140
 3086.5000   104.5570    -5.3980  -105.4340     3.9770     4.1070     5.3180    84.4580  -119.2150     0.2280     8.5200     2.4540     0.0020  -113.9850
 3087.0000   102.3740    -5.4010  -105.4340     3.7870     3.9370     5.1010    85.5090  -119.2150     0.2300     8.5200     2.4500    -0.0150  -113.3560
 3087.5000   102.0730    -5.3550  -105.4340     3.6230     3.7340     4.8830    86.5610  -119.2150     0.2370     8.5200     2.4460    -0.0210  -112.7270
 3088.0000   103.9310    -5.3080  -105.4340     3.4840     3.5480     4.6130    87.6990  -119.2150     0.2450     8.5200     2.4410    -0.0260  -112.0980
 3088.5000   106.2640    -5.2610  -105.4340     3.3070     3.4190     4.3220    88.8930  -119.2150     0.2470     8.5200     2.4280    -0.0290  -111.4690
 3089.0000   108.2960    -5.2990  -105.4340     3.3190     3.3680     4.0100    90.0880  -119.2150     0.2460     8.5200     2.4270    -0.0230  -110.8400
 3089.5000   109.8950    -5.4170  -105.4340     3.3370     3.5400     4.0100    90.8050  -119.2150     0.2350     8.5200     2.4360    -0.0180  -110.2110
 3090.0000   111.5530    -5.5330  -105.4340     3.5220     3.7330     4.2800    90.8050  -119.2150     0.2280     8.5200     2.4470    -0.0070  -109.5820
 3090.5000   110.4080    -5.5780  -105.4340     3.7210     3.9370     4.6180    89.3960  -119.2150     0.2110     8.5200     2.4590     0.0070  -108.9530
 3091.0000   105.7190    -5.1990  -105.4340     3.9200     4.2680     4.9720    87.9880  -119.2150     0.2020     8.5220     2.4700     0.0200  -108.3240
 3091.5000   100.7850    -4.8170  -105.4340     4.2120     4.6440     5.3260    85.7750  -119.2150     0.1970     8.5250     2.4810     0.0190  -107.6950
 3092.0000   100.3680    -4.4350  -105.4340     4.6710     5.1580     5.9060    83.9300  -119.2150     0.1830     8.5270     2.4910     0.0020  -107.0660
 3092.5000   102.3540    -4.0630  -105.4340     5.1380     5.6090     6.6560    82.0860  -119.2150     0.1690     8.5300     2.5020     0.0260  -106.4370
 3093.0000   102.4300    -4.0910  -105.4340     5.5550     5.9530     7.3940    80.0200  -119.2150     0.1640     8.5330     2.5020     0.0440  -105.8080
 3093.5000   101.9460    -4.1360  -105.4340     5.9460     6.2640     7.6960    77.8070  -119.2150     0.1650     8.5360     2.4960     0.0430  -105.4340
