~VERSION INFORMATION
 VERS.                2.0:   CWLS LOG ASCII STANDARD - VERSION 2.0
 WRAP.                 NO:   ONE LINE PER DEPTH STEP
~WELL INFORMATION
#MNEM.UNIT      DATA TYPE    INFORMATION
#----------   ------------   ------------------------------
 STRT.F           16.0000:   START DEPTH
 STOP.F         2860.0000:   STOP DEPTH
 STEP.F            0.5000:   STEP LENGTH
 NULL.          -999.2500:   NO VALUE
 COMP.    FENIX & SCISSON:   COMPANY
 WELL. FENIX NPR 3 "AX" #22-21:   WELL
 FLD .  TEAPOT DOME - NPR:   FIELD
 LOC .      S21 T39N R78W:   LOCATION
 CNTY.            NATRONA:   COUNTY
 STAT.            WYOMING:   STATE
 CTRY. UNITED STATES OF AMERICA:   COUNTRY
 SRVC.      DRESSER ATLAS:   SERVICE COMPANY
 DATE.        07-AUG-1978:   LOGDATE
 API .     49025106790000:   API NUMBER
~CURVE INFORMATION
#MNEM.UNIT       API CODE    CURVE DESCRIPTION
#----------   ------------   ------------------------------
 DEPT.F                  :   
 CALD.IN     45 280 60 00:   CALIPER FROM DENSITY LOG
 GRD .GAPI   45 310 01 00:   GAMMA RAY FROM DENSITY LOG
 CORR.G/C3   45 356 01 00:   DENSITY CORRECTION
 RHOB.G/C3   45 350 01 00:   BULK DENSITY
 SPR .MV     05 010 01 00:   SPONTANEOUS POTENTIAL
 ILD .OHMM   05 120 46 00:   DEEP INDUCTION RESISTIVITY
 SN  .OHMM   05 040 00 00:   SHORT NORMAL
~PARAMETER INFORMATION
#MNEM.UNIT          VALUE    DESCRIPTION
#----------   ------------   ------------------------------
 EKB .F         4989.0000:   Kelly bushing
 EGL .F         4979.0000:   Ground level
 EDF .F            0.0000:   Drilling floor
 TD  .F         2847.0000:   Total depth
 DATE.        07-AUG-1978:   Date logged
 CLNT.            A2DTECH:   Client Code
 SL  . 880' FNL & 660' FWL:   Surface Location
 PD  .                 GL:   Permanent Datum
 DD  .F              2845:   Depth driller
 DL  .F              2847:   Depth logger
 BLI .F              2841:   Bottom log interval
 CS1 .IN            8.625:   Casing size
 CBD1.      8.625" @ 240':   Casing driller 1
 CBL1.F               240:   Casing logger 1
 BS1 .IN            7.875:   Bit size
 DFT .                KCL:   Type fluid in hole
 DFD .                9.2:   Density
 DFV .                 31:   Viscosity
 DFPH.               10.5:   pH
 MSS .           FLOWLINE:   Source of sample
 RMS .OHMM           1.25:   Rm
 MST .F                74:   Rm Meas. temp.
 RMF .OHMM            1.8:   Rmf
 MFST.F                76:   Rmf Meas. temp.
 RMC .OHMM              3:   Rmc
 MCST.F                78:   Rmc Meas. temp.
 MFSS.               MEAS:   Source Rmf.
 TCS .HRS               4:   Time Circ. stopped
 LUN .               3006:   Logging unit number
 LUL .               CASP:   Logging unit location
 ENGI.             MILLER:   Recorded By
 WITN.           MCGINLEY:   Witnessed by
 ORIG.           5" PRINT:   Origin of data
 UWI .     49025106790000:   Unique Well ID
 DICO. A2D TECHNOLOGIES, INC.:   Digitizing Company
 DAPD.                 10:   Feet Above Permanent Datum
 BSD1.F              2845:   Depth drilled with bit1
 EPD .F              4970:   Elevation Permanent Datum
 LMF .                 KB:   Log Measured From
 DMF .                 KB:   Drilling Measured From
 TLI .                240:   Top log interval
~OTHER INFORMATION
~A   DEPT     CALD         GRD      CORR       RHOB        SPR        ILD         SN   
# ...
  243.5000     8.7180    85.0820     0.0610     2.4010    -3.7440    10.3160    13.4740
  244.0000     8.6820    84.3330     0.0670     2.4000    -5.1950     9.1190    13.1280
  244.5000     8.8090    84.4630     0.0720     2.4000    -6.6510     8.9860    12.7820
  245.0000     8.9300    84.5540     0.0780     2.4040    -8.1160     8.8530    12.6080
  245.5000     9.0350    83.8520     0.0830     2.4090    -9.2510     8.7200    12.4350
  246.0000     9.0680    83.1880     0.0850     2.4130    -9.4250     8.5880    12.2620
  246.5000     9.1030    84.4380     0.0880     2.4120    -9.9760     8.4550    12.0890
  247.0000     9.1370    85.7580     0.0890     2.4110   -10.1400     8.3220    11.8810
  247.5000     9.1710    87.1840     0.0910     2.4100   -11.4180     8.1890    11.5130
  248.0000     9.2040    88.5410     0.0900     2.4110   -12.8430     8.0560    11.0530
  248.5000     9.2390    89.6570     0.0880     2.4170   -14.3230     7.9230    10.5940
  249.0000     9.2720    89.2230     0.0860     2.4230   -15.0250     7.7900    10.1340
  249.5000     9.2990    88.7200     0.0830     2.4240   -15.3030     7.6580     9.6750
  250.0000     9.2380    90.8350     0.0750     2.4240   -15.5990     7.5250     9.2150
  250.5000     9.1760    90.9460     0.0680     2.4070   -15.8950     7.3870     8.7550
  251.0000     9.1030    90.9830     0.0620     2.3930   -16.1850     7.1950     8.4140
  251.5000     9.0720    91.5950     0.0570     2.3780   -16.4830     6.9960     8.1680
  252.0000     9.0890    95.8920     0.0540     2.3630   -16.7750     6.7970     7.9230
  252.5000     9.1050   100.4390     0.0560     2.3480   -17.0700     6.5980     7.6770
  253.0000     9.1370   101.7310     0.0620     2.3200   -17.3690     6.3990     7.4310
  253.5000     9.0930   101.0030     0.0710     2.2940   -17.5850     6.2000     7.1850
  254.0000     9.4860    95.3780     0.1110     2.2790   -17.5860     6.0020     6.9390
  254.5000    10.1060    90.3330     0.1530     2.3560   -17.5890     5.8030     6.6930
  255.0000    10.6320    85.6340     0.1020     2.4230   -17.5910     5.6040     6.6200
  255.5000     8.9280    85.5140     0.0900     2.4450   -17.5900     5.4150     6.7250
  256.0000     9.0740    85.1650     0.0910     2.4430   -17.7720     5.5290     6.9930
  256.5000     9.0130    85.8870     0.0950     2.4480   -18.0340     5.7080     6.9930
  257.0000     9.0740    86.5280     0.0930     2.4560   -18.2920     5.8870     6.9930
  257.5000     9.0600    85.8010     0.0880     2.4630   -18.5470     6.3860     8.0830
  258.0000     9.0760    84.8990     0.0820     2.4710   -18.8030     6.9960     9.0240
  258.5000     9.0870    85.5410     0.0740     2.4690   -19.0670     7.6050     9.7570
  259.0000     9.0950    89.1000     0.0680     2.4580   -19.1700     7.9790     9.9070
  259.5000     9.1070    91.2390     0.0610     2.4460   -19.0620     8.0510    10.0570
  260.0000     9.1830    91.4340     0.0750     2.4250   -18.9810     8.1220    10.2070
  260.5000     9.2560    91.3430     0.0910     2.4030   -18.8940     8.1940    10.3570
  261.0000     9.1960    91.3440     0.1070     2.3990   -18.8030     8.2430    10.5070
  261.5000     9.1600    92.0970     0.1150     2.4400   -18.8000     8.2980    10.6470
  262.0000     9.2820    95.3040     0.1170     2.4340   -18.9410     8.3600    10.9370
  262.5000     9.3800    94.8200     0.1180     2.4280   -19.0250     8.4400    11.2090
  263.0000     9.4280    94.5550     0.1200     2.4260   -19.1840     8.5480    11.4810
  263.5000     9.4590    92.9170     0.1210     2.4270   -19.2410     8.6560    11.7520
  264.0000     9.4970    91.3550     0.1230     2.4280   -20.3120     8.7910    12.0240
  264.5000     9.3620    89.7990     0.1190     2.4420   -20.3270     8.9510    12.2960
  265.0000     9.2990    88.4250     0.1110     2.4540   -20.3790     9.1110    12.5680
  265.5000     9.2950    87.6120     0.1030     2.4620   -20.3670     9.2710    12.8130
  266.0000     9.2900    87.2570     0.0960     2.4640   -20.7040     9.4100    12.9560
  266.5000     9.2830    87.9910     0.0880     2.4580   -21.0110     9.5180    13.1000
  267.0000     9.2780    88.7860     0.0880     2.4490   -21.3410     9.6250    13.2570
  267.5000     9.2710    87.4270     0.0880     2.4400   -21.6610     9.7320    13.2570
  268.0000     9.2650    84.9710     0.0880     2.4310   -21.9270     9.8400    13.2570
  268.5000     9.2500    84.6440     0.0880     2.4370   -21.9410     9.9470    13.2570
  269.0000     9.2340    86.1110     0.0880     2.4440   -21.9540    10.0640    13.2570
  269.5000     9.2370    86.0660     0.0880     2.4480   -21.9570    10.0370    13.2570
  270.0000     9.2770    86.6360     0.0880     2.4450   -21.9670     9.9830    13.2570
  270.5000     9.3120    87.4960     0.0880     2.4450   -21.9740     9.9300    13.2080
  271.0000     9.3420    88.2330     0.0880     2.4530   -21.9810     9.8760    13.1630
  271.5000     9.3170    89.1200     0.0880     2.4640   -21.9890     9.8220    13.1190
  272.0000     9.2960    92.7120     0.0880     2.4640   -21.9960     9.7680    13.0740
  272.5000     9.2690    95.6720     0.0880     2.4650   -22.0030     9.7150    13.0310
  273.0000     9.3050    94.4980     0.0880     2.4660   -22.0100     9.6610    12.9860
  273.5000     9.3500    92.9030     0.0870     2.4690   -22.0180     9.6070    12.9410
  274.0000     9.3970    92.7790     0.0820     2.4720   -22.0250     9.5540    12.8980
  274.5000     9.4420    94.5980     0.0770     2.4760   -22.0320     9.5000    12.8540
  275.0000     9.4880    96.3090     0.0720     2.4790   -22.0390     9.4460    12.8040
  275.5000     9.5330    96.7870     0.0670     2.4790   -22.0470     9.3920    12.7820
  276.0000     9.5630    96.3400     0.0620     2.4760   -22.0540     9.3180    12.6190
  276.5000     9.5840    96.0050     0.0600     2.4750   -22.0610     9.2270    12.4510
  277.0000     9.5960    95.1090     0.0610     2.4780   -22.0680     9.1370    12.2820
  277.5000     9.6070    93.2840     0.0610     2.4800   -22.0760     9.0460    12.1140
  278.0000     9.6180    91.4240     0.0610     2.4780   -22.0830     8.9550    11.9460
  278.5000     9.6280    90.3200     0.0620     2.4750   -22.0900     8.8640    11.7770
  279.0000     9.6380    89.9910     0.0620     2.4760   -22.0970     8.7740    11.6090
  279.5000     9.6470    89.5070     0.0620     2.4800   -22.1050     8.6830    11.4410
  280.0000     9.6590    89.7130     0.0630     2.4840   -22.1120     8.5920    11.2730
  280.5000     9.6450    90.2980     0.0630     2.4790   -22.1190     8.5010    11.1040
  281.0000     9.6020    90.8050     0.0630     2.4750   -22.1260     8.4110    10.9750
  281.5000     9.5630    91.3190     0.0640     2.4710   -22.1340     8.3200    10.8690
  282.0000     9.5230    91.8440     0.0640     2.4780   -22.1410     8.2430    10.7620
  282.5000     9.4820    92.3570     0.0630     2.4840   -22.1480     7.9480    10.6470
  283.0000     9.4430    92.9560     0.0610     2.4870   -22.1550     7.9570    10.6320
  283.5000     9.4000    94.1460     0.0590     2.4800   -22.1630     7.9740    10.6150
  284.0000     9.3810    95.6240     0.0560     2.4740   -22.1700     7.9920    10.5980
  284.5000     9.3400    97.1200     0.0580     2.4680   -22.1770     8.0100    10.5820
  285.0000     9.3060    98.5480     0.0600     2.4650   -22.1840     8.0270    10.5650
  285.5000     9.2690   100.0000     0.0620     2.4630   -22.1920     8.0450    10.5480
  286.0000     9.2770    99.9240     0.0640     2.4610   -22.1990     8.0630    10.5320
  286.5000     9.2880    99.7560     0.0670     2.4540   -22.2060     8.0900    10.5150
  287.0000     9.3000   100.0310     0.0670     2.4510   -22.2130     8.0490    10.4980
  287.5000     9.3110   100.3140     0.0640     2.4530   -22.2210     7.8580    10.4820
  288.0000     9.3230   100.6840     0.0610     2.4490   -22.2280     7.6680    10.4650
  288.5000     9.3340    99.5290     0.0620     2.4430   -22.2350     7.4780    10.3840
