~VERSION INFORMATION
 VERS.                2.0:   CWLS LOG ASCII STANDARD - VERSION 2.0
 WRAP.                 NO:   ONE LINE PER DEPTH STEP
~WELL INFORMATION
#MNEM.UNIT      DATA TYPE    INFORMATION
#----------   ------------   ------------------------------
 STRT.F          200.0000:   START DEPTH
 STOP.F         3080.0000:   STOP DEPTH
 STEP.F            0.5000:   STEP LENGTH
 NULL.          -999.2500:   NO VALUE
 COMP.    FENIX & SCISSON:   COMPANY
 WELL. FENIX NPR 3 "AX" #55-33:   WELL
 FLD .        TEAPOT DOME:   FIELD
 LOC .      S33 T38N R78W:   LOCATION
 CNTY.            NATRONA:   COUNTY
 STAT.            WYOMING:   STATE
 CTRY. UNITED STATES OF AMERICA:   COUNTRY
 SRVC.           BIRDWELL:   SERVICE COMPANY
 DATE.        08-FEB-1978:   LOGDATE
 API .     49025105740000:   API NUMBER
~CURVE INFORMATION
#MNEM.UNIT       API CODE    CURVE DESCRIPTION
#----------   ------------   ------------------------------
 DEPT.F                  :   
 CALD.IN     45 280 60 00:   CALIPER FROM DENSITY LOG
 GRD .GAPI   45 310 01 00:   GAMMA RAY FROM DENSITY LOG
 RHOB.G/C3   45 350 01 00:   BULK DENSITY
 CORR.G/C3   45 356 01 00:   DENSITY CORRECTION
 NPOR.DEC    42 890 03 00:   ALPHA PROCESSED NEUTRON POROSITY
 SPR .MV     05 010 01 00:   SPONTANEOUS POTENTIAL
 SN  .OHMM   05 040 16 00:   SHORT NORMAL 16"
 ILD .OHMM   05 120 46 00:   DEEP INDUCTION RESISTIVITY
~PARAMETER INFORMATION
#MNEM.UNIT          VALUE    DESCRIPTION
#----------   ------------   ------------------------------
 EKB .F         5197.0000:   Kelly bushing
 EGL .F         5187.0000:   Ground level
 EDF .F            0.0000:   Drilling floor
 TD  .F         3084.0000:   Total depth
 DATE.        08-FEB-1978:   Date logged
 CLNT.            A2DTECH:   Client Code
 SL  . 2000' FSL & 2310' FEL:   Surface Location
 PD  .                 GL:   Permanent Datum
 EPD .F              5187:   Elevation Permanent Datum
 LMF .                 KB:   Log Measured From
 DMF .                 KB:   Drilling Measured From
 DAPD.F                10:   Feet Above Permanent Datum
 DD  .F              3084:   Depth driller
 DL  .F              3080:   Depth logger
 BLI .F              3074:   Bottom log interval
 TLI .F               200:   Top log interval
 CS1 .IN            8.625:   Casing size
 CBD1.      8.625" @ 229':   Casing driller 1
 CBL1.F               230:   Casing logger 1
 BS1 .IN            7.875:   Bit size
 BSD1.F              3084:   Depth drilled with bit1
 DFT .     LIGNOSULFONATE:   Type fluid in hole
 DFD .                9.2:   Density
 DFV .                 30:   Viscosity
 DFPH.                  9:   pH
 DFL .                  5:   Fluid loss
 MSS .           FLOWLINE:   Source of sample
 RMS .OHMM            1.5:   Rm
 MST .F                62:   Rm Meas. temp.
 RMF .OHMM            1.2:   Rmf
 MFST.F                66:   Rmf Meas. temp.
 RMC .OHMM            2.8:   Rmc
 MCST.F                65:   Rmc Meas. temp.
 MFSS.               MEAS:   Source Rmf.
 RMB .OHMM            .82:   Rm. at BHT
 BHT .F               114:   BHT.
 TCS .HRS               3:   Time Circ. stopped
 MRT .F               114:   Maximum recorded temp.
 LUN .               2958:   Logging unit number
 LUL .               CASP:   Logging unit location
 ENGI.            POINTER:   Recorded By
 WITN.         HARRINGTON:   Witnessed by
 ORIG.           5" PRINT:   Origin of data
 UWI .     49025105740000:   Unique Well ID
 DICO. A2D TECHNOLOGIES, INC.:   Digitizing Company
~OTHER INFORMATION
~A   DEPT       CALD      GRD       RHOB        CORR      NPOR        SPR         SN        ILD   
# ...
 1374.5000     9.7826    80.3502     2.5117     0.1718  -999.2500   -50.5468     8.8296     8.0531
 1375.0000     9.7626    77.3771     2.5117     0.1718  -999.2500   -50.9439     8.8289     8.0528
 1375.5000     9.7822    74.0097     2.5107     0.1698  -999.2500   -51.3410     8.8282     8.0522
 1376.0000     9.8018    70.2454     2.5087     0.1658  -999.2500   -51.5398     8.8275     8.0515
 1376.5000     9.8016    72.6196     2.5087     0.1658  -999.2500   -51.7386     8.8270     8.0507
 1377.0000     9.8212    74.3997     2.5097     0.1658  -999.2500   -51.7390     8.8263     8.0500
 1377.5000     9.8210    76.1798     2.5137     0.1678  -999.2500   -51.5411     8.9072     8.0493
 1378.0000     9.8406    82.3158     2.5317     0.1778  -999.2500   -51.1448     8.9889     8.0484
 1378.5000     9.8206    80.9285     2.5417     0.1798  -999.2500   -50.5503     9.0713     8.0481
 1379.0000     9.7808    79.1443     2.5447     0.1797  -999.2500   -50.1541     9.0706     8.0474
 1379.5000     9.7608    76.3701     2.5467     0.1797  -999.2500   -50.1545     9.0699     8.0468
 1380.0000     9.7606    74.3880     2.5417     0.1757  -999.2500   -50.3532     8.9860     8.0461
 1380.5000     9.7604    75.1780     2.5377     0.1717  -999.2500   -50.3536     8.8214     8.0455
 1381.0000     9.7404    75.5720     2.5307     0.1717  -999.2500   -50.3541     8.8207     7.9711
 1381.5000     9.7402    74.9760     2.5307     0.1717  -999.2500   -50.3545     8.6592     7.8974
 1382.0000     9.7202    72.9938     2.5326     0.1717  -999.2500   -50.5533     8.4225     7.8967
 1382.5000     9.7596    71.0117     2.5326     0.1717  -999.2500   -50.5539     8.3448     7.8241
 1383.0000     9.7594    70.8116     2.5286     0.1717  -999.2500   -50.5542     8.2676     7.7516
 1383.5000     9.7592    71.6017     2.5266     0.1737  -999.2500   -51.1495     8.1161     7.6096
 1384.0000     9.7194    75.1639     2.5226     0.1737  -999.2500   -52.1415     8.0411     7.5392
 1384.5000     9.7390    76.3503     2.5226     0.1736  -999.2500   -52.3402     7.9668     7.2660
 1385.0000     9.6992    76.7444     2.5236     0.1736  -999.2500   -52.5390     7.9661     7.1987
 1385.5000     9.6594    76.5443     2.5236     0.1736  -999.2500   -51.5478     7.8925     7.1985
 1386.0000     9.6395    78.7204     2.5216     0.1776  -999.2500   -51.3499     7.8195     7.1979
 1386.5000     9.6393    80.3025     2.5246     0.1836  -999.2500   -51.5487     7.8189     7.1975
 1387.0000     9.6391    80.4985     2.5316     0.1956  -999.2500   -51.5491     7.8183     7.1308
 1387.5000     9.6389    80.2989     2.5346     0.1956  -999.2500   -51.5495     7.8178     7.1302
 1388.0000     9.6189    80.0989     2.5406     0.1955  -999.2500   -51.7482     7.8172     7.1295
 1388.5000     9.6385    80.8889     2.5296     0.1935  -999.2500   -51.7487     7.8165     7.1290
 1389.0000     9.6383    83.6591     2.5246     0.1875  -999.2500   -51.9474     7.8878     7.1284
 1389.5000     9.6578    84.0531     2.5276     0.1875  -999.2500   -51.9478     7.9606     7.1278
 1390.0000     9.6378    83.2590     2.5306     0.1855  -999.2500   -51.9481     7.9599     7.1272
 1390.5000     9.6178    83.0590     2.5306     0.1775  -999.2500   -51.9486     7.9593     7.1267
 1391.0000     9.6374    83.6510     2.5256     0.1735  -999.2500   -52.1473     7.8857     7.1261
 1391.5000     9.6373    85.8275     2.5206     0.1675  -999.2500   -52.1477     7.8128     7.1255
 1392.0000     9.6371    80.4788     2.5196     0.1655  -999.2500   -51.9498     7.8122     7.1249
 1392.5000     9.6369    79.4867     2.5216     0.1675  -999.2500   -51.9503     7.8117     7.1244
 1393.0000     9.6367    79.4851     2.5305     0.1675  -999.2500   -51.3559     7.8110     7.1898
 1393.5000     9.6167    79.6810     2.5355     0.1675  -999.2500   -51.3563     7.8104     7.3382
 1394.0000     9.6165    79.6790     2.5395     0.1635  -999.2500   -51.7533     7.7382     7.3380
 1394.5000     9.6163    79.6770     2.5265     0.1654  -999.2500   -51.7537     7.8092     7.3374
 1395.0000     9.6359    79.4770     2.5265     0.1674  -999.2500   -51.7541     7.8085     7.3368
 1395.5000     9.5763    77.0988     2.5275     0.1754  -999.2500   -51.7545     8.0266     7.3362
 1396.0000     9.5761    76.5027     2.5245     0.1774  -999.2500   -52.3497     8.1752     7.3356
 1396.5000     9.6551    76.5007     2.5255     0.1794  -999.2500   -52.9449     8.3265     7.3350
 1397.0000     9.6747    74.5186     2.5235     0.1794  -999.2500   -53.3418     8.4030     7.3344
 1397.5000     9.6151    72.5364     2.5155     0.1794  -999.2500   -53.5404     8.1733     7.3338
 1398.0000     9.7139    72.9304     2.5125     0.1794  -999.2500   -53.7391     8.0235     7.3332
 1398.5000     9.5949    73.9185     2.5135     0.1814  -999.2500   -53.7395     7.9494     7.3326
 1399.0000     9.5749    75.6990     2.5135     0.1833  -999.2500   -53.7399     7.8037     7.2495
 1399.5000     9.6539    81.0433     2.5165     0.1873  -999.2500   -53.7403     7.7315     7.2488
 1400.0000     9.7131    84.0123     2.5215     0.1913  -999.2500   -53.7406     7.3830     7.1818
 1400.5000     9.6959    79.3671     2.5206     0.1856  -999.2500   -53.5475     7.3823     7.0617
 1401.0000     9.6731    77.6716     2.5175     0.1833  -999.2500   -53.3428     7.3844     7.0522
 1401.5000     9.6730    77.6698     2.5045     0.1833  -999.2500   -52.9454     7.3852     7.0528
 1402.0000     9.7323    77.6681     2.5035     0.1892  -999.2500   -52.9446     7.3181     7.0531
 1402.5000     9.7519    77.8644     2.4905     0.1692  -999.2500   -52.9438     7.3188     7.0542
 1403.0000     9.8112    79.0508     2.4845     0.1672  -999.2500   -52.9430     7.3579     7.0551
 1403.5000     9.8309    79.8415     2.4805     0.1692  -999.2500   -52.9421     7.3973     7.0559
 1404.0000     9.8901    77.2651     2.4864     0.1672  -999.2500   -52.9413     7.4369     7.0565
 1404.5000     9.9691    75.8771     2.4964     0.1672  -999.2500   -53.3370     7.4767     7.1225
 1405.0000     9.9888    73.4990     2.4974     0.1611  -999.2500   -53.3362     7.5167     7.1233
 1405.5000     9.9491    72.5070     2.4954     0.1571  -999.2500   -53.3354     7.5569     7.1900
 1406.0000     9.8697    73.8915     2.4824     0.1451  -999.2500   -53.3346     7.5974     7.2573
 1406.5000     9.8893    74.6822     2.4824     0.1471  -999.2500   -53.5321     7.6380     7.3252
 1407.0000     9.9486    75.0765     2.4894     0.1551  -999.2500   -53.5314     7.6789     7.3938
 1407.5000    10.1465    74.8767     2.4904     0.1670  -999.2500   -53.7289     7.7200     7.4630
 1408.0000    10.5425    76.8554     2.4874     0.1770  -999.2500   -53.7281     7.7613     7.5328
 1408.5000    10.0274    79.4283     2.4953     0.1870  -999.2500   -53.7273     7.8029     7.6034
 1409.0000    10.0669    81.4064     2.5243     0.1870  -999.2500   -53.5282     7.8446     7.5345
 1409.5000    10.0667    80.0190     2.5263     0.1849  -999.2500   -53.3291     7.8866     7.5351
 1410.0000     9.9477    77.4426     2.5562     0.1649  -999.2500   -53.3282     7.9288     7.4668
 1410.5000     9.8287    76.4506     2.5522     0.1529  -999.2500   -53.3274     7.9650     7.3992
 1411.0000     9.7493    75.8547     2.5412     0.1090  -999.2500   -53.1283     8.0395     7.3999
 1411.5000     9.6898    75.6548     2.5452     0.0909  -999.2500   -53.1275     8.0404     7.4007
 1412.0000     9.6698    74.8608     2.5432     0.0949  -999.2500   -53.1266     8.1153     7.3337
 1412.5000     9.6895    74.2652     2.5412     0.0869  -999.2500   -53.1258     8.2675     7.4023
 1413.0000     9.6695    74.8577     2.5352     0.0869  -999.2500   -52.9266     8.3449     7.4031
 1413.5000     9.6693    76.4404     2.5262     0.0849  -999.2500   -52.7274     8.3458     7.4724
 1414.0000     9.6692    76.8348     2.5192     0.0929  -999.2500   -52.7268     8.3467     7.4732
 1414.5000     9.6691    78.0215     2.5192     0.0968  -999.2500   -52.7260     8.3470     7.4055
