~VERSION INFORMATION
 VERS.                2.0:   CWLS LOG ASCII STANDARD - VERSION 2.0
 WRAP.                 NO:   ONE LINE PER DEPTH STEP
~WELL INFORMATION
#MNEM.UNIT      DATA TYPE    INFORMATION
#----------   ------------   ------------------------------
 STRT.F           13.0000:   START DEPTH
 STOP.F         2858.0000:   STOP DEPTH
 STEP.F            0.5000:   STEP LENGTH
 NULL.          -999.2500:   NO VALUE
 COMP.    FENIX & SCISSON:   COMPANY
 WELL. FENIX & SCISSON "AX" #16-21:   WELL
 FLD .  TEAPOT DOME NRP-3:   FIELD
 LOC .      S21 T39N R78W:   LOCATION
 CNTY.            NATRONA:   COUNTY
 STAT.            WYOMING:   STATE
 CTRY. UNITED STATES OF AMERICA:   COUNTRY
 SRVC.           BIRDWELL:   SERVICE COMPANY
 DATE.        17-JUL-1978:   LOGDATE
 API .     49025106590000:   API NUMBER
~CURVE INFORMATION
#MNEM.UNIT       API CODE    CURVE DESCRIPTION
#----------   ------------   ------------------------------
 DEPT.F                  :   
 GRD .GAPI   45 310 01 00:   GAMMA RAY FROM DENSITY LOG
 CALD.IN     45 280 60 00:   CALIPER FROM DENSITY LOG
 CORR.G/C3   45 356 01 00:   DENSITY CORRECTION
 RHOB.G/C3   45 350 01 00:   BULK DENSITY
 SPR .MV     05 010 01 00:   SPONTANEOUS POTENTIAL FROM RES.
 ILD .OHMM   05 120 46 00:   INDUCTION LOG DEEP
 SN  .OHMM   05 041 16 00:   SHORT NORMAL 16"
~PARAMETER INFORMATION
#MNEM.UNIT          VALUE    DESCRIPTION
#----------   ------------   ------------------------------
 EKB .F         5003.0000:   Kelly bushing
 EGL .F         4993.0000:   Ground level
 EDF .F            0.0000:   Drilling floor
 EPD .F         4993.0000:   Permanent datum
 TD  .F         2858.0000:   Total depth
 CLNT.            A2DTECH:   Client Code
 SL  . 1420' FSL & 200' FWL:   Surface Location
 DATE.        17-JUL-1978:   Date Logged [DD-MMM-YYYY]
 DD  .F              2855:   Depth driller
 DL  .F              2858:   Depth logger
 BLI .F              2858:   Bottom log interval
 TLI .F                20:   Top log interval
 CS1 .              8.625:   Casing size
 CBD1.      8.625" @ 200':   Casing driller 1
 CBL1.IN              228:   Casing logger 1
 BS1 .IN            7.875:   Bit size
 BSD1.F              2855:   Depth drilled with bit1
 DFT .            MUD GEL:   Type fluid in hole
 DFD .                9.9:   Density
 DFV .                 32:   Viscosity
 DFPH.               10.5:   pH
 DFL .                7.2:   Fluid loss
 MSS .           FLOWLINE:   Source of sample
 RMS .OHMM            1.3:   Rm
 MST .F                80:   Rm Meas. temp.
 RMF .OHMM           0.77:   Rmf
 MFST.F                74:   Rmf Meas. temp.
 MFSS.               MEAS:   Source Rmf.
 RMC .OHMM            1.5:   Rmc
 MCST.F                73:   Rmc Meas. temp.
 MCSS.               MEAS:   Source Rmc.
 TCS .HRS               1:   Time Circ. stopped
 MRT .F               118:   Maximum recorded temp.
 LUN .               2958:   Logging unit number
 LUL .               CASP:   Logging unit location
 ENGI.              HONEA:   Recorded By
 WITN.           MCGINLEY:   Witnessed by
 ORIG.        2" 5" PRINT:   Origin of data
 UWI .     49025106590000:   Unique Well ID
 DICO. A2D TECHNOLOGIES, INC.:   Digitizing Company
 PD  .                 GL:   Permanent Datum
 DAPD.                 10:   Feet Above Permanent Datum
~OTHER INFORMATION
~A   DEPT       GRD      CALD       CORR       RHOB        SPR        ILD         SN   
# ...
 2652.0000    97.0509     9.5373     0.0307     2.5248   -26.3108     5.0991     6.1794
 2652.5000    96.9174     9.5537     0.0308     2.5211   -26.4418     5.1039     6.1807
 2653.0000    96.0500     9.5996     0.0309     2.5376   -26.4128     5.1087     6.1819
 2653.5000    92.6426     9.6158     0.0310     2.5442   -26.3932     5.1135     6.2687
 2654.0000    95.1979     9.6617     0.0326     2.5480   -26.3906     5.0931     6.3568
 2654.5000    96.1060     9.6778     0.0371     2.5488   -26.3881     5.0444     6.4020
 2655.0000    95.2386     9.6791     0.0402     2.5441   -26.3855     5.0828     6.3593
 2655.5000    93.3245     9.7250     0.0417     2.5362   -26.3830     5.1215     6.4048
 2656.0000    91.5591     9.7415     0.0418     2.5467   -26.3804     5.1960     6.4948
 2656.5000    92.0523     9.7871     0.0419     2.5519   -26.3778     5.2000     6.5409
 2657.0000    93.2419     9.8035     0.0405     2.5513   -26.3753     5.2039     6.5422
 2657.5000    95.4944     9.8345     0.0361     2.5535   -26.3727     5.1376     6.5435
 2658.0000    96.2588     9.8655     0.0318     2.5573   -26.3701     5.0368     6.5448
 2658.5000    96.1253     9.9114     0.0319     2.5611   -26.3493     4.9370     6.4126
 2659.0000    96.2285     9.9276     0.0320     2.5633   -26.3290     4.8734     6.1960
 2659.5000    95.9940     9.9437     0.0424     2.5504   -26.4622     4.8106     6.0259
 2660.0000    95.7152     9.9599     0.0470     2.5375   -26.2884     4.8151     5.9084
 2660.5000    95.4361     9.9916     0.0456     2.5338   -26.2681     4.8186     5.8692
 2661.0000    94.8518    10.0368     0.0383     2.5390   -26.4013     4.8222     6.1600
 2661.5000    90.8493    10.0681     0.0324     2.5621   -26.3759     4.8258     6.3767
 2662.0000    80.7655    10.0992     0.0340     2.5963   -26.5040     4.8293     6.5557
 2662.5000    72.7487    10.1302     0.0474     2.6127   -26.4837     4.8662     6.5571
 2663.0000    72.3164    10.1612     0.0475     2.5927   -26.6118     4.8699     6.4245
 2663.5000    84.5423    10.1922     0.0446     2.5846   -26.7398     4.9077     6.2947
 2664.0000    95.5731    10.2232     0.0447     2.5807   -26.7144     4.9451     5.8777
 2664.5000    98.8657    10.2394     0.0433     2.5669   -26.6941     4.9828     5.7987
 2665.0000    96.6524    10.2407     0.0271     2.5543   -26.6739     5.0208     5.8910
 2665.5000    94.2903    10.2572     0.0287     2.5640   -26.6536     5.0938     6.2569
 2666.0000    93.1071    10.2585     0.0406     2.5604   -26.6333     5.1680     6.4326
 2666.5000    92.8399    10.2598     0.0407     2.5374   -26.6130     5.2431     6.4339
 2667.0000    93.0123    10.2462     0.0393     2.5508   -26.5927     5.3194     6.3474
 2667.5000    93.6263    10.2624     0.0394     2.5627   -26.7210     5.3264     6.2188
 2668.0000    93.9428    10.2785     0.0392     2.5665   -26.7003     5.3273     6.0516
 2668.5000    94.8545    10.2650     0.0381     2.5673   -26.6795     5.2558     5.9702
 2669.0000    95.9150    10.2663     0.0397     2.5614   -26.6548     5.1087     5.7697
 2669.5000    97.4219    10.2676     0.0398     2.5459   -26.6345     4.3776     5.4998
 2670.0000    98.3336    10.2692     0.0399     2.5318   -26.6142     3.6659     5.2355
 2670.5000   102.4063    10.2705     0.0399     2.5304   -26.5939     3.2876     4.7643
 2671.0000   105.3918    10.2718     0.0474     2.5193   -26.7219     3.2447     4.1518
 2671.5000   111.7877    10.2731     0.0520     2.5037   -26.7016     3.2477     3.9305
 2672.0000   130.4078    10.2744     0.0431     2.4926   -26.6813     3.2724     3.6955
 2672.5000   138.0159    10.2757     0.0249     2.5075   -26.6610     3.3428     3.7732
 2673.0000   137.4395    10.2770     0.0019     2.5366   -26.7893     3.4148     3.8792
 2673.5000   123.6191    10.2784    -0.0010     2.5433   -26.7685     3.5608     4.0156
 2674.0000   110.9891    10.2647    -0.0024     2.5352   -26.7482     3.7642     4.5454
 2674.5000    91.6627    10.2812    -0.0023     2.5471   -26.7408     4.0136     5.0055
 2675.0000    87.3661    10.2825    -0.0022     2.5442   -26.7333     4.6201     5.5503
 2675.5000    87.2361    10.2838    -0.0066     2.5376   -26.7258     5.0663     5.9056
 2676.0000    87.5573    10.2851    -0.0094     2.5287   -26.7184     5.3192     5.9071
 2676.5000    87.8737    10.2864    -0.0123     2.5377   -26.7109     5.3597     5.9083
 2677.0000    87.5950    10.2726    -0.0137     2.5422   -26.7034     5.3261     5.9095
 2677.5000    86.8698    10.2757    -0.0121     2.5296   -26.6960     5.2225     5.7504
 2678.0000    84.6565    10.2755    -0.0091     2.5230   -26.6885     5.0841     5.7122
 2678.5000    83.1825    10.2768    -0.0046     2.5238   -26.6810     5.0186     5.5964
 2679.0000    87.5215    10.2784     0.0015     2.5260   -26.6736     5.0232     5.5978
 2679.5000    92.0047    10.2645     0.0104     2.5209   -26.6652     4.9925     5.5606
 2680.0000    93.3730    10.2661     0.0120     2.5299   -26.6449     4.9963     5.5617
 2680.5000    93.6800    10.2377     0.0106     2.5373   -26.6246     5.0001     5.6012
 2681.0000    93.7028    10.2390     0.0092     2.5359   -26.6043     5.0038     5.5640
 2681.5000    93.5728    10.2552     0.0077     2.5434   -26.5840     5.0083     5.5273
 2682.0000    93.2893    10.2565     0.0079     2.5568   -26.7121     4.9769     5.4529
 2682.5000    92.8665    10.2578     0.0125     2.5576   -26.6914     4.9815     5.4540
 2683.0000    92.1413    10.2740     0.0185     2.5480   -26.6706     4.8503     5.4175
 2683.5000    90.6720    10.2607     0.0274     2.5421   -26.7995     4.6584     5.2358
 2684.0000    91.2861    10.2769     0.0364     2.5384   -26.6258     4.2645     4.9908
 2684.5000    95.2168    10.2633     0.0424     2.5393   -26.6055     3.9578     4.6924
 2685.0000   101.6906    10.2646     0.0440     2.5400   -26.5966     3.7238     4.4729
 2685.5000   105.7819    10.2659     0.0426     2.5408   -26.6001     3.6757     4.2636
 2686.0000   112.9436    10.2672     0.0367     2.5401   -26.6037     3.6534     4.2645
 2686.5000   120.2541    10.2537     0.0265     2.5417   -26.6072     3.6562     4.2361
 2687.0000   126.0765    10.2698     0.0281     2.5499   -26.6107     3.6589     4.1791
 2687.5000   126.8347    10.2539     0.0252     2.5515   -26.6142     3.7127     4.5709
 2688.0000   124.3284    10.2427     0.0208     2.5508   -26.6177     3.9248     5.1385
 2688.5000   119.4366    10.2295     0.0120     2.5634   -26.6213     4.3232     5.3192
 2689.0000   114.0983    10.2308     0.0032     2.5650   -26.6248     4.6652     5.4686
 2689.5000   107.8902    10.2024    -0.0011     2.5635   -26.6283     4.8980     5.7789
 2690.0000    96.5812    10.2037    -0.0027     2.5553   -26.6318     5.1074     6.1068
 2690.5000    92.8750    10.2050     0.0005     2.5488   -26.6353     5.3257     6.2352
 2691.0000    91.7081    10.2063     0.0066     2.5444   -26.6389     5.4778     6.2795
 2691.5000    88.4531    10.2076     0.0141     2.5415   -26.6424     5.6341     6.4595
 2692.0000    88.3185    10.2092     0.0216     2.5400   -26.6459     5.7554     6.6532
 2692.5000    87.5980    10.2105     0.0216     2.5490   -26.6494     5.8393     6.8239
 2693.0000    87.0208    10.2118     0.0247     2.5543   -26.6529     5.9651     6.7321
 2693.5000    87.4869    10.2131     0.0248     2.5580   -26.6565     6.0114     6.8266
 2694.0000    87.9523    10.1992     0.0234     2.5581   -26.6600     6.0989     7.0183
 2694.5000    87.7993    10.2008     0.0205     2.5512   -26.6639     6.1454     7.1169
 2695.0000    86.6552    10.2170     0.0176     2.5478   -26.6677     6.1922     7.1674
 2695.5000    86.2277    10.2186     0.0178     2.5553   -26.6716     6.2394     7.2183
 2696.0000    85.9442    10.2196     0.0195     2.5494   -26.6754     6.2869     7.2696
 2696.5000    83.8844    10.2060     0.0238     2.5435   -26.6793     6.3348     7.2710
 2697.0000    82.4151    10.2077     0.0328     2.5398   -26.6831     6.4712     7.2725
