~VERSION INFORMATION
 VERS.                2.0:   CWLS LOG ASCII STANDARD - VERSION 2.0
 WRAP.                 NO:   ONE LINE PER DEPTH STEP
~WELL INFORMATION
#MNEM.UNIT      DATA TYPE    INFORMATION
#----------   ------------   ------------------------------
 STRT.F           14.0000:   START DEPTH
 STOP.F         3246.0000:   STOP DEPTH
 STEP.F            0.5000:   STEP LENGTH
 NULL.          -999.2500:   NO VALUE
 COMP.   LAWRENCE ALLISON:   COMPANY
 WELL. LAWRENCE "34X" #11:   WELL
 FLD .             N.P.R.:   FIELD
 LOC .      S34 T38N R78W:   LOCATION
 CNTY.            NATRONA:   COUNTY
 STAT.            WYOMING:   STATE
 CTRY. UNITED STATES OF AMERICA:   COUNTRY
 SRVC.      DRESSER ATLAS:   SERVICE COMPANY
 DATE.        02-MAY-1985:   LOGDATE
 API .     49025110530001:   API NUMBER
~CURVE INFORMATION
#MNEM.UNIT       API CODE    CURVE DESCRIPTION
#----------   ------------   ------------------------------
 DEPT.F                  :   
 CNC .DEC    42 890 03 00:   NEUTRON POROSITY
 CALD.IN     45 280 60 00:   CALIPER FROM DENSITY LOG
 CORR.G/C3   45 356 01 00:   DENSITY CORRECTION
 RHOB.G/C3   45 350 01 00:   BULK DENSITY
 GRR .GAPI   07 310 01 00:   GAMMA RAY FROM RESISTIVITY
 SPR .MV     07 010 01 00:   SPONTANEOUS POTENTIAL FROM RES.
 TENR.LBS    06 635 01 00:   TENSION FROM RESISTIVITY
 RILD.OHMM   07 120 46 00:   DEEP INDUCTION RESISTIVITY
 RILM.OHMM   07 120 44 00:   INDUCTION LOG MEDIUM RESISTIVITY
 RFOC.OHMM   07 220 04 00:   RESISTIVITY FOCUSED LOG RES.
~PARAMETER INFORMATION
#MNEM.UNIT          VALUE    DESCRIPTION
#----------   ------------   ------------------------------
 EKB .F         5099.0000:   Kelly bushing
 TD  .F         3239.0000:   Total depth
 CLNT.            A2DTECH:   Client Code
 PD  .                 GL:   Permanent Datum
 EPD .F              5087:   Elevation Permanent Datum
 LMF .                 KB:   Log Measured From
 DMF .                 KB:   Drilling Measured From
 DAPD.F                12:   Feet Above Permanent Datum
 DATE.        02-MAY-1985:   Date Logged [DD-MMM-YYYY]
 DD  .F              3239:   Depth driller
 DL  .F              3242:   Depth logger
 BLI .F              3294:   Bottom log interval
 CS1 .IN            8.625:   Casing size
 CBD1.      8.625" @ 487':   Casing driller 1
 CBL1.F               487:   Casing logger 1
 BS1 .IN            7.875:   Bit size
 BSD1.F              3239:   Depth drilled with bit1
 DFT .            KCL GEL:   Type fluid in hole
 DFD .                9.1:   Density
 DFV .                 35:   Viscosity
 DFPH.                  8:   pH
 DFL .                9.8:   Fluid loss
 MSS .           FLOWLINE:   Source of sample
 RMS .OHMM           0.27:   Rm
 MST .F                68:   Rm Meas. temp.
 RMF .OHMM           0.20:   Rmf
 MFST.F                68:   Rmf Meas. temp.
 MFSS.               MEAS:   Source Rmf.
 RMC .OHMM           0.34:   Rmc
 MCST.F                68:   Rmc Meas. temp.
 MCSS.               CALC:   Source Rmc.
 RMB .OHMM           0.15:   Rm. at BHT
 BHT .F               126:   BHT.
 TCS .HRS               3:   Time Circ. stopped
 MRT .F               126:   Maximum recorded temp.
 LUN .               6274:   Logging unit number
 LUL .               GLTE:   Logging unit location
 ENGI.       MACK/EDWARDS:   Recorded By
 WITN.             STRONG:   Witnessed by
 ORIG.           5" PRINT:   Origin of data
 UWI .     49025110260000:   Unique Well ID
 DICO. A2D TECHNOLOGIES, INC.:   Digitizing Company
~OTHER INFORMATION
~A   DEPT      CNC       CALD       CORR       RHOB        GRR        SPR       TENR       RILD       RILM       RFOC   
# ...
 1555.0000  -999.2500  -999.2500  -999.2500  -999.2500    72.1904   -70.3941   -66.0127     7.3282     6.8520     7.2973
 1555.5000  -999.2500  -999.2500  -999.2500  -999.2500    75.3609   -70.3759   -75.1514     7.2870     6.8600     7.3080
 1556.0000  -999.2500  -999.2500  -999.2500  -999.2500    77.8588   -70.0584   -84.2904     7.2455     6.8695     7.3168
 1556.5000  -999.2500  -999.2500  -999.2500  -999.2500    78.5630   -70.1945   -85.8647     7.2027     6.8280     7.2741
 1557.0000  -999.2500  -999.2500  -999.2500  -999.2500    78.5945   -70.1718   -79.8027     7.1118     6.7886     7.1816
 1557.5000  -999.2500  -999.2500  -999.2500  -999.2500    78.3819   -70.3033   -73.8851     7.0729     6.7495     7.0915
 1558.0000  -999.2500  -999.2500  -999.2500  -999.2500    77.0958   -70.2844   -67.8955     7.0324     6.7106     6.9561
 1558.5000  -999.2500  -999.2500  -999.2500  -999.2500    75.7820   -70.2625   -61.9055     6.9437     6.7202     6.9166
 1559.0000  -999.2500  -999.2500  -999.2500  -999.2500    74.6925   -70.3986   -63.8736     6.9038     6.6324     6.8793
 1559.5000  -999.2500  -999.2500  -999.2500  -999.2500    73.8271   -70.3759   -73.0126     6.8187     6.5516     6.8380
 1560.0000  -999.2500  -999.2500  -999.2500  -999.2500    73.6265   -70.5075   -82.1512     6.7776     6.4261     6.7991
 1560.5000  -999.2500  -999.2500  -999.2500  -999.2500    76.5807   -70.7887   -83.7260     6.7386     6.3873     6.7603
 1561.0000  -999.2500  -999.2500  -999.2500  -999.2500    81.0965   -70.7706   -85.3253     6.7486     6.2649     6.7705
 1561.5000  -999.2500  -999.2500  -999.2500  -999.2500    82.2500   -70.9021   -79.3107     6.7098     6.1859     6.7787
 1562.0000  -999.2500  -999.2500  -999.2500  -999.2500    82.2884   -70.7335   -66.1502     6.7647     6.2359     6.8340
 1562.5000  -999.2500  -999.2500  -999.2500  -999.2500    82.7684   -70.7116   -67.7245     6.9649     6.2430     6.8900
 1563.0000  -999.2500  -999.2500  -999.2500  -999.2500    83.6928   -70.6109   -61.3411     7.1197     6.4377     7.0449
 1563.5000  -999.2500  -999.2500  -999.2500  -999.2500    82.8340   -70.3374   -63.3092     7.2780     6.8010     7.2013
 1564.0000  -999.2500  -999.2500  -999.2500  -999.2500    73.2243   -70.0584   -72.4482     7.5437     6.9998     7.4639
 1564.5000  -999.2500  -999.2500  -999.2500  -999.2500    66.0809   -70.0402   -74.0225     8.0949     7.2045     8.0083
 1565.0000  -999.2500  -999.2500  -999.2500  -999.2500    64.9834   -70.0221   -68.0326     8.1212     7.2628     7.9627
 1565.5000  -999.2500  -999.2500  -999.2500  -999.2500    72.4219   -70.0037   -62.4368     7.7263     7.3724     7.8085
 1566.0000  -999.2500  -999.2500  -999.2500  -999.2500    74.6955   -69.9858   -56.4468     7.4669     7.3808     7.5497
 1566.5000  -999.2500  -999.2500  -999.2500  -999.2500    75.4156   -70.1173   -50.0634     7.3827     7.3893     7.2558
 1567.0000  -999.2500  -999.2500  -999.2500  -999.2500    76.3359   -70.2489   -52.0315     7.3403     7.3997     7.1153
 1567.5000  -999.2500  -999.2500  -999.2500  -999.2500    76.8159   -70.3759   -53.6058     7.3468     7.4067     7.1239
 1568.0000  -999.2500  -999.2500  -999.2500  -999.2500    77.5200   -70.5075   -47.5793     7.3046     7.4165     7.1325
 1568.5000  -999.2500  -999.2500  -999.2500  -999.2500    79.3452   -70.4893   -49.2056     7.3153     7.4250     7.1405
 1569.0000  -999.2500  -999.2500  -999.2500  -999.2500    80.4978   -70.6213   -50.8320     7.3238     7.4329     7.1632
 1569.5000  -999.2500  -999.2500  -999.2500  -999.2500    81.4262   -70.6025   -60.2976     7.3336     7.3906     7.2081
 1570.0000  -999.2500  -999.2500  -999.2500  -999.2500    82.1303   -70.4341   -61.8719     7.3927     7.3480     7.2558
 1570.5000  -999.2500  -999.2500  -999.2500  -999.2500    77.7952   -70.2625   -78.5753     7.4188     7.3056     7.3267
 1571.0000  -999.2500  -999.2500  -999.2500  -999.2500    75.0263   -69.7953   -80.1496     7.4634     7.3140     7.3358
 1571.5000  -999.2500  -999.2500  -999.2500  -999.2500    74.8257   -69.6274   -77.2256     7.4713     7.2718     7.3461
 1572.0000  -999.2500  -999.2500  -999.2500  -999.2500    75.3135   -69.7635   -83.2986     7.4810     7.2299     7.3549
 1572.5000  -999.2500  -999.2500  -999.2500  -999.2500    75.7934   -69.7408   -84.9091     7.4898     7.2402     7.3130
 1573.0000  -999.2500  -999.2500  -999.2500  -999.2500    76.0492   -69.8728   -86.8414     7.4467     7.2484     7.2711
 1573.5000  -999.2500  -999.2500  -999.2500  -999.2500    73.8385   -69.8542   -80.4580     7.4557     7.2567     7.2816
 1574.0000  -999.2500  -999.2500  -999.2500  -999.2500    72.3005   -69.9858   -74.4680     7.4359     7.2651     7.2379
 1574.5000  -999.2500  -999.2500  -999.2500  -999.2500    72.7814   -69.8134   -76.4361     7.4214     7.2231     7.2488
 1575.0000  -999.2500  -999.2500  -999.2500  -999.2500    73.7167   -69.7953   -70.0528     7.3788     7.1835     7.2576
 1575.5000  -999.2500  -999.2500  -999.2500  -999.2500    75.7661   -69.7792   -72.0209     7.3888     7.1916     7.2663
 1576.0000  -999.2500  -999.2500  -999.2500  -999.2500    81.8514   -69.7590   -73.6007     7.3450     7.1009     7.2751
 1576.5000  -999.2500  -999.2500  -999.2500  -999.2500    82.7719   -69.7408   -75.2271     7.3047     7.0113     7.2839
 1577.0000  -999.2500  -999.2500  -999.2500  -999.2500    80.3449   -69.5730   -77.1380     7.2128     6.9708     7.1428
 1577.5000  -999.2500  -999.2500  -999.2500  -999.2500    76.7890   -69.5483   -78.7123     7.1714     6.9307     7.0553
 1578.0000  -999.2500  -999.2500  -999.2500  -999.2500    78.1745   -69.2115   -64.7646     7.0809     6.8432     6.9187
 1578.5000  -999.2500  -999.2500  -999.2500  -999.2500    79.6060   -68.9152   -51.2108     7.0403     6.7587     6.8318
 1579.0000  -999.2500  -999.2500  -999.2500  -999.2500    77.7882   -68.8971   -60.7431     7.0497     6.7179     6.7440
 1579.5000  -999.2500  -999.2500  -999.2500  -999.2500    77.8197   -68.7292   -77.4460     7.0589     6.7274     6.7542
 1580.0000  -999.2500  -999.2500  -999.2500  -999.2500    77.6191   -68.5614   -86.6113     7.0672     6.7351     6.7625
 1580.5000  -999.2500  -999.2500  -999.2500  -999.2500    77.2101   -68.3935   -80.5951     7.0755     6.8367     6.9626
 1581.0000  -999.2500  -999.2500  -999.2500  -999.2500    74.7752   -68.6748   -74.6055     7.1362     6.9881     7.1667
 1581.5000  -999.2500  -999.2500  -999.2500  -999.2500    73.9098   -68.6564   -69.0093     7.3446     7.0937     7.3258
 1582.0000  -999.2500  -999.2500  -999.2500  -999.2500    73.9417   -68.6385   -70.5836     7.5078     7.2527     7.5405
 1582.5000  -999.2500  -999.2500  -999.2500  -999.2500    73.9807   -68.7700   -72.1583     7.6747     7.3621     7.6021
 1583.0000  -999.2500  -999.2500  -999.2500  -999.2500    74.2364   -69.1965   -73.7326     7.6837     7.4732     7.7709
 1583.5000  -999.2500  -999.2500  -999.2500  -999.2500    74.9406   -69.3326   -75.3073     7.6928     7.4301     7.8343
 1584.0000  -999.2500  -999.2500  -999.2500  -999.2500    75.6447   -69.7590   -76.8816     7.5957     7.3343     7.6296
 1584.5000  -999.2500  -999.2500  -999.2500  -999.2500    74.5551   -69.8951   -70.8921     7.3966     7.2938     7.4303
 1585.0000  -999.2500  -999.2500  -999.2500  -999.2500    72.3445   -69.8724   -64.9021     7.3492     7.2020     7.2383
 1585.5000  -999.2500  -999.2500  -999.2500  -999.2500    71.7029   -69.8540   -51.3478     7.2133     7.1542     7.1971
 1586.0000  -999.2500  -999.2500  -999.2500  -999.2500    72.8895   -69.8353   -53.3163     7.1697     7.0721     7.2058
 1586.5000  -999.2500  -999.2500  -999.2500  -999.2500    74.9132   -69.6637   -62.4549     7.1285     6.9829     7.1626
 1587.0000  -999.2500  -999.2500  -999.2500  -999.2500    76.5143   -69.3177   -71.5935     7.0876     6.9426     7.1237
 1587.5000  -999.2500  -999.2500  -999.2500  -999.2500    78.1152   -69.1783   -73.1845     7.0469     6.8550     7.0833
 1588.0000  -999.2500  -999.2500  -999.2500  -999.2500    78.3631   -69.0105   -82.3751     7.0573     6.8135     7.0918
