~VERSION INFORMATION
 VERS.                2.0:   CWLS LOG ASCII STANDARD - VERSION 2.0
 WRAP.                 NO:   ONE LINE PER DEPTH STEP
~WELL INFORMATION
#MNEM.UNIT      DATA TYPE    INFORMATION
#----------   ------------   ------------------------------
 STRT.F           16.0000:   START DEPTH
 STOP.F         4208.0000:   STOP DEPTH
 STEP.F            0.5000:   STEP LENGTH
 NULL.          -999.2500:   NO VALUE
 COMP.    FENIX & SCISSON:   COMPANY
 WELL. FENIX NPR 3 "MX" #41-10:   WELL
 FLD .                NPR:   FIELD
 LOC .      S10 T38N R78W:   LOCATION
 CNTY.            NATRONA:   COUNTY
 STAT.            WYOMING:   STATE
 CTRY. UNITED STATES OF AMERICA:   COUNTRY
 SRVC.       SCHLUMBERGER:   SERVICE COMPANY
 DATE.        04-NOV-1978:   LOGDATE
 API .     49025107260000:   API NUMBER
~CURVE INFORMATION
#MNEM.UNIT       API CODE    CURVE DESCRIPTION
#----------   ------------   ------------------------------
 DEPT.F                  :   
 TENR.LBS    07 635 01 00:   TENSION FROM RESISTIVITY
 SPR .MV     07 010 01 00:   SPONTANEOUS POTENTIAL
 SFL .OHMM   07 220 01 00:   SHALLOW FOCUSED LOG RESISTIVITY
 ILD .OHMM   07 120 46 00:   DEEP INDUCTION RESISTIVITY
 ILM .OHMM   07 120 44 00:   INDUCTION LOG MEDIUM RESISTIVITY
 CALD.IN     45 280 60 00:   CALIPER FROM DENSITY LOG
 GRD .GAPI   45 310 01 00:   GAMMA RAY FROM DENSITY LOG
 TEND.LBS    45 635 01 00:   TENSION FROM DENSITY LOG
 RHOB.G/C3   45 350 01 00:   BULK DENSITY
 CORR.G/C3   45 356 01 00:   DENSITY CORRECTION
 NPHI.DEC    42 890 03 00:   NEUTRON POROSITY SANDSTONE
~PARAMETER INFORMATION
#MNEM.UNIT          VALUE    DESCRIPTION
#----------   ------------   ------------------------------
 EKB .F         5237.0000:   Kelly bushing
 EGL .F         5227.0000:   Ground level
 EDF .F            0.0000:   Drilling floor
 TD  .F         4200.0000:   Total depth
 DATE.        04-NOV-1978:   Date logged
 CLNT.            A2DTECH:   Client Code
 SL  . 70' FNL & 2370' FWL:   Surface Location
 PD  .                 GL:   Permanent Datum
 EPD .F              5227:   Elevation Permanent Datum
 LMF .                 KB:   Log Measured From
 DMF .                 KB:   Drilling Measured From
 DAPD.F                10:   Feet Above Permanent Datum
 DD  .F              4200:   Depth driller
 DL  .F              4191:   Depth logger
 BLI .F              4185:   Bottom log interval
 TLI .F               506:   Top log interval
 CS1 .IN            9.625:   Casing size
 CBD1.      9.625" @ 500':   Casing driller 1
 CBL1.F               506:   Casing logger 1
 BS1 .IN             8.75:   Bit size
 BSD1.F              4200:   Depth drilled with bit1
 DFT .                FGM:   Type fluid in hole
 DFD .                9.3:   Density
 DFV .                 42:   Viscosity
 DFPH.               11.5:   pH
 DFL .                6.4:   Fluid loss
 MSS .               TANK:   Source of sample
 RMS .OHMM           1.08:   Rm
 MST .F                67:   Rm Meas. temp.
 RMF .OHMM           0.83:   Rmf
 MFST.F                67:   Rmf Meas. temp.
 MFSS.               MEAS:   Source Rmf.
 RMB .OHMM           0.58:   Rm. at BHT
 BHT .F               125:   BHT.
 TCS .HRS            0430:   Time Circ. stopped
 TLAB.HRS            0830:   Time logger at bottom
 MRT .F               125:   Maximum recorded temp.
 LUN .               8039:   Logging unit number
 LUL .               CSPR:   Logging unit location
 ENGI.          STADULLIS:   Recorded By
 WITN.              AMEND:   Witnessed by
 ORIG.           5" PRINT:   Origin of data
 UWI .     49025107260000:   Unique Well ID
 DICO. A2D TECHNOLOGIES, INC.:   Digitizing Company
~OTHER INFORMATION
~A   DEPT     TENR        SPR        SFL        ILD        ILM       CALD         GRD      TEND       RHOB       CORR       NPHI   
# ...
 3920.0000  1506.0240   -17.4740     3.3590     2.7220     2.9100    10.2300   109.1570  1884.9630     2.2480     0.0880     0.4060
 3920.5000  1506.0240   -17.3570     4.7000     2.9150     3.1410     9.9510   104.3660  1885.9550     2.4710     0.0380     0.3050
 3921.0000  1506.0240   -17.2320     6.0400     3.1080     3.3720     9.9070   101.7410  1886.9480     2.5350     0.0580     0.2670
 3921.5000  1506.0240   -17.1530     7.2990     3.3000     3.6150     9.9130   105.9410  1887.9399     2.5170     0.1070     0.2760
 3922.0000  1506.0240   -17.1900     6.5240     3.4930     3.6820    10.0550   111.2380  1888.9330     2.4630     0.1660     0.3150
 3922.5000  1506.0240   -17.2430     5.1490     3.6820     3.8020    10.1840   114.0390  1889.9250     2.3520     0.1600     0.3940
 3923.0000  1506.0240   -17.2930     3.9650     3.6430     3.8920    10.2280   109.6060  1890.9180     2.3540     0.1250     0.3900
 3923.5000  1506.0240   -17.3460     3.9650     3.4830     3.8050    10.0680   103.6410  1891.9100     2.4200     0.1020     0.3350
 3924.0000  1506.0240   -17.3620     5.1420     3.3240     3.6210     9.9660    98.1210  1892.9020     2.5170     0.0820     0.2910
 3924.5000  1506.0240   -17.3610     5.6340     3.1640     3.4370    10.1580    96.5790  1893.8950     2.5980     0.2500     0.2750
 3925.0000  1506.0240   -17.3610     5.0480     3.0050     3.2530    10.5180    99.8420  1894.8870     2.5720     0.2430     0.2850
 3925.5000  1506.0240   -17.3620     4.3170     2.8460     3.0700    10.8400   103.3410  1895.8800     2.4380     0.2500     0.3160
 3926.0000  1506.0240   -17.3610     3.5860     2.6860     2.8860    11.1060   107.9960  1896.8719     2.3040     0.2470     0.3500
 3926.5000  1506.0240   -17.3610     2.7900     2.5270     2.7020    11.0050   112.4780  1897.8650     2.2070     0.2500     0.3900
 3927.0000  1506.0240   -17.3620     2.6080     2.4510     2.5440    10.8860   117.0560  1898.8571     2.2180     0.2350     0.4110
 3927.5000  1506.0240   -17.3600     2.4510     2.4970     2.5440    10.7290   121.0040  1899.8490     2.2600     0.2270     0.4050
 3928.0000  1506.0240   -17.3600     2.5240     2.6220     2.5440    10.6580   123.3330  1900.8420     2.3090     0.2440     0.3890
 3928.5000  1506.0240   -17.2850     2.6470     2.7470     2.6870    10.4430   125.6220  1901.8340     2.3400     0.2490     0.4050
 3929.0000  1506.0240   -17.1910     2.9020     2.8720     3.0150    10.2350   124.0210  1902.8270     2.3210     0.2500     0.4200
 3929.5000  1506.0240   -17.0980     3.7280     2.9970     3.3430    10.0270   119.7940  1903.8190     2.2870     0.1970     0.4390
 3930.0000  1506.0240   -17.0010     5.0480     3.1230     3.6710     9.8510   115.9230  1904.8120     2.2590     0.1250     0.4130
 3930.5000  1506.0240   -16.9610     6.3670     3.2710     4.1910     9.6750   113.6430  1905.8040     2.3890     0.0270     0.3490
 3931.0000  1506.0240   -16.9640     8.1560     3.4360     4.1570     9.6840   120.5510  1906.7960     2.4980     0.0370     0.2800
 3931.5000  1506.0240   -16.9640     7.8150     3.6020     4.0760     9.6850   127.3480  1907.6310     2.6060     0.1880     0.2490
 3932.0000  1506.0240   -16.9640     6.4980     3.7510     3.9940     9.8060   130.2760  1907.6310     2.6800     0.2500     0.2540
 3932.5000  1506.0240   -16.9640     5.1820     3.7060     3.9130     9.9680   132.8550  1907.6310     2.6650     0.2490     0.3030
 3933.0000  1506.0240   -16.9630     4.5130     3.5710     3.8310    10.1340   135.4020  1907.6310     2.5300     0.2280     0.3120
 3933.5000  1506.0240   -16.9880     4.7660     3.4360     3.7510     9.9230   138.2210  1907.6310     2.4760     0.2000     0.3110
 3934.0000  1506.0240   -17.0540     5.1370     3.3000     3.6590     9.7020   139.6070  1907.6310     2.5110     0.1710     0.2940
 3934.5000  1506.0240   -17.1230     5.2320     3.1760     3.5110     9.5330   138.4480  1907.6310     2.4860     0.2380     0.2960
 3935.0000  1506.0240   -17.1670     4.4960     3.2660     3.2950     9.8790   138.3050  1907.6310     2.4400     0.2500     0.2970
 3935.5000  1506.0240   -17.1620     3.5740     3.5580     3.5520    10.1620   139.4920  1907.6310     2.2440     0.2500     0.3750
 3936.0000  1506.0240   -17.1630     3.2950     3.8500     4.0310    10.5580   137.3070  1907.6310     2.2160     0.2170     0.4390
 3936.5000  1506.0240   -17.1640     4.4440     4.1410     4.5090    10.4130   131.2040  1907.6310     2.2590     0.1310     0.4070
 3937.0000  1506.0240   -17.1620     5.5310     4.4330     4.9880    10.0410   125.3440  1907.6310     2.4340     0.0450     0.3400
 3937.5000  1506.0240   -17.1610     9.8450     4.7250     5.4660     9.7110   122.3810  1907.6310     2.5310     0.0180     0.2800
 3938.0000  1506.0240   -17.1110    12.7610     5.0170     5.9450     9.4340   120.7240  1907.6310     2.5860     0.0180     0.2650
 3938.5000  1506.0240   -17.0550    13.9450     5.4300     6.1800     9.4250   120.9290  1907.6310     2.5870     0.0360     0.2530
 3939.0000  1506.0240   -16.9940    12.9500     5.4040     5.9590     9.4720   125.1360  1907.6310     2.5870     0.0580     0.2520
 3939.5000  1506.0240   -16.9610    11.0960     5.2760     5.4200     9.5310   132.1500  1907.6310     2.6020     0.0990     0.2640
 3940.0000  1506.0240   -16.9650     8.8210     4.8940     4.8820     9.5900   137.4610  1907.6310     2.6270     0.1340     0.2830
 3940.5000  1506.0240   -16.9640     6.5450     4.3780     4.3440     9.6630   141.7070  1907.6310     2.6090     0.2470     0.3060
 3941.0000  1506.0240   -16.9630     4.8460     3.8620     3.8050     9.7320   142.5530  1907.6310     2.5820     0.2450     0.3250
 3941.5000  1506.0240   -16.9650     4.2690     3.3460     3.2670     9.8490   139.8110  1907.6310     2.5220     0.2470     0.3320
 3942.0000  1506.0240   -16.9610     3.6920     2.8420     2.8730    10.1170   136.4760  1907.6310     2.4250     0.2480     0.3380
 3942.5000  1506.0240   -16.9660     3.1150     2.5910     2.6880    10.3600   133.0710  1907.6310     2.2710     0.2500     0.3860
 3943.0000  1506.0240   -16.9770     2.5910     2.6060     2.5440    10.6230   127.9450  1907.6310     2.1370     0.2230     0.4330
 3943.5000  1506.0240   -17.1540     2.9570     2.6390     2.6500    10.7180   119.6650  1907.6310     2.0440     0.0870     0.4300
 3944.0000  1506.0240   -17.3190     3.5410     2.4440     2.8000    10.8290   111.2800  1907.6310     2.1590    -0.0070     0.3350
 3944.5000  1506.0240   -17.3640     4.3490     2.2360     2.9490    10.5680   102.2490  1907.6310     2.4340     0.0840     0.2760
 3945.0000  1506.0240   -17.3630     4.0390     2.0560     2.6210    10.0570    95.1520  1907.6310     2.4640     0.2120     0.2590
 3945.5000  1506.0240   -17.3600     3.5460     1.9700     2.1760    10.0010    89.0990  1907.6310     2.3870     0.2500     0.2800
 3946.0000  1506.0240   -17.3580     2.9640     1.8850     1.9630    10.2300    86.1310  1907.6310     2.1670     0.2500     0.3190
 3946.5000  1506.0240   -17.2680     2.3810     1.8000     1.9080    11.1870    83.9310  1907.6310     2.0030     0.1810     0.4100
 3947.0000  1506.0240   -17.1660     1.7570     1.7140     1.8480    11.6560    85.2260  1907.6310     2.0040     0.1820     0.4710
 3947.5000  1506.0240   -17.0910     1.7830     1.6290     1.7890    12.0190    86.4480  1907.6310     2.0040     0.1870     0.4880
 3948.0000  1508.5680   -17.0160     1.9040     1.5440     1.7290    11.9240    87.0030  1907.6310     2.0000     0.1930     0.4960
 3948.5000  1514.3459   -16.9440     2.0370     1.5150     1.6620    11.3560    87.0550  1907.6310     2.1560     0.2370     0.4670
 3949.0000  1520.1250   -16.8710     2.0370     1.5340     1.6620    10.8210    87.3340  1907.6310     2.2060     0.2500     0.4380
 3949.5000  1525.9041   -16.7900     1.9680     1.5660     1.6930    10.6310    91.2810  1907.6310     2.1970     0.2490     0.4090
 3950.0000  1531.6820   -16.8130     1.9070     1.5580     1.7250    10.5620    98.0810  1907.6310     2.1950     0.2190     0.3750
