~VERSION INFORMATION
 VERS.                2.0:   CWLS LOG ASCII STANDARD - VERSION 2.0
 WRAP.                 NO:   ONE LINE PER DEPTH STEP
~WELL INFORMATION
#MNEM.UNIT      DATA TYPE    INFORMATION
#----------   ------------   ------------------------------
 STRT.F          482.0000:   START DEPTH
 STOP.F         4000.0000:   STOP DEPTH
 STEP.F            0.5000:   STEP LENGTH
 NULL.          -999.2500:   NO VALUE
 COMP.    FENIX & SCISSON:   COMPANY
 WELL. FENIX  NPR 3 "LX" #56-10:   WELL
 FLD .              N P R:   FIELD
 LOC .      S10 T38N R78W:   LOCATION
 CNTY.            NATRONA:   COUNTY
 STAT.            WYOMING:   STATE
 CTRY. UNITED STATES OF AMERICA:   COUNTRY
 SRVC.       SCHLUMBERGER:   SERVICE COMPANY
 DATE.        11-JUL-1978:   LOGDATE
 API .     49025107100000:   API NUMBER
~CURVE INFORMATION
#MNEM.UNIT       API CODE    CURVE DESCRIPTION
#----------   ------------   ------------------------------
 DEPT.F                  :   
 GRD .GAPI   45 310 01 00:   GAMMA RAY FROM DENSITY LOG
 CALD.IN     45 280 60 00:   CALIPER FROM DENSITY LOG
 RHOB.G/C3   45 350 01 00:   BULK DENSITY
 NPHI.DEC    42 890 03 00:   NEUTRON POROSITY SANDSTONE
 DRHO.G/C3   45 356 01 00:   DENSITY CORRECTION
 TEND.LBS    45 635 01 00:   TENSION FROM DENSITY LOG
 SPR .MV     07 010 01 00:   SPONTANEOUS POTENTIAL
 TENR.LBS    07 635 01 00:   TENSION FROM RESISTIVITY
 ILD .OHMM   07 120 46 00:   DEEP INDUCTION RESISTIVITY
 ILM .OHMM   07 120 44 00:   INDUCTION LOG MEDIUM RESISTIVITY
 SFLU.OHMM   07 220 01 00:   SPHERICALLY FOCUSED LOG UNAVERAGED RESISTIVITY
~PARAMETER INFORMATION
#MNEM.UNIT          VALUE    DESCRIPTION
#----------   ------------   ------------------------------
 EKB .F         5212.0000:   Kelly bushing
 EGL .F         5202.0000:   Ground level
 EDF .F            0.0000:   Drilling floor
 TD  .F         4000.0000:   Total depth
 DATE.        11-JUL-1978:   Date logged
 CLNT.            A2DTECH:   Client Code
 SL  . 1144' FSL & 2183' FEL:   Surface Location
 PD  .                 GL:   Permanent Datum
 EPD .F              5202:   Elevation Permanent Datum
 LMF .                 KB:   Log Measured From
 DMF .                 KB:   Drilling Measured From
 DD  .F              4000:   Depth driller
 DL  .F              3990:   Depth logger
 BLI .F              3985:   Bottom log interval
 TLI .F               501:   Top log interval
 CS1 .IN            9.625:   Casing size
 CBD1.      9.625" @ 500':   Casing driller 1
 CBL1.F               501:   Casing logger 1
 BS1 .IN            7.875:   Bit size
 DFT .                FGM:   Type fluid in hole
 DFD .                9.1:   Density
 DFV .                 50:   Viscosity
 DFPH.                 12:   pH
 DFL .                4.4:   Fluid loss
 MSS .           MUD/TANK:   Source of sample
 RMS .OHMM           .714:   Rm
 MST .F                83:   Rm Meas. temp.
 RMF .OHMM           .585:   Rmf
 MFST.F                83:   Rmf Meas. temp.
 MFSS.               MEAS:   Source Rmf.
 RMB .OHMM            .42:   Rm. at BHT
 BHT .F               140:   BHT.
 TCS .HRS            1000:   Time Circ. stopped
 MRT .F               140:   Maximum recorded temp.
 LUN .               8035:   Logging unit number
 LUL .       ROCK SPRINGS:   Logging unit location
 ENGI.             MARTIN:   Recorded By
 WITN.           MCCINLEY:   Witnessed by
 ORIG.           5" PRINT:   Origin of data
 UWI .     49025107100000:   Unique Well ID
 DICO. A2D TECHNOLOGIES, INC.:   Digitizing Company
 DAPD.F                10:   Feet Above Permanent Datum
 BSD1.F              4000:   Depth drilled with bit1
 TLAB.HRS            1300:   Time logger at bottom
~OTHER INFORMATION
~A   DEPT       GRD      CALD       RHOB         NPHI     DRHO       TEND        SPR       TENR        ILD        ILM       SFLU   
# ...
 2342.5000   112.3230     9.4040     2.5300     0.2780     0.0120  1087.3900   -47.5380   867.5340     6.8540     6.9440     6.5080
 2343.0000   112.1410     9.4050     2.5580     0.2650     0.0190  1087.5150   -47.4650   867.9810     6.9550     7.1070     7.5830
 2343.5000   112.9450     9.4060     2.5730     0.2560     0.0180  1087.6400   -47.3880   868.4280     7.0560     7.2700     8.6580
 2344.0000   113.2890     9.4070     2.5630     0.2490     0.0160  1087.7650   -47.0820   868.8750     7.1570     7.4330     9.3810
 2344.5000   111.7160     9.4080     2.5600     0.2510     0.0140  1087.8900   -46.7710   869.3220     7.2580     7.5960     9.2750
 2345.0000   110.2050     9.4090     2.5620     0.2550     0.0250  1088.0150   -46.4520   869.7690     7.4110     7.7600     9.1700
 2345.5000   110.2630     9.4110     2.5570     0.2600     0.0240  1088.1400   -46.1350   870.2170     7.3970     7.9770     9.0720
 2346.0000   112.6960     9.4120     2.5510     0.2650     0.0240  1088.2650   -45.8220   870.6640     7.3680     7.8310     8.7720
 2346.5000   114.8260     9.4130     2.5430     0.2750     0.0230  1088.3910   -45.5080   871.1110     7.3390     7.7960     8.4920
 2347.0000   117.0700     9.4140     2.5500     0.2850     0.0240  1088.5160   -45.1680   871.5580     7.3100     7.7550     8.2130
 2347.5000   118.2950     9.4150     2.5640     0.2910     0.0330  1088.6410   -45.0060   872.0050     7.2810     7.7130     7.8310
 2348.0000   118.0790     9.4160     2.5710     0.2790     0.0430  1088.7660   -45.0890   872.4530     7.2520     7.6720     7.9340
 2348.5000   117.2870     9.4170     2.5700     0.2660     0.0430  1088.8910   -45.1450   872.9000     7.2230     7.6310     8.3740
 2349.0000   116.5510     9.4180     2.5690     0.2520     0.0430  1089.0160   -45.2040   873.3470     7.1940     7.5900     8.8130
 2349.5000   115.7430     9.4190     2.5640     0.2540     0.0380  1089.1410   -45.2670   873.7940     7.1650     7.5490     9.0720
 2350.0000   113.3620     9.4200     2.5550     0.2560     0.0310  1089.2670   -45.3260   874.2410     7.1360     7.4810     8.5490
 2350.5000   111.0890     9.4210     2.5450     0.2590     0.0240  1089.3920   -45.3870   874.6880     7.1060     7.4140     8.0300
 2351.0000   107.4130     9.4230     2.5420     0.2590     0.0160  1089.5170   -45.4490   875.1360     7.0770     7.3470     7.4110
 2351.5000   106.4970     9.4240     2.5460     0.2520     0.0190  1089.6420   -45.5080   875.5830     7.0480     7.2800     7.6620
 2352.0000   108.3990     9.4250     2.5490     0.2430     0.0200  1089.7670   -45.5690   876.0300     7.0140     7.2130     7.9720
 2352.5000   110.2650     9.4270     2.5530     0.2480     0.0240  1089.8920   -45.6330   876.4770     6.9350     7.1460     8.2760
 2353.0000   114.8060     9.4280     2.5510     0.2580     0.0260  1090.0170   -45.6840   876.9240     6.8380     7.0790     8.3410
 2353.5000   115.3150     9.4290     2.5410     0.2680     0.0240  1090.1429   -45.7590   877.3710     6.7410     7.0140     8.4290
 2354.0000   116.8790     9.4310     2.5280     0.2800     0.0200  1090.2679   -45.8390   877.8190     6.6450     6.9250     7.7210
 2354.5000   115.9620     9.4320     2.5210     0.2780     0.0160  1090.3929   -46.4320   878.2660     6.5480     6.8390     6.6370
 2355.0000   117.9470     9.4340     2.5130     0.2760     0.0120  1090.5179   -46.5490   878.7130     6.3980     6.7540     6.7130
 2355.5000   119.6000     9.4350     2.5160     0.2730     0.0090  1090.6429   -46.4320   879.1600     6.4360     6.6370     7.0290
 2356.0000   119.4890     9.4360     2.5290     0.2710     0.0160  1090.7679   -46.3250   879.6070     6.5220     6.6500     7.3450
 2356.5000   119.3150     9.4380     2.5410     0.2760     0.0300  1090.8929   -46.2220   880.0550     6.6070     6.7030     7.6620
 2357.0000   119.0160     9.4390     2.5500     0.2860     0.0340  1091.0190   -46.1170   880.5020     6.6930     6.7550     7.9780
 2357.5000   120.6810     9.4400     2.5520     0.2940     0.0330  1091.1440   -46.0070   880.9490     6.7790     6.8080     8.2760
 2358.0000   121.6610     9.4420     2.5490     0.3000     0.0320  1091.2700   -45.9090   881.3960     6.8650     6.8600     8.4290
 2358.5000   122.0840     9.4430     2.5440     0.3000     0.0270  1090.9620   -45.8140   881.8430     6.9510     6.9130     8.3190
 2359.0000   120.6480     9.4450     2.5380     0.2970     0.0150  1090.6510   -45.9860   882.2900     7.0030     6.9650     8.1920
 2359.5000   118.2450     9.4460     2.5460     0.2930     0.0100  1090.3400   -46.1610   882.7380     6.9640     7.0140     7.9770
 2360.0000   115.8050     9.4470     2.5550     0.2870     0.0240  1090.0300   -46.3430   883.1850     6.9250     6.9990     7.9770
 2360.5000   113.3190     9.4490     2.5640     0.2800     0.0370  1089.7190   -46.5410   883.6320     6.8860     6.9860     8.0280
 2361.0000   110.9630     9.4500     2.5740     0.2720     0.0420  1089.4080   -46.5080   884.0790     6.8470     6.9720     8.1360
 2361.5000   108.7380     9.4510     2.5740     0.2640     0.0420  1089.0980   -46.3070   884.5260     6.8080     6.9590     8.2430
 2362.0000   109.7320     9.4530     2.5710     0.2560     0.0410  1088.7870   -46.1270   884.9740     6.7690     6.9460     8.2760
 2362.5000   110.4970     9.4540     2.5820     0.2570     0.0480  1088.4760   -45.9470   885.4210     6.7300     6.9320     7.9940
 2363.0000   116.4320     9.4560     2.5980     0.2610     0.0610  1088.1660   -45.7630   885.8680     6.6910     6.9190     7.6810
 2363.5000   119.3590     9.4570     2.5910     0.2650     0.0670  1087.8550   -45.5830   886.3150     6.6520     6.9060     7.3670
 2364.0000   121.7660     9.4580     2.5700     0.2690     0.0500  1087.5450   -45.3960   886.7620     6.6130     6.8920     7.1440
 2364.5000   122.3740     9.4570     2.5510     0.2750     0.0350  1087.2340   -45.2230   887.2090     6.5740     6.8180     7.3520
 2365.0000   123.0400     9.4560     2.5410     0.2810     0.0260  1086.9230   -45.0160   887.6570     6.5350     6.6860     7.5800
 2365.5000   121.3460     9.4550     2.5500     0.2870     0.0300  1086.6130   -45.0020   888.1040     6.4400     6.5540     7.6890
 2366.0000   119.4680     9.4540     2.5540     0.2930     0.0340  1086.3020   -44.9970   888.5510     6.2930     6.4230     7.4510
 2366.5000   119.2060     9.4520     2.5590     0.2930     0.0370  1085.9910   -45.0010   888.9980     6.1460     6.2910     7.1230
 2367.0000   119.9210     9.4510     2.5630     0.2920     0.0400  1085.6810   -44.9990   889.4450     6.0000     6.1590     6.7950
 2367.5000   122.9650     9.4500     2.5550     0.2940     0.0390  1085.3700   -45.0000   889.8920     5.8530     6.0270     6.4680
 2368.0000   125.8820     9.4490     2.5460     0.3030     0.0380  1085.0590   -45.0000   890.3400     5.7060     5.8950     6.1400
 2368.5000   129.1390     9.4470     2.5420     0.3110     0.0340  1084.7490   -44.9990   890.7870     5.5350     5.7630     5.8120
 2369.0000   130.6460     9.4460     2.5400     0.3080     0.0300  1084.4380   -45.0000   891.2340     5.5600     5.6250     5.7290
 2369.5000   129.3770     9.4450     2.5410     0.3040     0.0240  1084.1270   -44.9990   891.6810     5.6110     5.6940     5.7290
 2370.0000   126.0220     9.4440     2.5350     0.2970     0.0180  1083.8170   -45.0000   892.1280     5.6610     5.7650     6.3980
 2370.5000   121.6640     9.4420     2.5290     0.2940     0.0120  1083.5060   -45.0010   892.5760     5.7110     5.8370     6.8860
 2371.0000   118.8520     9.4410     2.5290     0.2990     0.0060  1083.1960   -44.9920   893.0230     5.7620     5.9090     7.4110
 2371.5000   118.6680     9.4400     2.5410     0.2980     0.0170  1082.8850   -45.0870   893.4700     5.8120     5.9810     7.2520
 2372.0000   119.8810     9.4390     2.5510     0.2980     0.0280  1082.5740   -45.3250   893.9170     5.8630     6.0540     7.0870
 2372.5000   123.1220     9.4370     2.5550     0.2930     0.0370  1082.2640   -45.5530   894.3640     5.9130     6.2810     6.9220
