~VERSION INFORMATION
 VERS.                2.0:   CWLS LOG ASCII STANDARD - VERSION 2.0
 WRAP.                 NO:   ONE LINE PER DEPTH STEP
~WELL INFORMATION
#MNEM.UNIT      DATA TYPE    INFORMATION
#----------   ------------   ------------------------------
 STRT.F           48.5000:   START DEPTH
 STOP.F         3509.0000:   STOP DEPTH
 STEP.F            0.5000:   STEP LENGTH
 NULL.          -999.2500:   NO VALUE
 COMP.   TESORO PETROLEUM:   COMPANY
 WELL. TESORO "TX" #45-33:   WELL
 FLD .        TEAPOT DOME:   FIELD
 LOC .      S33 T39N R78W:   LOCATION
 CNTY.            NATRONA:   COUNTY
 STAT.            WYOMING:   STATE
 CTRY. UNITED STATES OF AMERICA:   COUNTRY
 SRVC.      DRESSER ATLAS:   SERVICE COMPANY
 DATE.        03-OCT-1976:   LOGDATE
 API .     49025102700000:   API NUMBER
~CURVE INFORMATION
#MNEM.UNIT       API CODE    CURVE DESCRIPTION
#----------   ------------   ------------------------------
 DEPT.F                  :   
 SPR .MV     07 010 01 00:   SPONTANEOUS POTENTIAL
 TENR.LBS    07 635 01 00:   TENSION FROM RESISTIVITY
 SFL .OHMM   07 220 01 00:   SHALLOW FOCUSED LOG RESISTIVITY
 ILM .OHMM   07 120 44 00:   INDUCTION LOG MEDIUM RESISTIVITY
 ILD .OHMM   07 120 46 00:   DEEP INDUCTION RESISTIVITY
 GRD .GAPI   45 310 01 00:   GAMMA RAY FROM DENSITY LOG
 CALD.IN     45 280 60 00:   CALIPER FROM DENSITY LOG
 NPHI.DEC    42 890 03 00:   NEUTRON POROSITY SANDSTONE
 DPHI.DEC    45 890 12 00:   DENSITY POROSITY SANDSTONE
 TEND.LBS    45 635 01 00:   TENSION FROM DENSITY LOG
~PARAMETER INFORMATION
#MNEM.UNIT          VALUE    DESCRIPTION
#----------   ------------   ------------------------------
 EKB .F         5217.0000:   Kelly bushing
 EGL .F         5206.0000:   Ground level
 EDF .F         5216.0000:   Drilling floor
 EPD .F         5206.0000:   Permanent datum
 TD  .F         3491.0000:   Total depth
 DATE.        03-OCT-1976:   Date logged
 CLNT.            A2DTECH:   Client Code
 SL  . 2030' FWL & 2145' FSL:   Surface Location
 PD  .                 GL:   Permanent Datum
 DD  .F              3491:   Depth driller
 DL  .F              3487:   Depth logger
 BLI .F              3485:   Bottom log interval
 TLI .F               813:   Top log interval
 CS1 .IN            8.625:   Casing size
 CBD1.      8.625" @ 823':   Casing driller 1
 CBL1.F               819:   Casing logger 1
 BS1 .IN            7.875:   Bit size
 BSD1.F              3491:   Depth drilled with bit1
 DFT .           CHEM GEL:   Type fluid in hole
 DFD .                9.4:   Density
 DFV .                 47:   Viscosity
 DFPH.                 10:   pH
 DFL .                5.8:   Fluid loss
 MSS .           FLOWLINE:   Source of sample
 RMS .OHMM           1.09:   Rm
 MST .F                68:   Rm Meas. temp.
 RMF .OHMM              1:   Rmf
 MFST.F                68:   Rmf Meas. temp.
 RMC .OHMM           1.24:   Rmc
 MCST.F                68:   Rmc Meas. temp.
 MFSS.               MEAS:   Source Rmf.
 MCSS.               MEAS:   Source Rmc.
 RMB .OHMM            .62:   Rm. at BHT
 BHT .F               119:   BHT.
 TCS .HRS              12:   Time Circ. stopped
 MRT .F               119:   Maximum recorded temp.
 LUN .               6134:   Logging unit number
 LUL .              GLTTE:   Logging unit location
 ENGI.            VAUGHIN:   Recorded By
 WITN.        WOLF-CARTER:   Witnessed by
 ORIG.     2.5", 5" PRINT:   Origin of data
 UWI .     49025102700000:   Unique Well ID
 DICO. A2D TECHNOLOGIES, INC.:   Digitizing Company
 DAPD.                 11:   Feet Above Permanent Datum
~OTHER INFORMATION
~A   DEPT      SPR        TENR       SFL        ILM        ILD        GRD       CALD       NPHI       DPHI       TEND   
# ...
 2326.5000   -24.2760  -999.2500     8.0290     9.2050     9.8740   127.5160     8.8920     0.2730     0.0710   275.4050
 2327.0000   -24.3710  -999.2500     7.5190     9.1030     9.7640   127.1300     8.9120     0.2800     0.0750   275.1080
 2327.5000   -24.4690  -999.2500     7.2470     9.0010     9.6540   126.4140     8.9320     0.2870     0.0750   275.6300
 2328.0000   -24.5620  -999.2500     8.0480     8.8780     9.5450   126.5130     8.9510     0.2910     0.0700   276.1520
 2328.5000   -24.6580  -999.2500     9.3840     9.3680     9.4350   127.2790     8.9710     0.2880     0.0650   276.6740
 2329.0000   -24.7530  -999.2500     9.0760    10.1030     9.3250   126.3600     8.9880     0.2850     0.0670   277.1960
 2329.5000   -24.8480  -999.2500     8.7690     9.8720     9.2150   125.4360     8.9880     0.2820     0.0690   277.7180
 2330.0000   -24.9430  -999.2500     8.4000     9.5830     9.1050   125.7000     8.9880     0.2800     0.0660   278.2400
 2330.5000   -25.0380  -999.2500     8.4000     9.2940     8.9960   126.0720     8.9880     0.2790     0.0630   278.7610
 2331.0000   -25.1330  -999.2500     8.6050     9.0050     8.8860   127.0590     8.9880     0.2800     0.0590   279.2830
 2331.5000   -25.2280  -999.2500     8.8100     8.7160     8.7760   128.0670     8.9880     0.2840     0.0540   279.8050
 2332.0000   -25.3230  -999.2500     9.0150     8.6170     8.6660   126.8410     8.9880     0.2900     0.0480   280.3270
 2332.5000   -25.4190  -999.2500     9.2200     8.5180     8.5560   124.8220     8.9880     0.2930     0.0520   280.8490
 2333.0000   -25.5130  -999.2500     9.3840     8.4000     9.0610   123.3060     8.9880     0.2930     0.0540   281.3710
 2333.5000   -25.6100  -999.2500     9.3840     8.5560     9.9020   123.1340     8.9930     0.2890     0.0520   281.8930
 2334.0000   -25.7030  -999.2500     9.3840     9.7360    10.7440   124.0210     9.0140     0.2820     0.0500   282.4150
 2334.5000   -25.7930  -999.2500     9.7150    10.9160    11.5850   129.3800     9.0340     0.2860     0.0510   282.9360
 2335.0000   -25.7980  -999.2500    10.1300    12.0960    12.4260   134.6000     9.0480     0.2970     0.0580   283.4580
 2335.5000   -25.8000  -999.2500    10.5450    13.2760    13.2680   139.9740     9.0460     0.3070     0.0690   283.9800
 2336.0000   -25.7960  -999.2500    10.8770    15.1630    14.6140   141.6030     9.0440     0.3170     0.0710   284.5020
 2336.5000   -25.8020  -999.2500     9.5370    14.6070    14.2230   143.0870     9.0420     0.3300     0.0720   285.0000
 2337.0000   -25.7970  -999.2500     8.4200    13.2180    13.2470   144.5980     9.0400     0.3330     0.0740   285.0000
 2337.5000   -25.7860  -999.2500     7.3030    11.8280    12.2710   145.9520     9.0380     0.3350     0.0750   285.0000
 2338.0000   -25.5460  -999.2500     6.7310    10.4390    11.2950   146.8880     9.0360     0.3300     0.0770   285.0000
 2338.5000   -25.3080  -999.2500     6.7620     9.0490    10.3200   147.8660     9.0340     0.3240     0.0710   285.0000
 2339.0000   -25.0430  -999.2500     6.8560     7.3820     9.3440   148.8460     9.0320     0.3180     0.0640   285.0000
 2339.5000   -24.8030  -999.2500     6.7340     6.8570     8.3680   149.5570     9.0300     0.3170     0.0660   285.0000
 2340.0000   -24.6510  -999.2500     6.5820     6.2010     7.3920   149.9370     9.0270     0.3180     0.0710   285.0000
 2340.5000   -25.2270  -999.2500     6.3680     5.7980     6.4160   150.4660     9.0080     0.3130     0.0750   285.0000
 2341.0000   -25.4050  -999.2500     6.5990     5.7760     5.9460   150.2560     8.9890     0.3150     0.0770   285.0000
 2341.5000   -25.4010  -999.2500     6.9840     5.7540     5.8130   150.0710     8.9700     0.3160     0.0750   285.0000
 2342.0000   -25.3980  -999.2500     6.8070     5.7320     5.6800   149.8540     8.9520     0.3120     0.0720   285.0000
 2342.5000   -25.4000  -999.2500     6.6290     5.7010     5.4940   148.2170     8.9320     0.3100     0.0740   285.0000
 2343.0000   -25.3980  -999.2500     6.4870     5.7310     5.5240   146.3740     8.9340     0.3070     0.0760   285.0000
 2343.5000   -25.4000  -999.2500     6.6130     5.7830     5.5730   144.4780     8.9430     0.3040     0.0750   285.0000
 2344.0000   -25.3920  -999.2500     6.7690     5.8340     5.6220   144.9510     8.9520     0.3010     0.0740   285.0000
 2344.5000   -25.4150  -999.2500     6.9260     5.8850     5.6710   145.6120     8.9610     0.2990     0.0720   285.0000
 2345.0000   -25.2380  -999.2500     7.1140     5.9360     5.7200   146.2870     8.9650     0.2970     0.0740   285.0000
 2345.5000   -24.9130  -999.2500     6.9460     5.9870     5.7700   146.2330     8.9520     0.3030     0.0780   285.0000
 2346.0000   -24.6250  -999.2500     6.6080     6.0380     5.8190   146.1280     8.9400     0.3080     0.0820   288.2570
 2346.5000   -24.3160  -999.2500     6.7330     6.0890     5.8680   146.0150     8.9280     0.3090     0.0850   293.0290
 2347.0000   -24.1910  -999.2500     6.8900     6.1400     5.9170   146.3270     8.9350     0.3070     0.0810   297.8000
 2347.5000   -24.2060  -999.2500     6.9840     6.1910     5.9660   146.9260     8.9430     0.3050     0.0800   302.5710
 2348.0000   -24.2020  -999.2500     6.6670     6.2520     6.0250   148.7650     8.9520     0.3040     0.0820   301.6450
 2348.5000   -24.1980  -999.2500     6.1380     6.2520     6.0250   150.1170     8.9600     0.3030     0.0840   294.8140
 2349.0000   -24.2090  -999.2500     6.4020     6.2720     6.0450   149.5040     8.9690     0.3030     0.0840   287.9820
 2349.5000   -24.1840  -999.2500     6.6670     6.2940     6.0660   148.1800     8.9770     0.3050     0.0830   281.1500
 2350.0000   -24.3570  -999.2500     6.9840     6.3150     6.0860   146.9060     8.9860     0.3060     0.0810   275.0000
 2350.5000   -24.7030  -999.2500     6.9840     6.3350     6.1060   146.1880     8.9890     0.3100     0.0800   278.0550
 2351.0000   -24.9360  -999.2500     6.9840     6.3560     6.1260   146.5600     8.9900     0.3140     0.0810   280.8330
 2351.5000   -25.3620  -999.2500     7.3410     6.4900     6.1950   146.4110     8.9920     0.3180     0.0820   283.6110
 2352.0000   -24.7740  -999.2500     7.6590     6.4850     6.2520   146.2600     8.9940     0.3110     0.0840   286.3890
 2352.5000   -24.5820  -999.2500     7.6590     6.4920     6.2520   146.0890     8.9950     0.3090     0.0880   289.1670
 2353.0000   -24.5900  -999.2500     7.2470     6.4870     6.2520   145.5130     8.9970     0.3060     0.0930   291.9440
 2353.5000   -24.6120  -999.2500     7.1180     6.1650     5.9410   143.7080     8.9980     0.3040     0.0950   295.0000
 2354.0000   -24.5890  -999.2500     6.7310     5.8960     5.6830   142.6420     9.0000     0.3010     0.0840   294.5500
 2354.5000   -24.6050  -999.2500     6.7310     5.6280     5.4240   143.5120     9.0020     0.2990     0.0710   294.0500
 2355.0000   -24.6050  -999.2500     6.7310     5.3590     5.1650   144.3500     9.0030     0.2970     0.0710   293.5500
 2355.5000   -24.4250  -999.2500     6.3160     5.1980     5.0100   144.1760     9.0050     0.2990     0.0760   293.0500
 2356.0000   -23.8470  -999.2500     4.6530     5.2380     5.0480   143.9040     9.0070     0.3000     0.0740   292.5500
 2356.5000   -23.8560  -999.2500     4.9860     5.3040     5.1120   143.0980     9.0080     0.2970     0.0700   292.0500
 2357.0000   -23.9110  -999.2500     5.8190     5.3700     5.1760   140.6340     9.0080     0.2980     0.0650   291.5500
 2357.5000   -23.9860  -999.2500     6.6510     5.4360     5.2390   140.0300     9.0080     0.2990     0.0610   291.0500
 2358.0000   -24.0440  -999.2500     6.9840     5.5020     5.3030   140.7770     9.0080     0.3020     0.0570   290.5500
 2358.5000   -24.1120  -999.2500     6.9840     5.5690     5.3670   141.4700     9.0080     0.3040     0.0540   290.0500
 2359.0000   -24.1750  -999.2500     6.9840     5.6350     5.4310   142.6120     9.0100     0.3060     0.0570   289.5500
 2359.5000   -24.2390  -999.2500     6.3960     5.7010     5.4940   143.6360     9.0150     0.3100     0.0610   289.0500
