~VERSION INFORMATION
 VERS.                2.0:   CWLS LOG ASCII STANDARD - VERSION 2.0
 WRAP.                 NO:   ONE LINE PER DEPTH STEP
~WELL INFORMATION
#MNEM.UNIT      DATA TYPE    INFORMATION
#----------   ------------   ------------------------------
 STRT.F           10.0000:   START DEPTH
 STOP.F         3234.0000:   STOP DEPTH
 STEP.F            0.5000:   STEP LENGTH
 NULL.          -999.2500:   NO VALUE
 COMP. LAWRENCE ALLISON & ASSOSCIATES:   COMPANY
 WELL. 		  38-X-10:   WELL
 FLD .             NPR #3:   FIELD
 LOC .      S10 T38N R78W:   LOCATION
 CNTY.            NATRONA:   COUNTY
 STAT.            WYOMING:   STATE
 CTRY. UNITED STATES OF AMERICA:   COUNTRY
 SRVC.      DRESSER ATLAS:   SERVICE COMPANY
 DATE.        02-AUG-1986:   LOGDATE
 API .       490251120600:   API NUMBER
~CURVE INFORMATION
#MNEM.UNIT       API CODE    CURVE DESCRIPTION
#----------   ------------   ------------------------------
 DEPT.F                  :   
 GRR .GAPI   07 310 01 00:   GAMMA RAY FROM RESISTIVITY
 SPR .MV     07 010 01 00:   SPONTANEOUS POTENTIAL
 TENR.LBS    07 635 01 00:   TENSION FROM RESISTIVITY
 RILM.OHMM   07 120 44 00:   RESISTIVITY INDUCTION LOG MEDIUM
 CNC .DEC    42 890 03 00:   NEUTRON POROSITY SANDSTONE
 CALD.IN     45 280 60 00:   CALIPER FROM DENSITY LOG
 GRD .GAPI   45 310 01 00:   GAMMA RAY FROM DENSITY LOG
 RHOB.G/C3   45 350 01 00:   BULK DENSITY
 TEND.LBS    45 635 01 00:   TENSION FORM DENSITY LOG
 CORR.G/C3   45 356 01 00:   DENSITY CORRECTION
 RILD.OHMM   07 120 46 00:   RESISTIVITY INDUCTION LOG DEEP
 RFOC.OHMM   07 220 04 00:   RESISTIVITY FOCUSED
~PARAMETER INFORMATION
#MNEM.UNIT          VALUE    DESCRIPTION
#----------   ------------   ------------------------------
 EKB .F         5224.0000:   Kelly bushing
 EGL .F         5212.0000:   Ground level
 EDF .F            0.0000:   Drilling floor
 TD  .F         3231.0000:   Total depth
 CLNT.            A2DTECH:   Client Code
 SL  . 296' FSL & 1435' FWL:   Surface Location
 PD  .                 GL:   Permanent Datum
 EPD .F              5212:   Elevation Permanent Datum
 LMF .                 KB:   Log Measured From
 DMF .                 KB:   Drilling Measured From
 DAPD.F                12:   Feet Above Permanent Datum
 DATE.        02-AUG-1986:   Date Logged [DD-MMM-YYYY]
 DD  .F              3230:   Depth driller
 DL  .F              3231:   Depth logger
 BLI .F              3229:   Bottom log interval
 TLI .F                11:   Top log interval
 CS1 .IN            8.625:   Casing size
 CBD1.      8.625" @ 626':   Casing driller 1
 CBL1.F               626:   Casing logger 1
 BS1 .IN            7.875:   Bit size
 BSD1.F              3230:   Depth drilled with bit1
 DFT .            KCL-GEL:   Type fluid in hole
 DFD .                  9:   Density
 DFV .                 36:   Viscosity
 DFPH.               10.5:   pH
 DFL .                 12:   Fluid loss
 MSS .           FLOWLINE:   Source of sample
 RMS .OHMM          0.263:   Rm
 MST .F               100:   Rm Meas. temp.
 RMF .OHMM          0.197:   Rmf
 MFST.F               100:   Rmf Meas. temp.
 MFSS.               MEAS:   Source Rmf.
 RMC .OHMM          0.329:   Rmc
 MCST.F               100:   Rmc Meas. temp.
 MCSS.               CALC:   Source Rmc.
 RMB .OHMM          0.193:   Rm. at BHT
 BHT .F               136:   BHT.
 TCS .HRS               5:   Time Circ. stopped
 MRT .F               136:   Maximum recorded temp.
 LUN .            HL-6274:   Logging unit number
 LUL .           GILLETTE:   Logging unit location
 ENGI.            PANASUK:   Recorded By
 WITN.             STRONG:   Witnessed by
 ORIG.        2" 5" PRINT:   Origin of data
 UWI .       490251120600:   Unique Well ID
 DICO. A2D TECHNOLOGIES, INC.:   Digitizing Company
~OTHER INFORMATION
~A   DEPT       GRR       SPR       TENR       RILM        CNC       CALD        GRD       RHOB       TEND       CORR       RILD       RFOC   
# ...
 2810.0000    80.4027   -18.7879   -62.6646    14.1626     0.2067     9.6672    81.1498     2.4621   -63.1846     0.0204    18.2797    17.3843
 2810.5000    79.7869   -18.6455   -62.3733    14.0642     0.2070     9.6667    79.3199     2.4531   -55.7427    -0.0053    18.4051    16.4379
 2811.0000    79.1711   -18.6527   -62.0822    13.8695     0.2118     9.6511    78.0980     2.4463   -55.9724    -0.0098    18.5314    15.5430
 2811.5000    77.6462   -18.5067   -54.2297    13.8695     0.2227     9.6356    78.6916     2.4433   -56.2381     0.0023    18.3996    14.9006
 2812.0000    78.0002   -18.5158   -53.8742    13.8695     0.2178     9.6199    82.0083     2.4425   -56.4567     0.0310    18.2693    15.2143
 2812.5000    82.1698   -18.2200   -53.5829    13.9665     0.2078     9.6043    84.1147     2.4425   -56.6753     0.0386    17.8887    16.7710
 2813.0000    83.6777   -17.9242   -53.2918    14.1626     0.2035     9.6039    84.4057     2.4402   -56.8939     0.0446    17.7621    17.4839
 2813.5000    83.0595   -17.4788   -53.0005    14.3615     0.2063     9.5793    81.9707     2.4334   -64.7780     0.0461    17.8839    16.7642
 2814.0000    80.3225   -17.1812   -60.2623    14.5632     0.2032     9.5728    81.0514     2.4221   -65.0426     0.0416    18.1320    15.5234
 2814.5000    80.2658   -16.7358   -59.9698    14.7677     0.1996     9.5571    82.8553     2.4259   -65.2612     0.0371    18.2570    14.7810
 2815.0000    81.5152   -16.4898   -59.6676    14.9750     0.1956     9.5415    84.6591     2.4373   -65.4798     0.0325    18.5103    16.2104
 2815.5000    83.3705   -15.9927   -59.3158    15.1853     0.1932     9.4957    85.2527     2.4531   -58.0398     0.0265    18.7683    17.3441
 2816.0000    84.5260   -15.5455   -59.0246    15.5063     0.1948     9.4849    80.6996     2.4561   -58.3147     0.0038    19.2959    18.0814
 2816.5000    80.2714   -15.4436   -66.2863    15.8340     0.1992     9.4646    79.1752     2.4501   -58.5333    -0.0083    19.5642    17.4585
 2817.0000    77.8375   -15.4085   -65.9950    15.9448     0.1995     9.4471    79.1637     2.4493   -58.7519     0.0023    19.5609    18.5853
 2817.5000    77.2217   -15.2642   -73.2628    16.0564     0.1995     9.4182    80.0598     2.4569   -58.9705     0.0180    19.1535    20.2032
 2818.0000    79.3332   -14.9703   -80.5184    15.1853     0.1979     9.4178    79.4431     2.4622   -59.1891     0.0356    18.7545    21.3578
 2818.5000    79.6265   -14.6745   -72.6016    14.2617     0.1879     9.4174    75.6595     2.4576   -59.4623     0.0386    18.4923    18.7031
 2819.0000    72.9477   -14.3788   -72.3104    13.7731     0.1829     9.4321    67.9193     2.4523   -59.6809     0.0446    18.2338    15.8181
 2819.5000    68.0895   -14.0830   -64.4664    13.5824     0.1824     9.4316    66.0952     2.4501   -59.8775     0.0537    17.9788    14.5456
 2820.0000    65.0494   -13.7891   -64.1751    13.9665     0.1870     9.4463    70.0142     2.4652   -60.1181     0.0504    17.7274    13.8499
 2820.5000    70.1912   -14.0994   -56.3311    14.3705     0.1924     9.4458    76.9617     2.4860   -60.3369     0.0310    17.4791    15.3738
 2821.0000    75.3330   -14.5612   -56.0398    14.6651     0.1963     9.4453    80.2981     2.5015   -60.6100     0.0204    17.2347    16.7307
 2821.5000    80.1853   -15.0230   -55.7402    14.7677     0.2048     9.4449    82.9871     2.5030   -60.8286     0.0159    16.9938    17.9143
 2822.0000    82.2833   -15.4848   -47.8318    14.9750     0.2102     9.4445    83.8833     2.4955   -61.0472     0.0280    16.9915    18.4173
 2822.5000    81.3620   -16.2500   -47.5407    15.1853     0.2066     9.4439    83.5720     2.4924   -61.2658     0.0310    17.1081    19.0668
 2823.0000    82.5644   -16.8648   -47.2494    15.3985     0.2054     9.4436    84.4653     2.4924   -61.4854     0.0234    17.5963    19.6021
 2823.5000    83.7692   -17.1752   -46.9583    15.6148     0.2063     9.4431    85.0590     2.4902   -61.7577     0.0144    18.7255    19.5982
 2824.0000    83.7571   -17.3339   -54.2296    15.0798     0.2059     9.4426    81.2956     2.4781   -61.9449     0.0159    19.3879    18.7877
 2824.5000    80.1110   -17.1894   -53.9275    14.9750     0.2014     9.4422    77.1660     2.4675   -64.5880     0.0174    17.9535    17.6441
 2825.0000    74.5134   -16.8939   -62.4345    15.0798     0.1920     9.4265    72.0107     2.4569   -70.0703     0.0204    17.2156    16.8002
 2825.5000    69.1800   -16.2702   -76.0049    15.2916     0.1910     9.4261    68.3682     2.4539   -77.9479     0.0250    16.3934    16.2214
 2826.0000    66.1400   -15.6964   -83.2666    15.5063     0.1941     9.4257    65.6335     2.4592   -85.8215     0.0295    16.1642    15.8824
 2826.5000    64.6176   -15.4006   -75.3497    15.7240     0.1919     9.4252    66.5591     2.4682   -70.7808     0.0310    16.8822    16.7901
 2827.0000    70.3630   -15.4097   -67.5057    15.9589     0.1904     9.4248    71.6589     2.4735   -70.9994     0.0310    18.4482    18.3793
 2827.5000    78.2321   -15.8715   -74.7733    16.1687     0.1935     9.4244    81.6322     2.4690   -71.2180     0.0295    19.6410    19.8771
 2828.0000    87.9733   -16.3333   -74.4713    16.0564     0.2031     9.4238    88.8824     2.4629   -71.4396     0.0232    18.5723    20.9743
 2828.5000    90.6344   -16.7970   -74.1121    15.7240     0.2061     9.4234    91.5939     2.4622   -71.7099     0.0068    17.9336    20.9690
 2829.0000    91.5362   -16.9558   -88.9268    15.3985     0.2006     9.4230    93.7004     2.4690   -71.9284    -0.0083    17.4380    20.5308
 2829.5000    92.7362   -17.4176  -103.7412    14.8710     0.1961     9.4225    98.8005     2.4796   -72.1470     0.0008    17.1887    19.2782
 2830.0000   101.2121   -18.6370   -88.3444    14.9265     0.1948     9.4221   104.5669     2.4962   -80.0226     0.0129    16.9533    17.6128
 2830.5000   104.6366   -19.4018   -65.3945    15.2916     0.1951     9.4216   106.0711     2.4978   -80.2450     0.0159    16.9510    17.9843
 2831.0000   106.6500   -20.0152   -49.9976    15.6148     0.1939     9.4212   104.2412     2.4948   -72.8028    -0.0008    16.8310    18.7358
 2831.5000   103.0033   -20.4788   -49.6979    15.7240     0.1939     9.4255   102.4142     2.4546   -73.0761    -0.0113    16.9471    19.2618
 2832.0000    98.4495   -20.6376   -49.3423    15.8340     0.2002     9.4354    98.3304     2.4440   -65.5831    -0.0098    17.1827    19.8025
 2832.5000    95.1078   -20.6449   -49.0512    15.9448     0.2023     9.4349    94.2216     2.4455   -65.8563    -0.0098    17.4211    20.2170
 2833.0000    93.2728   -20.6521   -52.7338    16.0564     0.2002     9.4495    96.6277     2.4539   -66.0796    -0.0083    17.6781    20.3545
 2833.5000    96.9992   -20.6594   -56.0945    16.1687     0.1962     9.4477    97.2242     2.4638   -74.0052    -0.0144    17.9090    20.6436
 2834.0000    98.4162   -20.6667   -55.7304    16.0564     0.1965     9.4335    93.8814     2.4682   -74.2238    -0.0204    18.1580    21.0670
 2834.5000    90.8301   -20.6742   -55.4381    15.9448     0.1968     9.4331    87.8184     2.4667   -89.7562    -0.0280    18.1550    20.6267
 2835.0000    85.9733   -20.5297   -55.1359    15.8340     0.1971     9.4175    87.8039     2.4660   -97.6318    -0.0356    18.1525    19.5038
 2835.5000    85.6640   -20.5388   -54.8339    15.7240     0.1977     9.4322    88.4004     2.4682   -97.8561    -0.0292    18.0240    18.7009
 2836.0000    87.4718   -20.3927   -54.4929    15.7240     0.2050     9.4621    87.7808     2.4720   -98.1236    -0.0113    17.7670    17.8066
 2836.5000    88.3726   -20.0988   -58.3020    15.6148     0.2104     9.4768    87.4667     2.4796   -90.6853    -0.0023    17.5229    17.3116
 2837.0000    88.0592   -20.1061   -61.5361    15.6148     0.2004     9.5066    85.0345     2.4864   -90.9039     0.0038    17.2780    17.1896
 2837.5000    85.6266   -19.9618   -61.1722    15.2916     0.1916     9.5363    80.9374     2.4894   -91.1225     0.0098    16.6838    17.9194
