~VERSION INFORMATION
 VERS.                2.0:   CWLS LOG ASCII STANDARD - VERSION 2.0
 WRAP.                 NO:   ONE LINE PER DEPTH STEP
~WELL INFORMATION
#MNEM.UNIT      DATA TYPE    INFORMATION
#----------   ------------   ------------------------------
 STRT.F            9.0000:   START DEPTH
 STOP.F         2876.0000:   STOP DEPTH
 STEP.F            0.5000:   STEP LENGTH
 NULL.          -999.2500:   NO VALUE
 COMP.    FENIX & SCISSON:   COMPANY
 WELL. FENIX & SCISSON "AX" #82-29:   WELL
 FLD .        TEAPOT DOME:   FIELD
 LOC .      S29 T39N R78W:   LOCATION
 CNTY.            NATRONA:   COUNTY
 STAT.            WYOMING:   STATE
 CTRY. UNITED STATES OF AMERICA:   COUNTRY
 SRVC.           BIRDWELL:   SERVICE COMPANY
 DATE.        12-JAN-1980:   LOGDATE
 API .     49025107980000:   API NUMBER
~CURVE INFORMATION
#MNEM.UNIT       API CODE    CURVE DESCRIPTION
#----------   ------------   ------------------------------
 DEPT.F                  :   
 GRD .GAPI   45 310 01 00:   GAMMA RAY FROM DENSITY LOG
 CALD.IN     45 280 60 00:   CALIPER FROM DENSITY LOG
 CORR.G/C3   45 356 01 00:   DENSITY CORRECTION
 RHOB.G/C3   45 350 01 00:   BULK DENSITY
 SPR .MV     07 010 01 00:   SPONTANEOUS POTENTIAL
 ILD .OHMM   07 120 46 00:   DEEP INDUCTION RESISTIVITY
 SN  .OHMM   07 220 01 00:   SHALLOW FOCUSED LOG RESISTIVITY
~PARAMETER INFORMATION
#MNEM.UNIT          VALUE    DESCRIPTION
#----------   ------------   ------------------------------
 EKB .F         4985.0000:   Kelly bushing
 EGL .F         4973.0000:   Ground level
 EDF .F         4982.0000:   Drilling floor
 TD  .F         2876.0000:   Total depth
 CLNT.            A2DTECH:   Client Code
 SL  . 1821' FEL & 414' FEL:   Surface Location
 DATE.        12-JAN-1980:   Date Logged [DD-MMM-YYYY]
 DD  .F              2870:   Depth driller
 DL  .F              2876:   Depth logger
 BLI .F              2876:   Bottom log interval
 TLI .F               320:   Top log interval
 CS1 .IN            8.625:   Casing size
 CBD1.      8.625" @ 280':   Casing driller 1
 CBL1.IN              320:   Casing logger 1
 BS1 .IN            7.875:   Bit size
 BSD1.F              2870:   Depth drilled with bit1
 DFT .            GEL MUD:   Type fluid in hole
 DFD .                8.7:   Density
 DFV .                 53:   Viscosity
 DFPH.               10.5:   pH
 DFL .               15.4:   Fluid loss
 MSS .            MUD PIT:   Source of sample
 RMS .OHMM            1.8:   Rm
 MST .F                50:   Rm Meas. temp.
 RMF .OHMM            1.4:   Rmf
 MFST.F                60:   Rmf Meas. temp.
 MFSS.               MEAS:   Source Rmf.
 RMC .OHMM            1.9:   Rmc
 MCST.F                60:   Rmc Meas. temp.
 MCSS.               MEAS:   Source Rmc.
 RMB .OHMM           0.65:   Rm. at BHT
 BHT .F               138:   BHT.
 TCS .HRS              11:   Time Circ. stopped
 MRT .F               138:   Maximum recorded temp.
 LUN .               3029:   Logging unit number
 LUL .             CASPEL:   Logging unit location
 ENGI.           T. VOLFF:   Recorded By
 WITN.          MR. AMEND:   Witnessed by
 ORIG.         2.5" PRINT:   Origin of data
 UWI .     49025107980000:   Unique Well ID
 DICO. A2D TECHNOLOGIES,INC.:   Digitizing Company
 PD  .                 GL:   Permanent Datum
 EPD .F              4973:   Elevation Permanent Datum
 LMF .                 DF:   Log Measured From
 DMF .                 KB:   Drilling Measured From
 DAPD.F                 9:   Feet Above Permanent Datum
~OTHER INFORMATION
~A    DEPT      GRD      CALD       CORR       RHOB        SPR        ILD         SN   
# ...
 2648.0000   126.9362     9.5415     0.0044     2.5405   -15.7073     6.3613     7.0381
 2648.5000   127.7386     9.5631     0.0031     2.5371   -16.1696     6.4265     7.0381
 2649.0000   129.4013     9.5617     0.0031     2.5420   -17.3994     6.5168     7.0381
 2649.5000   130.3877     9.5605     0.0031     2.5481   -17.8366     6.5163     7.0381
 2650.0000   131.1550     9.5593     0.0030     2.5496   -17.2254     6.5158     7.0381
 2650.5000   131.4499     9.5581     0.0030     2.5458   -16.3092     6.6073     7.1374
 2651.0000   131.7447     9.5566     0.0030     2.5404   -15.9337     6.6068     7.1325
 2651.5000   131.1262     9.5858     0.0061     2.5358   -16.6642     6.6063     7.1374
 2652.0000   128.6857     9.5847     0.0120     2.5357   -14.7804     6.6059     7.1374
 2652.5000   131.1084     9.5835     0.0150     2.5373   -15.9984     6.6054     7.0381
 2653.0000   136.8746     9.5823     0.0150     2.5403   -16.0088     6.6050     7.0381
 2653.5000   138.3855     9.5811     0.0149     2.5370   -15.0808     6.6045     7.0381
 2654.0000   137.4648     9.5799     0.0138     2.5300   -16.9370     6.5121     7.0381
 2654.5000   135.3282     9.5788     0.0093     2.5219   -17.8218     6.5117     6.9401
 2655.0000   133.7536     9.5775     0.0012     2.5227   -15.9300     6.5037     6.8999
 2655.5000   131.2317     9.5763    -0.0050     2.5284   -15.6844     6.4075     6.7982
 2656.0000   128.8694     9.5751    -0.0004     2.5209   -15.9880     6.2422     6.6981
 2656.5000   128.9743     9.5738     0.0026     2.5103   -15.9862     6.1548     6.6543
 2657.0000   129.2048     9.5727     0.0117     2.5112   -16.2896     6.0420     6.6543
 2657.5000   129.0958     9.5714     0.0147     2.5247   -16.1458     5.8697     6.5616
 2658.0000   126.9735     9.5702     0.0177     2.5293   -15.9817     5.7829     6.5616
 2658.5000   125.8471     9.5690     0.0146     2.5277   -15.6753     5.6974     6.3802
 2659.0000   130.5319     9.5979     0.0116     2.5307   -15.9784     5.5349     6.2914
 2659.5000   128.4403     9.5968     0.0025     2.5368   -18.1110     5.4995     6.2038
 2660.0000   124.8918     9.5956     0.0024     2.5398   -19.6339     5.4226     6.1174
 2660.5000   124.5790     9.5944     0.0121     2.5245   -19.6325     5.4222     6.1224
 2661.0000   124.8741     9.5932     0.0145     2.5123   -18.4115     5.4218     6.2140
 2661.5000   126.0810     9.5920     0.0034     2.5176   -17.1905     5.4215     6.2914
 2662.0000   131.5433     9.5909    -0.0007     2.5290   -17.1890     5.4211     6.2914
 2662.5000   135.7903     9.5897     0.0095     2.5271   -17.1875     5.4207     6.3802
 2663.0000   135.7808     9.5884     0.0160     2.5168   -17.1695     5.4969     6.4703
 2663.5000   140.9391     9.5872     0.0143     2.5204   -16.2698     5.6588     6.5616
 2664.0000   142.1461     9.5861     0.0113     2.5199   -16.3655     5.8131     6.6543
 2664.5000   142.5276     9.5848     0.0112     2.5174   -16.9417     5.8283     6.7036
 2665.0000   144.7866     9.5836     0.0051     2.5134   -16.8750     5.8944     6.6934
 2665.5000   147.0524     9.5824     0.0051     2.5044   -16.1663     5.8939     6.6543
 2666.0000   147.8857     9.5811     0.0051     2.5089   -15.5385     5.8635     6.6543
 2666.5000   139.7016     9.5800     0.0020     2.5104   -15.7810     5.8111     6.6543
 2667.0000   137.4196     9.5785     0.0020     2.5104   -16.5515     5.8107     6.6543
 2667.5000   139.0810     9.6079     0.0020     2.5104   -17.4977     5.8103     6.6543
 2668.0000   140.2736     9.6065     0.0014     2.5180   -18.2642     5.8098     6.6543
 2668.5000   137.1151     9.6053     0.0041     2.5180   -18.9982     5.8094     6.6543
 2669.0000   126.2474     9.6042     0.0149     2.5228   -18.6918     5.8911     6.6543
 2669.5000   120.1595     9.6334     0.0211     2.5305   -17.1660     5.8906     6.6644
 2670.0000   121.0625     9.6322     0.0274     2.5350   -17.7742     5.9734     6.8596
 2670.5000   125.0050     9.6310     0.0291     2.5362   -18.9923     6.0573     7.0381
 2671.0000   126.2128     9.6602     0.0290     2.5402   -18.6859     6.1424     7.0662
 2671.5000   125.2912     9.6590     0.0260     2.5443   -16.8552     6.1419     7.0381
 2672.0000   124.6744     9.6578     0.0259     2.5418   -16.8580     6.1415     6.7678
 2672.5000   124.3616     9.6565     0.0168     2.5192   -17.5022     6.0451     6.5198
 2673.0000   125.2919     9.6553     0.0107     2.5161   -18.3751     5.8728     6.2461
 2673.5000   128.5992     9.6541     0.0046     2.5192   -18.3735     5.7246     6.0202
 2674.0000   128.2009     9.6833     0.0076     2.5237   -18.3719     5.7002     5.8655
 2674.5000   127.2458     9.6821     0.0106     2.5267   -18.2851     5.5377     5.8655
 2675.0000   126.0639     9.6809     0.0103     2.5298   -17.6574     5.4558     5.8655
 2675.5000   125.1261     9.6794     0.0075     2.5297   -17.3348     5.3002     5.8655
 2676.0000   124.6034     9.6782     0.0038     2.5282   -17.1463     5.1492     5.8655
 2676.5000   126.3133     9.6771     0.0006     2.5174   -17.1448     4.9044     5.8655
 2677.0000   129.0881     9.6759    -0.0087     2.5113   -17.1433     4.9040     5.8655
 2677.5000   131.8388     9.7052    -0.0138     2.5240   -17.1415     4.9729     5.8655
 2678.0000   128.8506     9.7343    -0.0051     2.5265   -17.1400     5.1862     5.8655
 2678.5000   127.5941     9.7331     0.0134     2.5215   -17.1385     5.4849     5.9887
 2679.0000   127.5853     9.7647     0.0194     2.5168   -17.1370     5.8009     6.5101
 2679.5000   128.4882     9.7916     0.0255     2.5158   -17.4404     5.9654     6.7744
 2680.0000   138.8137     9.7963     0.0285     2.5157   -18.3536     6.1346     6.9728
 2680.5000   138.5009     9.8274     0.0254     2.5172   -18.9618     6.2208     7.0381
 2681.0000   137.2762     9.8584     0.0254     2.5126   -19.8750     6.2103     6.6642
 2681.5000   135.1397     9.8780     0.0163     2.5202   -20.4832     6.1184     6.2914
 2682.0000   131.4772     9.9070     0.0132     2.5293   -19.8475     5.8423     6.0591
 2682.5000   131.1702     9.9058     0.0132     2.5354   -19.5248     5.3944     5.3173
 2683.0000   131.1217     9.9219     0.0132     2.5356   -18.8974     4.7170     4.4939
 2683.5000   130.0949     9.9639     0.0131     2.5293   -18.2697     4.2461     3.9061
 2684.0000   124.7598     9.9931     0.0131     2.5338   -17.8576     3.9742     3.7981
 2684.5000   125.0560     9.9920     0.0141     2.5400   -17.1204     3.7786     3.7452
 2685.0000   124.2097    10.0213     0.0161     2.5462   -16.9969     3.7314     3.9061
 2685.5000   121.6281    10.0200     0.0130     2.5507   -16.8125     3.9140     4.4939
 2686.0000   120.0242    10.0188     0.0130     2.5520   -16.8110     4.0251     5.0369
 2686.5000   121.2418    10.0176     0.0129     2.5470   -16.8095     3.9687     5.6462
 2687.0000   127.6544    10.0165     0.0099     2.5391   -17.1125     4.2566     6.0580
 2687.5000   134.4208    10.0152     0.0038     2.5178   -17.7208     4.8287     6.2914
 2688.0000   146.2661    10.0445     0.0007     2.4964   -18.6339     5.7936     6.4946
 2688.5000   148.9708    10.0432     0.0158     2.4784   -18.9375     6.6650     6.5917
 2689.0000   154.1846    10.0419     0.0461     2.4724   -18.7855     6.8540     6.6543
 2689.5000   158.7372    10.0407     0.0703     2.4724   -18.3247     6.7582     6.7482
 2690.0000   159.7567    10.0395     0.0825     2.4830   -17.1034     6.5556     6.7013
 2690.5000   149.2597    10.0383     0.0779     2.5044   -17.1019     6.3490     6.5106
 2691.0000   127.9513    10.0371     0.0465     2.5091   -18.0150     6.1010     6.2914
 2691.5000   122.8851    10.0356     0.0066     2.5009   -19.5379     5.9271     6.2038
 2692.0000   118.5355    10.0649     0.0005     2.5348   -19.5934     5.8394     6.0323
 2692.5000   119.8478    10.0941     0.0005     2.5411   -18.9252     5.8274     6.1174
 2693.0000   121.4624    10.0929     0.0038     2.5407   -18.0091     5.9575     6.2038
