~VERSION INFORMATION
 VERS.                2.0:   CWLS LOG ASCII STANDARD - VERSION 2.0
 WRAP.                 NO:   ONE LINE PER DEPTH STEP
~WELL INFORMATION
#MNEM.UNIT      DATA TYPE    INFORMATION
#----------   ------------   ------------------------------
 STRT.F          192.0000:   START DEPTH
 STOP.F         3016.0000:   STOP DEPTH
 STEP.F            0.5000:   STEP LENGTH
 NULL.          -999.2500:   NO VALUE
 COMP. FENIX & SCISSON U.S. NAVY:   COMPANY
 WELL.  FENIX "AX" #81-33:   WELL
 FLD .              NPR-3:   FIELD
 LOC .      S33 T39N R78W:   LOCATION
 CNTY.            NATRONA:   COUNTY
 STAT.            WYOMING:   STATE
 CTRY. UNITED STATES OF AMERICA:   COUNTRY
 SRVC.              WELEX:   SERVICE COMPANY
 DATE.        12-MAY-1977:   LOGDATE
 API .     49025109850000:   API NUMBER
~CURVE INFORMATION
#MNEM.UNIT       API CODE    CURVE DESCRIPTION
#----------   ------------   ------------------------------
 DEPT.F                  :   
 SPR .MV     07 010 01 00:   SPONTANEOUS POTENTIAL
 RILM.OHMM   07 120 44 00:   INDUCTION LOG MEDIUM RESISTIVITY
 RILD.OHMM   07 120 46 00:   DEEP INDUCTION RESISTIVITY
 SGRD.OHMM   07 220 05 00:   SHALLOW GUARD LOG RESISTIVITY
 NPHI.DEC    42 890 03 00:   NEUTRON POROSITY SANDSTONE
 GRD .GAPI   45 310 01 00:   GAMMA RAY FROM DENSITY LOG
 CALD.IN     45 280 60 00:   CALIPER FROM DENSITY LOG
 RHOB.G/C3   45 350 01 00:   BULK DENSITY
 DCOR.G/C3   45 356 01 00:   DENSITY CORRECTION
~PARAMETER INFORMATION
#MNEM.UNIT          VALUE    DESCRIPTION
#----------   ------------   ------------------------------
 EKB .F         5114.0000:   Kelly bushing
 EGL .F         5100.0000:   Ground level
 EDF .F         5112.0000:   Drilling floor
 TD  .F         3014.0000:   Total depth
 DATE.        12-MAY-1977:   Date logged
 CLNT.            A2DTECH:   Client Code
 SL  . 660' FEL & 660' FNL:   Surface Location
 PD  .                 GL:   Permanent Datum
 EPD .F              5100:   Elevation Permanent Datum
 LMF .                 KB:   Log Measured From
 DMF .                 KB:   Drilling Measured From
 DD  .F              3000:   Depth driller
 DL  .F              3014:   Depth logger
 BLI .F              3012:   Bottom log interval
 TLI .F              1500:   Top log interval
 CS1 .IN            8.625:   Casing size
 CBD1.      8.625" @ 217':   Casing driller 1
 CBL1.F               209:   Casing logger 1
 BS1 .IN            7.875:   Bit size
 BSD1.F              3000:   Depth drilled with bit1
 DFT .            KCL MUD:   Type fluid in hole
 DFD .                  9:   Density
 DFV .                 33:   Viscosity
 DFPH.                7.5:   pH
 DFL .                7.8:   Fluid loss
 MSS .           FLOWLINE:   Source of sample
 RMS .OHMM           0.69:   Rm
 MST .F                68:   Rm Meas. temp.
 RMF .OHMM           0.66:   Rmf
 MFST.F                68:   Rmf Meas. temp.
 RMC .OHMM           1.27:   Rmc
 MCST.F                68:   Rmc Meas. temp.
 MFSS.                 BK:   Source Rmf.
 MCSS.                 BK:   Source Rmc.
 RMB .OHMM           0.39:   Rm. at BHT
 BHT .F               118:   BHT.
 TCS .HRS               6:   Time Circ. stopped
 MRT .F               118:   Maximum recorded temp.
 LUN .               9685:   Logging unit number
 LUL .           BRIGHTON:   Logging unit location
 ENGI.          T. JOYNER:   Recorded By
 WITN.            K. JAPP:   Witnessed by
 ORIG.           5" PRINT:   Origin of data
 UWI .     49025109850000:   Unique Well ID
 DICO. A2D TECHNOLOGIES, INC.:   Digitizing Company
~OTHER INFORMATION
~A   DEPT      SPR       RILM       RILD       SGRD       NPHI         GRD        CALD       RHOB     DCOR   
# ...
 2236.0000   -22.4510     4.9890     4.3680     6.3290  -999.2500   117.7220     9.1540     2.5520     0.0740
 2236.5000   -22.4510     5.0150     4.3890     6.3810  -999.2500   117.3190     9.1520     2.5490     0.0770
 2237.0000   -22.4510     5.0150     4.4100     6.4270  -999.2500   117.3260     9.1400     2.5460     0.0740
 2237.5000   -22.4510     5.0150     4.4310     6.3610  -999.2500   117.4040     9.1290     2.5430     0.0700
 2238.0000   -22.4510     4.8880     4.4500     6.3010  -999.2500   118.3960     9.1180     2.5410     0.0620
 2238.5000   -22.4510     4.6590     4.3700     6.2410  -999.2500   120.3680     9.1070     2.5380     0.0600
 2239.0000   -22.4510     4.6590     4.2980     6.1810  -999.2500   122.4800     9.0960     2.5400     0.0640
 2239.5000   -22.4510     4.6590     4.2250     6.0510  -999.2500   124.6030     9.0840     2.5430     0.0680
 2240.0000   -22.4510     4.4980     4.1530     5.7580  -999.2500   126.7870     9.0730     2.5450     0.0720
 2240.5000   -22.4510     4.3520     4.0810     5.4660  -999.2500   126.2860     9.0620     2.5440     0.0700
 2241.0000   -22.4510     4.2500     4.0380     5.2020  -999.2500   125.5780     9.0510     2.5420     0.0680
 2241.5000   -22.4510     4.3650     4.0090     5.5170  -999.2500   124.8780     9.0390     2.5400     0.0660
 2242.0000   -22.4510     4.4530     3.9800     5.9160  -999.2500   124.2130     9.0280     2.5410     0.0640
 2242.5000   -22.4510     4.5320     3.9500     6.1950  -999.2500   124.3670     9.0180     2.5420     0.0620
 2243.0000   -22.4060     4.4620     3.9210     6.1030  -999.2500   126.9470     9.0250     2.5430     0.0640
 2243.5000   -22.3170     4.3980     3.8770     5.8260  -999.2500   129.4350     9.0320     2.5470     0.0660
 2244.0000   -22.2510     4.3340     3.8850     5.4590  -999.2500   131.6770     9.0390     2.5500     0.0680
 2244.5000   -22.2440     4.2890     3.9010     5.2020  -999.2500   132.3130     9.0460     2.5540     0.0700
 2245.0000   -22.2350     4.3540     3.9420     5.4600  -999.2500   132.7780     9.0520     2.5570     0.0730
 2245.5000   -22.2270     4.5200     4.0390     5.7970  -999.2500   131.9200     9.0590     2.5610     0.0730
 2246.0000   -22.2180     4.7360     4.1370     6.4560  -999.2500   130.5320     9.0660     2.5640     0.0690
 2246.5000   -22.2100     4.9530     4.2340     6.9870  -999.2500   129.3900     9.0730     2.5680     0.0660
 2247.0000   -22.2010     5.1350     4.3310     7.2430  -999.2500   128.2060     9.0790     2.5710     0.0620
 2247.5000   -22.1930     5.2840     4.4290     7.2160  -999.2500   127.0130     9.0860     2.5750     0.0580
 2248.0000   -22.1840     5.4470     4.5260     7.1860  -999.2500   125.7570     9.0930     2.5780     0.0550
 2248.5000   -22.1760     5.3910     4.6240     7.0640  -999.2500   125.6850     9.0970     2.5810     0.0530
 2249.0000   -22.1670     5.3300     4.7210     6.9030  -999.2500   126.7460     9.0940     2.5890     0.0550
 2249.5000   -22.1590     5.2990     4.7990     6.7820  -999.2500   129.2880     9.0910     2.5970     0.0580
 2250.0000   -22.1500     5.3280     4.8330     6.6680  -999.2500   131.1850     9.0880     2.5990     0.0570
 2250.5000   -22.1420     5.3480     4.8660     6.7480  -999.2500   131.6940     9.0850     2.5950     0.0500
 2251.0000   -22.1330     5.4170     4.8990     6.8370  -999.2500   131.0220     9.0820     2.5940     0.0490
 2251.5000   -22.1240     5.4800     4.9320     6.9250  -999.2500   130.1060     9.0790     2.5980     0.0510
 2252.0000   -22.1160     5.5480     4.9690     7.0140  -999.2500   129.1380     9.0770     2.6030     0.0540
 2252.5000   -22.1070     5.4970     4.7890     7.1110  -999.2500   129.3950     9.0740     2.6080     0.0560
 2253.0000   -22.0990     5.5210     4.7890     7.1540  -999.2500   130.1120     9.0710     2.6120     0.0580
 2253.5000   -22.0900     5.5680     4.7890     7.2010  -999.2500   130.8480     9.0680     2.6180     0.0610
 2254.0000   -22.0820     5.6150     4.9230     7.2430  -999.2500   131.5740     9.0650     2.6130     0.0610
 2254.5000   -22.0730     5.6620     4.9090     7.2040  -999.2500   131.2270     9.0620     2.6100     0.0580
 2255.0000   -22.0650     5.6970     4.8880     7.1500  -999.2500   130.7140     9.0590     2.6150     0.0560
 2255.5000   -22.0670     5.6080     4.8680     7.0950  -999.2500   130.1990     9.0600     2.6200     0.0540
 2256.0000   -22.0990     5.5230     4.8480     7.0410  -999.2500   129.6840     9.0680     2.6230     0.0580
 2256.5000   -22.1290     5.3970     4.8270     6.9870  -999.2500   129.1700     9.0770     2.6150     0.0530
 2257.0000   -22.1600     5.4070     4.8070     6.9180  -999.2500   128.6550     9.0850     2.6160     0.0520
 2257.5000   -22.1910     5.4270     4.7920     7.0260  -999.2500   128.1410     9.0930     2.6060     0.0570
 2258.0000   -22.2220     5.4470     4.8300     7.1740  -999.2500   127.6260     9.1020     2.6090     0.0470
 2258.5000   -22.2530     5.5910     4.8660     7.3410  -999.2500   127.1120     9.1100     2.6050     0.0380
 2259.0000   -22.2550     5.7460     4.9020     7.5250  -999.2500   126.5970     9.1190     2.6000     0.0420
 2259.5000   -22.2550     5.9710     4.9380     7.7090  -999.2500   126.0980     9.1270     2.6020     0.0390
 2260.0000   -22.2550     5.9410     4.9720     7.8920  -999.2500   125.8050     9.1350     2.6060     0.0350
 2260.5000   -22.2550     5.8830     4.9950     8.0140  -999.2500   125.5220     9.1440     2.6090     0.0380
 2261.0000   -22.2550     5.8260     5.0160     7.7250  -999.2500   125.2380     9.1520     2.6090     0.0400
 2261.5000   -22.2550     5.7690     5.0240     7.5090  -999.2500   124.9550     9.1610     2.6070     0.0310
 2262.0000   -22.2550     5.7110     5.0320     7.2940  -999.2500   124.6710     9.1690     2.6030     0.0400
 2262.5000   -22.2550     5.6510     5.0400     7.1060  -999.2500   124.3830     9.1770     2.5970     0.0360
 2263.0000   -22.2550     5.6510     5.0480     7.0510  -999.2500   124.1300     9.1720     2.5910     0.0320
 2263.5000   -22.2550     5.6510     5.0560     7.1590  -999.2500   124.7570     9.1670     2.5860     0.0320
 2264.0000   -22.2550     5.7510     5.0600     7.4790  -999.2500   125.4230     9.1620     2.5890     0.0380
 2264.5000   -22.2540     5.8550     5.0520     7.7990  -999.2500   126.0850     9.1570     2.5920     0.0420
 2265.0000   -22.3070     5.9600     5.0450     7.9610  -999.2500   126.7460     9.1520     2.5950     0.0420
 2265.5000   -22.3800     6.0240     5.0380     7.9970  -999.2500   127.4080     9.1470     2.5940     0.0440
 2266.0000   -22.4530     5.9890     5.0310     8.0140  -999.2500   128.0690     9.1420     2.5910     0.0480
 2266.5000   -22.5270     5.9230     5.0250     7.6600  -999.2500   128.7320     9.1370     2.5870     0.0470
 2267.0000   -22.6000     5.7910     5.0170     7.3550  -999.2500   129.4000     9.1320     2.5890     0.0510
 2267.5000   -22.6740     5.6590     4.9890     7.0510  -999.2500   130.0480     9.1270     2.5950     0.0550
 2268.0000   -22.7480     5.5270     4.9430     6.7920  -999.2500   130.9070     9.1220     2.5980     0.0560
 2268.5000   -22.8230     5.4820     4.8400     6.8320  -999.2500   129.8860     9.1170     2.5870     0.0500
 2269.0000   -22.8770     5.4630     4.6940     6.8750  -999.2500   126.9740     9.1120     2.5750     0.0440
 2269.5000   -22.9270     5.4370     4.5660     6.9180  -999.2500   124.5000     9.1070     2.5670     0.0390
 2270.0000   -22.9760     5.3830     4.5200     6.7570  -999.2500   125.0620     9.1020     2.5590     0.0330
 2270.5000   -23.0250     5.3290     4.4950     6.5940  -999.2500   126.5680     9.0990     2.5530     0.0280
 2271.0000   -23.0740     5.2750     4.5350     6.4270  -999.2500   128.1690     9.1090     2.5510     0.0260
 2271.5000   -23.1230     5.2200     4.5740     6.5440  -999.2500   130.0110     9.1190     2.5510     0.0270
 2272.0000   -23.1720     5.1550     4.5460     6.6630  -999.2500   130.5080     9.1300     2.5530     0.0270
