~VERSION INFORMATION
 VERS.                2.0:   CWLS LOG ASCII STANDARD - VERSION 2.0
 WRAP.                 NO:   ONE LINE PER DEPTH STEP
~WELL INFORMATION
#MNEM.UNIT      DATA TYPE    INFORMATION
#----------   ------------   ------------------------------
 STRT.F          200.0000:   START DEPTH
 STOP.F         3209.0000:   STOP DEPTH
 STEP.F            0.5000:   STEP LENGTH
 NULL.          -999.2500:   NO VALUE
 COMP.    FENIX & SCISSON:   COMPANY
 WELL. FENIX & SCISSON "AX" #88-3:   WELL
 FLD .             NPR #3:   FIELD
 LOC .       S3 T38N R78W:   LOCATION
 CNTY.            NATRONA:   COUNTY
 STAT.            WYOMING:   STATE
 CTRY. UNITED STATES OF AMERICA:   COUNTRY
 SRVC.              WELEX:   SERVICE COMPANY
 DATE.        27-JUL-1977:   LOGDATE
 API .     49025104060000:   API NUMBER
~CURVE INFORMATION
#MNEM.UNIT       API CODE    CURVE DESCRIPTION
#----------   ------------   ------------------------------
 DEPT.F                  :   
 CALD.IN     45 280 60 00:   CALIPER FROM DENSITY LOG
 GRD .GAPI   45 310 01 00:   GAMMA RAY FROM DENSITY LOG
 RHOB.G/C3   45 350 01 00:   BULK DENSITY
 CORR.G/C3   45 356 01 00:   DENSITY CORRECTION
 NPHI.DEC    42 890 03 00:   NEUTRON POROSITY SANDSTONE
 SPR .MV     07 010 01 00:   SPONTANEOUS POTENTIAL
 SGRD.OHMM   07 220 05 00:   GUARD LOG RESISTIVITY
 FORX.OHMM   07 000 00 00:   
~PARAMETER INFORMATION
#MNEM.UNIT          VALUE    DESCRIPTION
#----------   ------------   ------------------------------
 EKB .F         5134.0000:   Kelly bushing
 EGL .F         5124.0000:   Ground level
 EDF .F            0.0000:   Drilling floor
 TD  .F         3211.0000:   Total depth
 CLNT.            A2DTECH:   Client Code
 SL  . 230' FSL & 380' FEL:   Surface Location
 PD  .                 GL:   Permanent Datum
 EPD .F              5124:   Elevation Permanent Datum
 LMF .                 KB:   Log Measured From
 DMF .                 KB:   Drilling Measured From
 DAPD.F                10:   Feet Above Permanent Datum
 DATE.        27-JUL-1977:   Date Logged [DD-MMM-YYYY]
 DD  .F              3200:   Depth driller
 DL  .F              3211:   Depth logger
 BLI .F              3210:   Bottom log interval
 TLI .F               200:   Top log interval
 CS1 .IN            8.625:   Casing size
 CBD1.      8.625" @ 218':   Casing driller 1
 CBL1.F               218:   Casing logger 1
 BS1 .IN            7.875:   Bit size
 BSD1.F              3200:   Depth drilled with bit1
 DFT .            KCL MUD:   Type fluid in hole
 DFD .                9.2:   Density
 DFV .                 36:   Viscosity
 DFPH.                9.5:   pH
 DFL .                9.6:   Fluid loss
 MSS .           FLOWLINE:   Source of sample
 RMS .OHMM           0.61:   Rm
 MST .F                85:   Rm Meas. temp.
 RMF .OHMM           0.53:   Rmf
 MFST.F                85:   Rmf Meas. temp.
 MFSS.               FANN:   Source Rmf.
 RMC .OHMM           0.48:   Rmc
 MCST.F                85:   Rmc Meas. temp.
 MCSS.                KIT:   Source Rmc.
 RMB .OHMM           0.42:   Rm. at BHT
 BHT .F               122:   BHT.
 TCS .HRS             2.5:   Time Circ. stopped
 MRT .F               122:   Maximum recorded temp.
 LUN .               8611:   Logging unit number
 LUL .             CASPER:   Logging unit location
 ENGI.            C. DOAK:   Recorded By
 WITN.      E. HARRINGTON:   Witnessed by
 ORIG.      2.5" 5" PRINT:   Origin of data
 UWI .     49025104060000:   Unique Well ID
 DICO. A2D TECHNOLOGIES, INC.:   Digitizing Company
~OTHER INFORMATION
~A   DEPT       CALD       GRD        RHOB      CORR        NPHI       SPR      SGRD         FORX 
# ...
 2954.0000     7.7961    44.6540     2.3147     0.1100     0.2029   -57.0575    14.4787     8.9728
 2954.5000     7.7958    43.5830     2.3216     0.1102     0.1994   -57.0735    14.0853     8.4866
 2955.0000     7.7954    42.6577     2.3283     0.1088     0.1999   -57.1140    13.9736     8.7878
 2955.5000     7.7951    41.5240     2.3307     0.1075     0.2023   -57.1528    14.1642     9.9637
 2956.0000     7.7948    40.6979     2.3255     0.1032     0.2064   -57.1918    14.7720    11.6144
 2956.5000     7.7945    39.8311     2.3157     0.0998     0.2052   -57.2310    14.2690    11.7087
 2957.0000     7.7942    39.2909     2.3077     0.0970     0.2045   -57.2705    13.9966     8.9460
 2957.5000     7.7949    38.6779     2.3041     0.0956     0.2041   -57.3085    14.1963     7.9108
 2958.0000     7.7805    38.1914     2.3068     0.0950     0.2046   -57.3489    14.5961     7.5941
 2958.5000     7.7687    38.2371     2.3155     0.0968     0.1907   -57.3888    15.2139     7.4922
 2959.0000     7.7560    38.6030     2.3239     0.0970     0.1839   -57.4199    15.6424     7.5972
 2959.5000     7.7577    39.5730     2.3299     0.1005     0.1812   -57.5650    15.8643     7.7034
 2960.0000     7.7593    41.2056     2.3331     0.1021     0.1843   -57.8704    15.6550     8.2507
 2960.5000     7.7611    44.0691     2.3370     0.1035     0.1886   -58.1663    15.0313     8.7167
 2961.0000     7.7629    46.6780     2.3400     0.1052     0.1898   -58.4648    14.8329     9.3359
 2961.5000     7.7604    49.5016     2.3412     0.1039     0.1904   -58.7643    14.6372     9.0856
 2962.0000     7.7516    53.1119     2.3416     0.1005     0.1904   -59.0632    14.4441     8.7219
 2962.5000     7.7533    57.3157     2.3413     0.0983     0.1898   -59.3596    15.5095     8.8440
 2963.0000     7.7551    60.6474     2.3403     0.0970     0.1898   -59.6619    15.6928     9.1728
 2963.5000     7.7569    64.0000     2.3397     0.0972     0.1886   -59.9606    14.9987    10.1450
 2964.0000     7.7587    66.9444     2.3402     0.0959     0.1886   -60.1863    13.9563     9.0425
 2964.5000     7.7605    70.7521     2.3436     0.0946     0.1886   -60.1107    13.1509     8.7307
 2965.0000     7.7623    73.9614     2.3520     0.0932     0.1885   -60.0515    13.2114     8.8530
 2965.5000     7.7640    76.7483     2.3603     0.0935     0.1872   -59.9795    13.5917     9.1872
 2966.0000     7.7658    78.4144     2.3641     0.0937     0.1825   -59.9126    13.9088     9.9327
 2966.5000     7.7825    77.8666     2.3672     0.0939     0.1756   -59.8453    13.6451    11.0732
 2967.0000     7.7844    70.4938     2.3673     0.0941     0.1732   -59.7770    13.0103    11.8029
 2967.5000     7.7861    64.8989     2.3620     0.0943     0.1931   -59.7095    12.1404    10.3706
 2968.0000     7.7879    61.3863     2.3571     0.0929     0.1992   -59.6417    11.8217     9.3627
 2968.5000     7.7739    60.0370     2.3541     0.0916     0.1991   -59.5743    11.8275    10.0283
 2969.0000     7.7467    59.0407     2.3535     0.0904     0.1944   -59.5064    11.9953    11.3450
 2969.5000     7.7271    58.2706     2.3566     0.0905     0.1897   -59.4396    12.1655    10.1705
 2970.0000     7.7177    58.0449     2.3738     0.0907     0.1862   -59.4081    12.5081     8.8715
 2970.5000     7.6929    57.1749     2.3896     0.0924     0.1826   -59.4028    13.0375     8.8461
 2971.0000     7.6945    56.8180     2.3942     0.0928     0.1790   -59.2372    13.4047     9.6345
 2971.5000     7.6963    56.0793     2.3876     0.0943     0.1784   -59.0670    13.6201     9.9605
 2972.0000     7.6981    55.2918     2.3832     0.0945     0.1802   -58.8902    12.8758     7.1326
 2972.5000     7.6999    54.6860     2.3818     0.0947     0.1802   -58.7224    12.3629     7.3320
 2973.0000     7.7167    52.4348     2.3864     0.0941     0.1777   -58.5402    12.1997     7.7461
 2973.5000     7.7183    49.3059     2.3962     0.0936     0.1739   -58.3742    12.0387     7.8544
 2974.0000     7.7350    45.6868     2.3939     0.0938     0.1690   -58.2644    12.9109     7.6275
 2974.5000     7.7368    42.5186     2.3844     0.0940     0.1648   -58.6105    12.7054     7.0080
 2975.0000     7.7534    40.9800     2.3737     0.0927     0.1687   -58.8963    12.1921     6.5783
 2975.5000     7.7551    42.5093     2.3682     0.0929     0.1737   -59.2104    12.2960     6.6378
 2976.0000     7.7569    47.1093     2.3690     0.0931     0.1725   -59.5125    12.7868     8.0922
 2976.5000     7.7587    51.5027     2.3754     0.0933     0.1647   -59.8162    12.9225     8.8947
 2977.0000     7.7605    54.5233     2.3833     0.0935     0.1602   -60.1224    12.6939     8.3839
 2977.5000     7.7773    56.1695     2.3925     0.0936     0.1559   -60.4259    12.3489     8.3097
 2978.0000     7.7791    57.5539     2.3986     0.0939     0.1553   -60.7314    12.0133     8.5259
 2978.5000     7.7807    59.1151     2.4017     0.0940     0.1553   -61.0363    11.5279     9.5173
 2979.0000     7.7825    60.3477     2.4025     0.0942     0.1582   -61.3378    11.2147     9.5319
 2979.5000     7.7842    61.4419     2.3966     0.0929     0.1612   -61.6486    11.0602     8.9480
 2980.0000     7.7864    62.8129     2.3848     0.0931     0.1624   -61.7805    10.9976     8.6672
 2980.5000     7.7881    63.7472     2.3774     0.0934     0.1624   -61.7614    11.0029     9.1571
 2981.0000     7.7894    64.3917     2.3850     0.0906     0.1617   -61.7389    11.0073    10.6469
 2981.5000     7.7764    64.4337     2.3970     0.0887     0.1598   -61.4049    11.0117     9.9448
 2982.0000     7.7697    64.3080     2.4024     0.0879     0.1588   -61.1242    11.1680     9.5467
 2982.5000     7.7603    63.5709     2.4056     0.0891     0.1620   -60.8226    11.4825     9.5246
 2983.0000     7.7373    62.4001     2.4086     0.0898     0.1703   -60.5301    12.1334    10.2269
 2983.5000     7.7208    61.0674     2.4091     0.0915     0.1736   -60.2356    12.9980    10.5128
 2984.0000     7.7110    59.3320     2.4080     0.0932     0.1725   -59.9408    13.3640    10.2310
 2984.5000     7.6981    57.2755     2.4051     0.0934     0.1700   -59.6461    13.0084     9.8214
 2985.0000     7.6853    54.5990     2.4014     0.0906     0.1676   -59.3499    12.3204     9.1612
 2985.5000     7.6868    53.2375     2.3981     0.0893     0.1653   -59.0622    12.6676     8.6867
 2986.0000     7.6737    57.0620     2.3942     0.0876     0.1653   -58.7548    12.8686     8.7029
 2986.5000     7.6755    61.0553     2.3905     0.0852     0.1647   -58.4709    12.5946     9.4361
 2987.0000     7.6773    62.3985     2.3853     0.0839     0.1623   -58.2766    11.7455    10.5278
 2987.5000     7.6790    64.1140     2.3765     0.0856     0.1587   -58.7661    10.9907    10.0441
 2988.0000     7.6837    65.0498     2.3713     0.0888     0.1552   -59.1674    10.3973     8.7115
 2988.5000     7.7027    66.6348     2.3827     0.0919     0.1528   -59.6077    10.0169     8.4624
 2989.0000     7.7291    68.4052     2.4029     0.0953     0.1552   -60.0452     9.9295     9.8048
 2989.5000     7.7358    69.3411     2.4123     0.0971     0.1623   -60.4512    10.2100    10.8548
 2990.0000     7.7474    69.6835     2.4203     0.1015     0.1640   -60.9423    10.3549    10.1270
 2990.5000     7.7492    69.5648     2.4219     0.1032     0.1646   -60.9757    10.2874     9.9148
 2991.0000     7.7718    66.8993     2.4191     0.1034     0.1622   -60.9893     9.9950    10.3386
 2991.5000     7.7976    61.2265     2.4139     0.1036     0.1591   -60.9747     9.1669     9.8501
 2992.0000     7.7993    55.6342     2.4060     0.1042     0.1568   -60.9838     8.8017     8.5919
 2992.5000     7.8159    51.5255     2.3976     0.1055     0.1532   -60.9914     8.4511     8.0253
 2993.0000     7.8024    52.7581     2.3909     0.1042     0.1516   -61.1823     8.2262     7.9176
 2993.5000     7.8045    58.5181     2.3866     0.0999     0.1522   -61.3786     7.8985     7.9194
 2994.0000     7.7914    62.3450     2.3905     0.0941     0.1539   -61.5818     7.5838     8.2530
