~VERSION INFORMATION
 VERS.                2.0:   CWLS LOG ASCII STANDARD - VERSION 2.0
 WRAP.                 NO:   ONE LINE PER DEPTH STEP
~WELL INFORMATION
#MNEM.UNIT      DATA TYPE    INFORMATION
#----------   ------------   ------------------------------
 STRT.F          210.0000:   START DEPTH
 STOP.F         2998.0000:   STOP DEPTH
 STEP.F            0.5000:   STEP LENGTH
 NULL.          -999.2500:   NO VALUE
 COMP.    FENIX & SCISSON:   COMPANY
 WELL. FENIX & SCISSON "A" #41-28:   WELL
 FLD .          N.P.R. #3:   FIELD
 LOC .      S28 T39N R78W:   LOCATION
 CNTY.            NATRONA:   COUNTY
 STAT.            WYOMING:   STATE
 CTRY. UNITED STATES OF AMERICA:   COUNTRY
 SRVC.       SCHLUMBERGER:   SERVICE COMPANY
 DATE.        08-MAY-1977:   LOGDATE
 API .     49025103670000:   API NUMBER
~CURVE INFORMATION
#MNEM.UNIT       API CODE    CURVE DESCRIPTION
#----------   ------------   ------------------------------
 DEPT.F                  :   
 CALD.IN     45 280 60 00:   CALIPER FROM DENSITY LOG
 GRD .GAPI   45 310 01 00:   GAMMA RAY FROM DENSITY LOG
 CORR.G/C3   45 356 01 00:   DENSITY CORRECTION
 RHOB.G/C3   45 350 01 00:   BULK DENSITY
 SPR .MV     07 010 01 00:   SPONTANEOUS POTENTIAL
 LL8 .OHMM   07 220 08 00:   LATEROLOG-8 RES.
 ILM .OHMM   07 120 44 00:   INDUCTION LOG MEDIUM RESISTIVITY
 ILD .OHMM   07 120 46 00:   DEEP INDUCTION RESISTIVITY
~PARAMETER INFORMATION
#MNEM.UNIT          VALUE    DESCRIPTION
#----------   ------------   ------------------------------
 EKB .F         5012.0000:   Kelly bushing
 EGL .F         5002.0000:   Ground level
 TD  .F         3000.0000:   Total depth
 CLNT.            A2DTECH:   Client Code
 SL  . 330' FNL & 2310' FWL:   Surface Location
 DATE.        08-MAY-1977:   Date Logged [DD-MMM-YYYY]
 DD  .F              3000:   Depth driller
 DL  .F              2999:   Depth logger
 BLI .F              2993:   Bottom log interval
 TLI .F               222:   Top log interval
 CS1 .              8.625:   Casing size
 CBD1.      8.625" @ 112':   Casing driller 1
 CBL1.IN              222:   Casing logger 1
 BS1 .IN            7.875:   Bit size
 BSD1.F              3000:   Depth drilled with bit1
 DFT .                KCL:   Type fluid in hole
 DFD .                8.8:   Density
 DFV .                 32:   Viscosity
 DFPH.                8.0:   pH
 DFL .                8.8:   Fluid loss
 MSS .           FLOWLINE:   Source of sample
 RMS .OHMM          0.124:   Rm
 MST .F                80:   Rm Meas. temp.
 RMF .OHMM          0.117:   Rmf
 MFST.F                80:   Rmf Meas. temp.
 MFSS.               MEAS:   Source Rmf.
 RMB .OHMM         0.0886:   Rm. at BHT
 BHT .F               112:   BHT.
 TCS .HRS            0200:   Time Circ. stopped
 TLAB.HRS            0515:   Time logger at bottom
 MRT .F               112:   Maximum recorded temp.
 LUN .               5642:   Logging unit number
 LUL .               CSPR:   Logging unit location
 ENGI.            MARATIN:   Recorded By
 WITN.         PETTINGILL:   Witnessed by
 ORIG.      2.5" 5" PRINT:   Origin of data
 UWI .     49025103670000:   Unique Well ID
 DICO. A2D TECHNOLOGIES, INC.:   Digitizing Company
 PD  .                 GL:   Permanent Datum
 EPD .               5002:   Elevation Permanent Datum
 LMF .                 KB:   Log Measured From
 DMF .                 KB:   Drilling Measured From
 DAPD.                 10:   Feet Above Permanent Datum
~OTHER INFORMATION
~A   DEPT     CALD         GRD      CORR       RHOB        SPR        LL8        ILM        ILD   
# ...
 2032.5000     8.2584   110.7309     0.1085     2.4999   -33.6489    13.3800    10.7673    10.0477
 2033.0000     8.2598   111.4911     0.1107     2.5032   -33.3356    13.3781    10.6803     9.8536
 2033.5000     8.2611   113.1454     0.1129     2.5149   -33.3310    13.1236    10.3969     9.5830
 2034.0000     8.2625   114.2036     0.1159     2.4910   -33.6350    12.6884    10.1675     9.2589
 2034.5000     8.2638   112.5793     0.1166     2.4986   -33.9391    11.9789     9.8807     8.8170
 2035.0000     8.2652   111.9944     0.1166     2.5083   -34.5517    11.4717     9.6020     8.4572
 2035.5000     8.2666   113.2054     0.1174     2.5098   -35.1644    11.0443     9.4651     8.2886
 2036.0000     8.2679   112.3262     0.1151     2.5054   -35.7771    10.8846     9.2611     8.4050
 2036.5000     8.2693   112.6392     0.1136     2.5002   -36.0811    10.9434     9.1300     8.5233
 2037.0000     8.2704   114.7407     0.1136     2.4846   -36.6938    10.9415     9.1300     8.6430
 2037.5000     8.2717   116.2460     0.1151     2.4838   -36.9978    11.0055     9.1300     8.8862
 2038.0000     8.2730   117.1552     0.1174     2.4899   -37.6105    11.1638     9.1300     9.0110
 2038.5000     8.2744   113.7424     0.1219     2.4960   -37.6058    11.4872     9.1300     9.0122
 2039.0000     8.2757   109.7336     0.1234     2.5065   -37.2926    11.6524     9.2611     9.0134
 2039.5000     8.2776   106.0228     0.1226     2.5005   -37.2880    11.7428     9.3941     8.8910
 2040.0000     8.2934   105.5869     0.1226     2.4961   -36.9747    11.7412     9.3941     8.6500
 2040.5000     8.2798   107.3940     0.1211     2.4977   -36.6614    11.4178     9.3941     8.4156
 2041.0000     8.2812   109.1974     0.1166     2.5000   -36.0395    10.8536     9.1894     7.9644
 2041.5000     8.2825   111.0008     0.1100     2.4985   -35.4176    10.3955     9.0008     7.7485
 2042.0000     8.2839   114.4435     0.0988     2.4948   -34.7957    10.1730     8.8031     7.7496
 2042.5000     8.2852   116.9920     0.0905     2.4852   -34.1738    10.2471     8.5547     7.8584
 2043.0000     8.2866   117.7522     0.0913     2.4680   -33.5519    10.6956     8.3135     7.8595
 2043.5000     8.2880   116.1278     0.0927     2.4599   -33.2387    11.0055     8.1950     7.8606
 2044.0000     8.2893   113.7583     0.0952     2.4711   -32.6168    11.0767     8.1459     7.8616
 2044.5000     8.2907   107.2159     0.0998     2.4752   -32.6121    11.1458     8.1459     7.8627
 2045.0000     8.2920   102.1638     0.1057     2.4909   -33.2248    10.9846     8.1459     7.9731
 2045.5000     8.2934   101.5789     0.1111     2.4946   -33.8375    10.6722     8.1459     7.7570
 2046.0000     8.2947   104.0625     0.1166     2.4880   -34.1415    10.2218     8.1459     7.6144
 2046.5000     8.2961   106.2781     0.1141     2.4872   -34.4460     9.8477     8.1459     7.2270
 2047.0000     8.2975   107.9462     0.1070     2.4820   -35.0582     9.1919     8.0305     7.1431
 2047.5000     8.2988   109.4063     0.1101     2.4761   -35.3622     8.8052     7.6943     7.0461
 2048.0000     8.3002   106.6102     0.1145     2.4716   -35.6662     9.5915     7.5854     7.0472
 2048.5000     8.3165   103.2668     0.1159     2.4694   -35.9703    10.4480     7.3721     6.9514
 2049.0000     8.3328   101.6771     0.1129     2.4642   -36.2747    10.7495     7.2678     6.9524
 2049.5000     8.3342   100.5032     0.1061     2.4575   -37.1956    10.4451     7.1649     6.9242
 2050.0000     8.3356    99.1803     0.0988     2.4897   -37.5000     9.8638     7.0635     6.8589
 2050.5000     8.3422    98.0230     0.0943     2.4763   -38.4209     9.1828     7.0635     6.7657
 2051.0000     8.3532    98.4630     0.0936     2.4681   -39.0336     8.7964     6.8649     6.5823
 2051.5000     8.3641    99.5196     0.0974     2.4629   -39.6463     8.5476     6.7677     6.3320
 2052.0000     8.3721    97.2976     0.1019     2.4831   -39.9506     8.3057     6.5775     6.0608
 2052.5000     8.3584    95.5192     0.1019     2.4853   -39.9457     8.1868     6.4843     6.0616
 2053.0000     8.3604    95.6850     0.1020     2.4734   -39.3238     7.8424     6.3925     6.1041
 2053.5000     8.3621    96.2945     0.1072     2.4720   -38.7019     7.0954     6.3925     6.2331
 2054.0000     8.3637    97.9472     0.1110     2.4989   -38.3886     6.7969     6.3925     6.4085
 2054.5000     8.3654    99.4509     0.1110     2.5019   -37.7667     6.6996     6.3925     6.4985
 2055.0000     8.3670   100.6565     0.1089     2.4885   -37.4534     6.9918     6.3925     6.5900
 2055.5000     8.3686   101.7131     0.1059     2.4743   -37.4488     8.0639     6.4843     6.5909
 2056.0000     8.3703   101.1304     0.1021     2.4796   -37.1356     8.9103     6.4843     6.5918
 2056.5000     8.3719    96.9709     0.1030     2.4916   -36.8223    10.4243     6.4843     6.3251
 2057.0000     8.3736    94.5998     0.1068     2.5058   -37.1265    10.7249     6.5775     6.1537
 2057.5000     8.3752    94.7622     0.1120     2.4961   -37.7390     9.7032     6.4843     5.6652
 2058.0000     8.3769    98.2033     0.1143     2.4894   -38.0432     7.1882     6.4843     5.2154
 2058.5000     8.3785   101.1973     0.1099     2.4775   -38.0384     5.8849     6.3021     4.8681
 2059.0000     8.3652   102.9990     0.1084     2.4798   -38.0338     5.4009     6.1249     4.7361
 2059.5000     8.3668   104.8008     0.1121     2.4910   -37.7205     5.3236     5.7854     4.7244
 2060.0000     8.3685   103.1748     0.1144     2.4927   -37.7159     5.7168     5.6227     4.8567
 2060.5000     8.3701    98.8475     0.1145     2.4866   -37.7113     6.9809     5.4647     4.9242
 2061.0000     8.3717   102.0093     0.1137     2.4948   -37.3980     8.0513     5.4647     4.9927
 2061.5000     8.3734   105.4504     0.1107     2.4978   -37.3934     8.7702     5.3873     4.9927
 2062.0000     8.3750   107.4012     0.1056     2.4837   -37.0801     8.6447     5.4647     5.1753
 2062.5000     8.3767   107.4146     0.0966     2.4777   -36.7669     8.0478     5.4647     5.2762
 2063.0000     8.3783   108.0241     0.0938     2.4680   -36.7623     7.3860     5.4647     5.4344
 2063.5000     8.3800   110.1239     0.0975     2.4741   -36.7576     6.9749     5.5431     5.5758
 2064.0000     8.3816   112.2237     0.1020     2.4838   -36.7530     6.8751     5.7035     5.8175
 2064.5000     8.3832   112.6905     0.1035     2.4704   -37.0571     6.9729     5.8684     6.0210
 2065.0000     8.3849   109.5679     0.1044     2.4667   -36.7438     7.1739     6.0382     6.2271
 2065.5000     8.3711   106.8986     0.1036     2.4794   -36.1219     7.2761     6.3021     6.4444
 2066.0000     8.3732   108.5515     0.0991     2.4802   -35.5000     7.7027     6.6719     6.7594
 2066.5000     8.3748   109.4590     0.0948     2.4727   -34.8781     9.6784     6.9635     6.9019
 2067.0000     8.3765   109.9195     0.0948     2.4578   -33.6389    11.3252     7.1649     6.9544
 2067.5000     8.3627   109.7698     0.0970     2.4639   -33.3229    11.9868     7.3721     6.9544
 2068.0000     8.3648   103.9443     0.1009     2.4782   -33.0081    11.4616     7.5854     6.9544
 2068.5000     8.3664    96.8173     0.1054     2.4901   -32.6936     9.9276     7.6943     6.9178
 2069.0000     8.3681    95.3680     0.1061     2.5052   -32.3858     9.1346     7.4780     6.8245
 2069.5000     8.3697    96.9056     0.1017     2.5110   -32.0725     9.0038     7.3721     6.6402
 2070.0000     8.3714    98.6935     0.1031     2.4999   -31.7592     8.9939     7.2678     6.5807
 2070.5000     8.3730    99.9020     0.1130     2.5067   -31.4460     8.8639     7.2678     6.5807
 2071.0000     8.3747   101.0847     0.1003     2.5049   -31.1327     8.7465     7.1649     6.5807
 2071.5000     8.3763    98.7770     0.1044     2.4932   -31.1130     8.7696     7.1649     6.5807
 2072.0000     8.3779    96.1464     0.1149     2.5084   -30.8148    10.2791     7.1649     6.7650
 2072.5000     8.3796    92.6044     0.1225     2.5146   -30.8102    10.6776     7.1649     6.8828
