~VERSION INFORMATION
 VERS.                2.0:   CWLS LOG ASCII STANDARD - VERSION 2.0
 WRAP.                 NO:   ONE LINE PER DEPTH STEP
~WELL INFORMATION
#MNEM.UNIT      DATA TYPE    INFORMATION
#----------   ------------   ------------------------------
 STRT.F          261.0000:   START DEPTH
 STOP.F         2875.0000:   STOP DEPTH
 STEP.F            0.5000:   STEP LENGTH
 NULL.          -999.2500:   NO VALUE
 COMP.   LAWRENCE ALLISON:   COMPANY
 WELL. LAWRENCE ALLISON "X" #85-20:   WELL
 FLD .          N.P.R. #3:   FIELD
 LOC .      S20 T39N R78W:   LOCATION
 CNTY.            NATRONA:   COUNTY
 STAT.            WYOMING:   STATE
 CTRY. UNITED STATES OF AMERICA:   COUNTRY
 SRVC.      DRESSER ATLAS:   SERVICE COMPANY
 DATE.        23-JUL-1986:   LOGDATE
 API .     49025111030000:   API NUMBER
~CURVE INFORMATION
#MNEM.UNIT       API CODE    CURVE DESCRIPTION
#----------   ------------   ------------------------------
 DEPT.F                  :   
 CORR.G/C3   45 356 01 00:   DENSITY CORRECTION
 RHOB.G/C3   45 350 01 00:   BULK DENSITY
 CNC .DEC    42 890 03 00:   NEUTRON POROSITY SANDSTONE
 GRR .GAPI   07 310 01 00:   GAMMA RAY FROM RESISTIVITY
 CALR.IN     07 280 01 00:   CALIPER FROM RESISTIVITY
 SPR .MV     07 010 01 00:   SPONTANEOUS POTENTIAL
 TENR.LBS    07 635 01 00:   TENSION FROM RESISTIVITY
 RILD.OHMM   07 120 46 00:   DEEP INDUCTION RESISTIVITY
 RILM.OHMM   07 120 44 00:   INDUCTION LOG MEDIUM RESISTIVITY
 RFOC.OHMM   07 220 04 00:   RESISTIVITY FOCUSED LOG RES.
~PARAMETER INFORMATION
#MNEM.UNIT          VALUE    DESCRIPTION
#----------   ------------   ------------------------------
 EKB .F         5007.0000:   Kelly bushing
 EGL .F         4995.0000:   Ground level
 EDF .F            0.0000:   Drilling floor
 EPD .F         4995.0000:   Permanent datum
 TD  .F         2874.0000:   Total depth
 CLNT.            A2DTECH:   Client Code
 SL  . 307' FEL & 2237' FSL:   Surface Location
 DATE.        23-JUL-1986:   Date Logged [DD-MMM-YYYY]
 DD  .F              2870:   Depth driller
 DL  .F              2874:   Depth logger
 BLI .F              2872:   Bottom log interval
 TLI .F              2205:   Top log interval
 CS1 .              8.625:   Casing size
 CBD1.      8.625" @ 261':   Casing driller 1
 CBL1.IN              261:   Casing logger 1
 BS1 .IN            7.875:   Bit size
 BSD1.F              2870:   Depth drilled with bit1
 DFT .            KCL-GEL:   Type fluid in hole
 DFD .                9.0:   Density
 DFV .                 37:   Viscosity
 MSS .           MUD TANK:   Source of sample
 RMS .OHMM          0.257:   Rm
 MST .F                89:   Rm Meas. temp.
 RMF .OHMM           0.19:   Rmf
 MFST.F                89:   Rmf Meas. temp.
 MFSS.               CALC:   Source Rmf.
 RMC .OHMM           0.32:   Rmc
 MCST.F                89:   Rmc Meas. temp.
 MCSS.               CALC:   Source Rmc.
 RMB .OHMM           0.20:   Rm. at BHT
 BHT .F               116:   BHT.
 TCS .HRS               4:   Time Circ. stopped
 MRT .F               116:   Maximum recorded temp.
 LUN .            HL 6264:   Logging unit number
 LUL .           GILLETTE:   Logging unit location
 ENGI.      P.M. FAHLSING:   Recorded By
 WITN.           JENNINGS:   Witnessed by
 ORIG.         2.5" PRINT:   Origin of data
 UWI .     49025111030000:   Unique Well ID
 DICO. A2D TECHNOLOGIES, INC.:   Digitizing Company
~OTHER INFORMATION
~A   DEPT     CORR       RHOB        CNC         GRR        CALR      SPR        TENR       RILD      RILM         RFOC 
# ...
 2606.0000     1.6633     2.5410     0.3158   133.4955     8.8748   -88.2017   -55.0216     4.3402     4.3129     5.7080
 2606.5000     1.6303     2.5349     0.3025   135.8747     8.8745   -88.1498   -54.7130     4.2528     4.1842     5.7369
 2607.0000     1.6162     2.5289     0.3002   137.7332     8.8742   -87.9163   -54.4045     4.1654     4.0644     5.8154
 2607.5000     1.5979     2.5203     0.3159   140.2194     8.8739   -87.9229   -54.0959     4.0548     4.0082     5.9449
 2608.0000     1.5758     2.5098     0.3324   142.7056     8.8736   -87.6313   -53.7873     3.9982     3.9528     5.8020
 2608.5000     1.5551     2.5003     0.3415   144.9379     8.8733   -87.3405   -53.4788     3.9424     3.9518     5.4917
 2609.0000     1.5454     2.4935     0.3297   146.9476     8.8730   -87.3472   -53.1702     3.9952     3.8972     5.2976
 2609.5000     1.5421     2.4889     0.3209   146.1275     8.8727   -87.3531   -52.8616     4.0482     3.8961     5.2531
 2610.0000     1.5395     2.4881     0.3152   141.8400     8.8724   -87.0614   -52.5531     4.1022     3.9057     5.4886
 2610.5000     1.5454     2.4904     0.3177   139.6955     8.8721   -87.0682   -52.2445     4.1570     4.0249     5.8116
 2611.0000     1.5794     2.4950     0.3201   137.6653     8.8718   -87.0742   -51.9360     4.2701     4.1804     5.8583
 2611.5000     1.5884     2.4957     0.3224   133.8516     8.8715   -87.0801   -51.6274     4.3272     4.2372     5.8575
 2612.0000     1.5600     2.4841     0.3173   131.4656     8.8712   -87.0860   -51.3188     4.3848     4.2948     5.8901
 2612.5000     1.5434     2.4812     0.3103   128.4863     8.8709   -87.0920   -51.0103     4.5041     4.3533     5.9366
 2613.0000     1.5619     2.4914     0.3074   124.3209     8.8706   -87.0979   -50.7017     4.5641     4.3969     6.0176
 2613.5000     1.5743     2.4945     0.3069   120.9080     8.8703   -86.9836   -50.3931     4.5623     4.4561     6.0519
 2614.0000     1.5684     2.4975     0.3118   123.6966     8.8700   -86.8131   -50.0846     4.6231     4.5161     6.1348
 2614.5000     1.5625     2.4961     0.3129   127.0039     8.8697   -86.9482   -49.7760     4.6212     4.5769     6.0624
 2615.0000     1.5567     2.4931     0.3122   130.8213     8.8694   -87.9821   -49.4674     4.6193     4.6385     5.9439
 2615.5000     1.5508     2.4887     0.3101   132.1602     8.8691   -89.3426   -49.1589     4.6809     4.7010     5.7716
 2616.0000     1.5388     2.4917     0.3042   130.1842     8.8688   -89.8041   -48.8503     4.7433     4.7643     5.8058
 2616.5000     1.5390     2.4947     0.2924   126.8745     8.8685   -89.8101   -48.5417     4.8724     4.7628     6.0118
 2617.0000     1.5331     2.4948     0.2908   125.0842     8.8682   -89.8160   -48.2332     4.9374     4.8271     6.1778
 2617.5000     1.5334     2.4888     0.2909   122.9673     8.8679   -89.8220   -47.9246     5.0032     4.8488     6.2621
 2618.0000     1.5457     2.4889     0.2914   122.0415     8.8676   -89.8279   -47.6161     5.0011     4.8908     6.3475
 2618.5000     1.5642     2.4889     0.2900   122.9002     8.8673   -89.5371   -47.3075     4.9991     4.8892     6.4271
 2619.0000     1.5644     2.4995     0.2792   124.0830     8.8671   -89.5430   -46.9989     5.0658     4.8878     6.6537
 2619.5000     1.5707     2.5070     0.2640   124.3976     8.8668   -89.5490   -46.6904     4.9950     4.8607     6.7447
 2620.0000     1.5648     2.5100     0.2580   124.3917     8.8665   -89.2581   -46.3818     4.8585     4.7279     6.7503
 2620.5000     1.5651     2.5071     0.2818   125.2582     8.8662   -88.6718   -46.0732     4.6618     4.6619     6.5735
 2621.0000     1.5653     2.5041     0.2908   127.3158     8.8659   -88.3798   -45.7647     4.4730     4.5346     5.7019
 2621.5000     1.5594     2.4997     0.2956   129.1217     8.8656   -88.0890   -45.4561     4.2918     4.3852     5.3811
 2622.0000     1.5596     2.4967     0.2968   128.5223     8.8653   -87.5025   -45.1475     4.1746     4.2069     5.3803
 2622.5000     1.5598     2.4953     0.3047   127.9229     8.8650   -87.2116   -44.8390     4.0055     4.0607     5.3442
 2623.0000     1.5661     2.4969     0.3095   129.3927     8.8647   -87.2175   -44.5304     3.9496     3.9497     5.3057
 2623.5000     1.5675     2.4999     0.3095   130.8667     8.8644   -87.2234   -44.2218     3.9480     3.8665     5.2329
 2624.0000     1.5855     2.4999     0.3078   131.4659     8.8641   -86.9318   -43.9133     4.0006     3.9185     5.2322
 2624.5000     1.5911     2.4998     0.3072   131.1652     8.8638   -86.6417   -43.6047     4.0539     3.9979     5.1604
 2625.0000     1.5903     2.4985     0.3042   131.1573     8.8635   -86.3509   -43.2962     4.1079     4.1081     5.1596
 2625.5000     1.5854     2.5003     0.3024   131.7466     8.8632   -86.3568   -42.9876     4.2202     4.2211     5.1947
 2626.0000     1.5796     2.5034     0.3000   131.7351     8.8629   -86.3627   -42.6790     4.3363     4.3969     5.2293
 2626.5000     1.5723     2.5080     0.2909   129.9464     8.8626   -86.3686   -42.3705     4.5153     4.5511     5.3756
 2627.0000     1.5662     2.5115     0.2630   127.2598     8.8623   -86.3744   -42.0619     4.7025     4.7060     6.1280
 2627.5000     1.5619     2.5186     0.2525   123.6697     8.8620   -86.0831   -41.7533     4.8974     4.9020     6.6434
 2628.0000     1.5701     2.5248     0.2507   119.8100     8.8617   -86.0895   -41.4448     5.0342     4.9687     6.9711
 2628.5000     1.5887     2.5298     0.2549   118.0457     8.8614   -86.0954   -41.1362     5.1689     5.1055     7.0616
 2629.0000     1.6095     2.5329     0.2603   117.7567     8.8608   -86.1013   -40.8276     5.2345     5.2045     6.7694
 2629.5000     1.6176     2.5370     0.2646   118.3802     8.8312   -86.1072   -40.5191     5.1530     5.1615     6.1926
 2630.0000     1.6117     2.5394     0.2654   123.1661     8.8309   -85.8163   -40.2105     4.8722     4.7925     5.9463
 2630.5000     1.6033     2.5367     0.2628   127.5964     8.8306   -85.8222   -39.9019     4.4253     4.4146     5.9075
 2631.0000     1.5938     2.5313     0.2642   129.9229     8.8303   -85.5312   -39.5934     4.0662     4.0113     5.7784
 2631.5000     1.5880     2.5262     0.2703   132.0214     8.8300   -85.2403   -39.2848     3.5405     3.4513     5.4690
 2632.0000     1.5882     2.5186     0.2936   134.4485     8.8297   -84.9497   -38.9763     3.1286     3.0103     4.7270
 2632.5000     1.5916     2.5104     0.3102   139.8529     8.8591   -84.9556   -38.6677     2.8170     2.6983     3.9860
 2633.0000     1.5980     2.4943     0.3173   147.0448     8.8588   -84.6647   -38.3591     2.7102     2.6249     3.5489
 2633.5000     1.6140     2.4809     0.3217   156.2179     8.8881   -84.0757   -38.0506     2.6723     2.6968     3.1563
 2634.0000     1.6388     2.4679     0.3090   176.0213     8.9175   -83.4838   -37.7420     2.6756     2.8864     2.9144
 2634.5000     1.6624     2.4454     0.2862   174.9588     8.9213   -82.8919   -37.4334     2.7115     3.1318     2.9883
 2635.0000     1.6626     2.4379     0.2815   164.7683     8.9466   -82.6111   -37.1249     2.7909     3.3520     3.8098
 2635.5000     1.6506     2.4440     0.2744   144.5695     8.9463   -82.6172   -36.8163     3.0590     3.7890     5.3222
 2636.0000     1.6265     2.4650     0.2573   128.6802     8.9460   -82.6468   -36.5077     3.6041     4.1111     6.3164
 2636.5000     1.6145     2.5085     0.2538   118.4212     8.9457   -82.9541   -36.1992     4.0956     4.1666     6.3155
 2637.0000     1.6208     2.5326     0.2515   115.8813     8.9454   -83.5252   -35.8906     4.4344     4.3990     6.2157
 2637.5000     1.6332     2.5401     0.2502   114.9358     8.9451   -83.5312   -35.5820     4.6820     4.9051     5.9774
 2638.0000     1.6152     2.5372     0.2486   114.0890     8.9448   -83.5371   -35.2735     4.9557     5.0394     6.1575
 2638.5000     1.5606     2.5297     0.2487   113.1395     8.9445   -83.2458   -34.9649     5.1236     5.0380     6.5038
 2639.0000     1.5486     2.5268     0.2504   111.9443     8.9442   -82.9550   -34.6564     5.1085     5.0367     6.2957
