~VERSION INFORMATION
 VERS.                2.0:   CWLS LOG ASCII STANDARD - VERSION 2.0
 WRAP.                 NO:   ONE LINE PER DEPTH STEP
~WELL INFORMATION
#MNEM.UNIT      DATA TYPE    INFORMATION
#----------   ------------   ------------------------------
 STRT.F            0.0000:   START DEPTH
 STOP.F         3964.0000:   STOP DEPTH
 STEP.F            0.5000:   STEP LENGTH
 NULL.          -999.2500:   NO VALUE
 COMP. LAWRENCE ALLISON & ASSOCIATES:   COMPANY
 WELL. LAWRENCE NPR 3 "X" #43-10:   WELL
 FLD .              N P R:   FIELD
 LOC .      S10 T38N R78W:   LOCATION
 CNTY.            NATRONA:   COUNTY
 STAT.            WYOMING:   STATE
 CTRY. UNITED STATES OF AMERICA:   COUNTRY
 SRVC.      DRESSER ATLAS:   SERVICE COMPANY
 DATE.        07-AUG-1985:   LOGDATE
 API .     49025111390000:   API NUMBER
~CURVE INFORMATION
#MNEM.UNIT       API CODE    CURVE DESCRIPTION
#----------   ------------   ------------------------------
 DEPT.F                  :   
 CNC .DEC    42 890 03 00:   NEUTRON PORISITY SANDSTONE
 RHOB.G/C3   45 350 01 00:   BULK DENSITY
 CORR.G/C3   45 356 01 00:   DENSITY CORRECTION
 TEND.LBS    45 635 01 00:   TENSION FROM DENSITY LOG
 GRR .GAPI   07 310 01 00:   GAMMA RAY FROM RESISTIVITY
 CALR.IN     07 280 01 00:   CALIPER FROM RESISTIVITY
 SPR .MV     07 010 01 00:   SPONTANEOUS POTENTIAL
 TENR.LBS    07 635 01 00:   TENSION FROM RESISTIVITY
 RILD.OHMM   07 120 46 00:   DEEP INDUCTION RESISTIVITY
 RILM.OHMM   07 120 44 00:   INDUCTION LOG MEDIUM RESISTIVITY
 RFOC.OHMM   07 220 04 00:   RESISTIVITY FOCUSED LOG RES.
 DT  .US/F   60 520 00 00:   DELTA TIME
 TENS.LBS    60 635 01 00:   TENSION FROM SONIC
~PARAMETER INFORMATION
#MNEM.UNIT          VALUE    DESCRIPTION
#----------   ------------   ------------------------------
 EKB .F         5223.0000:   Kelly bushing
 EGL .F         5211.0000:   Ground level
 EDF .F            0.0000:   Drilling floor
 EPD .F         5211.0000:   Permanent datum
 TD  .F         3950.0000:   Total depth
 DATE.        07-AUG-1985:   Date logged
 CLNT.            A2DTECH:   Client Code
 SL  . 2016' FNL & 2230' FWL:   Surface Location
 PD  .                 GL:   Permanent Datum
 DD  .F              3950:   Depth driller
 DL  .F              3950:   Depth logger
 BLI .F              3948:   Bottom log interval
 CS1 .IN            8.625:   Casing size
 CBD1.      8.625" @ 518':   Casing driller 1
 CBL1.F               520:   Casing logger 1
 BS1 .IN            7.875:   Bit size
 DFT .            KCL-GEL:   Type fluid in hole
 DFD .                8.9:   Density
 DFV .                 40:   Viscosity
 DFPH.                  9:   pH
 DFL .                 12:   Fluid loss
 MSS .           FLOWLINE:   Source of sample
 RMS .OHMM           .318:   Rm
 MST .F                82:   Rm Meas. temp.
 RMF .OHMM            .24:   Rmf
 MFST.F                82:   Rmf Meas. temp.
 RMC .OHMM            .40:   Rmc
 MCST.F                82:   Rmc Meas. temp.
 MFSS.               CALC:   Source Rmf.
 RMB .OHMM            .19:   Rm. at BHT
 BHT .F               140:   BHT.
 TCS .HRS               4:   Time Circ. stopped
 MRT .F               140:   Maximum recorded temp.
 LUN .               6264:   Logging unit number
 LUL .               GLTE:   Logging unit location
 ENGI.           FAHLSING:   Recorded By
 WITN.             STRONG:   Witnessed by
 ORIG.           5" PRINT:   Origin of data
 UWI .     49025111390000:   Unique Well ID
 DICO. A2D TECHNOLOGIES, INC.:   Digitizing Company
 DAPD.                 12:   Feet Above Permanent Datum
 BSD1.               3950:   Depth drilled with bit1
 MCSS.               CALC:   Source Rmc.
~OTHER INFORMATION
~A    DEPT     CNC       RHOB       CORR       TEND         GRR      CALR        SPR       TENR       RILD       RILM       RFOC         DT       TENS   
# ...
 2106.0000  -999.2500  -999.2500  -999.2500  -999.2500    81.1120     8.5180   -81.7080   -59.1910     5.9090     6.3010     8.6330  -999.2500  -999.2500
 2106.5000  -999.2500  -999.2500  -999.2500  -999.2500    77.4200     8.5390   -81.8280   -59.5160     5.5480     5.8490     7.9640  -999.2500  -999.2500
 2107.0000  -999.2500  -999.2500  -999.2500  -999.2500    85.5530     8.5600   -81.6660   -59.8400     5.2270     5.5710     7.2950  -999.2500  -999.2500
 2107.5000  -999.2500  -999.2500  -999.2500  -999.2500    99.0670     8.5760   -81.4280   -60.1650     4.9510     5.3210     6.3960  -999.2500  -999.2500
 2108.0000  -999.2500  -999.2500  -999.2500  -999.2500   103.4880     8.5440   -81.1860   -60.4890     4.8770     5.0720     5.3860  -999.2500  -999.2500
 2108.5000  -999.2500  -999.2500  -999.2500  -999.2500   101.4490     8.5130   -80.9450   -60.8140     4.8120     4.9790     4.9960  -999.2500  -999.2500
 2109.0000  -999.2500  -999.2500  -999.2500  -999.2500    97.0740     8.4850   -80.7030   -61.1380     4.7630     4.9550     4.9960  -999.2500  -999.2500
 2109.5000  -999.2500  -999.2500  -999.2500  -999.2500    96.3030     8.4900   -80.4620   -61.4630     4.7140     4.9310     5.8600  -999.2500  -999.2500
 2110.0000  -999.2500  -999.2500  -999.2500  -999.2500    96.6990     8.4940   -80.2570   -61.7870     4.6430     4.9060     6.5510  -999.2500  -999.2500
 2110.5000  -999.2500  -999.2500  -999.2500  -999.2500    95.2190     8.4990   -80.3160   -62.1120     4.6840     4.9750     7.2720  -999.2500  -999.2500
 2111.0000  -999.2500  -999.2500  -999.2500  -999.2500    86.9570     8.5030   -80.3710   -62.4360     4.7580     5.0480     6.8270  -999.2500  -999.2500
 2111.5000  -999.2500  -999.2500  -999.2500  -999.2500    81.8890     8.5050   -80.4260   -62.7610     4.8330     5.1220     6.1110  -999.2500  -999.2500
 2112.0000  -999.2500  -999.2500  -999.2500  -999.2500    86.5970     8.5050   -80.4800   -63.0850     4.9070     5.1950     5.7840  -999.2500  -999.2500
 2112.5000  -999.2500  -999.2500  -999.2500  -999.2500    96.8260     8.5050   -80.5340   -63.4100     4.9820     5.2690     5.7320  -999.2500  -999.2500
 2113.0000  -999.2500  -999.2500  -999.2500  -999.2500   104.9800     8.5050   -80.5880   -63.7340     5.1620     5.3740     5.8570  -999.2500  -999.2500
 2113.5000  -999.2500  -999.2500  -999.2500  -999.2500   103.4780     8.5060   -80.6420   -64.0590     5.3690     5.5980     5.9610  -999.2500  -999.2500
 2114.0000  -999.2500  -999.2500  -999.2500  -999.2500    99.4300     8.4640   -80.6970   -64.3830     5.5760     5.8210     6.2790  -999.2500  -999.2500
 2114.5000  -999.2500  -999.2500  -999.2500  -999.2500    97.9240     8.4370   -80.7500   -64.7080     5.7820     6.0450     6.7230  -999.2500  -999.2500
 2115.0000  -999.2500  -999.2500  -999.2500  -999.2500    97.7400     8.4230   -80.8020   -65.0320     5.9850     6.2500     7.1400  -999.2500  -999.2500
 2115.5000  -999.2500  -999.2500  -999.2500  -999.2500    95.3740     8.4080   -80.8650   -65.3570     6.1880     6.4330     8.2830  -999.2500  -999.2500
 2116.0000  -999.2500  -999.2500  -999.2500  -999.2500    91.8110     8.4170   -81.2690   -65.6810     6.3910     6.6150     9.0590  -999.2500  -999.2500
 2116.5000  -999.2500  -999.2500  -999.2500  -999.2500    87.8740     8.4280   -81.6280   -66.0060     6.5750     6.6610     8.3800  -999.2500  -999.2500
 2117.0000  -999.2500  -999.2500  -999.2500  -999.2500    84.6860     8.4400   -81.6330   -40.9680     6.5100     6.6890     7.5430  -999.2500  -999.2500
 2117.5000  -999.2500  -999.2500  -999.2500  -999.2500    83.6690     8.4510   -81.6370   -26.3420     6.4500     6.7080     7.1040  -999.2500  -999.2500
 2118.0000  -999.2500  -999.2500  -999.2500  -999.2500    82.3040     8.4630   -81.2690   -26.3420     6.3970     6.7240     6.6210  -999.2500  -999.2500
 2118.5000  -999.2500  -999.2500  -999.2500  -999.2500    82.3230     8.4630   -80.8210   -66.1030     6.3970     6.7390     6.3970  -999.2500  -999.2500
 2119.0000  -999.2500  -999.2500  -999.2500  -999.2500    82.3190     8.4600   -80.7350   -66.1030     6.3970     6.7550     6.5510  -999.2500  -999.2500
 2119.5000  -999.2500  -999.2500  -999.2500  -999.2500    82.3430     8.4570   -80.6420   -62.1840     6.3970     6.7590     6.9900  -999.2500  -999.2500
 2120.0000  -999.2500  -999.2500  -999.2500  -999.2500    81.2330     8.4540   -80.5470   -51.4060     6.4410     6.7590     7.4280  -999.2500  -999.2500
 2120.5000  -999.2500  -999.2500  -999.2500  -999.2500    80.3420     8.4500   -80.4550   -40.6280     6.5170     6.7590     7.8660  -999.2500  -999.2500
 2121.0000  -999.2500  -999.2500  -999.2500  -999.2500    80.3380     8.4470   -80.4140   -46.2230     6.5930     6.7800     8.0430  -999.2500  -999.2500
 2121.5000  -999.2500  -999.2500  -999.2500  -999.2500    80.4400     8.4510   -80.3520   -59.7420     6.6690     6.8880     7.6480  -999.2500  -999.2500
 2122.0000  -999.2500  -999.2500  -999.2500  -999.2500    82.9250     8.4580   -80.2910   -76.0440     6.7460     6.9950     7.3650  -999.2500  -999.2500
 2122.5000  -999.2500  -999.2500  -999.2500  -999.2500    86.0500     8.4690   -80.2950   -66.6710     6.8540     7.1020     7.1340  -999.2500  -999.2500
 2123.0000  -999.2500  -999.2500  -999.2500  -999.2500    89.4060     8.5420   -80.3890   -46.2230     6.9680     7.2120     6.9470  -999.2500  -999.2500
 2123.5000  -999.2500  -999.2500  -999.2500  -999.2500    93.8760     8.6080   -80.4820   -56.0640     7.0750     7.3390     6.9470  -999.2500  -999.2500
 2124.0000  -999.2500  -999.2500  -999.2500  -999.2500    94.7780     8.6740   -80.5750   -76.0440     7.0110     7.2060     7.8050  -999.2500  -999.2500
 2124.5000  -999.2500  -999.2500  -999.2500  -999.2500    92.4550     8.7410   -80.6680   -76.0440     6.5660     6.8300     8.1910  -999.2500  -999.2500
 2125.0000  -999.2500  -999.2500  -999.2500  -999.2500    90.1240     8.7600   -80.7620   -60.2300     6.1520     6.5160     8.0060  -999.2500  -999.2500
 2125.5000  -999.2500  -999.2500  -999.2500  -999.2500    88.9400     8.7610   -80.9150   -37.3670     5.7640     6.0800     7.5040  -999.2500  -999.2500
 2126.0000  -999.2500  -999.2500  -999.2500  -999.2500    93.3660     8.7600   -81.4830   -26.3420     5.5790     5.7210     6.7270  -999.2500  -999.2500
 2126.5000  -999.2500  -999.2500  -999.2500  -999.2500   101.8910     8.6990   -81.7630   -65.1090     5.3930     5.6350     6.1250  -999.2500  -999.2500
 2127.0000  -999.2500  -999.2500  -999.2500  -999.2500   108.4290     8.6330   -82.0560   -76.0440     5.2080     5.5480     5.5880  -999.2500  -999.2500
 2127.5000  -999.2500  -999.2500  -999.2500  -999.2500   111.3360     8.5660   -82.3580   -73.3930     5.0770     5.4750     5.1350  -999.2500  -999.2500
 2128.0000  -999.2500  -999.2500  -999.2500  -999.2500   111.2350     8.4990   -82.4070   -56.1630     5.0440     5.5000     5.0890  -999.2500  -999.2500
 2128.5000  -999.2500  -999.2500  -999.2500  -999.2500   111.3580     8.4740   -81.9970   -50.2870     5.0100     5.5210     6.2680  -999.2500  -999.2500
 2129.0000  -999.2500  -999.2500  -999.2500  -999.2500   113.5280     8.4540   -81.5580   -72.6420     4.9770     5.5760     7.1300  -999.2500  -999.2500
 2129.5000  -999.2500  -999.2500  -999.2500  -999.2500   115.7080     8.4340   -81.1170   -85.9840     4.9510     5.5260     7.4750  -999.2500  -999.2500
 2130.0000  -999.2500  -999.2500  -999.2500  -999.2500   116.3940     8.4140   -81.0760   -74.0560     5.0740     5.4620     7.0240  -999.2500  -999.2500
 2130.5000  -999.2500  -999.2500  -999.2500  -999.2500   113.6730     8.3880   -81.1630   -46.2230     5.1760     5.4250     6.2890  -999.2500  -999.2500
 2131.0000  -999.2500  -999.2500  -999.2500  -999.2500   111.1290     8.3580   -81.2500   -59.0950     5.2780     5.4750     6.1670  -999.2500  -999.2500
 2131.5000  -999.2500  -999.2500  -999.2500  -999.2500   107.6950     8.3280   -81.3370   -88.4360     5.3800     5.5650     6.3350  -999.2500  -999.2500
