~VERSION INFORMATION
 VERS.                2.0:   CWLS LOG ASCII STANDARD - VERSION 2.0
 WRAP.                 NO:   ONE LINE PER DEPTH STEP
~WELL INFORMATION
#MNEM.UNIT      DATA TYPE    INFORMATION
#----------   ------------   ------------------------------
 STRT.F            0.5000:   START DEPTH
 STOP.F         5758.0000:   STOP DEPTH
 STEP.F            0.5000:   STEP LENGTH
 NULL.          -999.2500:   NO VALUE
 COMP.   LAWRENCE ALLISON:   COMPANY
 WELL. LAWRENCE "X" #51-10:   WELL
 FLD .          NPR NO. 3:   FIELD
 LOC .      S10 T38N R78W:   LOCATION
 CNTY.            NATRONA:   COUNTY
 STAT.            WYOMING:   STATE
 CTRY. UNITED STATES OF AMERICA:   COUNTRY
 SRVC.      DRESSER ATLAS:   SERVICE COMPANY
 DATE.        31-JAN-1987:   LOGDATE
 API .     49025111230000:   API NUMBER
~CURVE INFORMATION
#MNEM.UNIT       API CODE    CURVE DESCRIPTION
#----------   ------------   ------------------------------
 DEPT.F                  :   
 GRR .GAPI   07 310 01 00:   GAMMA RAY FROM RESISTIVITY
 TENR.LBS    07 635 01 00:   TENSION FROM RESISTIVITY
 SPR .MV     07 010 01 00:   SPONTANEOUS POTENTIAL
 RD  .OHMM   11 220 10 00:   RESISTIVITY DEEP
 RS  .OHMM   11 220 09 00:   RESISTIVITY SHALLOW
 CNC .DEC    42 890 03 00:   NEUTRON POROSITY
 CALD.IN     45 280 60 00:   CALIPER FROM DENSITY LOG
 DEN .G/C3   45 350 01 00:   BULK DENSITY
 CORR.G/C3   45 356 01 00:   DENSITY CORRECTION
 TEND.LBS    45 635 01 00:   TENSION FORM DENSITY LOG
~PARAMETER INFORMATION
#MNEM.UNIT          VALUE    DESCRIPTION
#----------   ------------   ------------------------------
 EKB .F         5227.0000:   Kelly bushing
 EGL .F         5215.0000:   Ground level
 EDF .F            0.0000:   Drilling floor
 TD  .F         5750.0000:   Total depth
 CLNT.            A2DTECH:   Client Code
 SL  . 2356' FEL & 170' FNL:   Surface Location
 PD  .                 GL:   Permanent Datum
 EPD .F              5215:   Elevation Permanent Datum
 LMF .                 KB:   Log Measured From
 DMF .                 KB:   Drilling Measured From
 DAPD.F                12:   Feet Above Permanent Datum
 DATE.        31-JAN-1987:   Date Logged [DD-MMM-YYYY]
 DD  .F              5747:   Depth driller
 DL  .F              5750:   Depth logger
 BLI .F              5748:   Bottom log interval
 CS1 .IN            9.625:   Casing size
 CBD1.      9.625" @ 511':   Casing driller 1
 CBL1.F               512:   Casing logger 1
 BS1 .IN             8.75:   Bit size
 BSD1.F              5747:   Depth drilled with bit1
 DFT .        KCL POLYMER:   Type fluid in hole
 DFD .                9.3:   Density
 DFV .                 43:   Viscosity
 DFPH.                9.5:   pH
 MSS .           FLOWLINE:   Source of sample
 RMS .OHMM          0.247:   Rm
 MST .F                74:   Rm Meas. temp.
 RMF .OHMM          0.162:   Rmf
 MFST.F                74:   Rmf Meas. temp.
 MFSS.               MEAS:   Source Rmf.
 RMC .OHMM          0.310:   Rmc
 MCST.F                74:   Rmc Meas. temp.
 MCSS.               CALC:   Source Rmc.
 RMB .OHMM          0.109:   Rm. at BHT
 BHT .F               167:   BHT.
 TCS .HRS               5:   Time Circ. stopped
 MRT .F               167:   Maximum recorded temp.
 LUN .            HL-6274:   Logging unit number
 LUL .           GILLETTE:   Logging unit location
 ORIG.        2" 5" PRINT:   Origin of data
 UWI .     49025111230000:   Unique Well ID
 DICO. A2D TECHNOLOGIES, INC.:   Digitizing Company
 ENGI.             RAUTIO:   Recorded By
 WITN.             STRONG:   Witnessed by
 DFL .                7.8:   Fluid loss
~OTHER INFORMATION
~A  DEPTH      GRR       TENR        SPR         RD         RS        CNC       CALD        DEN       CORR       TEND
# ...
 4322.0000    92.3487   -42.8064   -73.0027     5.1887     4.8480     0.3088    11.0565     2.6908     0.0455   -31.9549
 4322.5000    96.0988   -35.9677   -73.4489     4.9103     4.9513     0.3031    11.1165     2.6606     0.0527   -39.4737
 4323.0000    92.7368   -29.1290   -73.5929     4.8435     4.6202     0.2994    11.1461     2.6281     0.0558   -46.9925
 4323.5000    91.2150   -22.2903   -73.5747     4.3368     4.0783     0.3107    11.2816     2.5767     0.0603   -39.4737
 4324.0000    93.4258   -15.4410   -73.7150     3.9334     3.7216     0.3322    11.7198     2.5057     0.0996   -31.9549
 4324.5000    97.5518    -8.5547   -73.8553     3.5744     3.5267     0.3486    12.3849     2.3818     0.1752   -24.4361
 4325.0000   103.4114    -7.1025   -73.8372     3.4534     3.4308     0.3455    12.5658     2.3040     0.2870   -24.4361
 4325.5000   105.9230   -11.5000   -73.6679     3.4300     3.4315     0.3216    12.3662     2.2481     0.3263   -24.4361
 4326.0000   104.7196   -15.9167   -73.4985     3.6509     3.6790     0.3055    11.6719     2.2919     0.2608   -24.4361
 4326.5000   104.8251   -20.3333   -73.4805     3.8858     3.9717     0.2965    11.4141     2.3847     0.0847   -24.4361
 4327.0000   106.0277   -24.7500   -73.3112     4.1074     4.1127     0.3068    11.3530     2.5403     0.0515   -24.4361
 4327.5000   103.5945   -29.1667   -72.9871     4.1651     4.2001     0.3183    11.5189     2.5697     0.1482   -24.4361
 4328.0000   101.1526   -33.5833   -72.8173     3.9965     3.9742     0.3201    11.6544     2.5388     0.2691   -24.4361
 4328.5000   100.8779   -38.0000   -72.4900     3.8612     3.8931     0.3056    11.7749     2.4836     0.3341   -24.4361
 4329.0000   102.4695   -42.4167   -72.1660     3.7824     3.8669     0.2977    11.8045     2.4890     0.3386   -31.9549
 4329.5000   103.7428   -46.8333   -72.1515     3.7830     3.8678     0.2929    11.7888     2.5266     0.2299   -31.9549
 4330.0000   104.0873   -51.2500   -71.6689     3.8362     3.8686     0.2895    11.9091     2.5523     0.2012   -46.9925
 4330.5000   104.1309   -55.6667   -71.3448     3.8901     3.8963     0.3019    12.1203     2.5190     0.2431   -54.5113
 4331.0000   104.4753   -60.0833   -70.8659     3.9770     3.9797     0.3114    12.3618     2.4442     0.2904   -54.5113
 4331.5000   102.0335   -64.5000   -70.3851     4.2279     4.1782     0.3053    12.4219     2.4079     0.3327   -54.5113
 4332.0000    95.8764   -68.9167   -70.0593     4.8555     4.5105     0.2838    12.2547     2.4253     0.3509   -54.5113
 4332.5000    94.3720   -73.3333   -69.5804     5.4998     5.2922     0.2317    11.9213     2.4555     0.4098   -54.5113
 4333.0000    94.0886   -77.7500   -68.9467     6.4936     6.5189     0.2078    11.6927     2.4774     0.4461   -62.0301
 4333.5000    91.9650   -82.2190   -68.4675     7.3553     7.9188     0.1966    11.4570     2.4610     0.3872   -69.5489
 4334.0000    79.9155   -83.4622   -68.2949     8.6243     9.6864     0.1835    11.1932     2.4886     0.1622   -62.0301
 4334.5000    75.6348   -79.2613   -68.1256    10.7281    11.4443     0.1759    10.9960     2.5362     0.0322   -62.0301
 4335.0000    69.7874   -75.0000   -67.8015    13.4290    12.3553     0.1687    10.9651     2.5951     0.0228   -62.0301
 4335.5000    65.1783   -70.7600   -67.6286    14.4921    12.8832     0.1630    10.9798     2.6094     0.0188   -62.0301
 4336.0000    63.0155   -66.5200   -67.6141    15.4246    13.6214     0.1602    11.1455     2.6102     0.0188   -54.5113
 4336.5000    60.9224   -62.2800   -67.4448    16.4177    14.4231     0.1654    11.0693     2.6109     0.0188   -54.5113
 4337.0000    60.9573   -58.0400   -67.2755    16.8803    14.7078     0.1715    10.9616     2.6124     0.0234   -54.5113
 4337.5000    61.3018   -53.8000   -67.4158    16.4219    14.2096     0.1748    10.9168     2.6123     0.0249   -54.5113
 4338.0000    62.2662   -49.5600   -67.2428    15.8659    13.8232     0.1772    10.9010     2.6070     0.0265   -54.5113
 4338.5000    63.8570   -45.3200   -67.2283    15.5231    13.5410     0.1797    10.9156     2.6032     0.0250   -54.5113
 4339.0000    66.0591   -41.0800   -67.2136    15.1206    13.4500     0.1815    10.9452     2.6009     0.0203   -46.9925
 4339.5000    68.5708   -36.8400   -67.3541    15.0183    13.3050     0.1837    10.9599     2.6002     0.0175   -46.9925
 4340.0000    69.8452   -32.6000   -67.3360    14.8145    13.1300     0.1855    10.9440     2.6017     0.0130   -39.4737
 4340.5000    71.4356   -28.3600   -67.3215    14.3129    12.9101     0.1870    10.9434     2.6031    -0.0036   -39.4737
 4341.0000    73.3281   -26.1282   -67.3070    13.8283    12.7346     0.1897    10.9420     2.6031    -0.0172   -39.4737
 4341.5000    74.9110   -31.5641   -67.4473    13.4458    12.4746     0.1964    10.9118     2.6001    -0.0232   -46.9925
 4342.0000    76.8121   -37.0000   -67.4292    12.9977    12.1277     0.2009    10.9112     2.5933    -0.0020   -54.5113
 4342.5000    77.7758   -42.4359   -67.5695    12.5577    11.7866     0.2034    10.9258     2.5857     0.0131   -54.5113
 4343.0000    78.7395   -47.8718   -67.7098    12.3868    11.4056     0.2058    10.9707     2.5796     0.0040   -54.5113
 4343.5000    79.0840   -53.3118   -67.8501    12.2186    11.1705     0.2073    11.1818     2.5713     0.0121   -62.0301
 4344.0000    80.3660   -58.7436   -67.9867    12.0524    10.8689     0.2085    11.2720     2.5630     0.0404   -62.0301
 4344.5000    81.0201   -64.1795   -67.9721    11.9705    10.5739     0.2137    11.2714     2.5622     0.0767   -69.5489
 4345.0000    80.1262   -64.7094   -67.9541    11.8080    10.5028     0.2164    11.1780     2.5760     0.0873   -69.5489
 4345.5000    78.6131   -64.3672   -68.0981    11.8099    10.5053     0.2137    11.0734     2.5908     0.0511   -69.5489
 4346.0000    76.4808   -64.0249   -68.2383    11.7296    10.5806     0.2119    11.0426     2.5999     0.0254   -77.0677
 4346.5000    75.5956   -63.6827   -68.5298    11.7315    10.5826     0.2113    11.0420     2.6044    -0.0017   -77.0677
 4347.0000    76.2497   -63.3404   -68.6665    11.6522    10.5115     0.2140    11.0716     2.6013    -0.0108   -77.0677
 4347.5000    76.9143   -62.9982   -68.9616    11.6541    10.0852     0.2186    11.0711     2.5960    -0.0168   -77.0677
 4348.0000    78.1857   -62.6559   -69.1022    11.4955     9.8793     0.2271    11.0402     2.5907    -0.0001   -84.5865
 4348.5000    80.6974   -62.3137   -69.3970    10.5682     9.4781     0.2344    11.0850     2.5862     0.0029   -84.5865
 4349.0000    84.1378   -61.9714   -69.5373     9.9447     9.2117     0.2389    11.0856     2.5831     0.0014   -69.5489
 4349.5000    83.8632   -61.6292   -69.6776     9.7415     8.9081     0.2417    11.1291     2.5763     0.0091   -54.5113
 4350.0000    84.8355   -61.2869   -69.6594     9.8111     8.8086     0.2441    11.1740     2.5680     0.0227   -62.0301
 4350.5000    85.7992   -60.9447   -69.7997     9.2199     8.6137     0.2466    11.1734     2.5581     0.0135   -54.3610
 4351.0000    86.7629   -60.6024   -69.9550     8.8458     8.0001     0.2538    11.1878     2.5521    -0.0303   -61.7377
 4351.5000    88.3803   -60.2602   -70.0733     8.4284     7.6233     0.2635    11.1872     2.5634    -0.0288   -69.1101
 4352.0000    89.8927   -59.9179   -70.1915     8.1425     7.4172     0.2599    11.2019     2.5717    -0.0150   -76.4827
 4352.5000    90.5305   -59.5757   -70.2167     8.1431     7.4712     0.2544    11.2011     2.5656    -0.0169   -76.3000
 4353.0000    91.7929   -59.2334   -70.3672     8.2572     7.6300     0.2538    11.2005     2.5672    -0.0260   -76.1537
 4353.5000    92.4301   -58.8912   -70.5021     8.3727     7.7384     0.2554    11.1999     2.5708    -0.0290   -68.4887
 4354.0000    88.1258   -58.5489   -70.6448     8.6081     7.7993     0.2594    11.1994     2.5701    -0.0291   -60.8236
 4354.5000    84.1250   -58.2067   -70.6298     8.7286     7.8509     0.2602    11.2290     2.5708    -0.0200   -53.1579
 4355.0000    82.2914   -57.8644   -70.7756     8.9121     7.7989     0.2575    11.2587     2.5753    -0.0125   -53.0076
