~VERSION INFORMATION
 VERS.                2.0:   CWLS LOG ASCII STANDARD - VERSION 2.0
 WRAP.                 NO:   ONE LINE PER DEPTH STEP
~WELL INFORMATION
#MNEM.UNIT      DATA TYPE    INFORMATION
#----------   ------------   ------------------------------
 STRT.F          204.0000:   START DEPTH
 STOP.F         3024.0000:   STOP DEPTH
 STEP.F            0.5000:   STEP LENGTH
 NULL.          -999.2500:   NO VALUE
 COMP.    FENIX & SCISSON:   COMPANY
 WELL. FENIX NPR 3 "AX" #87-33:   WELL
 FLD .      NPR - WILDCAT:   FIELD
 LOC .      S33 T39N R78W:   LOCATION
 CNTY.            NATRONA:   COUNTY
 STAT.            WYOMING:   STATE
 CTRY. UNITED STATES OF AMERICA:   COUNTRY
 SRVC.              WELEX:   SERVICE COMPANY
 DATE.        20-JUN-1977:   LOGDATE
 API .     49025103840000:   API NUMBER
~CURVE INFORMATION
#MNEM.UNIT       API CODE    CURVE DESCRIPTION
#----------   ------------   ------------------------------
 DEPT.F                  :   
 SPR .MV     07 010 01 00:   SPONTANEOUS POTENTIAL
 ILD .OHMM   07 120 46 00:   DEEP INDUCTION RESISTIVITY
 ILM .OHMM   07 120 44 00:   INDUCTION LOG MEDIUM RESISTIVITY
 SGRD.OHMM   07 220 05 00:   SHALLOW SHORT GUARD RESISTIVITY
 CALD.IN     45 280 60 00:   CALIPER FROM DENSITY LOG
 GRD .GAPI   45 310 01 00:   GAMMA RAY FROM DENSITY LOG
 RHOB.G/C3   45 350 01 00:   BULK DENSITY
 CORR.G/C3   45 356 01 00:   DENSITY CORRECTION
~PARAMETER INFORMATION
#MNEM.UNIT          VALUE    DESCRIPTION
#----------   ------------   ------------------------------
 EKB .F         5170.0000:   Kelly bushing
 EGL .F         5160.0000:   Ground level
 TD  .F         3040.0000:   Total depth
 DATE.        20-JUN-1977:   Date logged
 CLNT.            A2DTECH:   Client Code
 SL  . 800' FSL & 100' FEL:   Surface Location
 PD  .                 GL:   Permanent Datum
 EPD .F              5160:   Elevation Permanent Datum
 LMF .                 KB:   Log Measured From
 DMF .                 KB:   Drilling Measured From
 DD  .F              3040:   Depth driller
 DL  .F              3027:   Depth logger
 BLI .F              3025:   Bottom log interval
 TLI .F               200:   Top log interval
 CS1 .IN            8.625:   Casing size
 CBD1.      8.625" @ 230':   Casing driller 1
 CBL1.F               210:   Casing logger 1
 BS1 .IN            7.875:   Bit size
 BSD1.F              3040:   Depth drilled with bit1
 DFT .                KCL:   Type fluid in hole
 DFD .                9.2:   Density
 DFV .                 38:   Viscosity
 DFPH.                7.5:   pH
 DFL .                5.4:   Fluid loss
 MSS .           FLOWLINE:   Source of sample
 RMS .OHMM            .60:   Rm
 MST .F                92:   Rm Meas. temp.
 RMF .OHMM            .29:   Rmf
 MFST.F                92:   Rmf Meas. temp.
 RMC .OHMM            .76:   Rmc
 MCST.F                92:   Rmc Meas. temp.
 MFSS.               MEAS:   Source Rmf.
 MCSS.               MEAS:   Source Rmc.
 RMB .OHMM            .49:   Rm. at BHT
 BHT .F               112:   BHT.
 TCS .HRS               2:   Time Circ. stopped
 MRT .F               112:   Maximum recorded temp.
 LUN .               8611:   Logging unit number
 LUL .           GILLETTE:   Logging unit location
 ENGI.            C. DOAK:   Recorded By
 WITN.      B. HARRINGTON:   Witnessed by
 ORIG.     2.5", 5" PRINT:   Origin of data
 UWI .     49025103840000:   Unique Well ID
 DICO. A2D TECHNOLOGIES, INC.:   Digitizing Company
~OTHER INFORMATION
~A   DEPT      SPR        ILD        ILM       SGRD         CALD       GRD        RHOB      CORR  
# ...
 2796.0000   -62.9190     4.9650     5.4900     7.5590     8.9510   117.9950     2.4990     0.0020
 2796.5000   -62.8850     5.0740     5.6240     7.6650     8.9580   118.3120     2.4960     0.0020
 2797.0000   -62.8510     5.1680     5.7590     7.4680     8.9650   119.5110     2.4980     0.0020
 2797.5000   -62.8170     5.2610     5.8430     7.2600     8.9710   120.6780     2.5030     0.0020
 2798.0000   -62.7830     5.3380     5.8430     7.3940     8.9780   121.8960     2.5080     0.0020
 2798.5000   -62.7500     5.2910     5.8430     7.5310     8.9850   123.0210     2.5100     0.0040
 2799.0000   -62.7140     5.2510     5.8430     7.6680     8.9920   124.2750     2.5090     0.0070
 2799.5000   -62.6930     5.2110     5.8430     7.8050     8.9920   126.2850     2.5050     0.0100
 2800.0000   -62.6970     5.1720     5.8430     7.7060     8.9900   128.5830     2.5010     0.0130
 2800.5000   -62.6950     5.1480     5.5690     7.6070     8.9870   131.7930     2.4990     0.0160
 2801.0000   -62.6960     4.9880     5.3410     7.3960     8.9840   135.2540     2.4930     0.0160
 2801.5000   -62.6990     4.8280     5.1120     6.7590     8.9820   138.7740     2.4840     0.0160
 2802.0000   -62.6370     4.6170     4.8840     6.5130     8.9790   142.0200     2.4650     0.0160
 2802.5000   -62.3890     4.2190     4.6550     6.5130     8.9770   144.9130     2.4450     0.0160
 2803.0000   -62.1480     4.0500     4.4270     6.2520     8.9730   144.6150     2.4260     0.0140
 2803.5000   -61.9020     4.0190     4.2820     5.8430     8.9630   142.0920     2.4080     0.0110
 2804.0000   -61.6440     4.0020     4.2500     3.9960     8.9530   136.5390     2.3890     0.0060
 2804.5000   -61.5010     4.0280     4.2190     3.7170     8.9430   130.0690     2.3840    -0.0020
 2805.0000   -61.4880     4.0540     4.3340     4.1430     8.9330   123.1300     2.4060    -0.0090
 2805.5000   -61.4590     4.1190     4.4460     4.5360     8.9230   118.4630     2.4410    -0.0090
 2806.0000   -61.4330     4.2310     4.5570     6.3960     8.9140   117.2230     2.4890    -0.0020
 2806.5000   -61.4080     4.3440     4.6950     7.0020     8.9100   117.5470     2.4940     0.0040
 2807.0000   -61.3810     4.4560     4.8660     6.8710     8.9050   119.1460     2.4990     0.0060
 2807.5000   -61.3560     4.5690     5.0370     6.7530     8.9000   120.7840     2.5070     0.0080
 2808.0000   -61.3300     4.6810     5.2080     7.0370     8.8960   122.4240     2.5130     0.0090
 2808.5000   -61.3040     4.7940     5.3790     7.3930     8.8990   124.1720     2.5170     0.0100
 2809.0000   -61.2780     4.8990     5.4350     7.3610     8.9040   125.9970     2.5170     0.0100
 2809.5000   -61.2520     4.9840     5.4980     7.3130     8.9080   127.8630     2.5170     0.0100
 2810.0000   -61.2260     5.0700     5.5700     7.2600     8.9130   130.0080     2.5130     0.0100
 2810.5000   -61.2000     5.1480     5.6350     7.0360     8.9170   131.8840     2.5060     0.0100
 2811.0000   -61.1750     5.0950     5.6350     6.7530     8.9220   131.7920     2.5000     0.0100
 2811.5000   -61.1490     5.0460     5.6350     6.4430     8.9260   130.7690     2.4940     0.0110
 2812.0000   -61.1120     4.9980     5.5970     6.0590     8.9300   129.7100     2.4950     0.0110
 2812.5000   -61.0610     4.9490     5.4680     6.1860     8.9350   129.0580     2.5020     0.0120
 2813.0000   -61.0090     4.9000     5.3380     6.4430     8.9400   129.0660     2.5090     0.0130
 2813.5000   -60.9570     4.7900     5.2090     6.7000     8.9460   130.0020     2.5130     0.0180
 2814.0000   -60.9070     4.6190     5.0800     7.2600     8.9520   133.6620     2.5110     0.0170
 2814.5000   -60.8530     4.4480     4.9650     7.1290     8.9570   139.2290     2.5030     0.0140
 2815.0000   -60.8010     4.2780     4.7310     6.8750     8.9630   146.1420     2.4990     0.0110
 2815.5000   -60.7550     4.1070     4.5210     6.7530     8.9690   155.0560     2.4910     0.0080
 2816.0000   -60.6410     3.9240     4.2960     6.6320     8.9750   163.8190     2.4780     0.0040
 2816.5000   -60.3790     3.8550     4.1520     5.2420     9.0080   168.4770     2.4680     0.0010
 2817.0000   -60.1370     3.7810     3.9240     4.4230     9.0630   169.1890     2.4640    -0.0030
 2817.5000   -59.9700     3.7170     3.9520     3.8400     9.2000   163.7390     2.4780    -0.0030
 2818.0000   -60.1900     3.7850     4.0040     2.9910     9.0100   146.5670     2.4950    -0.0030
 2818.5000   -60.4460     3.7850     4.0560     4.2380     8.9130   142.1150     2.5040    -0.0030
 2819.0000   -60.7070     3.9670     4.2940     6.6320     8.8710   136.5840     2.5130    -0.0030
 2819.5000   -60.9680     4.1170     4.5950     7.3790     8.8600   131.0860     2.5110    -0.0030
 2820.0000   -61.2240     4.2680     4.8960     7.3510     8.8480   125.9950     2.5140    -0.0030
 2820.5000   -61.4810     4.4190     5.1480     7.2950     8.8350   127.0790     2.5150    -0.0030
 2821.0000   -61.7650     4.6750     5.5100     7.2600     8.8230   126.8190     2.5150    -0.0030
 2821.5000   -61.8900     4.9640     5.8220     7.3720     8.8100   122.6630     2.5170    -0.0030
 2822.0000   -61.7500     5.2530     6.1330     7.5670     8.7980   119.1440     2.5140    -0.0050
 2822.5000   -61.6390     5.5410     6.4450     7.7660     8.7860   115.0050     2.5050    -0.0070
 2823.0000   -61.5210     5.8300     6.6350     7.6960     8.7750   113.3330     2.5030    -0.0090
 2823.5000   -61.4000     5.9910     6.7920     7.5570     8.7700   114.1670     2.5010    -0.0100
 2824.0000   -61.2840     6.0610     6.9480     7.6400     8.7640   112.6860     2.4980    -0.0120
 2824.5000   -61.1650     6.1310     7.1040     7.7820     8.7590   110.4970     2.4940    -0.0140
 2825.0000   -61.0470     6.2010     7.2600     7.9230     8.7530   110.6820     2.4870    -0.0150
 2825.5000   -60.9300     6.2710     7.3950     8.0930     8.7480   112.6480     2.4820    -0.0140
 2826.0000   -60.8060     6.3410     7.5280     8.0560     8.7420   114.6400     2.4860    -0.0140
 2826.5000   -60.7120     6.3990     7.4440     8.0110     8.7370   116.4050     2.4850    -0.0120
 2827.0000   -60.6560     6.4120     7.3610     7.9650     8.7320   117.9680     2.4820    -0.0100
 2827.5000   -60.5930     6.4250     7.2780     7.8850     8.7270   119.5710     2.4820    -0.0080
 2828.0000   -60.5310     6.4370     7.1530     7.7840     8.7220   119.8730     2.4870    -0.0050
 2828.5000   -60.4710     6.4500     7.1680     7.6650     8.7170   118.9280     2.4980    -0.0010
 2829.0000   -60.4080     6.4630     7.3360     7.7760     8.7120   116.4350     2.5080     0.0030
 2829.5000   -60.3490     6.4760     7.5040     7.9110     8.7070   114.0130     2.5200     0.0080
 2830.0000   -60.2660     6.4880     7.6650     8.0450     8.7020   111.5890     2.5200     0.0130
 2830.5000   -60.1890     6.5010     7.6300     8.2470     8.6970   110.4850     2.5230     0.0170
 2831.0000   -60.1100     6.5130     7.4850     8.4880     8.6930   111.3360     2.5230     0.0220
 2831.5000   -60.0310     6.3650     7.3400     8.8590     8.6880   114.0450     2.5160     0.0260
 2832.0000   -59.9530     6.2240     7.0890     8.4060     8.6840   118.6870     2.5080     0.0290
 2832.5000   -59.8750     6.0820     6.7110     7.4910     8.6800   124.5310     2.4980     0.0310
 2833.0000   -59.7920     5.9500     6.3340     6.8190     8.6750   126.9930     2.4880     0.0340
 2833.5000   -59.7220     5.4510     5.9560     6.0590     8.6710   130.6210     2.4670     0.0400
 2834.0000   -59.6320     4.9820     5.5780     6.0590     8.6670   136.1180     2.4380     0.0460
 2834.5000   -59.5380     4.5130     5.2010     6.3640     8.6620   141.5600     2.3990     0.0500
 2835.0000   -59.0740     4.0440     4.8230     6.5130     8.6580   147.7590     2.3470     0.0510
 2835.5000   -58.6630     3.5210     4.3660     6.3800     8.6620   156.7660     2.2870     0.0520
 2836.0000   -58.1070     3.1970     3.8710     5.9500     8.6670   165.9800     2.2270     0.0470
