~VERSION INFORMATION
 VERS.                2.0:   CWLS LOG ASCII STANDARD - VERSION 2.0
 WRAP.                 NO:   ONE LINE PER DEPTH STEP
~WELL INFORMATION
#MNEM.UNIT      DATA TYPE    INFORMATION
#----------   ------------   ------------------------------
 STRT.F          200.0000:   START DEPTH
 STOP.F         3060.0000:   STOP DEPTH
 STEP.F            0.5000:   STEP LENGTH
 NULL.          -999.2500:   NO VALUE
 COMP.    FENIX & SCISSON:   COMPANY
 WELL. FENIX & SCISSON NPR "AX" #81-10:   WELL
 FLD .                NPR:   FIELD
 LOC .      S10 T38N R78W:   LOCATION
 CNTY.            NATRONA:   COUNTY
 STAT.            WYOMING:   STATE
 CTRY. UNITED STATES OF AMERICA:   COUNTRY
 SRVC.              WELEX:   SERVICE COMPANY
 DATE.        28-NOV-1977:   LOGDATE
 API .     49025104400000:   API NUMBER
~CURVE INFORMATION
#MNEM.UNIT       API CODE    CURVE DESCRIPTION
#----------   ------------   ------------------------------
 DEPT.F                  :   
 CALD.IN     45 280 60 00:   CALIPER FROM DENSITY LOG
 GRD .GAPI   45 310 01 00:   GAMMA RAY FROM DENSITY LOG
 RHOB.G/C3   45 350 01 00:   BULK DENSITY
 CORR.G/C3   45 356 01 00:   DENSITY CORRECTION
 TEND.LBS    45 635 01 00:   TENSION FROM DENSITY LOG
 NPHI.DEC    42 890 03 00:   NEUTRON POROSITY SANDSTONE
 SPR .MV     07 010 01 00:   SPONTANEOUS POTENTIAL
 IL  .OHMM   07 120 00 00:   INDUCTION LOG RES.
 ASGR.OHMM   07 221 05 00:   AMPLIFIED SHALLOW GUARD
 SNP .DEC    41 890 00 00:   SIDEWALL NEUTRON POROSITY
~PARAMETER INFORMATION
#MNEM.UNIT          VALUE    DESCRIPTION
#----------   ------------   ------------------------------
 EKB .F         5147.0000:   Kelly bushing
 EGL .F         5137.0000:   Ground level
 EDF .F            0.0000:   Drilling floor
 TD  .F         3058.0000:   Total depth
 DATE.        28-NOV-1977:   Date logged
 CLNT.            A2DTECH:   Client Code
 PD  .                 GL:   Permanent Datum
 EPD .F              5137:   Elevation Permanent Datum
 LMF .                 KB:   Log Measured From
 DMF .                 KB:   Drilling Measured From
 DD  .F              3055:   Depth driller
 DL  .F              3058:   Depth logger
 BLI .F              3055:   Bottom log interval
 TLI .F               200:   Top log interval
 CS1 .IN            8.625:   Casing size
 CBD1.      8.625" @ 205':   Casing driller 1
 CBL1.F               215:   Casing logger 1
 BSD1.F              3055:   Depth drilled with bit1
 DFT .            KCL/MUD:   Type fluid in hole
 ENGI.            BENTSEN:   Recorded By
 WITN.         HARRINGTON:   Witnessed by
 ORIG.           5" PRINT:   Origin of data
 UWI .     49025104400000:   Unique Well ID
 DICO. A2D TECHNOLOGIES, INC.:   Digitizing Company
 DAPD.                 10:   Feet Above Permanent Datum
 BS1 .IN            7.875:   Bit size
 DFD .                8.9:   Density
 DFV .                 35:   Viscosity
 MSS .           FLOWLINE:   Source of sample
 RMS .OHMM            .17:   Rm
 MST .F                75:   Rm Meas. temp.
 RMF .OHMM            .12:   Rmf
 MFST.F                75:   Rmf Meas. temp.
 MFSS.               FANN:   Source Rmf.
 RMC .OHMM            .50:   Rmc
 MCST.F                75:   Rmc Meas. temp.
 MCSS.                KIT:   Source Rmc.
 RMB .OHMM           .113:   Rm. at BHT
 BHT .F               113:   BHT.
 TCS .HRS             2.5:   Time Circ. stopped
 MRT .F               113:   Maximum recorded temp.
 LUN .               9685:   Logging unit number
 LUL .             CASPER:   Logging unit location
 SL  . 601' FNL & 200' FEL:   Surface Location
~OTHER INFORMATION
~A   DEPT       CALD      GRD       RHOB       CORR        TEND        NPHI       SPR        IL       ASGR        SNP   
# ...
 1506.5000     9.5580   109.7290     2.5440     0.0120   972.1740     0.1290   -79.1740     5.5730     6.4140     0.2080
 1507.0000     9.5580   109.0040     2.5470     0.0120   972.1340     0.1290   -79.1690     5.5650     6.2090     0.2060
 1507.5000     9.5580   108.2750     2.5500     0.0110   972.0940     0.1280   -79.1640     5.5570     6.0810     0.2050
 1508.0000     9.5580   107.5560     2.5490     0.0110   972.0540     0.1280   -79.1580     5.5490     6.1780     0.2030
 1508.5000     9.5580   107.2240     2.5470     0.0110   972.0140     0.1280   -79.1530     5.5410     6.3280     0.2020
 1509.0000     9.5580   107.2270     2.5460     0.0100   971.9740     0.1290   -79.1480     5.5340     6.3960     0.2030
 1509.5000     9.5580   107.9820     2.5440     0.0100   971.9340     0.1290   -79.1420     5.5260     6.4440     0.2060
 1510.0000     9.5580   109.3390     2.5430     0.0100   971.8940     0.1310   -79.1370     5.5180     6.4790     0.2100
 1510.5000     9.5580   110.6940     2.5450     0.0100   971.8540     0.1340   -79.1320     5.5100     6.3640     0.2150
 1511.0000     9.5590   112.0470     2.5480     0.0090   971.8140     0.1360   -79.1260     5.5020     6.2920     0.2190
 1511.5000     9.5620   113.4050     2.5500     0.0090   971.7740     0.1360   -79.1210     5.4940     6.2190     0.2240
 1512.0000     9.5650   114.7630     2.5520     0.0090   971.7350     0.1340   -79.1160     5.4860     6.1450     0.2270
 1512.5000     9.5690   115.9030     2.5550     0.0090   971.6950     0.1330   -79.1110     5.4770     6.2060     0.2270
 1513.0000     9.5720   114.9990     2.5570     0.0080   971.6550     0.1340   -79.1050     5.4450     6.2010     0.2270
 1513.5000     9.5750   115.5750     2.5590     0.0080   971.6150     0.1350   -79.1000     5.4100     5.9690     0.2270
 1514.0000     9.5780   115.6990     2.5620     0.0080   971.5750     0.1330   -79.0950     5.3740     6.0590     0.2250
 1514.5000     9.5820   114.5190     2.5640     0.0070   971.5350     0.1300   -79.0890     5.3380     6.2340     0.2220
 1515.0000     9.5850   113.3540     2.5660     0.0070   971.4950     0.1280   -79.0840     5.3040     6.4150     0.2190
 1515.5000     9.5880   114.0980     2.5690     0.0070   971.4550     0.1270   -79.0790     5.2870     6.3420     0.2130
 1516.0000     9.5910   115.2130     2.5710     0.0070   971.4150     0.1280   -79.0730     5.3350     6.2190     0.2070
 1516.5000     9.5950   116.3440     2.5730     0.0060   971.3750     0.1290   -79.0680     5.3820     6.1020     0.2020
 1517.0000     9.5980   117.4990     2.5760     0.0040   971.3350     0.1270   -79.0630     5.4280     6.0540     0.2020
 1517.5000     9.6010   117.7840     2.5780     0.0030   971.2950     0.1290   -79.0570     5.4750     6.1530     0.2040
 1518.0000     9.6040   116.4480     2.5730     0.0020   971.2550     0.1310   -79.0520     5.5220     6.3340     0.2060
 1518.5000     9.6080   114.6850     2.5630     0.0000   971.2150     0.1340   -79.0470     5.5700     6.3540     0.2080
 1519.0000     9.6110   113.8100     2.5530    -0.0010   971.1750     0.1390   -79.0410     5.5370     6.1760     0.2160
 1519.5000     9.6140   114.6590     2.5430    -0.0030   971.1350     0.1440   -79.0360     5.4880     6.0890     0.2260
 1520.0000     9.6170   114.7100     2.5350    -0.0020   971.0950     0.1470   -79.0310     5.4380     6.2710     0.2360
 1520.5000     9.6210   114.4120     2.5330     0.0000   971.0550     0.1420   -79.0230     5.3880     6.3730     0.2460
 1521.0000     9.6240   114.1170     2.5320     0.0020   971.0150     0.1370   -78.9400     5.3390     6.4410     0.2510
 1521.5000     9.6270   113.8240     2.5420     0.0040   970.9750     0.1330   -78.8570     5.2890     6.2510     0.2450
 1522.0000     9.6310   113.6070     2.5530     0.0060   971.0040     0.1290   -78.7740     5.2390     6.0230     0.2310
 1522.5000     9.6340   114.3550     2.5640     0.0080   971.0410     0.1240   -78.6920     5.1880     5.8390     0.2150
 1523.0000     9.6370   115.1130     2.5750     0.0100   971.0780     0.1190   -78.6100     5.1700     5.8920     0.2010
 1523.5000     9.6400   115.6140     2.5860     0.0120   971.1140     0.1220   -78.5270     5.1620     6.0160     0.1920
 1524.0000     9.6440   114.4500     2.5970     0.0140   971.1510     0.1270   -78.4430     5.1540     5.9550     0.1870
 1524.5000     9.6470   115.0300     2.5980     0.0120   971.1880     0.1290   -78.4750     5.1460     5.8660     0.1910
 1525.0000     9.6500   115.5170     2.5920     0.0090   971.2250     0.1290   -78.5290     5.1380     5.7760     0.1970
 1525.5000     9.6530   114.4240     2.5860     0.0050   971.2620     0.1300   -78.5840     5.1300     5.6820     0.2030
 1526.0000     9.6570   113.3140     2.5810     0.0020   971.2980     0.1280   -78.6390     5.1230     5.6650     0.2040
 1526.5000     9.6600   113.0290     2.5770    -0.0010   971.3350     0.1270   -78.6940     5.1150     5.8020     0.2050
 1527.0000     9.6630   113.0490     2.5810    -0.0010   971.3720     0.1260   -78.7480     5.1070     5.7840     0.2050
 1527.5000     9.6660   113.0820     2.5870     0.0030   971.4090     0.1260   -78.8030     5.0990     5.7210     0.2050
 1528.0000     9.6700   113.1160     2.5870     0.0070   971.4460     0.1250   -78.8580     5.0910     5.8100     0.2020
 1528.5000     9.6730   113.1520     2.5860     0.0110   971.4830     0.1260   -78.9130     5.0830     6.0090     0.2000
 1529.0000     9.6760   113.1850     2.5860     0.0150   971.5190     0.1270   -78.9680     5.0750     6.1210     0.2000
 1529.5000     9.6790   113.7150     2.5890     0.0190   971.5560     0.1290   -79.0230     5.0650     6.0070     0.2010
 1530.0000     9.6740   114.6170     2.5950     0.0230   971.5930     0.1300   -79.0780     5.0550     6.0890     0.2050
 1530.5000     9.6690   115.5450     2.6010     0.0270   971.6300     0.1310   -79.1330     5.0450     5.8040     0.2100
 1531.0000     9.6630   115.7570     2.6070     0.0310   971.6670     0.1300   -79.1870     5.0350     5.5820     0.2090
 1531.5000     9.6580   115.0940     2.6130     0.0350   971.7030     0.1260   -79.2250     5.0250     5.5400     0.2050
 1532.0000     9.6520   114.3480     2.6070     0.0310   971.7400     0.1210   -79.2250     5.0150     5.5950     0.1990
 1532.5000     9.6470   113.7730     2.5940     0.0260   971.7770     0.1200   -79.2250     5.0050     5.5430     0.1920
 1533.0000     9.6410   113.7150     2.5820     0.0210   971.8140     0.1200   -79.2250     4.9950     5.4830     0.1880
 1533.5000     9.6360   113.6460     2.5710     0.0160   971.8510     0.1210   -79.2250     4.9850     5.5450     0.1880
 1534.0000     9.6300   114.3550     2.5710     0.0110   971.8870     0.1220   -79.2250     4.9760     5.6940     0.1890
 1534.5000     9.6250   116.2120     2.5720     0.0100   971.9240     0.1240   -79.2250     5.0060     5.7200     0.1900
 1535.0000     9.6190   116.4610     2.5730     0.0110   971.9610     0.1270   -79.2250     5.0400     5.8160     0.1940
 1535.5000     9.6140   115.9000     2.5730     0.0110   971.9980     0.1300   -79.2250     5.0730     5.7900     0.2000
 1536.0000     9.6080   115.3160     2.5670     0.0110   972.0350     0.1330   -79.2250     5.1060     5.7270     0.2060
 1536.5000     9.6030   115.6790     2.5600     0.0110   972.0720     0.1350   -79.2250     5.1400     5.6630     0.2120
 1537.0000     9.5970   116.5860     2.5520     0.0110   972.1080     0.1380   -79.2250     5.1730     5.7200     0.2180
 1537.5000     9.5920   117.5030     2.5450     0.0110   972.1450     0.1400   -79.2250     5.0560     5.9940     0.2240
 1538.0000     9.5860   116.1980     2.5380     0.0110   972.1820     0.1410   -79.2250     4.9220     5.8970     0.2300
 1538.5000     9.5800   115.8100     2.5310     0.0110   972.2190     0.1420   -79.2250     4.7900     5.9790     0.2360
 1539.0000     9.5750   116.2170     2.5250     0.0110   972.2560     0.1390   -79.2250     4.7600     5.9110     0.2370
 1539.5000     9.5690   116.6320     2.5320     0.0160   972.2920     0.1360   -79.2250     4.7440     5.6360     0.2300
