~VERSION INFORMATION
 VERS.                2.0:   CWLS LOG ASCII STANDARD - VERSION 2.0
 WRAP.                 NO:   ONE LINE PER DEPTH STEP
~WELL INFORMATION
#MNEM.UNIT      DATA TYPE    INFORMATION
#----------   ------------   ------------------------------
 STRT.F          204.0000:   START DEPTH
 STOP.F         3024.0000:   STOP DEPTH
 STEP.F            0.5000:   STEP LENGTH
 NULL.          -999.2500:   NO VALUE
 COMP.    FENIX & SCISSON:   COMPANY
 WELL. FENIX NPR 3 "AX" #87-33:   WELL
 FLD .      NPR - WILDCAT:   FIELD
 LOC .      S33 T39N R78W:   LOCATION
 CNTY.            NATRONA:   COUNTY
 STAT.            WYOMING:   STATE
 CTRY. UNITED STATES OF AMERICA:   COUNTRY
 SRVC.              WELEX:   SERVICE COMPANY
 DATE.        20-JUN-1977:   LOGDATE
 API .     49025103840000:   API NUMBER
~CURVE INFORMATION
#MNEM.UNIT       API CODE    CURVE DESCRIPTION
#----------   ------------   ------------------------------
 DEPT.F                  :   
 SPR .MV     07 010 01 00:   SPONTANEOUS POTENTIAL
 ILD .OHMM   07 120 46 00:   DEEP INDUCTION RESISTIVITY
 ILM .OHMM   07 120 44 00:   INDUCTION LOG MEDIUM RESISTIVITY
 SGRD.OHMM   07 220 05 00:   SHALLOW SHORT GUARD RESISTIVITY
 CALD.IN     45 280 60 00:   CALIPER FROM DENSITY LOG
 GRD .GAPI   45 310 01 00:   GAMMA RAY FROM DENSITY LOG
 RHOB.G/C3   45 350 01 00:   BULK DENSITY
 CORR.G/C3   45 356 01 00:   DENSITY CORRECTION
~PARAMETER INFORMATION
#MNEM.UNIT          VALUE    DESCRIPTION
#----------   ------------   ------------------------------
 EKB .F         5170.0000:   Kelly bushing
 EGL .F         5160.0000:   Ground level
 TD  .F         3040.0000:   Total depth
 DATE.        20-JUN-1977:   Date logged
 CLNT.            A2DTECH:   Client Code
 SL  . 800' FSL & 100' FEL:   Surface Location
 PD  .                 GL:   Permanent Datum
 EPD .F              5160:   Elevation Permanent Datum
 LMF .                 KB:   Log Measured From
 DMF .                 KB:   Drilling Measured From
 DD  .F              3040:   Depth driller
 DL  .F              3027:   Depth logger
 BLI .F              3025:   Bottom log interval
 TLI .F               200:   Top log interval
 CS1 .IN            8.625:   Casing size
 CBD1.      8.625" @ 230':   Casing driller 1
 CBL1.F               210:   Casing logger 1
 BS1 .IN            7.875:   Bit size
 BSD1.F              3040:   Depth drilled with bit1
 DFT .                KCL:   Type fluid in hole
 DFD .                9.2:   Density
 DFV .                 38:   Viscosity
 DFPH.                7.5:   pH
 DFL .                5.4:   Fluid loss
 MSS .           FLOWLINE:   Source of sample
 RMS .OHMM            .60:   Rm
 MST .F                92:   Rm Meas. temp.
 RMF .OHMM            .29:   Rmf
 MFST.F                92:   Rmf Meas. temp.
 RMC .OHMM            .76:   Rmc
 MCST.F                92:   Rmc Meas. temp.
 MFSS.               MEAS:   Source Rmf.
 MCSS.               MEAS:   Source Rmc.
 RMB .OHMM            .49:   Rm. at BHT
 BHT .F               112:   BHT.
 TCS .HRS               2:   Time Circ. stopped
 MRT .F               112:   Maximum recorded temp.
 LUN .               8611:   Logging unit number
 LUL .           GILLETTE:   Logging unit location
 ENGI.            C. DOAK:   Recorded By
 WITN.      B. HARRINGTON:   Witnessed by
 ORIG.     2.5", 5" PRINT:   Origin of data
 UWI .     49025103840000:   Unique Well ID
 DICO. A2D TECHNOLOGIES, INC.:   Digitizing Company
~OTHER INFORMATION
~A   DEPT      SPR        ILD        ILM       SGRD         CALD       GRD        RHOB      CORR  
# ...
  771.0000   -55.5350     8.5640     9.0210    10.4260    10.1070   100.7900     2.4980     0.0090
  771.5000   -55.6020     8.5450     9.0210    10.4260    10.1040   100.8130     2.5090     0.0130
  772.0000   -55.6690     8.5450     9.0210    10.1600    10.1010   101.6430     2.5080     0.0140
  772.5000   -55.7350     8.5440     9.0030     9.7170    10.0950   104.2130     2.5050     0.0120
  773.0000   -55.8020     8.5450     8.9810     9.1860    10.0900   106.2520     2.5010     0.0110
  773.5000   -55.8680     8.5440     8.9580     9.0210    10.0850   108.2260     2.4980     0.0100
  774.0000   -55.9340     8.5440     8.9360     9.4780    10.0800   107.6860     2.4950     0.0100
  774.5000   -56.0030     8.5450     8.9130    10.2390    10.0750   105.7010     2.4930     0.0100
  775.0000   -56.0580     8.5290     8.8910    10.8100    10.0700   105.1210     2.4930     0.0100
  775.5000   -56.1060     8.5030     8.8680    10.8100    10.0640   105.4850     2.5010     0.0100
  776.0000   -56.1480     8.4780     8.8240    10.6890    10.0590   106.2590     2.4980     0.0100
  776.5000   -56.1910     8.4520     8.7660    10.4850    10.0540   107.0440     2.5010     0.0100
  777.0000   -56.2330     8.4280     8.7070    10.1570    10.0490   107.9620     2.5050     0.0100
  777.5000   -56.2750     8.4030     8.6490     9.8290    10.0440   109.6780     2.5070     0.0100
  778.0000   -56.3180     8.3360     8.5900     9.6340    10.0340   110.7670     2.5020     0.0090
  778.5000   -56.3600     8.2380     8.5320     9.5260    10.0210   110.2830     2.4970     0.0070
  779.0000   -56.4030     8.1430     8.4730     9.4180    10.0070   109.8400     2.4920     0.0050
  779.5000   -56.4450     8.0470     8.4150     9.3530     9.9940   109.3990     2.4860     0.0040
  780.0000   -56.4880     7.9520     8.3030     9.1800     9.9800   108.9560     2.4760     0.0020
  780.5000   -56.5300     7.8560     8.1570     8.8910     9.9670   108.6730     2.4690     0.0000
  781.0000   -56.5730     7.7610     8.0100     8.5440     9.9530   108.4080     2.4720    -0.0010
  781.5000   -56.6150     7.6650     7.8640     8.5890     9.9400   108.1070     2.4730    -0.0020
  782.0000   -56.6580     7.6650     7.8050     8.6450     9.9280   109.3830     2.4720    -0.0030
  782.5000   -56.7000     7.6650     7.8050     8.7000     9.9160   110.9080     2.4750    -0.0040
  783.0000   -56.7430     7.6650     7.8050     8.6710     9.9040   112.5950     2.4670    -0.0050
  783.5000   -56.7850     7.6650     7.8050     8.6220     9.8930   114.2810     2.4580    -0.0060
  784.0000   -56.8270     7.6170     7.8050     8.5440     9.8810   116.0000     2.4550    -0.0070
  784.5000   -56.8700     7.5680     7.7910     8.6040     9.8690   116.6920     2.4590    -0.0060
  785.0000   -56.9120     7.5190     7.7560     8.7530     9.8570   116.9630     2.4650    -0.0040
  785.5000   -56.9550     7.4710     7.7210     8.9020     9.8440   117.1780     2.4700    -0.0020
  786.0000   -56.9970     7.4220     7.6860     9.0210     9.8370   116.4870     2.4750    -0.0010
  786.5000   -57.0400     7.3680     7.6440     8.9810     9.8310   115.7160     2.4800     0.0010
  787.0000   -57.0820     7.3070     7.5920     8.9300     9.8240   116.2100     2.4850     0.0030
  787.5000   -57.1250     7.2460     7.5400     8.8790     9.8170   116.8900     2.4890     0.0050
  788.0000   -57.1670     7.1850     7.4870     8.8590     9.8100   117.5750     2.4880     0.0050
  788.5000   -57.2090     7.1240     7.4350     8.8590     9.8090   118.2650     2.4820     0.0020
  789.0000   -57.2440     7.0630     7.3930     8.7280     9.8340   118.2640     2.4710    -0.0020
  789.5000   -57.2740     7.0020     7.1730     8.5970     9.8570   118.1350     2.4570    -0.0060
  790.0000   -57.3040     6.8050     6.9900     8.2150     9.9100   117.9540     2.4430    -0.0110
  790.5000   -57.3330     6.6070     6.8060     7.6650     9.9690   116.4280     2.4380    -0.0130
  791.0000   -57.3630     6.4100     6.6230     7.5520     9.9610   114.7710     2.4410    -0.0130
  791.5000   -57.3920     6.2120     6.4630     7.3930     9.8980   115.4340     2.4380    -0.0130
  792.0000   -57.4220     6.0150     6.3360     7.4150     9.8210   116.7160     2.4340    -0.0120
  792.5000   -57.4520     5.8170     6.2100     7.4530     9.7950   115.1350     2.4300    -0.0110
  793.0000   -57.4810     5.6780     6.0590     7.4900     9.8050   113.3080     2.4260    -0.0100
  793.5000   -57.5110     5.5780     5.9420     7.5280     9.8180   111.7750     2.4290    -0.0090
  794.0000   -57.5400     5.4780     5.7960     7.2790     9.8300   113.5580     2.4330    -0.0080
  794.5000   -57.5700     5.3780     5.6500     7.1300     9.8420   112.9990     2.4280    -0.0060
  795.0000   -57.6000     5.2460     5.5040     7.1300     9.8460   112.3760     2.4230    -0.0050
  795.5000   -57.6290     5.0940     5.3590     7.1300     9.8480   111.7230     2.4230    -0.0040
  796.0000   -57.6590     4.9410     5.2420     6.8220     9.8500   112.7500     2.4160    -0.0050
  796.5000   -57.6880     4.7890     5.0340     6.5130     9.8520   112.7520     2.4060    -0.0060
  797.0000   -57.7180     4.7890     4.9650     6.5130     9.8550   111.9860     2.4060    -0.0070
  797.5000   -57.7480     4.7890     5.0560     5.4890     9.8570   111.9190     2.4160    -0.0090
  798.0000   -57.7770     4.8630     5.1070     4.5360     9.8590   113.4470     2.4330    -0.0100
  798.5000   -57.8070     4.9380     5.1940     6.5130     9.8610   114.9740     2.4520    -0.0110
  799.0000   -57.8370     5.0130     5.2800     6.8190     9.8640   116.4880     2.4580    -0.0100
  799.5000   -57.8660     5.0880     5.3660     7.0580     9.8640   118.0100     2.4580    -0.0080
  800.0000   -57.8960     5.1480     5.4350     7.1980     9.8640   118.0760     2.4600    -0.0060
  800.5000   -57.9250     5.3680     5.6980     7.3380     9.8640   117.1460     2.4630    -0.0040
  801.0000   -57.9550     5.5510     5.9180     7.4060     9.8640   116.2170     2.4600    -0.0030
  801.5000   -57.9850     5.7340     6.1370     7.4290     9.8640   115.2790     2.4530    -0.0030
  802.0000   -58.0070     5.9170     6.3960     7.4520     9.8640   114.4310     2.4550    -0.0030
  802.5000   -58.0080     6.1000     6.3960     7.4740     9.8640   114.2980     2.4590    -0.0030
  803.0000   -58.0080     6.1780     6.3960     7.4970     9.8640   114.1840     2.4590    -0.0050
  803.5000   -58.0080     6.1920     6.4270     7.5190     9.8640   114.0620     2.4540    -0.0080
  804.0000   -58.0080     6.2060     6.4630     7.5280     9.8640   114.1690     2.4480    -0.0110
  804.5000   -58.0080     6.2200     6.5000     7.5280     9.8640   114.3530     2.4420    -0.0110
  805.0000   -58.0080     6.2340     6.5360     7.5280     9.8640   115.2940     2.4490    -0.0090
  805.5000   -58.0080     6.2490     6.5710     7.5280     9.8640   116.5600     2.4610    -0.0070
  806.0000   -58.0080     6.2630     6.6070     7.5280     9.8640   117.8490     2.4670    -0.0040
  806.5000   -58.0080     6.2770     6.6420     7.5280     9.8640   116.8800     2.4700    -0.0010
  807.0000   -58.0080     6.3200     6.6780     7.5270     9.8640   116.1090     2.4750     0.0000
  807.5000   -58.0080     6.3780     6.7130     7.5280     9.8640   116.3000     2.4790     0.0000
  808.0000   -58.0080     6.4360     6.7530     7.5300     9.8630   115.9890     2.4770     0.0000
  808.5000   -58.0080     6.5130     6.7530     7.5270     9.8610   115.1120     2.4750    -0.0010
  809.0000   -58.0080     6.5030     6.7530     7.6120     9.8590   114.2360     2.4720    -0.0030
  809.5000   -58.0080     6.4880     6.7540     7.6890     9.8560   113.3630     2.4720    -0.0060
  810.0000   -58.0080     6.4720     6.7540     7.7660     9.8540   113.3960     2.4720    -0.0070
  810.5000   -58.0080     6.4560     6.7550     7.8060     9.8520   113.5730     2.4710    -0.0070
  811.0000   -58.0080     6.4410     6.7350     7.8060     9.8500   114.0700     2.4670    -0.0070
