~VERSION INFORMATION
 VERS.                2.0:   CWLS LOG ASCII STANDARD - VERSION 2.0
 WRAP.                 NO:   ONE LINE PER DEPTH STEP
~WELL INFORMATION
#MNEM.UNIT      DATA TYPE    INFORMATION
#----------   ------------   ------------------------------
 STRT.F          705.5000:   START DEPTH
 STOP.F         3212.0000:   STOP DEPTH
 STEP.F            0.5000:   STEP LENGTH
 NULL.          -999.2500:   NO VALUE
 COMP.    FENIX & SCISSON:   COMPANY
 WELL. FENIX 41 "AX" #1-15:   WELL
 FLD .             NPR #3:   FIELD
 LOC .      S15 T38N R78W:   LOCATION
 CNTY.            NATRONA:   COUNTY
 STAT.            WYOMING:   STATE
 CTRY. UNITED STATES OF AMERICA:   COUNTRY
 SRVC.              WELEX:   SERVICE COMPANY
 DATE.        18-NOV-1980:   LOGDATE
 API .     49025108530000:   API NUMBER
~CURVE INFORMATION
#MNEM.UNIT       API CODE    CURVE DESCRIPTION
#----------   ------------   ------------------------------
 DEPT.F                  :   
 SPR .MV     07 010 01 00:   SPONTANEOUS POTENTIAL
 ILD .OHMM   07 120 46 00:   INDUCTION LOG DEEP RESISTIVITY
 ILM .OHMM   07 120 44 00:   INDUCTION LOG MEDIUM RESISTIVITY
 SGRD.OHMM   07 220 05 00:   SHORT GUARD RESISTIVITY
 GRD .GAPI   45 310 01 00:   GAMMA RAY FROM DENSITY LOG
 CALD.IN     45 280 60 00:   CALIPER FROM DENSITY LOG
 RHOB.G/C3   45 350 01 00:   BULK DENSITY
 NPHI.DEC    42 890 03 00:   NEUTRON POROSITY SANDSTONE
~PARAMETER INFORMATION
#MNEM.UNIT          VALUE    DESCRIPTION
#----------   ------------   ------------------------------
 EKB .F         5252.0000:   Kelly bushing
 EGL .F         5242.0000:   Ground level
 EDF .F            0.0000:   Drilling floor
 TD  .F         3214.0000:   Total depth
 CLNT.            A2DTECH:   Client Code
 SL  . 2150' FWL & 550' FNL:   Surface Location
 PD  .                 GL:   Permanent Datum
 EPD .F              5242:   Elevation Permanent Datum
 LMF .                 KB:   Log Measured From
 DMF .                 KB:   Drilling Measured From
 DATE.        18-NOV-1980:   Date Logged [DD-MMM-YYYY]
 DD  .F              3210:   Depth driller
 DL  .F              3214:   Depth logger
 BLI .F              3212:   Bottom log interval
 TLI .F               734:   Top log interval
 CS1 .IN            8.625:   Casing size
 CBD1.      8.625" @ 709':   Casing driller 1
 CBL1.F               734:   Casing logger 1
 BS1 .IN            7.875:   Bit size
 BSD1.F              3210:   Depth drilled with bit1
 DFT .          FRESH MUD:   Type fluid in hole
 DFD .                8.8:   Density
 DFV .                 45:   Viscosity
 DFPH.               10.5:   pH
 DFL .                 12:   Fluid loss
 MSS .           FLOWLINE:   Source of sample
 RMS .OHMM           1.25:   Rm
 MST .F                70:   Rm Meas. temp.
 RMF .OHMM           1.25:   Rmf
 MFST.F                70:   Rmf Meas. temp.
 MFSS.               MEAS:   Source Rmf.
 RMB .OHMM           0.78:   Rm. at BHT
 BHT .F               112:   BHT.
 TCS .HRS               7:   Time Circ. stopped
 MRT .F               112:   Maximum recorded temp.
 LUN .               1892:   Logging unit number
 LUL .             CASPER:   Logging unit location
 ENGI.               REIN:   Recorded By
 WITN.              SCOTT:   Witnessed by
 ORIG.      2.5" 5" PRINT:   Origin of data
 UWI .     49025108530000:   Unique Well ID
 DICO. A2D TECHNOLOGIES, INC.:   Digitizing Company
 DAPD.                 10:   Feet Above Permanent Datum
~OTHER INFORMATION
~A   DEPT      SPR        ILD        ILM       SGRD         GRD      CALD       RHOB       NPHI   
# ...
 2852.0000   -29.6941     9.3732     9.6255    15.1735    76.0522     9.3891     2.5048     0.3143
 2852.5000   -29.6912     9.1046     9.6242    15.1705    77.3601     9.3884     2.4965     0.3122
 2853.0000   -29.6882     8.8436     9.6229    14.7398    78.4475     9.3877     2.5002     0.3103
 2853.5000   -29.6853     8.6181     9.6216    13.5509    77.9939     9.3869     2.5161     0.3019
 2854.0000   -29.6818     8.4122     9.8188    13.2113    77.5403     9.3862     2.5340     0.2978
 2854.5000   -29.6790     8.3304     9.8879    13.5774    76.8661     9.3855     2.5569     0.2966
 2855.0000   -29.6761     8.1841    10.0235    13.3399    76.1888     9.3847     2.5804     0.2938
 2855.5000   -29.9674     8.0724    10.1615    12.8448    75.5146     9.3840     2.5881     0.2898
 2856.0000   -29.9645     8.0724    10.1599    13.6016    74.1786     9.3833     2.5688     0.2840
 2856.5000   -30.2559     8.1841    10.4426    13.2951    72.3978     9.3825     2.5642     0.2764
 2857.0000   -30.2529     8.4122    10.4412    11.1854    68.6359     9.3817     2.5853     0.2692
 2857.5000   -30.2500     8.7664    10.7317    10.9233    66.4176     9.3811     2.6065     0.2639
 2858.0000   -30.4628     9.0108    10.8792    14.7244    61.9934     9.3803     2.6247     0.2586
 2858.5000   -30.8326     9.3901    11.0288    16.8944    59.9956     9.3796     2.6292     0.2565
 2859.0000   -30.8294     9.6519    11.1928    16.8910    58.8772     9.3789     2.6230     0.2612
 2859.5000   -30.8265     9.9209    11.3341    17.5997    58.2061     9.3781     2.6160     0.2659
 2860.0000   -30.8235    10.0583    11.4899    19.9173    64.3670     9.3774     2.6175     0.2691
 2860.5000   -30.8206    10.1975    11.6479    18.5887    68.3498     9.3767     2.6318     0.2714
 2861.0000   -31.0309    10.1975    11.6461    17.3486    69.4157     9.3759     2.6340     0.2720
 2861.5000   -31.1088    10.1975    11.4850    16.8528    69.1795     9.3752     2.6216     0.2733
 2862.0000   -30.9392    10.1975    11.3262    15.4880    68.7259     9.3744     2.6391     0.2762
 2862.5000   -30.8088    10.1569    11.0931    14.9017    68.2721     9.3737     2.6261     0.2709
 2863.0000   -30.8054     9.8735    10.7810    15.6247    69.1391     9.3730     2.6101     0.2700
 2863.5000   -30.8026     9.5449    10.5670    16.5335    74.8620     9.3722     2.6171     0.2785
 2864.0000   -30.7997     9.2030    10.1375    16.6267    81.9084     9.3715     2.6699     0.2945
 2864.5000   -30.7969     8.7612     9.8605    15.1785    87.2869     9.3708     2.6660     0.2999
 2865.0000   -30.7940     8.2791     9.3301    13.2802    91.3657     9.3738     2.6454     0.3016
 2865.5000   -30.7911     7.7462     8.7074    12.2660    96.4268     9.3797     2.6233     0.3048
 2866.0000   -30.7882     7.3318     8.1262    11.8423    99.5029     9.3857     2.6073     0.3091
 2866.5000   -30.7853     6.9395     7.7959    11.2957    97.6645     9.3917     2.5958     0.3139
 2867.0000   -30.7824     6.5682     7.3725    11.1232    95.2834     9.3976     2.6056     0.3126
 2867.5000   -30.7794     6.2168     7.0767    10.2958    93.2857     9.4036     2.6047     0.3086
 2868.0000   -30.7765     5.9656     7.0915     8.8310    91.2879     9.4097     2.5963     0.3030
 2868.5000   -30.7735     5.8039     7.2948     8.7032    92.3753     9.3648     2.5893     0.2977
 2869.0000   -30.7706     5.7207     7.5039    10.5334    93.2453     9.3347     2.5946     0.2927
 2869.5000   -30.7676     5.6465     7.7559    10.8253    91.6887     9.3340     2.6150     0.2880
 2870.0000   -30.4706     5.9116     7.9403    10.6751    87.0439     9.3333     2.6210     0.2841
 2870.5000   -30.4676     6.2757     8.1680     9.6924    78.4254     9.3325     2.5996     0.2765
 2871.0000   -30.1700     6.8595     8.4022    10.8188    75.7659     9.3318     2.5934     0.2747
 2871.5000   -30.1672     7.4016     8.6431    13.4820    75.9741     9.3311     2.6062     0.2791
 2872.0000   -30.1643     7.8326     9.0587    14.8430    77.2852     9.3304     2.6085     0.2829
 2872.5000   -30.1615     8.2886     9.3108    14.2396    78.1551     9.3295     2.5992     0.2845
 2873.0000   -30.1586     8.7085     9.4388    14.0240    77.9190     9.3142     2.5851     0.2842
 2873.5000   -30.1558     8.9585     9.5686    13.7895    77.6859     9.2988     2.5740     0.2833
 2874.0000   -30.1529     9.1355     9.8347    13.3902    77.2323     9.2834     2.5686     0.2827
 2874.5000   -30.1500     9.1355     9.8334    12.7440    76.9962     9.2679     2.5654     0.2812
 2875.0000   -30.1471     9.2619     9.9686    12.8600    76.7631     9.2672     2.5707     0.2803
 2875.5000   -30.1441     9.1355     9.9590    13.3483    76.5301     9.2665     2.5789     0.2788
 2876.0000   -30.1412     9.1355     9.8294    13.8328    76.5176     9.2658     2.5887     0.2769
 2876.5000   -30.1382     9.1355     9.8280    14.2160    76.7258     9.2502     2.5977     0.2754
 2877.0000   -30.0422     9.0108     9.8267    14.5247    77.1515     9.2496     2.6113     0.2770
 2877.5000   -29.8382     8.8826     9.8253    14.4066    78.0214     9.2489     2.6219     0.2808
 2878.0000   -29.8353     8.6467     9.8240    13.8210    80.2496     9.2629     2.6294     0.2865
 2878.5000   -30.1265     8.6281     9.6881    12.7226    85.9346     9.2620     2.6277     0.2909
 2879.0000   -30.1235     8.4122     9.5541    10.0657    82.6133     9.2613     2.5965     0.2925
 2879.5000   -30.1200     8.3806     9.5528     9.2658    79.0715     9.2606     2.5820     0.2922
 2880.0000   -30.1172     8.1841     9.5512    10.2012    77.0735     9.2599     2.5880     0.2929
 2880.5000   -30.1143     8.2285     9.5500    14.5888    77.9436     9.2591     2.5995     0.2964
 2881.0000   -30.1115     8.4122     9.5487    14.1691    79.0310     9.2584     2.6098     0.2973
 2881.5000   -30.1086     8.5287     9.5474    13.4057    79.9010     9.2577     2.5824     0.2946
 2882.0000   -30.1057     8.6467     9.5461    13.0592    80.5503     9.2570     2.5899     0.2937
 2882.5000   -30.1029     8.7664     9.5449    12.8369    80.5347     9.2561     2.6039     0.2975
 2883.0000   -30.1000     8.7664     9.5436    12.6993    78.5370     9.2554     2.6224     0.2975
 2883.5000   -30.0971     8.7664     9.5423    12.9357    75.8775     9.2547     2.6405     0.2921
 2884.0000   -30.0941     8.6467     9.5410    13.1232    73.6327     9.2540     2.6541     0.2850
 2884.5000   -30.0912     8.6467     9.5397    13.4100    74.0848     9.2532     2.6685     0.2876
 2885.0000   -30.0882     8.6467     9.5122    13.9868    76.9400     9.2525     2.6076     0.2870
 2885.5000   -30.0853     8.6467     9.4064    14.9645    79.5747     9.2371     2.5832     0.2844
 2886.0000   -30.0824     8.6428     9.4051    14.7570    81.8318     9.2364     2.5687     0.2817
 2886.5000   -30.0794     8.5287     9.4038    14.5523    84.3996     9.2209     2.5633     0.2912
 2887.0000   -30.0765     8.4122     9.4025    14.5494    86.3725     9.2351     2.5692     0.2934
 2887.5000   -30.0735     8.4122     9.4339    14.1514    88.3453     9.2342     2.5729     0.2957
 2888.0000   -30.0700     8.4122     9.5305    13.9551    87.8886     9.2482     2.5744     0.2972
 2888.5000   -30.0672     8.4500     9.5291    13.3878    85.6703     9.2473     2.5705     0.2979
 2889.0000   -30.0643     8.5739     9.5276    12.6634    85.2167     9.2466     2.5673     0.2986
 2889.5000   -29.7673     8.6467     9.6586    11.6494    84.9837     9.2460     2.5665     0.2983
 2890.0000   -30.0588     8.8271     9.7111    10.9171    82.1005     9.2599     2.5757     0.2968
 2890.5000   -30.0557     8.8877     9.7902    10.1573    81.4294     9.2591     2.5906     0.2955
 2891.0000   -30.0529     9.0108     9.7888    13.3743    83.1785     9.2584     2.6042     0.2931
 2891.5000   -30.0500     9.1355     9.9234    13.3712    82.9455     9.2724     2.6140     0.2887
 2892.0000   -30.0471     9.1355    10.0598    13.1857    80.7241     9.2715     2.6242     0.2844
