~VERSION INFORMATION
 VERS.                2.0:   CWLS LOG ASCII STANDARD - VERSION 2.0
 WRAP.                 NO:   ONE LINE PER DEPTH STEP
~WELL INFORMATION
#MNEM.UNIT      DATA TYPE    INFORMATION
#----------   ------------   ------------------------------
 STRT.F          200.0000:   START DEPTH
 STOP.F         3142.0000:   STOP DEPTH
 STEP.F            0.5000:   STEP LENGTH
 NULL.          -999.2500:   NO VALUE
 COMP.    FENIX & SCISSON:   COMPANY
 WELL.  FENIX "AX" #37-10:   WELL
 FLD .              NPR-3:   FIELD
 LOC .      S10 T38N R78W:   LOCATION
 CNTY.            NATRONA:   COUNTY
 STAT.            WYOMING:   STATE
 CTRY. UNITED STATES OF AMERICA:   COUNTRY
 SRVC.              WELEX:   SERVICE COMPANY
 DATE.        19-SEP-1977:   LOGDATE
 API .     49025104190000:   API NUMBER
~CURVE INFORMATION
#MNEM.UNIT       API CODE    CURVE DESCRIPTION
#----------   ------------   ------------------------------
 DEPT.F                  :   
 CALD.IN     45 280 60 00:   CALIPER FROM DENSITY LOG
 GRD .GAPI   45 310 01 00:   GAMMA RAY FROM DENSITY LOG
 RHOB.G/C3   45 350 01 00:   BULK DENSITY
 CORR.G/C3   45 356 01 00:   DENSITY CORRECTION
 NPHI.DEC    42 890 03 00:   NEUTRON POROSITY SANDSTONE
 SPR .MV     07 010 01 00:   SPONTANEOUS POTENTIAL
 SGRD.OHMM   07 220 05 00:   SHALLOW GUARD RESISTIVITY
 ILD .OHMM   07 120 46 00:   INDUCTION LOG DEEP RESISTIVITY
 ILM .OHMM   07 120 44 00:   INDUCTION LOG MEDIUM RESISTIVITY
 TENR.LBS    07 635 01 00:   TENSION FROM RESISTIVITY
~PARAMETER INFORMATION
#MNEM.UNIT          VALUE    DESCRIPTION
#----------   ------------   ------------------------------
 EKB .F         5221.0000:   Kelly bushing
 EGL .F         5211.0000:   Ground level
 EDF .F            0.0000:   Drilling floor
 TD  .F         3150.0000:   Total depth
 DATE.        19-SEP-1977:   Date logged
 CLNT.            A2DTECH:   Client Code
 SL  . 1190' FSL & 1750' FWL:   Surface Location
 PD  .                 GL:   Permanent Datum
 DD  .F              3150:   Depth driller
 DL  .F              3146:   Depth logger
 BLI .F              3144:   Bottom log interval
 CS1 .IN            8.625:   Casing size
 CBD1.      8.625" @ 215':   Casing driller 1
 BS1 .IN            7.875:   Bit size
 DFT .            KCL/MUD:   Type fluid in hole
 DFD .                8.9:   Density
 TCS .HRS               2:   Time Circ. stopped
 MRT .F               116:   Maximum recorded temp.
 ENGI.            C. DOAK:   Recorded By
 WITN.      B. HARRINGTON:   Witnessed by
 ORIG.           5" PRINT:   Origin of data
 UWI .     49025104190000:   Unique Well ID
 DICO. A2D TECHNOLOGIES, INC.:   Digitizing Company
 DAPD.F                10:   Feet Above Permanent Datum
 BSD1.F              3150:   Depth drilled with bit1
 EPD .F              5211:   Elevation Permanent Datum
 LMF .                 KB:   Log Measured From
 DMF .                 KB:   Drilling Measured From
 TLI .F               200:   Top log interval
 CBL1.                213:   Casing logger 1
 DFV .                 37:   Viscosity
 DFPH.                 11:   pH
 DFL .                5.8:   Fluid loss
 MSS .           MEASURED:   Source of sample
 RMS .               2.82:   Rm
 MST .                 94:   Rm Meas. temp.
 RMF .               1.61:   Rmf
 MFST.                 94:   Rmf Meas. temp.
 MFSS.               MEAS:   Source Rmf.
 RMC .               3.12:   Rmc
 MCST.                 94:   Rmc Meas. temp.
 MCSS.               MEAS:   Source Rmc.
 RMB .               2.28:   Rm. at BHT
 BHT .                116:   BHT.
 LUN .               8611:   Logging unit number
 LUL .             CASPER:   Logging unit location
~OTHER INFORMATION
~A   DEPT       CALD       GRD        RHOB      CORR      NPHI        SPR       SGRD        ILD        ILM       TENR   
  200.0000     9.1748    22.6206     1.8942    -0.4321  -999.2500  -999.2500  -999.2500  -999.2500  -999.2500  -999.2500
  200.5000     9.2343    22.6206     1.8882    -0.4322  -999.2500  -999.2500  -999.2500  -999.2500  -999.2500  -999.2500
  201.0000     9.2938    22.6206     1.8861    -0.4283  -999.2500  -999.2500  -999.2500  -999.2500  -999.2500  -999.2500
  201.5000     9.3533    22.4222     1.8871    -0.4244  -999.2500  -999.2500  -999.2500  -999.2500  -999.2500  -999.2500
  202.0000     9.3533    22.2238     1.8920    -0.4145  -999.2500  -999.2500  -999.2500  -999.2500  -999.2500  -999.2500
  202.5000     9.3533    22.0254     1.8980    -0.4066  -999.2500  -999.2500  -999.2500  -999.2500  -999.2500  -999.2500
  203.0000     9.3732    21.2317     1.8999    -0.4007  -999.2500  -999.2500  -999.2500  -999.2500  -999.2500  -999.2500
  203.5000     9.4129    21.2317     1.8919    -0.3948  -999.2500  -999.2500  -999.2500  -999.2500  -999.2500  -999.2500
  204.0000     9.4327    20.4381     1.8858    -0.3948  -999.2500  -999.2500  -999.2500  -999.2500  -999.2500  -999.2500
  204.5000     9.4129    21.4302     1.8858    -0.3770  -999.2500  -999.2500  -999.2500  -999.2500  -999.2500  -999.2500
  205.0000     9.4327    22.2238     1.8887    -0.3770  -999.2500  -999.2500  -999.2500  -999.2500  -999.2500  -999.2500
  205.5000     9.4327    22.4222     1.8867    -0.3453  -999.2500  -999.2500  -999.2500  -999.2500  -999.2500  -999.2500
  206.0000     9.4327    21.4302     1.8906    -0.3433  -999.2500  -999.2500  -999.2500  -999.2500  -999.2500  -999.2500
  206.5000     9.4327    22.2238     1.8986    -0.3127  -999.2500  -999.2500  -999.2500  -999.2500  -999.2500  -999.2500
  207.0000     9.4327    21.4302     1.9015    -0.2797  -999.2500  -999.2500  -999.2500  -999.2500  -999.2500  -999.2500
  207.5000     9.4724    21.2317     1.9035    -0.2438  -999.2500  -999.2500  -999.2500  -999.2500  -999.2500  -999.2500
  208.0000     9.4724    20.8349     1.8994    -0.2419  -999.2500  -999.2500  -999.2500  -999.2500  -999.2500  -999.2500
  208.5000     9.4525    21.0317     1.8964    -0.2001  -999.2500  -999.2500  -999.2500  -999.2500  -999.2500  -999.2500
  209.0000     9.4724    21.0317     1.8984    -0.1961  -999.2500  -999.2500  -999.2500  -999.2500  -999.2500  -999.2500
  209.5000     9.4922    20.8333     1.9212    -0.1245  -999.2500  -999.2500  -999.2500  -999.2500  -999.2500  -999.2500
  210.0000     9.5319    21.2302     1.9741    -0.1225  -999.2500  -999.2500  -999.2500  -999.2500  -999.2500  -999.2500
  210.5000     9.6113    21.6270     2.0003    -0.0648  -999.2500  -999.2500  -999.2500  -999.2500  -999.2500  -999.2500
  211.0000     9.7700    22.0238     2.0312    -0.0010  -999.2500  -999.2500  -999.2500  -999.2500  -999.2500  -999.2500
  211.5000     9.9287    22.2222     2.1459     0.0009  -999.2500  -999.2500  -999.2500  -999.2500  -999.2500  -999.2500
  212.0000    10.0279    22.6190     2.3643     0.1205  -999.2500  -999.2500  -999.2500  -999.2500  -999.2500  -999.2500
  212.5000    10.1271    23.6111     2.4451     0.1843  -999.2500  -999.2500  -999.2500  1955.5724  -999.2500  -999.2500
  213.0000    10.3057    24.2063     2.5019     0.1981  -999.2500  -999.2500     0.4466  1652.3542  1517.5585  -999.2500
  213.5000    10.3652    27.1825     2.4929     0.1901  -999.2500   -59.0321     1.9561  1010.1942  1049.2919   919.0410
  214.0000    10.3652    42.6587     2.5098     0.1740  -999.2500   -61.7573     3.4656   301.3199   581.0253   959.0010
  214.5000    10.3057    48.4127     2.5227     0.1679  -999.2500   -64.3064     4.8573     1.1035    20.0000   899.0609
  215.0000    10.2065    48.8095     2.5237     0.1618  -999.2500   -66.2929     5.8019     0.4883    15.0949   899.0609
  215.5000    10.1470    50.1984     2.5237     0.1598  -999.2500   -67.8826     6.1878     0.3808     3.7649   899.0609
  216.0000    10.1073    52.1825     2.5156     0.1517  -999.2500   -69.2739     6.5395     0.3287     4.4024   899.0609
  216.5000    10.1271    54.3651     2.5116     0.1436  -999.2500   -69.8716     6.1888     0.2541     4.7825   899.0609
  217.0000    10.1470    60.9127     2.5036     0.1136  -999.2500   -70.4693     6.3036     0.2710     5.0076   899.0609
  217.5000    10.2462    63.4921     2.4976     0.1095  -999.2500   -70.8685     6.7222     0.4062     5.2918   919.0410
  218.0000    10.3651    84.1270     2.4915     0.1015  -999.2500   -71.0694     6.3617     1.0034     5.2918   919.0410
  218.5000    10.3849    92.4603     2.4815     0.0994  -999.2500   -71.6671     6.8469     1.3224     5.5410   899.0609
  219.0000    10.3849    92.4603     2.4695     0.0933  -999.2500   -72.0664     6.9100     3.8738     5.5922   899.0609
  219.5000    10.3849    91.6667     2.4595     0.0892  -999.2500   -72.2673     6.9100     4.6551     5.6961   899.0609
  220.0000    10.3849    90.2778     2.4604     0.0771  -999.2500   -72.6671     6.7843     4.9189     5.8555   899.0609
  220.5000    10.3927    87.8968     2.4714     0.0671  -999.2500   -72.8679     6.8469     4.6551     6.0750   899.0609
  221.0000    10.4005    82.3413     2.4783     0.0550  -999.2500   -73.0688     7.1031     4.6551     6.3610   879.0809
  221.5000    10.4083    75.5952     2.4803     0.0449  -999.2500   -73.2697     7.8584     5.7503     6.7221   899.0609
  222.0000    10.4161    59.5238     2.4852     0.0389  -999.2500   -73.0738     8.0780     6.0761     6.5995   899.0609
  222.5000    10.4238    57.7381     2.4902     0.0408     0.2557   -73.2747     8.3037     6.1322     6.4792   899.0609
  223.0000    10.4316    57.1429     2.4841     0.0427     0.2581   -73.2771     8.6940     5.9110     6.4198   919.0410
  223.5000    10.4394    57.1429     2.4811     0.0406     0.2666   -73.4780     9.0194     5.6977     5.2434   899.0609
  224.0000    10.4444    57.7381     2.4751     0.0405     0.2617   -73.4805     9.4433     5.6977     5.5410   899.0609
  224.5000    10.4444    58.1349     2.4710     0.0384     0.2494   -73.6814     8.8552     6.3036     5.8019   899.0609
  225.0000    10.4048    58.5317     2.4660     0.0363     0.2477   -73.6839     8.9369     6.6607     4.7387   899.0609
  225.5000    10.2857    58.7302     2.4640     0.0362     0.2519   -73.8847     9.1026     6.7843     4.4024   899.0609
  226.0000    10.1667    59.3254     2.4629     0.0361     0.2558   -74.8792     9.4433     6.5395     4.5674   919.0410
  226.5000    10.0278    59.9206     2.4629     0.0380     0.2473   -75.2785     9.1026     5.8034     5.3703   899.0609
  227.0000    10.0278    60.5159     2.4609     0.0399     0.2522   -75.4794     9.4433     5.8034     6.3028   899.0609
  227.5000    10.0476    60.9127     2.4598     0.0439     0.2445   -75.6803     9.3570     5.8034     6.3028   899.0609
  228.0000    10.0476    61.3095     2.4588     0.0458     0.2425   -75.6828     9.2714     5.9655     6.3610   919.0609
  228.5000    10.0873    61.5079     2.4607     0.0477     0.2481   -75.8836     8.9369     6.0206     6.3610   919.0609
  229.0000    10.0873    61.9048     2.4627     0.0496     0.2510   -75.8861     8.9369     6.0206     6.3610   899.0809
  229.5000    10.1270    62.3016     2.4786     0.0515     0.2513   -75.8886     8.9369     5.9655     6.3028   899.0809
  230.0000    10.1667    62.6984     2.4895     0.0554     0.2525   -75.4943     8.8552     5.9110     6.2450   919.0609
  230.5000    10.2046    63.6192     2.5001     0.0588     0.2549   -75.4968     8.8552     5.8569     6.0750   899.0809
  231.0000    10.2455    64.0820     2.5015     0.0593     0.2593   -75.4992     9.1026     5.7503     5.9096   919.0609
  231.5000    10.2849    64.6743     2.4895     0.0573     0.2683   -75.3033    10.7473     5.2940     5.6439   919.0609
  232.0000    10.3243    65.0683     2.4826     0.0573     0.2759   -75.3058     9.3570     5.2456     5.2918   919.0609
  232.5000    10.4034    65.4622     2.4648     0.0514     0.2808   -75.3083     8.8552     5.4419     5.5922   919.0609
  233.0000    10.4626    64.6674     2.4470     0.0434     0.2852   -75.5092     8.7742     5.4419     6.7221   899.0809
