~VERSION INFORMATION
 VERS.                2.0:   CWLS LOG ASCII STANDARD - VERSION 2.0
 WRAP.                 NO:   ONE LINE PER DEPTH STEP
~WELL INFORMATION
#MNEM.UNIT      DATA TYPE    INFORMATION
#----------   ------------   ------------------------------
 STRT.F          196.5000:   START DEPTH
 STOP.F         3219.0000:   STOP DEPTH
 STEP.F            0.5000:   STEP LENGTH
 NULL.          -999.2500:   NO VALUE
 COMP.    FENIX & SCISSON:   COMPANY
 WELL.  FENIX "AX" #73-15:   WELL
 FLD .              NPR 3:   FIELD
 LOC .      S15 T38N R78W:   LOCATION
 CNTY.            NATRONA:   COUNTY
 STAT.            WYOMING:   STATE
 CTRY. UNITED STATES OF AMERICA:   COUNTRY
 SRVC.       SCHLUMBERGER:   SERVICE COMPANY
 DATE.        30-AUG-1977:   LOGDATE
 API .     49025104270000:   API NUMBER
~CURVE INFORMATION
#MNEM.UNIT       API CODE    CURVE DESCRIPTION
#----------   ------------   ------------------------------
 DEPT.F                  :   
 NPHI.DEC    42 890 03 00:   NEUTRON POROSITY SANDSTONE
 CALD.IN     45 280 60 00:   CALIPER FROM DENSITY LOG
 GRD .GAPI   45 310 01 00:   GAMMA RAY FROM DENSITY LOG
 CORR.G/C3   45 356 01 00:   DENSITY CORRECTION
 RHOB.G/C3   45 350 01 00:   BULK DENSITY
 SPR .MV     07 010 01 00:   SPONTANEOUS POTENTIAL
 RILD.OHMM   07 120 46 00:   DEEP INDUCTION RESISTIVITY
 RILM.OHMM   07 120 44 00:   INDUCTION LOG MEDIUM RESISTIVITY
 LL8 .OHMM   07 220 08 00:   LATEROLOG-8 RES.
~PARAMETER INFORMATION
#MNEM.UNIT          VALUE    DESCRIPTION
#----------   ------------   ------------------------------
 EKB .F         5263.0000:   Kelly bushing
 EGL .F         5253.0000:   Ground level
 TD  .F         3220.0000:   Total depth
 CLNT.            A2DTECH:   Client Code
 SL  . 1650' FNL & 875' FEL:   Surface Location
 PD  .                 GL:   Permanent Datum
 EPD .F              5253:   Elevation Permanent Datum
 LMF .                 KB:   Log Measured From
 DMF .                 KB:   Drilling Measured From
 DAPD.F                10:   Feet Above Permanent Datum
 DATE.        30-AUG-1977:   Date Logged [DD-MMM-YYYY]
 DD  .F              3220:   Depth driller
 DL  .F              3219:   Depth logger
 BLI .F              3209:   Bottom log interval
 TLI .F               216:   Top log interval
 CS1 .IN            8.625:   Casing size
 CBL1.F               216:   Casing logger 1
 BS1 .IN            7.875:   Bit size
 BSD1.F              3220:   Depth drilled with bit1
 DFT .                FGM:   Type fluid in hole
 DFD .                8.9:   Density
 DFPH.                 11:   pH
 MSS .            MUDTANK:   Source of sample
 RMS .OHMM           0.40:   Rm
 MST .F                82:   Rm Meas. temp.
 RMF .OHMM           0.25:   Rmf
 MFST.F                72:   Rmf Meas. temp.
 MFSS.               MEAS:   Source Rmf.
 RMC .OHMM           0.60:   Rmc
 MCST.F                82:   Rmc Meas. temp.
 MCSS.               CALC:   Source Rmc.
 RMB .OHMM           0.27:   Rm. at BHT
 BHT .F               120:   BHT.
 MRT .F               120:   Maximum recorded temp.
 LUN .               5642:   Logging unit number
 LUL .               CSPR:   Logging unit location
 ENGI.                FIX:   Recorded By
 WITN.         RETTINGILL:   Witnessed by
 ORIG.           5" PRINT:   Origin of data
 UWI .     49025104270000:   Unique Well ID
 DICO. A2D TECHNOLOGIES, INC.:   Digitizing Company
 DFV .                 35:   Viscosity
 DFL .                8.4:   Fluid loss
 CBD1.      8.625" @ 216':   Casing driller 1
~OTHER INFORMATION
~A   DEPT       NPHI     CALD        GRD       CORR       RHOB        SPR       RILD       RILM        LL8   
# ...
  379.0000     0.4397    12.6523    59.7766     0.0366     2.3515   -90.2332     6.2014     6.2551     6.2477
  379.5000     0.4378    12.6693    60.2842     0.0412     2.3478   -90.2138     6.0754     6.0866     6.0385
  380.0000     0.4273    12.7007    62.3661     0.0450     2.3426   -90.1944     5.8981     5.8412     5.8769
  380.5000     0.4198    12.7023    65.7277     0.0384     2.3390   -90.3311     5.6733     5.6057     5.6801
  381.0000     0.4276    12.7188    67.0132     0.0400     2.3368   -90.6095     5.4821     5.3798     5.4142
  381.5000     0.4395    12.7503    66.5888     0.0446     2.3586   -90.8926     5.2607     5.1273     5.1967
  382.0000     0.4425    12.7668    66.1645     0.0387     2.3421   -91.1806     4.9446     4.9170     4.9535
  382.5000     0.4302    12.7833    65.5169     0.0380     2.3317   -91.4638     4.5204     4.6500     4.7876
  383.0000     0.4221    12.7849    65.3102     0.0426     2.3349   -91.7428     3.9920     4.3618     4.5320
  383.5000     0.4175    12.7713    65.7842     0.0419     2.3365   -91.7227     3.6244     3.9210     4.2604
  384.0000     0.4166    12.8031    64.9134     0.0481     2.3480   -92.0059     3.7533     3.9770     4.0916
  384.5000     0.4250    12.7894    62.7034     0.0640     2.3770   -91.8351     4.1369     4.3225     4.8664
  385.0000     0.4369    12.7761    60.4933     0.0558     2.3433   -91.6641     4.4044     4.6016     5.5939
  385.5000     0.4486    12.7782    58.0600     0.0559     2.3344   -91.3419     4.6958     4.8988     5.6755
  386.0000     0.4537    12.7798    55.4035     0.0575     2.3179   -91.0197     5.0366     5.1792     5.4805
  386.5000     0.4404    12.8410    54.0863     0.0667     2.2992   -90.6937     5.4274     5.4756     5.3758
  387.0000     0.4093    12.8575    53.8796     0.0823     2.2956   -90.3717     5.6596     5.7890     6.0532
  387.5000     0.3921    12.9039    55.2465     0.0307     2.2723   -90.3523     5.9840     6.0782     6.4470
  388.0000     0.3972    12.9353    61.5185     0.0308     2.3197   -90.1816     6.2230     6.3818     6.6786
  388.5000     0.4104    12.5494    67.1209     0.0309     2.3220   -89.8596     6.5522     6.6085     6.8232
  389.0000     0.4061    12.5511    67.8126     0.0372     2.3281   -89.8402     6.8325     6.7493     7.0194
  389.5000     0.3971    12.5355    66.7054     0.0514     2.3499   -89.6695     7.0268     6.8696     7.1218
  390.0000     0.4127    12.5245    64.7318     0.0562     2.3733   -89.6501     7.2267     6.9450     7.2422
  390.5000     0.4136    12.5563    68.1786     0.0469     2.3553   -89.4794     7.3299     7.0457     7.3312
  391.0000     0.4114    12.5580    69.6875     0.0374     2.3734   -89.3087     7.4347     7.1435     7.3867
  391.5000     0.4072    12.5596    69.4910     0.0383     2.3772   -89.2893     7.4372     7.1955     7.4427
  392.0000     0.4114    12.5612    68.6202     0.0331     2.3690   -88.9673     7.4915     7.2556     7.4473
  392.5000     0.4156    12.5628    67.3030     0.0475     2.3601   -88.7966     7.4940     7.4024     7.5037
  393.0000     0.4104    12.5645    66.4322     0.0400     2.3564   -88.3234     7.4966     7.4563     7.5607
  393.5000     0.3993    12.5661    67.5703     0.0409     2.3437   -88.3040     7.4992     7.5627     7.6183
  394.0000     0.3951    12.5826    68.4852     0.0335     2.3389   -88.2844     7.5023     7.6177     7.6237
  394.5000     0.4259    12.5689    68.7250     0.0396     2.3484   -88.2647     7.4524     7.6203     7.6806
  395.0000     0.4394    12.5859    67.8597     0.0429     2.3514   -88.2451     7.4556     7.6227     7.6854
  395.5000     0.4415    12.5875    67.4298     0.0411     2.3643   -88.2254     7.4582     7.6255     7.6902
  396.0000     0.4294    12.6040    66.5646     0.0462     2.3884   -88.0508     7.4607     7.6281     7.6957
  396.5000     0.4183    12.6056    66.3579     0.0332     2.3659   -88.0314     7.5148     7.6307     7.7008
  397.0000     0.4147    12.5919    65.9335     0.0356     2.3667   -88.0120     7.5174     7.6333     7.7046
  397.5000     0.4111    12.5940    65.0683     0.0372     2.3653   -87.9926     7.5202     7.5833     7.7099
  398.0000     0.4104    12.5979    63.7510     0.0568     2.3944   -87.9731     7.5226     7.5859     7.7150
  398.5000     0.4122    12.5972    62.6570     0.0705     2.4022   -87.8024     7.5253     7.5887     7.7191
  399.0000     0.4185    12.6137    61.5630     0.0585     2.3677   -87.7830     7.5279     7.7592     7.7239
  399.5000     0.4227    12.6154    60.9154     0.0541     2.3633   -87.7636     7.5062     7.8168     7.6754
  400.0000     0.4265    12.6170    62.0536     0.0587     2.3904   -87.7442     7.4294     7.7666     7.6270
  400.5000     0.4294    12.6187    64.7545     0.0641     2.4017   -88.0275     7.3297     7.7703     7.5511
  401.0000     0.4328    12.6207    64.7763     0.0545     2.3890   -88.0081     7.2750     7.7194     7.4275
  401.5000     0.4369    12.6224    63.3973     0.0531     2.3741   -87.9888     7.1343     7.6177     7.3296
  402.0000     0.4357    12.6241    61.6131     0.0509     2.3621   -88.1210     7.0386     7.5164     7.2331
  402.5000     0.4276    12.6260    59.9373     0.0526     2.3412   -88.2526     6.9442     7.3653     7.1390
  403.0000     0.4228    12.6128    59.5074     0.0557     2.3457   -88.3846     6.7833     7.1673     6.9145
  403.5000     0.4091    12.6146    60.6510     0.0430     2.3443   -88.5165     6.5761     6.9747     6.6159
  404.0000     0.4020    12.6164    64.9142     0.0514     2.3534   -88.7998     6.3689     6.7404     6.3174
  404.5000     0.4100    12.6331    65.3772     0.0591     2.3820   -89.0781     6.1617     6.5139     6.0095
  405.0000     0.4146    12.6501    64.9528     0.0554     2.3843   -89.0588     5.8899     6.1655     5.5707
  405.5000     0.4209    12.6668    66.7661     0.0435     2.3640   -89.1956     5.5638     5.7110     5.2362
  406.0000     0.4271    12.6686    71.2524     0.0428     2.3573   -89.4740     5.1375     5.1440     4.9163
  406.5000     0.4306    12.6703    73.0602     0.0407     2.3800   -89.9085     4.7957     4.7296     4.4890
  407.0000     0.4309    12.6721    73.5232     0.0494     2.3891   -90.4943     4.3846     4.2789     4.1274
  407.5000     0.4270    12.6739    70.6490     0.0545     2.3921   -91.0801     3.9263     3.7789     3.7351
  408.0000     0.4198    12.6756    66.4300     0.0486     2.3645   -91.6659     3.5404     2.9459     3.4865
  408.5000     0.4143    12.6774    66.0001     0.0631     2.3780   -91.9539     2.8276     2.4614     3.2545
  409.0000     0.4113    12.6792    67.8134     0.0564     2.3833   -92.0817     2.2435     2.1143     2.9753
  409.5000     0.4164    12.6958    68.9515     0.0550     2.3669   -92.2133     1.8876     1.7182     2.4856
  410.0000     0.4231    12.7125    69.6432     0.0634     2.3594   -92.3449     1.8366     1.3488     2.0909
  410.5000     0.4331    12.7292    66.3171     0.0605     2.3775   -92.4769     2.0246     1.9349     1.8210
  411.0000     0.4436    12.7607    64.3244     0.0441     2.3521   -92.4569     2.1114     2.0748     1.7116
  411.5000     0.4612    12.8072    63.6667     0.0397     2.3386   -92.2821     2.2172     2.2093     2.1678
  412.0000     0.4825    12.8984    62.5357     0.0180     2.3114   -91.9602     2.3607     2.3690     2.5439
  412.5000     0.5121    13.0194    61.1979     0.0150     2.2570   -91.4869     2.5841     2.7225     2.9238
  413.0000     0.5427    13.1561    59.5133     0.0129     2.2262   -90.8624     3.2715     3.3533     3.2459
  413.5000     0.5848    13.3125    57.9728     0.0139     2.1772   -90.5405     4.3777     3.9171     3.7828
  414.0000     0.6191    13.5756    54.3216     0.0131     2.0915   -90.5212     4.7974     4.9362     5.2445
  414.5000     0.6176    14.0254    50.3214     0.0321     2.0117   -90.3506     5.0716     5.3058     5.7524
  415.0000     0.5621    14.6978    48.5710     0.0721     1.9998   -90.3312     5.1760     5.3829     6.2969
