~VERSION INFORMATION
 VERS.                2.0:   CWLS LOG ASCII STANDARD - VERSION 2.0
 WRAP.                 NO:   ONE LINE PER DEPTH STEP
~WELL INFORMATION
#MNEM.UNIT      DATA TYPE    INFORMATION
#----------   ------------   ------------------------------
 STRT.F          196.5000:   START DEPTH
 STOP.F         3202.0000:   STOP DEPTH
 STEP.F            0.5000:   STEP LENGTH
 NULL.          -999.2500:   NO VALUE
 COMP.    FENIX & SCISSON:   COMPANY
 WELL.   FENIX "AX" #26-3:   WELL
 FLD .              NPR-3:   FIELD
 LOC .       S3 T38N R78W:   LOCATION
 CNTY.            NATRONA:   COUNTY
 STAT.            WYOMING:   STATE
 CTRY. UNITED STATES OF AMERICA:   COUNTRY
 SRVC.              WELEX:   SERVICE COMPANY
 DATE.        19-JUN-1977:   LOGDATE
 API .     49025103800000:   API NUMBER
~CURVE INFORMATION
#MNEM.UNIT       API CODE    CURVE DESCRIPTION
#----------   ------------   ------------------------------
 DEPT.F                  :   
 CALD.IN     45 280 60 00:   CALIPER FROM DENSITY LOG
 GRD .GAPI   45 310 01 00:   GAMMA RAY FROM DENSITY LOG
 RHOB.G/C3   45 350 01 00:   BULK DENSITY
 CORR.G/C3   45 356 01 00:   DENSITY CORRECTION
 SPR .MV     07 010 01 00:   SPONTANEOUS POTENTIAL
 ILD .OHMM   07 120 46 00:   DEEP INDUCTION RESISTIVITY
 ILM .OHMM   07 120 44 00:   INDUCTION LOG MEDIUM RESISTIVITY
 SGRD.OHMM   07 220 05 00:   SHALLOW SHORT GUARD RESISTIVITY
~PARAMETER INFORMATION
#MNEM.UNIT          VALUE    DESCRIPTION
#----------   ------------   ------------------------------
 EKB .F         5231.0000:   Kelly bushing
 EGL .F         5221.0000:   Ground level
 EDF .F            0.0000:   Drilling floor
 TD  .F         3204.0000:   Total depth
 CLNT.            A2DTECH:   Client Code
 SL  . 1320' FSL & 740' FWL:   Surface Location
 PD  .                 GL:   Permanent Datum
 EPD .F              5221:   Elevation Permanent Datum
 LMF .                 KB:   Log Measured From
 DMF .                 KB:   Drilling Measured From
 DAPD.F                10:   Feet Above Permanent Datum
 DATE.        19-JUN-1977:   Date Logged [DD-MMM-YYYY]
 DD  .F              3200:   Depth driller
 DL  .F              3204:   Depth logger
 BLI .F              3202:   Bottom log interval
 TLI .F               220:   Top log interval
 CS1 .IN            8.625:   Casing size
 CBD1.      8.625" @ 220':   Casing driller 1
 CBL1.F               220:   Casing logger 1
 BS1 .IN            7.875:   Bit size
 BSD1.F              3200:   Depth drilled with bit1
 DFT .                KCL:   Type fluid in hole
 DFD .                9.1:   Density
 RMS .OHMM           1.19:   Rm
 MST .F                65:   Rm Meas. temp.
 TCS .HRS               4:   Time Circ. stopped
 MRT .F               115:   Maximum recorded temp.
 LUN .               8766:   Logging unit number
 ENGI.          T. JOYNER:   Recorded By
 WITN.         PETTINGILL:   Witnessed by
 ORIG.           5" PRINT:   Origin of data
 UWI .     49025103800000:   Unique Well ID
 DICO. A2D TECHNOLOGIES, INC.:   Digitizing Company
 DFPH.                7.5:   pH
 DFL .                4.2:   Fluid loss
 MSS .            MUD PIT:   Source of sample
 RMF .OHMM           1.19:   Rmf
 MFST.F                65:   Rmf Meas. temp.
 MFSS.               MEAS:   Source Rmf.
 RMC .OHMM           2.01:   Rmc
 MCST.F                65:   Rmc Meas. temp.
 MCSS.               MEAS:   Source Rmc.
 RMB .OHMM            .67:   Rm. at BHT
 BHT .F               115:   BHT.
~OTHER INFORMATION
~A   DEPT     CALD         GRD      RHOB       CORR        SPR        ILD        ILM       SGRD   
# ...
 1614.0000     9.6728    73.2959     2.4599     0.0126   -61.3373     7.1960     9.5223     9.7691
 1614.5000     9.6753    74.2249     2.4623     0.0127   -61.3195     7.2021     9.4637     9.6442
 1615.0000     9.6773    72.4886     2.4662     0.0135   -61.2998     7.2719     9.3671     9.4995
 1615.5000     9.6640    73.7147     2.4693     0.0144   -61.4347     7.3662     9.2042     9.3731
 1616.0000     9.6517    75.2380     2.4731     0.0145   -61.4131     7.4223     9.0369     9.2102
 1616.5000     9.6537    76.7520     2.4717     0.0147   -61.3965     7.5326     8.9813     9.0488
 1617.0000     9.6557    72.9354     2.4710     0.0146   -61.3785     7.5389     8.8639     8.9113
 1617.5000     9.6577    72.0802     2.4726     0.0147   -61.3584     7.5973     8.8028     8.7958
 1618.0000     9.6301    75.9820     2.4758     0.0148   -61.3432     7.6037     8.7493     8.8039
 1618.5000     9.6173    71.4780     2.4804     0.0157   -61.3252     7.6101     8.7021     8.7653
 1619.0000     9.6045    70.7077     2.4827     0.0165   -61.3077     7.6165     8.7101     8.6946
 1619.5000     9.6070    72.2403     2.4805     0.0166   -61.2878     7.6229     8.7159     8.6619
 1620.0000     9.6090    73.4665     2.4814     0.0167   -61.2722     7.6295     8.7230     8.5894
 1620.5000     9.5961    73.5039     2.4837     0.0168   -61.2517     7.5837     8.7295     8.5961
 1621.0000     9.5982    73.8385     2.4861     0.0153   -61.0888     7.5943     8.7357     8.6025
 1621.5000     9.6007    73.5780     2.4862     0.0140   -60.9198     7.6501     8.7424     8.6685
 1622.0000     9.6175    73.3190     2.4833     0.0140   -60.9026     7.7087     8.7490     8.7363
 1622.5000     9.6195    73.0592     2.4819     0.0141   -60.8876     7.7326     8.8177     8.7428
 1623.0000     9.6215    73.7003     2.4857     0.0150   -60.8698     7.8294     8.8854     8.8232
 1623.5000     9.6383    76.4123     2.4896     0.0151   -60.8507     7.8360     8.8920     8.8766
 1624.0000     9.6700    81.2046     2.4927     0.0159   -60.8334     7.8425     8.8986     8.8838
 1624.5000     9.6868    75.0013     2.4950     0.0160   -60.8166     7.9034     8.9051     8.9888
 1625.0000     9.6889    74.3933     2.4951     0.0153   -60.7988     7.9649     8.9117     9.0205
 1625.5000     9.6913    76.5620     2.4921     0.0147   -60.7811     7.9730     8.9183     9.0272
 1626.0000     9.6933    80.3057     2.4878     0.0118   -60.7628     7.9797     8.9249     9.0965
 1626.5000     9.6953    81.9860     2.4842     0.0104   -60.7456     7.9855     8.9936     9.1047
 1627.0000     9.6972    79.9432     2.4798     0.0089   -60.7278     7.9931     9.0004     9.1114
 1627.5000     9.6993    82.3674     2.4753     0.0090   -60.5601     7.9998     9.0709     9.1803
 1628.0000     9.7013    81.5133     2.4709     0.0083   -60.5428     8.0061     9.0766     9.1873
 1628.5000     9.7034    78.8761     2.4680     0.0077   -60.6746     7.9580     9.0835     9.1947
 1629.0000     9.7059    76.5361     2.4658     0.0071   -60.6547     7.9649     9.0904     9.2021
 1629.5000     9.7079    74.4924     2.4645     0.0064   -60.6391     7.9717     9.0984     9.2082
 1630.0000     9.7099    73.9363     2.4638     0.0065   -60.6213     7.9783     9.1045     9.2152
 1630.5000     9.6822    73.6766     2.4662     0.0081   -60.6035     7.9302     9.1112     9.2222
 1631.0000     9.6782    73.1290     2.4708     0.0097   -60.6578     7.9385     9.1181     9.2304
 1631.5000     9.6714    72.8599     2.4754     0.0113   -60.7160     7.9452     9.1250     9.1721
 1632.0000     9.6586    73.2038     2.4792     0.0128   -60.8454     7.8415     9.1332     9.1158
 1632.5000     9.7204    71.4582     2.4816     0.0137   -60.8281     7.7958     9.0754     9.1242
 1633.0000     9.7224    70.6033     2.4832     0.0138   -60.8107     7.7472     9.0195     9.0042
 1633.5000     9.7244    73.3809     2.4825     0.0131   -60.8576     7.6250     8.9657     9.1588
 1634.0000     9.7264    70.8231     2.4834     0.0125   -60.9231     7.5511     8.9089     9.0213
 1634.5000     9.7432    69.8248     2.4842     0.0118   -61.0533     7.4526     8.7932     8.9223
 1635.0000     9.7452    71.9425     2.4866     0.0119   -61.0332     7.4091     8.6804     8.8083
 1635.5000     9.7473    72.5836     2.4889     0.0127   -61.0953     7.3650     8.5677     8.6361
 1636.0000     9.7646    76.7815     2.4921     0.0136   -61.1509     7.3722     8.4564     8.5635
 1636.5000     9.7814    74.1443     2.4966     0.0152   -61.2293     7.3784     8.3465     8.4676
 1637.0000     9.7979    73.2757     2.4982     0.0167   -61.2613     7.3846     8.2967     8.3621
 1637.5000     9.8002    75.1363     2.4946     0.0161   -61.2412     7.3401     8.2457     8.3376
 1638.0000     9.8022    76.6433     2.4909     0.0147   -61.4300     7.2956     8.2518     8.3167
 1638.5000     9.8041    76.9779     2.4880     0.0140   -61.5030     7.2519     8.2574     8.3247
 1639.0000     9.8062    76.4210     2.4851     0.0126   -61.4851     7.2082     8.2637     8.3311
 1639.5000     9.8083    74.9725     2.4837     0.0119   -61.5368     7.2145     8.2701     8.3674
 1640.0000     9.8107    74.4156     2.4838     0.0113   -61.6568     7.2218     8.2763     8.4020
 1640.5000     9.8127    76.2360     2.4824     0.0114   -61.7291     7.2279     8.2857     8.4099
 1641.0000     9.8147    78.9481     2.4780     0.0107   -61.7075     7.2839     8.3475     8.4333
 1641.5000     9.8166    77.7613     2.4743     0.0101   -61.6902     7.2900     8.3537     8.4834
 1642.0000     9.8187    76.9426     2.4714     0.0102   -61.7948     7.2961     8.3590     8.5465
 1642.5000     9.8208    76.6829     2.4724     0.0102   -61.9558     7.3022     8.3758     8.5715
 1643.0000     9.8228    77.9184     2.4686     0.0103   -61.9342     7.3084     8.4303     8.6189
 1643.5000     9.8253    79.4417     2.4664     0.0104   -62.0651     7.3650     8.4362     8.6850
 1644.0000     9.8273    80.9650     2.4666     0.0113   -62.1984     7.3714     8.5011     8.6919
 1644.5000     9.8293    81.8939     2.4682     0.0106   -62.1775     7.3789     8.5666     8.6988
 1645.0000     9.8313    80.1189     2.4705     0.0099   -62.1566     7.3851     8.5731     8.7057
 1645.5000     9.8333    77.1184     2.4683     0.0093   -62.2899     7.3391     8.5809     8.7138
 1646.0000     9.8353    75.4683     2.4639     0.0071   -62.3077     7.3460     8.5861     8.7195
 1646.5000     9.8373    77.2981     2.4618     0.0065   -62.4049     7.3530     8.5920     8.7264
 1647.0000     9.8398    78.8214     2.4604     0.0051   -62.3833     7.3587     8.5392     8.7341
 1647.5000     9.8418    77.3729     2.4605     0.0044   -62.3646     7.3653     8.4867     8.7408
 1648.0000     9.8438    75.6273     2.4628     0.0045   -62.3491     7.3715     8.3779     8.6720
 1648.5000     9.8755    77.4478     2.4629     0.0038   -62.3314     7.3777     8.3841     8.6343
 1649.0000     9.9071    79.2689     2.4593     0.0039   -62.3136     7.3332     8.2752     8.6412
 1649.5000     9.8350    79.9094     2.4564     0.0040   -62.2925     7.2905     8.2512     8.6480
 1650.0000     9.7333    78.1637     2.4542     0.0041   -62.2781     7.2451     8.1737     8.6548
 1650.5000     9.6909    73.1492     2.4543     0.0042   -62.2604     7.2527     8.1813     8.6612
 1651.0000     9.7378    78.5500     2.4552     0.0043   -62.2406     7.2075     8.1295     8.6089
 1651.5000     9.7843    75.7086     2.4537     0.0044   -62.2248     7.2150     8.0795     8.6158
 1652.0000     9.8159    72.6283     2.4546     0.0045   -62.2061     7.2710     8.1430     8.5625
 1652.5000     9.8476    77.1225     2.4569     0.0046   -62.1873     7.2768     8.2051     8.5702
 1653.0000     9.8644    78.6303     2.4615     0.0046   -62.0237     7.2832     8.2113     8.5774
 1653.5000     9.8601    75.1008     2.4661     0.0047   -61.9008     7.2894     8.2176     8.6434
 1654.0000     9.8613    77.8047     2.4691     0.0056   -61.8402     7.2956     8.2808     8.7099
