~VERSION INFORMATION
 VERS.                2.0:   CWLS LOG ASCII STANDARD - VERSION 2.0
 WRAP.                 NO:   ONE LINE PER DEPTH STEP
~WELL INFORMATION
#MNEM.UNIT      DATA TYPE    INFORMATION
#----------   ------------   ------------------------------
 STRT.F           76.0000:   START DEPTH
 STOP.F         4972.0000:   STOP DEPTH
 STEP.F            0.5000:   STEP LENGTH
 NULL.          -999.2500:   NO VALUE
 COMP.    PENIX & SCISSON:   COMPANY
 WELL. FENIX NPR 3 "LX" #85-9:   WELL
 FLD .                NPR:   FIELD
 LOC .       S9 T38N R78W:   LOCATION
 CNTY.            NATRONA:   COUNTY
 STAT.            WYOMING:   STATE
 CTRY. UNITED STATES OF AMERICA:   COUNTRY
 SRVC.       SCHLUMBERGER:   SERVICE COMPANY
 DATE.        10-OCT-1978:   LOGDATE
 API .     49025107250000:   API NUMBER
~CURVE INFORMATION
#MNEM.UNIT       API CODE    CURVE DESCRIPTION
#----------   ------------   ------------------------------
 DEPT.F                  :   
 TENR.LBS    07 635 01 00:   TENSION FROM RESISTIVITY
 SPR .MV     07 010 01 00:   SPONTANEOUS POTENTIAL
 SFL .OHMM   07 220 01 00:   SHALLOW FOCUSED LOG RESISTIVITY
 ILD .OHMM   07 120 46 00:   DEEP INDUCTION RESISTIVITY
 ILM .OHMM   07 120 44 00:   INDUCTION LOG MEDIUM RESISTIVITY
 CALD.IN     45 280 60 00:   CALIPER FROM DENSITY LOG
 GRD .GAPI   45 310 01 00:   GAMMA RAY FROM DENSITY LOG
 CORR.G/C3   45 356 01 00:   DENSITY CORRECTION
 TEND.LBS    45 635 01 00:   TENSION FROM DENSITY LOG
 RHOB.G/C3   45 350 01 00:   BULK DENSITY
 NPHI.DEC    42 890 03 00:   NEUTRON POROSITY SANDSTONE
~PARAMETER INFORMATION
#MNEM.UNIT          VALUE    DESCRIPTION
#----------   ------------   ------------------------------
 EKB .F         5288.0000:   Kelly bushing
 EGL .F         5278.0000:   Ground level
 EDF .F            0.0000:   Drilling floor
 TD  .F         4950.0000:   Total depth
 DATE.        10-OCT-1978:   Date logged
 CLNT.            A2DTECH:   Client Code
 SL  . 2310' FSL & 230' FEL:   Surface Location
 PD  .                 GL:   Permanent Datum
 EPD .F              5278:   Elevation Permanent Datum
 LMF .                 KB:   Log Measured From
 DMF .                 KB:   Drilling Measured From
 DAPD.F                10:   Feet Above Permanent Datum
 DD  .F              4950:   Depth driller
 DL  .F              4950:   Depth logger
 BLI .F              4947:   Bottom log interval
 TLI .F               499:   Top log interval
 CS1 .IN            8.625:   Casing size
 CBD1.      8.625" @ 489':   Casing driller 1
 CBL1.F               499:   Casing logger 1
 BS1 .IN            7.875:   Bit size
 BSD1.F              4950:   Depth drilled with bit1
 DFT .            GEL/MUD:   Type fluid in hole
 DFD .                9.3:   Density
 DFV .                175:   Viscosity
 DFPH.                 12:   pH
 DFL .                  4:   Fluid loss
 MSS .               TANK:   Source of sample
 RMS .OHMM           .600:   Rm
 MST .F                71:   Rm Meas. temp.
 RMF .OHMM           .804:   Rmf
 MFST.F                71:   Rmf Meas. temp.
 MFSS.               MEAS:   Source Rmf.
 RMB .OHMM           .308:   Rm. at BHT
 BHT .F               138:   BHT.
 TCS .HRS            1200:   Time Circ. stopped
 TLAB.HRS            0330:   Time logger at bottom
 MRT .F               138:   Maximum recorded temp.
 LUN .               8035:   Logging unit number
 LUL .               CSPR:   Logging unit location
 ENGI.        CRAIG/DFARR:   Recorded By
 WITN.              AMEND:   Witnessed by
 ORIG.           5" PRINT:   Origin of data
 UWI .     49025107250000:   Unique Well ID
 DICO. A2D TECHNOLOGIES, INC.:   Digitizing Company
~OTHER INFORMATION
~A   DEPT     TENR        SPR        SFL        ILD        ILM       CALD         GRD      CORR       TEND       RHOB         NPHI 
# ...
 2272.0000  1171.1541   -22.0230     6.5180     6.6740     5.7890    12.7890   102.6370     0.0500  1338.2900     2.5430     0.2570
 2272.5000  1171.4180   -22.0250     6.5610     6.7070     5.8360    12.7820   102.3490     0.0710  1338.4000     2.5620     0.2540
 2273.0000  1171.6810   -22.0350     6.5960     6.7200     5.9550    12.7730   101.9770     0.0780  1338.5100     2.5640     0.2670
 2273.5000  1171.9449   -21.8940     6.5490     6.6480     6.1220    12.7640   102.8040     0.0730  1338.6200     2.5490     0.2670
 2274.0000  1172.2090   -21.5350     6.5100     6.5880     6.0520    12.7600   104.1160     0.0780  1338.7300     2.5430     0.2650
 2274.5000  1172.4720   -21.1910     6.4710     6.5280     5.9360    12.8860   105.8890     0.0830  1338.8400     2.5490     0.2620
 2275.0000  1172.7360   -20.8450     6.4320     6.4680     5.8210    13.0930   108.4520     0.0840  1338.9500     2.5570     0.2590
 2275.5000  1173.0000   -20.4930     6.3930     6.4090     5.7050    13.1100   111.1480     0.0710  1339.0601     2.5550     0.2570
 2276.0000  1173.2640   -20.1500     6.3540     6.3490     5.5890    13.1180   111.3420     0.0600  1339.1689     2.5520     0.2540
 2276.5000  1173.5270   -19.8040     6.3150     6.2890     5.4740    13.0970   107.7580     0.0560  1339.2791     2.5480     0.2710
 2277.0000  1173.7910   -19.4320     6.2760     6.2290     5.4740    13.2340   104.4840     0.0630  1339.3890     2.5510     0.2720
 2277.5000  1174.0551   -19.2280     6.2370     6.1690     5.6640    13.4430   101.4690     0.0770  1339.4990     2.5550     0.2730
 2278.0000  1174.3190   -19.2470     6.3320     6.1220     5.8230    13.6520   100.9370     0.0920  1339.6090     2.5680     0.2740
 2278.5000  1174.5820   -19.2490     6.4270     6.2660     5.9820    13.5810   102.2000     0.1080  1339.7190     2.5890     0.2800
 2279.0000  1174.8459   -19.2490     6.5220     6.3870     6.1410    13.4940   105.2610     0.1140  1339.8290     2.5930     0.2900
 2279.5000  1175.1100   -19.5410     6.6180     6.5080     6.3540    13.3920   107.6100     0.0990  1339.9390     2.5670     0.2870
 2280.0000  1175.3730   -19.9130     6.7130     6.6290     6.2370    13.3000   109.2500     0.0860  1340.0490     2.5550     0.2820
 2280.5000  1175.6370   -20.2840     6.8080     6.7490     6.1380    13.2050   108.2730     0.0850  1340.1591     2.5590     0.2770
 2281.0000  1175.9010   -20.5810     6.8460     6.8460     6.0550    13.1070   106.0220     0.0900  1340.2690     2.5580     0.2730
 2281.5000  1176.1650   -20.8340     6.7110     6.6620     5.9730    13.0760   103.1220     0.0760  1340.3790     2.5450     0.2680
 2282.0000  1176.4280   -21.0840     6.5980     6.5090     5.8900    13.0950   100.1470     0.0560  1340.4890     2.5310     0.2630
 2282.5000  1176.6920   -21.3260     6.4850     6.3560     5.8080    13.1930   101.2670     0.0630  1340.5990     2.5600     0.2620
 2283.0000  1176.9561   -21.5850     6.3720     6.2030     5.7250    13.3380   103.3930     0.0820  1340.7090     2.5670     0.2660
 2283.5000  1177.2200   -21.8260     6.2590     6.0490     5.6430    13.4660   104.9990     0.0920  1340.8190     2.5680     0.2700
 2284.0000  1177.4830   -21.9920     6.1460     5.8960     5.5770    13.7810   103.7540     0.0890  1340.9290     2.5470     0.2710
 2284.5000  1177.7469   -21.6370     6.0330     5.7430     5.5770    13.8990   101.2550     0.0610  1341.0380     2.5160     0.2700
 2285.0000  1178.0110   -21.3430     5.8970     5.6820     5.6620    13.6360    99.6850     0.0520  1341.1479     2.5120     0.2700
 2285.5000  1178.2740   -21.0200     6.0400     5.8930     5.8050    13.5120   102.4480     0.0660  1341.2581     2.5250     0.2690
 2286.0000  1178.5380   -20.7080     6.2170     6.1580     5.9480    13.7200   106.7960     0.0960  1341.3680     2.5710     0.2760
 2286.5000  1178.8020   -20.3950     6.3950     6.4230     6.0910    13.9250   107.0210     0.1250  1341.4780     2.5920     0.2830
 2287.0000  1179.0660   -20.0840     6.5730     6.6880     6.2340    13.8100   105.5690     0.1480  1341.5880     2.6100     0.2910
 2287.5000  1179.3290   -19.7600     6.7510     6.9530     6.3770    13.6780   104.8060     0.1210  1341.6980     2.5900     0.2870
 2288.0000  1179.5930   -19.6330     6.9280     7.2170     6.5200    13.5270   104.9100     0.0890  1341.8080     2.5640     0.2730
 2288.5000  1179.8571   -19.6450     7.1060     7.3880     6.6620    13.3970   104.8770     0.0530  1341.9180     2.5560     0.2560
 2289.0000  1180.1210   -19.6330     7.1310     7.4170     6.7350    13.2400   104.9010     0.0410  1342.0280     2.5540     0.2370
 2289.5000  1180.3840   -19.7510     7.1730     7.4460     6.7600    13.2000   104.2870     0.0410  1342.1379     2.5500     0.2370
 2290.0000  1180.6479   -20.0550     7.2150     7.4750     6.7860    13.1600   102.2150     0.0360  1342.2480     2.5450     0.2420
 2290.5000  1180.9120   -20.3410     7.2560     7.5030     6.8120    13.2920    98.4510     0.0240  1342.3580     2.5400     0.2470
 2291.0000  1181.1760   -20.6350     7.2980     7.5150     6.8370    13.4580    96.5670     0.0360  1342.4680     2.5560     0.2450
 2291.5000  1181.4390   -20.9280     7.3400     7.5340     6.8630    13.5190    97.4600     0.0430  1342.5780     2.5780     0.2400
 2292.0000  1181.7030   -21.2150     7.3810     7.5500     6.8880    13.5500   102.3600     0.0530  1342.6880     2.5880     0.2380
 2292.5000  1181.9670   -21.5210     7.4230     7.5660     6.9140    13.5320   104.2800     0.0570  1342.7980     2.5980     0.2400
 2293.0000  1182.2300   -21.5990     7.4650     7.5820     6.9390    13.5230   104.9130     0.0570  1342.9070     2.6030     0.2420
 2293.5000  1182.4940   -21.5120     7.5060     7.5990     6.9650    13.5110   105.3200     0.0590  1343.0170     2.6050     0.2450
 2294.0000  1182.7581   -21.4420     7.5480     7.6150     7.0400    13.4990   106.1140     0.0520  1343.1270     2.5880     0.2470
 2294.5000  1183.0220   -21.3760     7.5900     7.6310     6.9310    13.4880   108.8720     0.0340  1343.2371     2.5710     0.2440
 2295.0000  1183.2850   -21.2990     7.6560     7.6560     6.7110    13.4750   108.9800     0.0260  1343.3470     2.5690     0.2410
 2295.5000  1183.5490   -21.2220     7.5780     7.5970     6.4910    13.4630   107.9620     0.0450  1343.4570     2.5940     0.2400
 2296.0000  1183.8130   -20.9910     7.3820     7.4490     6.2720    13.4540   105.7520     0.0620  1343.5670     2.6190     0.2430
 2296.5000  1184.0770   -20.7560     7.1860     7.3010     6.0520    13.4380   104.1000     0.0810  1343.6770     2.6260     0.2450
 2297.0000  1184.3400   -20.5140     6.9890     7.1540     5.7890    13.4300   102.8100     0.0800  1343.7870     2.6130     0.2460
 2297.5000  1184.6040   -20.2770     6.7930     7.0060     5.8440    13.4020   102.8230     0.0760  1343.8970     2.6070     0.2480
 2298.0000  1184.8680   -20.0380     6.5970     6.8580     5.9130    13.5980   104.0160     0.0790  1344.0070     2.6130     0.2540
 2298.5000  1185.1310   -19.7990     6.4010     6.7100     5.9830    13.8170   106.2260     0.0930  1344.1169     2.6130     0.2590
 2299.0000  1185.3950   -19.5640     6.2050     6.5620     6.0520    14.0670   108.8560     0.0870  1344.2271     2.5920     0.2650
 2299.5000  1185.6591   -19.3190     6.0080     6.4140     6.1220    14.1490   111.6910     0.0690  1344.3370     2.5690     0.2710
 2300.0000  1185.9230   -19.0890     5.9870     6.2370     5.8850    13.9770   112.1210     0.0530  1344.4470     2.5440     0.2780
 2300.5000  1186.1860   -18.8680     5.9660     6.2040     5.6480    13.8510   110.7490     0.0370  1344.5570     2.5290     0.2850
 2301.0000  1186.4500   -18.9960     5.9450     6.1630     5.4110    13.6960   109.6610     0.0300  1344.6670     2.5250     0.2780
 2301.5000  1186.7140   -19.1310     5.9230     6.1230     5.1740    13.9290   108.5760     0.0350  1344.7760     2.5400     0.2720
 2302.0000  1186.9780   -19.2810     5.9020     6.0820     4.9370    14.2720   109.5990     0.0410  1344.8860     2.5500     0.2700
