~VERSION INFORMATION
 VERS.                2.0:   CWLS LOG ASCII STANDARD - VERSION 2.0
 WRAP.                 NO:   ONE LINE PER DEPTH STEP
~WELL INFORMATION
#MNEM.UNIT      DATA TYPE    INFORMATION
#----------   ------------   ------------------------------
 STRT.F          180.0000:   START DEPTH
 STOP.F         3044.0000:   STOP DEPTH
 STEP.F            0.5000:   STEP LENGTH
 NULL.          -999.2500:   NO VALUE
 COMP.    FENIX & SCISSON:   COMPANY
 WELL.   FENIX "A" #55-29:   WELL
 FLD .           N P R #3:   FIELD
 LOC .      S29 T39N R78W:   LOCATION
 CNTY.            NATRONA:   COUNTY
 STAT.            WYOMING:   STATE
 CTRY. UNITED STATES OF AMERICA:   COUNTRY
 SRVC.              WELEX:   SERVICE COMPANY
 DATE.        21-JUL-1977:   LOGDATE
 API .     49025104020000:   API NUMBER
~CURVE INFORMATION
#MNEM.UNIT       API CODE    CURVE DESCRIPTION
#----------   ------------   ------------------------------
 DEPT.F                  :   
 CALD.IN     45 280 60 00:   CALIPER FROM DENSITY LOG
 RHOB.G/C3   45 350 01 00:   BULK DENSITY
 CORR.G/C3   45 356 01 00:   DENSITY CORRECTION
 GRD .GAPI   45 310 01 00:   GAMMA RAY FROM DENSITY LOG
 SPR .MV     07 010 01 00:   SPONTANEOUS POTENTIAL
 ILD .OHMM   07 120 46 00:   DEEP INDUCTION RESISTIVITY
 ILM .OHMM   07 120 44 00:   INDUCTION LOG MEDIUM RESISTIVITY
 SGRD.OHMM   07 220 05 00:   SHALLOW SHORT GUARD RESISTIVITY
~PARAMETER INFORMATION
#MNEM.UNIT          VALUE    DESCRIPTION
#----------   ------------   ------------------------------
 EKB .F         4995.0000:   Kelly bushing
 EGL .F         4985.0000:   Ground level
 EDF .F            0.0000:   Drilling floor
 EPD .F         4985.0000:   Permanent datum
 TD  .F         3045.0000:   Total depth
 DATE.        21-JUL-1977:   Date logged
 CLNT.            A2DTECH:   Client Code
 SL  . 2310' FSL & 2310' FEL:   Surface Location
 PD  .                 GL:   Permanent Datum
 DD  .F              3045:   Depth driller
 DL  .F              3045:   Depth logger
 BLI .F              3043:   Bottom log interval
 CS1 .IN            8.625:   Casing size
 CBD1.      8.625" @ 230':   Casing driller 1
 CBL1.F               216:   Casing logger 1
 BS1 .IN            7.875:   Bit size
 DFT .            KCL-MUD:   Type fluid in hole
 DFD .                8.8:   Density
 DFV .                 45:   Viscosity
 DFPH.                7.5:   pH
 DFL .                8.4:   Fluid loss
 MSS .           FLOWLINE:   Source of sample
 RMS .OHMM            .45:   Rm
 MST .F                86:   Rm Meas. temp.
 RMF .OHMM            .33:   Rmf
 MFST.F                86:   Rmf Meas. temp.
 RMC .OHMM            .72:   Rmc
 MCST.F                86:   Rmc Meas. temp.
 MFSS.               MEAS:   Source Rmf.
 RMB .OHMM            .30:   Rm. at BHT
 BHT .F               127:   BHT.
 TCS .HRS             2.5:   Time Circ. stopped
 MRT .F               127:   Maximum recorded temp.
 LUN .               8611:   Logging unit number
 LUL .             CASPER:   Logging unit location
 ENGI.            C. DOAK:   Recorded By
 WITN.      W. PETTINGILL:   Witnessed by
 ORIG.           5" PRINT:   Origin of data
 UWI .     49025104020000:   Unique Well ID
 DICO. A2D TECHNOLOGIES, INC.:   Digitizing Company
 DAPD.                 10:   Feet Above Permanent Datum
 BSD1.               3045:   Depth drilled with bit1
 MCSS.               MEAS:   Source Rmc.
 LMF .                 KB:   Log Measured From
 DMF .                 KB:   Drilling Measured From
 TLI .                200:   Top log interval
~OTHER INFORMATION
~A   DEPT       CALD     RHOB       CORR         GRD       SPR        ILD        ILM       SGRD   
# ...
 2650.5000     8.1180     2.4660     0.0350   100.5430   -69.5350     5.3940     6.3030     9.3470
 2651.0000     8.1250     2.4740     0.0390    97.9920   -69.4220     5.4470     6.3030     9.6340
 2651.5000     8.1310     2.4810     0.0430    96.4360   -69.3090     5.5070     6.3510    10.3390
 2652.0000     8.1380     2.4820     0.0420   100.7360   -69.1960     5.5660     6.4050    10.2220
 2652.5000     8.1440     2.4790     0.0360    99.8650   -69.0830     5.6260     6.4590    10.0580
 2653.0000     8.1420     2.4670     0.0310    99.9230   -68.9700     5.6850     6.5130    10.7770
 2653.5000     8.1400     2.4570     0.0290   102.6600   -68.8570     5.7510     6.5670    11.1250
 2654.0000     8.1370     2.4480     0.0270   102.3920   -68.7430     5.6400     6.6210    10.8230
 2654.5000     8.1350     2.4180     0.0250    97.9990   -68.6300     5.6170     6.6590    11.5400
 2655.0000     8.1330     2.4160     0.0260    95.2350   -68.5190     5.5950     6.5770    11.5400
 2655.5000     8.1300     2.4210     0.0270    95.1270   -68.4120     5.5730     6.4590    10.8810
 2656.0000     8.1280     2.4210     0.0290    97.3060   -67.8810     5.5510     6.3410    10.3770
 2656.5000     8.1260     2.4340     0.0300    95.2960   -67.2850     5.5440     6.2240     9.8730
 2657.0000     8.1280     2.4580     0.0310    95.1330   -66.6550     5.6720     6.1880     9.4330
 2657.5000     8.1360     2.4710     0.0320    98.7600   -65.9170     5.8270     6.2450     9.5200
 2658.0000     8.1430     2.4670     0.0340   103.1230   -65.1230     5.9660     6.5970     9.6960
 2658.5000     8.1500     2.4710     0.0350   103.3320   -64.2880     6.1040     6.9180    10.7950
 2659.0000     8.1580     2.4780     0.0360   101.1700   -63.5020     6.3970     7.2380    13.6100
 2659.5000     8.1650     2.4750     0.0370    98.5760   -62.6720     6.8140     7.5580    11.9370
 2660.0000     8.1730     2.4680     0.0390    94.7850   -61.8420     7.2310     8.0910     9.7850
 2660.5000     8.1800     2.4610     0.0400    90.3200   -61.0810     7.6480     9.1240    14.7550
 2661.0000     8.1800     2.4570     0.0410    87.0590   -60.7270     8.0650     9.7070    18.1040
 2661.5000     8.1650     2.4520     0.0420    88.3290   -60.3860     8.4820    10.0990    18.4170
 2662.0000     8.1510     2.4480     0.0430    89.0140   -60.3180     8.7920    10.5300    18.5860
 2662.5000     8.1370     2.4420     0.0440    86.4440   -60.3400     9.0560    10.6230    17.5920
 2663.0000     8.1350     2.4350     0.0450    85.4030   -60.3650     9.3470    10.8230    17.3190
 2663.5000     8.1480     2.4320     0.0450    86.7640   -60.3910     9.3820    10.7880    17.0160
 2664.0000     8.1520     2.4320     0.0440    87.9110   -60.4160     9.4330    10.7180    16.6220
 2664.5000     8.1560     2.4330     0.0430    87.4690   -60.4400     9.3540    10.6480    16.1250
 2665.0000     8.1600     2.4340     0.0420    87.1740   -60.4630     9.2410    10.5780    15.7820
 2665.5000     8.1640     2.4340     0.0410    87.7390   -60.5270     9.1280    10.5080    15.4820
 2666.0000     8.1560     2.4350     0.0390    88.3310   -60.9150     9.0150    10.4380    15.2490
 2666.5000     8.1480     2.4340     0.0370    90.3570   -61.2500     8.9010    10.3680    15.0540
 2667.0000     8.1400     2.4300     0.0350    92.4940   -61.5770     8.7880    10.2980    15.0540
 2667.5000     8.1330     2.4260     0.0330    92.6670   -61.9040     8.6860    10.2280    15.8520
 2668.0000     8.1250     2.4220     0.0310    89.5130   -62.2310     8.5820    10.1510    16.6510
 2668.5000     8.1360     2.4200     0.0290    87.3520   -62.5590     8.4650     9.8180    14.8050
 2669.0000     8.1520     2.4200     0.0280    88.4490   -62.8860     8.3480     9.4470    14.2480
 2669.5000     8.1690     2.4200     0.0260    89.4610   -63.2130     8.2320     9.2620    14.0000
 2670.0000     8.1850     2.4200     0.0250    90.6340   -63.5410     8.1150     9.2620    14.2480
 2670.5000     8.2020     2.4180     0.0230    92.2320   -63.8680     7.9990     9.1930    13.8060
 2671.0000     8.2190     2.4160     0.0230    92.5970   -64.1950     7.8820     9.1300    13.3630
 2671.5000     8.2230     2.4150     0.0250    92.8630   -64.5230     7.7660     9.0670    13.5900
 2672.0000     8.2230     2.4150     0.0240    96.3390   -64.8500     7.6490     9.0040    13.7360
 2672.5000     8.2130     2.4160     0.0240    99.3490   -65.1770     7.5320     8.9410    14.2000
 2673.0000     8.1970     2.4170     0.0240    98.8730   -65.5040     7.4160     8.8790    15.9050
 2673.5000     8.1890     2.4180     0.0260    97.4590   -65.8320     7.2990     8.5910    14.3500
 2674.0000     8.1810     2.4240     0.0280    96.3950   -66.1590     7.1830     8.0790    13.4860
 2674.5000     8.1730     2.4330     0.0290    99.8300   -66.4860     7.0660     7.7110    12.1930
 2675.0000     8.1650     2.4390     0.0310   103.3800   -66.8140     6.9500     7.7500     8.2220
 2675.5000     8.1580     2.4450     0.0330   112.4350   -67.1410     6.8450     7.8050    12.5540
 2676.0000     8.1500     2.4530     0.0350   117.1920   -67.4680     6.8450     7.8600    14.5120
 2676.5000     8.1410     2.4600     0.0350   114.3900   -67.7960     7.0240     7.9160    12.9260
 2677.0000     8.1310     2.4650     0.0350   103.7880   -68.1220     7.2550     7.9710    11.7060
 2677.5000     8.1210     2.4680     0.0350    95.0870   -68.4490     7.4870     8.2230    10.4860
 2678.0000     8.1110     2.4770     0.0300    91.1970   -68.6210     7.7180     8.6730     9.7850
 2678.5000     8.1000     2.4860     0.0260    92.6580   -68.6380     7.9500     9.1220    12.3300
 2679.0000     8.0900     2.4840     0.0220    89.8690   -68.6570     8.1820     9.5940    20.1960
 2679.5000     8.0870     2.4750     0.0180    86.3350   -68.6740     8.4130    10.0880    37.6410
 2680.0000     8.0970     2.4650     0.0150    77.6290   -68.6910     8.6450    10.4460    30.5120
 2680.5000     8.1060     2.4760     0.0160    73.1900   -68.7080     8.8760    10.4860    20.3270
 2681.0000     8.1150     2.4930     0.0170    68.6910   -68.7250     9.1770    10.5300    16.0510
 2681.5000     8.1240     2.5110     0.0180    67.5010   -68.7420     9.1530    10.4910    15.9050
 2682.0000     8.1330     2.5260     0.0190    73.9090   -68.7590     9.1030    10.4120    15.7780
 2682.5000     8.1420     2.5200     0.0190    80.4010   -68.7760     9.0540    10.3330    15.6160
 2683.0000     8.1440     2.5050     0.0190    81.1570   -68.7930     9.0040    10.2550    14.5510
 2683.5000     8.1440     2.4900     0.0180    81.8390   -68.8110     8.9540    10.1760    13.4860
 2684.0000     8.1440     2.4770     0.0170    86.2850   -68.8460     8.9050    10.0980    13.8480
 2684.5000     8.1440     2.4770     0.0190    89.2680   -68.8830     8.8550    10.0580    14.6460
 2685.0000     8.1530     2.4850     0.0240    91.4580   -68.9200     8.8060    10.1820    14.6460
 2685.5000     8.1630     2.4910     0.0290    93.5380   -68.9580     8.7560    10.2940    14.6460
 2686.0000     8.1730     2.4850     0.0270    95.6810   -68.9950     8.7070    10.4060    14.7800
 2686.5000     8.1830     2.4790     0.0240    96.3910   -69.0320     8.6570    10.5300    15.7150
 2687.0000     8.1900     2.4830     0.0210    92.9750   -69.0700     8.6080    10.5300    16.8040
 2687.5000     8.1970     2.4860     0.0230    89.3220   -69.1070     8.5580    10.4930    16.5880
 2688.0000     8.2050     2.4760     0.0240    86.2520   -69.1440     8.5080    10.3690    16.1990
 2688.5000     8.2130     2.4640     0.0260    84.7780   -69.1820     8.4590    10.2440    16.8040
 2689.0000     8.2210     2.4620     0.0280    84.8990   -69.2190     8.4090    10.1200    15.2090
 2689.5000     8.2290     2.4780     0.0290    87.5640   -69.2560     8.3600    10.0580    12.0190
 2690.0000     8.2370     2.4820     0.0290    91.3210   -69.2940     8.3100     9.9660     9.7850
 2690.5000     8.2410     2.4810     0.0280    95.5820   -69.3310     8.2610    10.0100    17.7540
