~VERSION INFORMATION
 VERS.                2.0:   CWLS LOG ASCII STANDARD - VERSION 2.0
 WRAP.                 NO:   ONE LINE PER DEPTH STEP
~WELL INFORMATION
#MNEM.UNIT      DATA TYPE    INFORMATION
#----------   ------------   ------------------------------
 STRT.F           46.5000:   START DEPTH
 STOP.F         3160.0000:   STOP DEPTH
 STEP.F            0.5000:   STEP LENGTH
 NULL.          -999.2500:   NO VALUE
 COMP. LAWRENCE ALLISON & WEST:   COMPANY
 WELL. LAWRENCE NPR 3 "AX" #42-34:   WELL
 FLD .                NPR:   FIELD
 LOC .      S34 T39N R78W:   LOCATION
 CNTY.            NATRONA:   COUNTY
 STAT.            WYOMING:   STATE
 CTRY. UNITED STATES OF AMERICA:   COUNTRY
 SRVC.      WESTERN ATLAS:   SERVICE COMPANY
 DATE.        19-OCT-1987:   LOGDATE
 API .     49025111830000:   API NUMBER
~CURVE INFORMATION
#MNEM.UNIT       API CODE    CURVE DESCRIPTION
#----------   ------------   ------------------------------
 DEPT.F                  :   
 CALD.IN     45 280 60 00:   CALIPER FROM DENSITY LOG
 DEN .LBS    45 635 01 00:   BUCK DENSITY
 CORR.G/C3   45 356 01 00:   DENSITY CORRECTION
 NPOR.DEC    42 890 03 00:   ALPHA PROCESSED NEUTRON POROSITY
 SPR .MV     07 010 01 00:   SPONTANEOUS POTENTIAL
 GRR .GAPI   07 310 01 00:   GAMMA RAY FROM RESISTIVITY
 RFOC.OHMM   07 220 04 00:   RESISTIVITY FOCUSED LOG RES.
 RILD.OHMM   07 120 46 00:   DEEP INDUCTION RESISTIVITY
 RILM.OHMM   07 120 44 00:   INDUCTION LOG MEDIUM RESISTIVITY
 TENR.LBS    07 635 01 00:   TENSION FROM RESISTIVITY
~PARAMETER INFORMATION
#MNEM.UNIT          VALUE    DESCRIPTION
#----------   ------------   ------------------------------
 EKB .F         5088.0000:   Kelly bushing
 EGL .F         5077.0000:   Ground level
 EDF .F         5087.0000:   Drilling floor
 TD  .F         3151.0000:   Total depth
 DATE.        19-OCT-1987:   Date logged
 CLNT.            A2DTECH:   Client Code
 SL  . 1032' FNL & 2316' FWL:   Surface Location
 PD  .                 GL:   Permanent Datum
 EPD .F              5077:   Elevation Permanent Datum
 LMF .                 KB:   Log Measured From
 DMF .                 KB:   Drilling Measured From
 DAPD.F                11:   Feet Above Permanent Datum
 DD  .F              3151:   Depth driller
 DL  .F              3151:   Depth logger
 BLI .F              3149:   Bottom log interval
 TLI .F                50:   Top log interval
 CS1 .IN            8.625:   Casing size
 CBD1.      8.625" @ 693':   Casing driller 1
 CBL1.F               693:   Casing logger 1
 BS1 .IN            7.875:   Bit size
 BSD1.F              3151:   Depth drilled with bit1
 DFT .        KCL/POLYMER:   Type fluid in hole
 DFD .                9.2:   Density
 DFV .                 53:   Viscosity
 DFPH.                9.5:   pH
 DFL .               11.8:   Fluid loss
 MSS .            MUD/PIT:   Source of sample
 RMS .OHMM           .441:   Rm
 MST .F                66:   Rm Meas. temp.
 RMF .OHMM           .336:   Rmf
 MFST.F                66:   Rmf Meas. temp.
 RMC .OHMM           .711:   Rmc
 MCST.F                66:   Rmc Meas. temp.
 MFSS.               MEAS:   Source Rmf.
 MCSS.               MEAS:   Source Rmc.
 RMB .OHMM           .244:   Rm. at BHT
 BHT .F               119:   BHT.
 TCS .HRS               3:   Time Circ. stopped
 MRT .F               119:   Maximum recorded temp.
 LUN .            HL-6343:   Logging unit number
 LUL .               CODY:   Logging unit location
 ENGI.               JULL:   Recorded By
 WITN.             STRONG:   Witnessed by
 ORIG.           5" PRINT:   Origin of data
 UWI .     49025111830000:   Unique Well ID
 DICO. A2D TECHNOLOGIES, INC.:   Digitizing Company
~OTHER INFORMATION
~A   DEPT     CALD        DEN       CORR       NPOR        SPR         GRR      RFOC       RILD       RILM       TENR   
# ...
 1688.0000  -999.2500  -999.2500  -999.2500  -999.2500   -29.3826   119.0082     6.8823     5.6793     5.3707   -74.1140
 1688.5000  -999.2500  -999.2500  -999.2500  -999.2500   -29.5893   124.6567     6.6914     5.6256     5.3694   -83.9146
 1689.0000  -999.2500  -999.2500  -999.2500  -999.2500   -29.1899   125.4599     6.5058     5.5199     5.3680   -83.6654
 1689.5000  -999.2500  -999.2500  -999.2500  -999.2500   -28.7904   122.6160     6.6880     5.4676     5.3665   -73.3164
 1690.0000  -999.2500  -999.2500  -999.2500  -999.2500   -28.9972   119.7781     6.6863     5.4156     5.3655   -62.9672
 1690.5000  -999.2500  -999.2500  -999.2500  -999.2500   -29.4059   115.3238     6.5008     5.4142     5.3638   -93.0177
 1691.0000  -999.2500  -999.2500  -999.2500  -999.2500   -29.4106   114.5066     6.6828     5.3630     5.3627   -92.7686
 1691.5000  -999.2500  -999.2500  -999.2500  -999.2500   -29.4153   116.5180     6.8064     5.3610     5.3114   -82.4194
 1692.0000  -999.2500  -999.2500  -999.2500  -999.2500   -28.6127   118.5293     6.8047     5.3597     5.2611   -92.2703
 1692.5000  -999.2500  -999.2500  -999.2500  -999.2500   -28.2133   121.3488     6.8030     5.3583     5.2105   -81.9209
 1693.0000  -999.2500  -999.2500  -999.2500  -999.2500   -28.0159   123.3600     6.4921     5.3572     5.2092   -81.6717
 1693.5000  -999.2500  -999.2500  -999.2500  -999.2500   -27.6166   124.1590     6.4304     5.3555     5.1599   -81.4225
 1694.0000  -999.2500  -999.2500  -999.2500  -999.2500   -27.4192   124.1499     6.3693     5.3541     5.1583   -71.0231
 1694.5000  -999.2500  -999.2500  -999.2500  -999.2500   -27.2219   122.5244     6.3088     5.3525     5.1569   -80.8742
 1695.0000  -999.2500  -999.2500  -999.2500  -999.2500   -27.2228   120.8972     6.4854     5.3514     5.1555   -80.6250
 1695.5000  -999.2500  -999.2500  -999.2500  -999.2500   -27.6353   118.4659     6.4838     5.3503     5.1548   -80.3758
 1696.0000  -999.2500  -999.2500  -999.2500  -999.2500   -27.8420   118.0546     6.6037     5.3489     5.1532   -80.1265
 1696.5000  -999.2500  -999.2500  -999.2500  -999.2500   -28.0487   117.6414     6.6020     5.3470     5.1516   -79.8773
 1697.0000  -999.2500  -999.2500  -999.2500  -999.2500   -28.0534   117.6323     6.7241     5.3458     5.1503   -79.6281
 1697.5000  -999.2500  -999.2500  -999.2500  -999.2500   -28.0581   119.2394     6.7852     5.3442     5.1490   -79.3788
 1698.0000  -999.2500  -999.2500  -999.2500  -999.2500   -28.6698   126.9033     6.7207     5.3428     5.1476   -79.1296
 1698.5000  -999.2500  -999.2500  -999.2500  -999.2500   -28.4724   126.4897     6.4139     5.3412     5.1461   -78.8803
 1699.0000  -999.2500  -999.2500  -999.2500  -999.2500   -28.6810   125.6725     6.3526     5.3398     5.1450   -78.6311
 1699.5000  -999.2500  -999.2500  -999.2500  -999.2500   -29.4919   125.2593     6.3510     5.3387     5.0955   -78.3818
 1700.0000  -999.2500  -999.2500  -999.2500  -999.2500   -30.3046   127.2702     7.0327     5.3370     5.1131   -78.0827
 1700.5000  -999.2500  -999.2500  -999.2500  -999.2500   -30.1224   125.6565     6.8040     5.2915     5.1308   -77.8276
 1701.0000  -999.2500  -999.2500  -999.2500  -999.2500   -30.1106   119.5761     6.8367     5.2855     5.0451   -77.7805
 1701.5000  -999.2500  -999.2500  -999.2500  -999.2500   -30.1145   117.9528     6.7095     5.2357     4.9976   -77.6297
 1702.0000  -999.2500  -999.2500  -999.2500  -999.2500   -30.1185   122.7923     6.5847     5.2345     4.9965   -77.4790
 1702.5000  -999.2500  -999.2500  -999.2500  -999.2500   -29.5165   126.8271     6.2845     5.2335     4.9955   -77.3282
 1703.0000  -999.2500  -999.2500  -999.2500  -999.2500   -29.5196   126.0086     6.3419     5.2325     4.9946   -77.1774
 1703.5000  -999.2500  -999.2500  -999.2500  -999.2500   -28.9184   120.3443     6.3407     5.2316     4.9938   -77.0267
 1704.0000  -999.2500  -999.2500  -999.2500  -999.2500   -28.7211   119.9364     6.3987     5.2306     4.9927   -76.8759
 1704.5000  -999.2500  -999.2500  -999.2500  -999.2500   -28.5231   126.3888     6.4569     5.1811     5.0381   -86.8270
 1705.0000  -999.2500  -999.2500  -999.2500  -999.2500   -28.3250   127.9970     6.6382     5.3263     5.1314   -76.5744
 1705.5000  -999.2500  -999.2500  -999.2500  -999.2500   -27.9250   125.9689     6.6369     5.4760     5.2136   -76.3935
 1706.0000  -999.2500  -999.2500  -999.2500  -999.2500   -27.5249   122.3247     6.6976     5.6295     5.3243   -76.2427
 1706.5000  -999.2500  -999.2500  -999.2500  -999.2500   -26.9229   120.6991     6.5121     5.6285     5.4739   -76.0919
 1707.0000  -999.2500  -999.2500  -999.2500  -999.2500   -26.7248   121.0952     6.4507     5.6275     5.5238   -75.9411
 1707.5000  -999.2500  -999.2500  -999.2500  -999.2500   -26.9308   120.6832     6.6318     5.6265     5.5227   -75.7903
 1708.0000  -999.2500  -999.2500  -999.2500  -999.2500   -27.9449   119.8672     6.8816     5.6254     5.5217   -85.7421
 1708.5000  -999.2500  -999.2500  -999.2500  -999.2500   -28.7569   119.8592     7.0094     5.6249     5.5207   -95.6941
 1709.0000  -999.2500  -999.2500  -999.2500  -999.2500   -29.3669   120.2553     6.9432     5.6233     5.5197   -85.4407
 1709.5000  -999.2500  -999.2500  -999.2500  -999.2500   -29.1696   120.6514     6.8140     5.6748     5.5188   -85.2900
 1710.0000  -999.2500  -999.2500  -999.2500  -999.2500   -29.1736   121.8507     6.8127     5.7270     5.5175   -75.0364
 1710.5000  -999.2500  -999.2500  -999.2500  -999.2500   -29.1776   122.6556     6.7481     5.7256     5.5680   -74.8856
 1711.0000  -999.2500  -999.2500  -999.2500  -999.2500   -29.3836   121.8396     6.8098     5.7243     5.5667   -74.7046
 1711.5000  -999.2500  -999.2500  -999.2500  -999.2500   -29.3876   120.6196     6.8085     5.7236     5.4979   -84.6571
 1712.0000  -999.2500  -999.2500  -999.2500  -999.2500   -29.5935   121.0157     6.8072     5.7223     5.4971   -94.6098
 1712.5000  -999.2500  -999.2500  -999.2500  -999.2500   -29.7995   123.8359     6.7429     5.7211     5.4958   -94.4591
 1713.0000  -999.2500  -999.2500  -999.2500  -999.2500   -29.8035   125.8465     6.7416     5.6148     5.4949   -94.3085
 1713.5000  -999.2500  -999.2500  -999.2500  -999.2500   -29.8075   127.8587     6.7403     5.6348     5.4938   -73.9505
 1714.0000  -999.2500  -999.2500  -999.2500  -999.2500   -29.6094   129.0668     6.8019     5.6549     5.4925   -83.9035
 1714.5000  -999.2500  -999.2500  -999.2500  -999.2500   -29.6134   124.6106     6.7377     5.6639     5.4915   -83.7527
 1715.0000  -999.2500  -999.2500  -999.2500  -999.2500   -29.4154   121.3712     6.7363     5.6628     5.4904   -83.6020
 1715.5000  -999.2500  -999.2500  -999.2500  -999.2500   -29.4201   123.3826     6.7979     5.6615     5.4895   -93.5554
 1716.0000  -999.2500  -999.2500  -999.2500  -999.2500   -29.6261   129.8431     6.7964     5.6600     5.4880   -93.4048
 1716.5000  -999.2500  -999.2500  -999.2500  -999.2500   -29.6301   128.6190     6.8585     5.6586     5.4870   -93.2240
 1717.0000  -999.2500  -999.2500  -999.2500  -999.2500   -29.6341   126.1869     6.8572     5.6576     5.5373   -93.0733
 1717.5000  -999.2500  -999.2500  -999.2500  -999.2500   -29.4360   122.9468     6.7924     5.6565     5.4499   -92.9227
 1718.0000  -999.2500  -999.2500  -999.2500  -999.2500   -29.0360   118.0889     6.8545     5.6555     5.4488  -102.8767
 1718.5000  -999.2500  -999.2500  -999.2500  -999.2500   -28.2319   116.8689     6.7270     5.5502     5.3973   -92.6214
 1719.0000  -999.2500  -999.2500  -999.2500  -999.2500   -28.0339   119.2851     6.7257     5.5490     5.2968   -82.3659
 1719.5000  -999.2500  -999.2500  -999.2500  -999.2500   -28.0378   121.2973     6.7872     5.5479     5.2467   -82.2151
 1720.0000  -999.2500  -999.2500  -999.2500  -999.2500   -28.0418   118.4611     6.5381     5.5467     5.2450   -92.1694
 1720.5000  -999.2500  -999.2500  -999.2500  -999.2500   -28.4466   120.0693     6.7218     5.5458     5.2685   -81.9136
 1721.0000  -999.2500  -999.2500  -999.2500  -999.2500   -28.4538   121.6774     6.7832     5.5449     5.2921   -81.7628
