~VERSION INFORMATION
 VERS.                2.0:   CWLS LOG ASCII STANDARD - VERSION 2.0
 WRAP.                 NO:   ONE LINE PER DEPTH STEP
~WELL INFORMATION
#MNEM.UNIT      DATA TYPE    INFORMATION
#----------   ------------   ------------------------------
 STRT.F          502.0000:   START DEPTH
 STOP.F         3068.0000:   STOP DEPTH
 STEP.F            0.5000:   STEP LENGTH
 NULL.          -999.2500:   NO VALUE
 COMP. LAWRENCE ALLISON AND ASSOCIATES:   COMPANY
 WELL. LAWRENCE NPR TX #85-33:   WELL
 FLD .              N P R:   FIELD
 LOC .      S33 T39N R78W:   LOCATION
 CNTY.            NATRONA:   COUNTY
 STAT.            WYOMING:   STATE
 CTRY. UNITED STATES OF AMERICA:   COUNTRY
 SRVC.       SCHLUMBERGER:   SERVICE COMPANY
 DATE.        20-JUN-1982:   LOGDATE
 API .     49025107990001:   API NUMBER
~CURVE INFORMATION
#MNEM.UNIT       API CODE    CURVE DESCRIPTION
#----------   ------------   ------------------------------
 DEPT.F                  :   
 RHOB.G/C3   45 350 01 00:   BULK DENSITY
 GRD .GAPI   45 310 01 00:   GAMMA RAY FROM DENSITY LOG
 CALD.IN     45 280 60 00:   CALIPER FROM DENSITY LOG
 CORR.G/C3   45 356 01 00:   DENSITY CORRECTION
 TEND.LBS    45 635 01 00:   TENSION FROM DENSITY LOG
 NPHI.DEC    42 890 03 00:   NEUTRON POROSITY SANDSTONE
 TENR.LBS    07 635 01 00:   TENSION FROM RESISTIVITY
 SPR .MV     07 010 01 00:   SPONTANEOUS POTENTIAL
 ILD .OHMM   07 120 46 00:   DEEP INDUCTION RESISTIVITY
 ILM .OHMM   07 120 44 00:   INDUCTION LOG MEDIUM RESISTIVITY
 SFL .OHMM   07 220 01 00:   SHALLOW FOCUSED LOG RESISTIVITY
~PARAMETER INFORMATION
#MNEM.UNIT          VALUE    DESCRIPTION
#----------   ------------   ------------------------------
 EKB .F         5123.0000:   Kelly bushing
 EGL .F         5113.0000:   Ground level
 EDF .F         5122.0000:   Drilling floor
 EPD .F         5113.0000:   Permanent datum
 TD  .F         3100.0000:   Total depth
 DATE.        20-JUN-1982:   Date logged
 CLNT.            A2DTECH:   Client Code
 SL  . 2263' FSL & 293' FEL:   Surface Location
 PD  .                 GL:   Permanent Datum
 DD  .F              3100:   Depth driller
 DL  .F              3056:   Depth logger
 BLI .F              3050:   Bottom log interval
 CS1 .IN            9.625:   Casing size
 CBD1.      9.625" @ 524':   Casing driller 1
 CBL1.F               520:   Casing logger 1
 BS1 .IN            7.875:   Bit size
 DFT .           POLY/KCL:   Type fluid in hole
 DFD .                8.4:   Density
 DFV .                 40:   Viscosity
 DFPH.                7.6:   pH
 DFL .                 10:   Fluid loss
 MSS .               TANK:   Source of sample
 RMS .OHMM            .92:   Rm
 MST .F                66:   Rm Meas. temp.
 RMF .OHMM           .603:   Rmf
 MFST.F                68:   Rmf Meas. temp.
 MFSS.               MEAS:   Source Rmf.
 RMB .OHMM           .515:   Rm. at BHT
 BHT .F               118:   BHT.
 TCS .HRS             815:   Time Circ. stopped
 MRT .F               118:   Maximum recorded temp.
 LUN .               8035:   Logging unit number
 LUL .               CSPR:   Logging unit location
 ENGI.              PENNY:   Recorded By
 WITN.           JENNINGS:   Witnessed by
 ORIG.           5" PRINT:   Origin of data
 UWI .     49025107990001:   Unique Well ID
 DICO. A2D TECHNOLOGIES, INC.:   Digitizing Company
 DAPD.                 10:   Feet Above Permanent Datum
 BSD1.               3100:   Depth drilled with bit1
 TLI .                520:   Top log interval
 TLAB.               1100:   Time logger at bottom
~OTHER INFORMATION
~A   DEPT     RHOB         GRD      CALD       CORR       TEND       NPHI       TENR        SPR        ILD        ILM        SFL   
# ...
  685.0000     2.4590   166.9370     9.7700     0.0270   962.3020  -999.2500  1437.3920  -999.2500     8.3460     8.2070  -999.2500
  685.5000     2.4580   164.7090     9.8880     0.0390   962.3020  -999.2500  1438.1340  -999.2500     8.4110     8.0570  -999.2500
  686.0000     2.4560   161.8920    10.0060     0.0510   962.3020  -999.2500  1438.8770  -999.2500     8.4360     7.9110  -999.2500
  686.5000     2.4620   161.4930    10.0600     0.0730   962.3020  -999.2500  1439.6190  -999.2500     8.4360     7.9110  -999.2500
  687.0000     2.4750   161.0710    10.0610     0.0960   962.3020  -999.2500  1440.3621  -999.2500     8.4360     7.9140  -999.2500
  687.5000     2.4780   160.1290    10.0640     0.1190   962.3020  -999.2500  1441.1040  -999.2500     8.4360     7.9270  -999.2500
  688.0000     2.4440   156.2150    10.0670     0.1310   962.3020  -999.2500  1441.8459  -999.2500     8.4360     7.9400  -999.2500
  688.5000     2.4050   153.2680    10.0700     0.1110   962.3020  -999.2500  1442.5890  -999.2500     8.4360     7.9520  -999.2500
  689.0000     2.3820   154.5180    10.0730     0.0920   962.3020  -999.2500  1443.3311  -999.2500     8.4360     7.9650  -999.2500
  689.5000     2.3930   155.1800    10.0760     0.0760   962.3020  -999.2500  1444.0740  -999.2500     8.4790     7.9780  -999.2500
  690.0000     2.4210   153.7920    10.0800     0.0670   962.3020  -999.2500  1444.8160  -999.2500     8.5410     8.0270  -999.2500
  690.5000     2.4520   151.7350    10.0830     0.0640   962.3020  -999.2500  1445.5590  -999.2500     8.6030     8.1130  -999.2500
  691.0000     2.4640   151.5930    10.0860     0.0600   942.8940  -999.2500  1446.3010  -999.2500     8.6650     8.2000  -999.2500
  691.5000     2.4600   153.0700    10.0890     0.0560   943.5720  -999.2500  1447.0439  -999.2500     8.7270     8.2860  -999.2500
  692.0000     2.4440   154.5660    10.0920     0.0600   944.2500  -999.2500  1447.7860  -999.2500     8.7890     8.3730  -999.2500
  692.5000     2.4170   154.9400    10.0950     0.0640   944.9280  -999.2500  1448.5280  -999.2500     8.8510     8.4590  -999.2500
  693.0000     2.3910   152.0170    10.1000     0.0580   945.6070  -999.2500  1449.2710  -999.2500     8.9130     8.5450  -999.2500
  693.5000     2.3820   149.7080    10.0290     0.0420   946.2850  -999.2500  1450.0129  -999.2500     8.9750     8.6320  -999.2500
  694.0000     2.3930   150.4510     9.9150     0.0270   946.9630  -999.2500  1450.7560  -999.2500     9.0380     8.7180  -999.2500
  694.5000     2.4150   151.4060     9.8010     0.0160   947.6410  -999.2500  1451.4980  -999.2500     9.1000     8.8050  -999.2500
  695.0000     2.4390   152.4650     9.6860     0.0150   948.3200  -999.2500  1452.2410  -999.2500     9.1620     8.8910  -999.2500
  695.5000     2.4480   152.5510     9.5710     0.0110   948.9980  -999.2500  1452.9830  -999.2500     9.2240     8.9780  -999.2500
  696.0000     2.4500   152.6050     9.5110     0.0050   949.6760  -999.2500  1453.7260  -999.2500     9.2950     9.0790  -999.2500
  696.5000     2.4500   152.6630     9.5300     0.0000   950.3540  -999.2500  1454.4680  -999.2500     9.3720     9.0560  -999.2500
  697.0000     2.4510   152.7260     9.5070     0.0000   951.0330  -999.2500  1455.2111  -999.2500     9.4490     9.0290  -999.2500
  697.5000     2.4540   152.7850     9.4080     0.0010   951.7110  -999.2500  1455.9530  -999.2500     9.5250     9.0010  -999.2500
  698.0000     2.4510   151.9600     9.3090     0.0000   952.3890  -999.2500  1456.6949  -999.2500     9.6020     9.0740  -999.2500
  698.5000     2.4420   150.8760     9.2210     0.0010   953.0670  -999.2500  1457.4380  -999.2500     9.6790     9.1650  -999.2500
  699.0000     2.4370   147.2390     9.2190     0.0030   953.7460  -999.2500  1458.1801  -999.2500     9.7560     9.2570  -999.2500
  699.5000     2.4410   142.0090     9.2410     0.0030   954.4240  -999.2500  1458.9230  -999.2500     9.8330     9.3480  -999.2500
  700.0000     2.4410   150.7240     9.2520     0.0010   955.1020  -999.2500  1459.6650  -999.2500     9.9100     9.4390  -999.2500
  700.5000     2.4360   149.9810     9.2630     0.0020   955.7800  -999.2500  1460.4080  -999.2500     9.9860     9.5300  -999.2500
  701.0000     2.4340   154.6760     9.2740     0.0040   956.4590  -999.2500  1461.1500  -999.2500    10.0630     9.6220  -999.2500
  701.5000     2.4370   158.4940     9.2620     0.0040   957.1370  -999.2500  1461.8929  -999.2500    10.1400     9.7130  -999.2500
  702.0000     2.4410   157.7080     9.2360     0.0040   957.8150  -999.2500  1462.6350  -999.2500    10.2170     9.7720  -999.2500
  702.5000     2.4410   153.6100     9.2130     0.0150   958.4930  -999.2500  1463.3770  -999.2500    10.2940     9.7720  -999.2500
  703.0000     2.4370   150.7190     9.1900     0.0280   959.1710  -999.2500  1464.1200  -999.2500    10.3710     9.7720  -999.2500
  703.5000     2.4270   149.0380     9.1670     0.0300   959.8500  -999.2500  1464.8621  -999.2500    10.4470     9.7720  -999.2500
  704.0000     2.4160   147.6780     9.1440     0.0120   960.5280  -999.2500  1465.6050  -999.2500    10.5240     9.8210  -999.2500
  704.5000     2.4140   146.9180     9.1200    -0.0020   961.2060  -999.2500  1466.3470  -999.2500    10.6010     9.9400  -999.2500
  705.0000     2.4200   148.9450     9.0970    -0.0060   961.8840  -999.2500  1467.0900  -999.2500    10.6780    10.0580  -999.2500
  705.5000     2.4300   150.5240     9.0740    -0.0040   962.6150  -999.2500  1467.8320  -999.2500    10.7550    10.1760  -999.2500
  706.0000     2.4410   152.7470     9.0630     0.0030   963.4280  -999.2500  1468.5750  -999.2500    10.8320    10.2940  -999.2500
  706.5000     2.4490   153.9700     9.0630     0.0110   964.2410  -999.2500  1469.3170  -999.2500    10.9080    10.4130  -999.2500
  707.0000     2.4530   153.7440     9.0630     0.0170   965.0540  -999.2500  1470.0590  -999.2500    10.9850    10.5200  -999.2500
  707.5000     2.4590   152.2810     9.0630     0.0140   965.8670  -999.2500  1470.8020  -999.2500    11.0620    10.5460  -999.2500
  708.0000     2.4660   148.8140     9.0900     0.0070   966.6800  -999.2500  1471.5439  -999.2500    11.1120    10.5730  -999.2500
  708.5000     2.4710   150.1000     9.1630     0.0000   967.4930  -999.2500  1472.2870  -999.2500    11.1000    10.6000  -999.2500
  709.0000     2.4620   151.4080     9.2290    -0.0010   968.3060  -999.2500  1473.0291  -999.2500    11.0880    10.6270  -999.2500
  709.5000     2.4470   150.8110     9.2680    -0.0010   969.1190  -999.2500  1473.7720  -999.2500    11.0760    10.6530  -999.2500
  710.0000     2.4390   148.8070     9.3080     0.0020   969.9320  -999.2500  1474.5140  -999.2500    11.0630    10.6800  -999.2500
  710.5000     2.4450   146.0120     9.3380     0.0080   970.7450  -999.2500  1475.2570  -999.2500    11.0510    10.7110  -999.2500
  711.0000     2.4570   144.4260     9.3360     0.0130   971.5580  -999.2500  1475.9990  -999.2500    11.0390    10.6710  -999.2500
  711.5000     2.4660   143.6970     9.3140     0.0170   972.3710  -999.2500  1476.7410  -999.2500    11.0260    10.5810  -999.2500
  712.0000     2.4570   144.2370     9.2930     0.0130   973.1840  -999.2500  1477.4840  -999.2500    11.0140    10.4900  -999.2500
  712.5000     2.4460   147.6240     9.2720     0.0090   973.9970  -999.2500  1478.2260  -999.2500    10.9220    10.4000  -999.2500
  713.0000     2.4360   153.4190     9.2520     0.0040   974.8100  -999.2500  1478.9690  -999.2500    10.7920    10.3090  -999.2500
  713.5000     2.4310   156.8360     9.2400     0.0000   975.6230  -999.2500  1479.7111  -999.2500    10.6630    10.2100  -999.2500
  714.0000     2.4280   157.1450     9.2450    -0.0030   976.4360  -999.2500  1480.4540  -999.2500    10.5340    10.0500  -999.2500
  714.5000     2.4280   157.3730     9.2500    -0.0060   977.2490  -999.2500  1481.1960  -999.2500    10.4050     9.8910  -999.2500
  715.0000     2.4330   158.3670     9.2550    -0.0070   978.0620  -999.2500  1481.9390  -999.2500    10.2760     9.7310  -999.2500
