~VERSION INFORMATION
 VERS.                2.0:   CWLS LOG ASCII STANDARD - VERSION 2.0
 WRAP.                 NO:   ONE LINE PER DEPTH STEP
~WELL INFORMATION
#MNEM.UNIT      DATA TYPE    INFORMATION
#----------   ------------   ------------------------------
 STRT.F           48.5000:   START DEPTH
 STOP.F         3509.0000:   STOP DEPTH
 STEP.F            0.5000:   STEP LENGTH
 NULL.          -999.2500:   NO VALUE
 COMP.   TESORO PETROLEUM:   COMPANY
 WELL. TESORO "TX" #45-33:   WELL
 FLD .        TEAPOT DOME:   FIELD
 LOC .      S33 T39N R78W:   LOCATION
 CNTY.            NATRONA:   COUNTY
 STAT.            WYOMING:   STATE
 CTRY. UNITED STATES OF AMERICA:   COUNTRY
 SRVC.      DRESSER ATLAS:   SERVICE COMPANY
 DATE.        03-OCT-1976:   LOGDATE
 API .     49025102700000:   API NUMBER
~CURVE INFORMATION
#MNEM.UNIT       API CODE    CURVE DESCRIPTION
#----------   ------------   ------------------------------
 DEPT.F                  :   
 SPR .MV     07 010 01 00:   SPONTANEOUS POTENTIAL
 TENR.LBS    07 635 01 00:   TENSION FROM RESISTIVITY
 SFL .OHMM   07 220 01 00:   SHALLOW FOCUSED LOG RESISTIVITY
 ILM .OHMM   07 120 44 00:   INDUCTION LOG MEDIUM RESISTIVITY
 ILD .OHMM   07 120 46 00:   DEEP INDUCTION RESISTIVITY
 GRD .GAPI   45 310 01 00:   GAMMA RAY FROM DENSITY LOG
 CALD.IN     45 280 60 00:   CALIPER FROM DENSITY LOG
 NPHI.DEC    42 890 03 00:   NEUTRON POROSITY SANDSTONE
 DPHI.DEC    45 890 12 00:   DENSITY POROSITY SANDSTONE
 TEND.LBS    45 635 01 00:   TENSION FROM DENSITY LOG
~PARAMETER INFORMATION
#MNEM.UNIT          VALUE    DESCRIPTION
#----------   ------------   ------------------------------
 EKB .F         5217.0000:   Kelly bushing
 EGL .F         5206.0000:   Ground level
 EDF .F         5216.0000:   Drilling floor
 EPD .F         5206.0000:   Permanent datum
 TD  .F         3491.0000:   Total depth
 DATE.        03-OCT-1976:   Date logged
 CLNT.            A2DTECH:   Client Code
 SL  . 2030' FWL & 2145' FSL:   Surface Location
 PD  .                 GL:   Permanent Datum
 DD  .F              3491:   Depth driller
 DL  .F              3487:   Depth logger
 BLI .F              3485:   Bottom log interval
 TLI .F               813:   Top log interval
 CS1 .IN            8.625:   Casing size
 CBD1.      8.625" @ 823':   Casing driller 1
 CBL1.F               819:   Casing logger 1
 BS1 .IN            7.875:   Bit size
 BSD1.F              3491:   Depth drilled with bit1
 DFT .           CHEM GEL:   Type fluid in hole
 DFD .                9.4:   Density
 DFV .                 47:   Viscosity
 DFPH.                 10:   pH
 DFL .                5.8:   Fluid loss
 MSS .           FLOWLINE:   Source of sample
 RMS .OHMM           1.09:   Rm
 MST .F                68:   Rm Meas. temp.
 RMF .OHMM              1:   Rmf
 MFST.F                68:   Rmf Meas. temp.
 RMC .OHMM           1.24:   Rmc
 MCST.F                68:   Rmc Meas. temp.
 MFSS.               MEAS:   Source Rmf.
 MCSS.               MEAS:   Source Rmc.
 RMB .OHMM            .62:   Rm. at BHT
 BHT .F               119:   BHT.
 TCS .HRS              12:   Time Circ. stopped
 MRT .F               119:   Maximum recorded temp.
 LUN .               6134:   Logging unit number
 LUL .              GLTTE:   Logging unit location
 ENGI.            VAUGHIN:   Recorded By
 WITN.        WOLF-CARTER:   Witnessed by
 ORIG.     2.5", 5" PRINT:   Origin of data
 UWI .     49025102700000:   Unique Well ID
 DICO. A2D TECHNOLOGIES, INC.:   Digitizing Company
 DAPD.                 11:   Feet Above Permanent Datum
~OTHER INFORMATION
~A   DEPT      SPR        TENR       SFL        ILM        ILD        GRD       CALD       NPHI       DPHI       TEND   
# ...
  752.0000   -22.5390   340.5910     4.9470     5.3610     6.7520  -999.2500  -999.2500  -999.2500  -999.2500  -999.2500
  752.5000   -22.5600   343.1590     5.4610     5.8230     6.0960  -999.2500  -999.2500  -999.2500  -999.2500  -999.2500
  753.0000   -22.5800   345.7270     5.9750     6.2860     7.2070  -999.2500  -999.2500  -999.2500  -999.2500  -999.2500
  753.5000   -22.6010   348.2960     6.4890     6.7490     8.9350  -999.2500  -999.2500  -999.2500  -999.2500  -999.2500
  754.0000   -22.6210   350.8640     7.0040     7.2120    10.1360  -999.2500  -999.2500  -999.2500  -999.2500  -999.2500
  754.5000   -22.6420   353.4320     7.5180     7.6740     9.8530  -999.2500  -999.2500  -999.2500  -999.2500  -999.2500
  755.0000   -22.6620   356.0000     7.9840     8.1370     9.5700  -999.2500  -999.2500  -999.2500  -999.2500  -999.2500
  755.5000   -22.6820   358.5680     8.3260     8.6000     9.3120  -999.2500  -999.2500  -999.2500  -999.2500  -999.2500
  756.0000   -22.7030   361.1360     8.6680     9.0630     9.4960  -999.2500  -999.2500  -999.2500  -999.2500  -999.2500
  756.5000   -22.7230   363.7040     8.9750     9.5250     9.6650  -999.2500  -999.2500  -999.2500  -999.2500  -999.2500
  757.0000   -22.7440   366.2730     9.1470     9.7410     9.8340  -999.2500  -999.2500  -999.2500  -999.2500  -999.2500
  757.5000   -22.7640   368.8410     9.3030     9.8410    10.0030  -999.2500  -999.2500  -999.2500  -999.2500  -999.2500
  758.0000   -22.7850   371.4090     9.4590     9.9570    10.1720  -999.2500  -999.2500  -999.2500  -999.2500  -999.2500
  758.5000   -22.8050   373.9770     9.6140    10.0600    10.3420  -999.2500  -999.2500  -999.2500  -999.2500  -999.2500
  759.0000   -22.8260   376.5450     9.7700    10.1630    10.5110  -999.2500  -999.2500  -999.2500  -999.2500  -999.2500
  759.5000   -22.8460   379.1130     9.9000    10.2550    10.6800  -999.2500  -999.2500  -999.2500  -999.2500  -999.2500
  760.0000   -22.8670   381.6820    10.0090    10.3360    10.8490  -999.2500  -999.2500  -999.2500  -999.2500  -999.2500
  760.5000   -22.8870   384.2500    10.1170    10.4170    11.0180  -999.2500  -999.2500  -999.2500  -999.2500  -999.2500
  761.0000   -22.9070   386.8180    10.2250    10.4980    11.1880  -999.2500  -999.2500  -999.2500  -999.2500  -999.2500
  761.5000   -22.9080   389.3860    10.3340    10.5790    11.3570  -999.2500  -999.2500  -999.2500  -999.2500  -999.2500
  762.0000   -22.9080   391.9540    10.4240    10.6610    11.5260  -999.2500  -999.2500  -999.2500  -999.2500  -999.2500
  762.5000   -22.9080   394.5220    10.4850    10.7420    11.6950  -999.2500  -999.2500  -999.2500  -999.2500  -999.2500
  763.0000   -22.9080   397.0900    10.5470    10.8530    11.8640  -999.2500  -999.2500  -999.2500  -999.2500  -999.2500
  763.5000   -22.9080   399.6590    10.6080    11.0070    12.0340  -999.2500  -999.2500  -999.2500  -999.2500  -999.2500
  764.0000   -22.9090   402.2270    10.6700    11.1610    12.2030  -999.2500  -999.2500  -999.2500  -999.2500  -999.2500
  764.5000   -22.9080   404.7950    10.7310    11.3160    12.3720  -999.2500  -999.2500  -999.2500  -999.2500  -999.2500
  765.0000   -22.9090   407.3630    10.7900    11.4700    12.5410  -999.2500  -999.2500  -999.2500  -999.2500  -999.2500
  765.5000   -22.9090   409.9310    10.7510    11.6240    12.7360  -999.2500  -999.2500  -999.2500  -999.2500  -999.2500
  766.0000   -22.9310   412.4990    10.7140    11.7790    12.7850  -999.2500  -999.2500  -999.2500  -999.2500  -999.2500
  766.5000   -22.9570   415.0680    10.6770    11.8310    12.8420  -999.2500  -999.2500  -999.2500  -999.2500  -999.2500
  767.0000   -22.9840   417.6360    10.6400    11.8310    12.8990  -999.2500  -999.2500  -999.2500  -999.2500  -999.2500
  767.5000   -23.0100   420.2040    10.6030    11.8310    12.9570  -999.2500  -999.2500  -999.2500  -999.2500  -999.2500
  768.0000   -23.0370   422.7720    10.5660    11.8310    13.0140  -999.2500  -999.2500  -999.2500  -999.2500  -999.2500
  768.5000   -23.0630   425.3400    10.5290    11.8310    13.0710  -999.2500  -999.2500  -999.2500  -999.2500  -999.2500
  769.0000   -23.0890   427.9080    10.4920    11.8310    13.1290  -999.2500  -999.2500  -999.2500  -999.2500  -999.2500
  769.5000   -23.1160   430.4760    10.4540    11.8310    13.2140  -999.2500  -999.2500  -999.2500  -999.2500  -999.2500
  770.0000   -23.1420   433.0450    10.4170    11.7750    13.0900  -999.2500  -999.2500  -999.2500  -999.2500  -999.2500
  770.5000   -23.1680   435.6130    10.3800    11.6670    12.8500  -999.2500  -999.2500  -999.2500  -999.2500  -999.2500
  771.0000   -23.1950   438.1810    10.3430    11.5590    12.6100  -999.2500  -999.2500  -999.2500  -999.2500  -999.2500
  771.5000   -23.2210   440.7490    10.3060    11.4500    12.3700  -999.2500  -999.2500  -999.2500  -999.2500  -999.2500
  772.0000   -23.2480   443.3170    10.2690    11.3420    12.1290  -999.2500  -999.2500  -999.2500  -999.2500  -999.2500
  772.5000   -23.2730   445.8850    10.2320    11.2340    11.8890  -999.2500  -999.2500  -999.2500  -999.2500  -999.2500
  773.0000   -23.2990   448.4540    10.1950    11.1250    11.6490  -999.2500  -999.2500  -999.2500  -999.2500  -999.2500
  773.5000   -23.2750   451.0220    10.1580    11.0170    11.4030  -999.2500  -999.2500  -999.2500  -999.2500  -999.2500
  774.0000   -23.2320   453.5900    10.1210    10.9090    11.2910  -999.2500  -999.2500  -999.2500  -999.2500  -999.2500
  774.5000   -23.1900   456.1580    10.0840    10.8000    11.1760  -999.2500  -999.2500  -999.2500  -999.2500  -999.2500
  775.0000   -23.1490   458.7260    10.0470    10.6920    11.0610  -999.2500  -999.2500  -999.2500  -999.2500  -999.2500
  775.5000   -23.1070   461.2940     9.9620    10.5840    10.9460  -999.2500  -999.2500  -999.2500  -999.2500  -999.2500
  776.0000   -23.0650   463.8620     9.8080    10.4750    10.8300  -999.2500  -999.2500  -999.2500  -999.2500  -999.2500
  776.5000   -23.0240   466.4310     9.6530    10.3670    10.7150  -999.2500  -999.2500  -999.2500  -999.2500  -999.2500
  777.0000   -22.9820   468.9990     9.4980    10.2590    10.6000  -999.2500  -999.2500  -999.2500  -999.2500  -999.2500
  777.5000   -22.9400   471.5670     9.3440    10.1500    10.4850  -999.2500  -999.2500  -999.2500  -999.2500  -999.2500
  778.0000   -22.8980   474.1350     9.1890    10.0420    10.3700  -999.2500  -999.2500  -999.2500  -999.2500  -999.2500
  778.5000   -22.8560   476.7030     9.0350     9.9340    10.2550  -999.2500  -999.2500  -999.2500  -999.2500  -999.2500
  779.0000   -22.8140   479.2710     8.8810     9.8260    10.1400  -999.2500  -999.2500  -999.2500  -999.2500  -999.2500
  779.5000   -22.7730   481.8390     8.7260     9.7170    10.0250  -999.2500  -999.2500  -999.2500  -999.2500  -999.2500
  780.0000   -22.7310   484.4080     8.5720     9.6090     9.9100  -999.2500  -999.2500  -999.2500  -999.2500  -999.2500
  780.5000   -22.6900   486.9760     8.4920     9.5010     9.7950  -999.2500  -999.2500  -999.2500  -999.2500  -999.2500
  781.0000   -22.6490   489.5440     8.4620     9.3920     9.6790  -999.2500  -999.2500  -999.2500  -999.2500  -999.2500
  781.5000   -22.6050   492.1120     8.4350     9.2840     9.5640  -999.2500  -999.2500  -999.2500  -999.2500  -999.2500
  782.0000   -22.5670   494.6800     8.4070     9.1760     9.4730  -999.2500  -999.2500  -999.2500  -999.2500  -999.2500
  782.5000   -22.5240   497.2480     8.3790     9.0670     9.4350  -999.2500  -999.2500  -999.2500  -999.2500  -999.2500
  783.0000   -22.6500   500.0000     8.3520     8.9590     9.3970  -999.2500  -999.2500  -999.2500  -999.2500  -999.2500
  783.5000   -22.8580   502.0020     8.3240     8.8510     9.3580  -999.2500  -999.2500  -999.2500  -999.2500  -999.2500
  784.0000   -23.0550   505.7670     8.2960     8.7420     9.3200  -999.2500  -999.2500  -999.2500  -999.2500  -999.2500
  784.5000   -23.2540   509.5320     8.2690     8.6500     9.2820  -999.2500  -999.2500  -999.2500  -999.2500  -999.2500
  785.0000   -23.3100   513.2980     8.2410     8.5170     9.2440  -999.2500  -999.2500  -999.2500  -999.2500  -999.2500
