~VERSION INFORMATION
 VERS.                2.0:   CWLS LOG ASCII STANDARD - VERSION 2.0
 WRAP.                 NO:   ONE LINE PER DEPTH STEP
~WELL INFORMATION
#MNEM.UNIT      DATA TYPE    INFORMATION
#----------   ------------   ------------------------------
 STRT.F            0.0000:   START DEPTH
 STOP.F         3964.0000:   STOP DEPTH
 STEP.F            0.5000:   STEP LENGTH
 NULL.          -999.2500:   NO VALUE
 COMP. LAWRENCE ALLISON & ASSOCIATES:   COMPANY
 WELL. LAWRENCE NPR 3 "X" #43-10:   WELL
 FLD .              N P R:   FIELD
 LOC .      S10 T38N R78W:   LOCATION
 CNTY.            NATRONA:   COUNTY
 STAT.            WYOMING:   STATE
 CTRY. UNITED STATES OF AMERICA:   COUNTRY
 SRVC.      DRESSER ATLAS:   SERVICE COMPANY
 DATE.        07-AUG-1985:   LOGDATE
 API .     49025111390000:   API NUMBER
~CURVE INFORMATION
#MNEM.UNIT       API CODE    CURVE DESCRIPTION
#----------   ------------   ------------------------------
 DEPT.F                  :   
 CNC .DEC    42 890 03 00:   NEUTRON PORISITY SANDSTONE
 RHOB.G/C3   45 350 01 00:   BULK DENSITY
 CORR.G/C3   45 356 01 00:   DENSITY CORRECTION
 TEND.LBS    45 635 01 00:   TENSION FROM DENSITY LOG
 GRR .GAPI   07 310 01 00:   GAMMA RAY FROM RESISTIVITY
 CALR.IN     07 280 01 00:   CALIPER FROM RESISTIVITY
 SPR .MV     07 010 01 00:   SPONTANEOUS POTENTIAL
 TENR.LBS    07 635 01 00:   TENSION FROM RESISTIVITY
 RILD.OHMM   07 120 46 00:   DEEP INDUCTION RESISTIVITY
 RILM.OHMM   07 120 44 00:   INDUCTION LOG MEDIUM RESISTIVITY
 RFOC.OHMM   07 220 04 00:   RESISTIVITY FOCUSED LOG RES.
 DT  .US/F   60 520 00 00:   DELTA TIME
 TENS.LBS    60 635 01 00:   TENSION FROM SONIC
~PARAMETER INFORMATION
#MNEM.UNIT          VALUE    DESCRIPTION
#----------   ------------   ------------------------------
 EKB .F         5223.0000:   Kelly bushing
 EGL .F         5211.0000:   Ground level
 EDF .F            0.0000:   Drilling floor
 EPD .F         5211.0000:   Permanent datum
 TD  .F         3950.0000:   Total depth
 DATE.        07-AUG-1985:   Date logged
 CLNT.            A2DTECH:   Client Code
 SL  . 2016' FNL & 2230' FWL:   Surface Location
 PD  .                 GL:   Permanent Datum
 DD  .F              3950:   Depth driller
 DL  .F              3950:   Depth logger
 BLI .F              3948:   Bottom log interval
 CS1 .IN            8.625:   Casing size
 CBD1.      8.625" @ 518':   Casing driller 1
 CBL1.F               520:   Casing logger 1
 BS1 .IN            7.875:   Bit size
 DFT .            KCL-GEL:   Type fluid in hole
 DFD .                8.9:   Density
 DFV .                 40:   Viscosity
 DFPH.                  9:   pH
 DFL .                 12:   Fluid loss
 MSS .           FLOWLINE:   Source of sample
 RMS .OHMM           .318:   Rm
 MST .F                82:   Rm Meas. temp.
 RMF .OHMM            .24:   Rmf
 MFST.F                82:   Rmf Meas. temp.
 RMC .OHMM            .40:   Rmc
 MCST.F                82:   Rmc Meas. temp.
 MFSS.               CALC:   Source Rmf.
 RMB .OHMM            .19:   Rm. at BHT
 BHT .F               140:   BHT.
 TCS .HRS               4:   Time Circ. stopped
 MRT .F               140:   Maximum recorded temp.
 LUN .               6264:   Logging unit number
 LUL .               GLTE:   Logging unit location
 ENGI.           FAHLSING:   Recorded By
 WITN.             STRONG:   Witnessed by
 ORIG.           5" PRINT:   Origin of data
 UWI .     49025111390000:   Unique Well ID
 DICO. A2D TECHNOLOGIES, INC.:   Digitizing Company
 DAPD.                 12:   Feet Above Permanent Datum
 BSD1.               3950:   Depth drilled with bit1
 MCSS.               CALC:   Source Rmc.
~OTHER INFORMATION
~A    DEPT     CNC       RHOB       CORR       TEND         GRR      CALR        SPR       TENR       RILD       RILM       RFOC         DT       TENS   
# ...
  962.0000  -999.2500  -999.2500  -999.2500  -999.2500    98.3630    10.7450   -72.6220   -73.3480     7.2000     6.6020     6.9300  -999.2500  -999.2500
  962.5000  -999.2500  -999.2500  -999.2500  -999.2500    99.1200    10.7450   -72.5920   -71.8780     7.1900     6.5750     6.8900  -999.2500  -999.2500
  963.0000  -999.2500  -999.2500  -999.2500  -999.2500    98.7970    10.7430   -72.7760   -70.4070     7.1800     6.5870     6.8500  -999.2500  -999.2500
  963.5000  -999.2500  -999.2500  -999.2500  -999.2500    98.5990    10.7380   -72.9900   -68.9360     7.1710     6.5960     6.8210  -999.2500  -999.2500
  964.0000  -999.2500  -999.2500  -999.2500  -999.2500    99.4240    10.7320   -73.2060   -67.4660     7.1610     6.6050     6.8540  -999.2500  -999.2500
  964.5000  -999.2500  -999.2500  -999.2500  -999.2500   100.2910    10.7270   -73.4200   -65.9950     7.1510     6.6140     6.8800  -999.2500  -999.2500
  965.0000  -999.2500  -999.2500  -999.2500  -999.2500   101.5160    10.7230   -73.5580   -64.5250     7.1400     6.6220     6.9070  -999.2500  -999.2500
  965.5000  -999.2500  -999.2500  -999.2500  -999.2500   102.6880    10.6900   -73.4660   -63.0540     7.2120     6.6310     6.9330  -999.2500  -999.2500
  966.0000  -999.2500  -999.2500  -999.2500  -999.2500   103.1600    10.6700   -73.3800   -61.5830     7.2930     6.6870     6.9670  -999.2500  -999.2500
  966.5000  -999.2500  -999.2500  -999.2500  -999.2500   101.5170    10.6900   -73.2940   -60.1130     7.3740     6.7910     7.0070  -999.2500  -999.2500
  967.0000  -999.2500  -999.2500  -999.2500  -999.2500   100.2290    10.7100   -73.2050   -58.6420     7.4550     6.8950     7.0480  -999.2500  -999.2500
  967.5000  -999.2500  -999.2500  -999.2500  -999.2500    99.7510    10.7290   -73.1330   -57.1720     7.5430     7.0750     7.0880  -999.2500  -999.2500
  968.0000  -999.2500  -999.2500  -999.2500  -999.2500    99.2350    10.7470   -73.0630   -56.3050     7.6910     7.3290     7.1290  -999.2500  -999.2500
  968.5000  -999.2500  -999.2500  -999.2500  -999.2500    98.7970    10.7650   -72.9870   -56.7550     7.9780     7.5830     7.2600  -999.2500  -999.2500
  969.0000  -999.2500  -999.2500  -999.2500  -999.2500    98.3360    10.7870   -72.7320   -57.2050     8.2650     7.8890     7.4620  -999.2500  -999.2500
  969.5000  -999.2500  -999.2500  -999.2500  -999.2500    97.2650    10.8120   -72.4550   -57.6560     8.6880     8.3040     7.8970  -999.2500  -999.2500
  970.0000  -999.2500  -999.2500  -999.2500  -999.2500    94.8560    10.8140   -72.1780   -58.1060     9.1610     8.6800     8.3330  -999.2500  -999.2500
  970.5000  -999.2500  -999.2500  -999.2500  -999.2500    92.4650    10.7980   -71.9000   -58.5570     9.6590     9.0220     8.7680  -999.2500  -999.2500
  971.0000  -999.2500  -999.2500  -999.2500  -999.2500    90.0820    10.7810   -71.6190   -59.0070     9.7320     9.3290     9.2030  -999.2500  -999.2500
  971.5000  -999.2500  -999.2500  -999.2500  -999.2500    87.6780    10.7650   -71.4530   -59.4580     9.8300     9.4480     9.3970  -999.2500  -999.2500
  972.0000  -999.2500  -999.2500  -999.2500  -999.2500    86.7490    10.7480   -71.2890   -59.9080     9.9280     9.5710     9.2890  -999.2500  -999.2500
  972.5000  -999.2500  -999.2500  -999.2500  -999.2500    86.8950    10.7290   -71.1270   -60.3590    10.0260     9.4620     9.1760  -999.2500  -999.2500
  973.0000  -999.2500  -999.2500  -999.2500  -999.2500    87.1410    10.7100   -71.0600   -60.8090    10.1240     9.3480     9.0630  -999.2500  -999.2500
  973.5000  -999.2500  -999.2500  -999.2500  -999.2500    87.8080    10.6900   -71.1730   -61.2590    10.2110     9.2350     8.9500  -999.2500  -999.2500
  974.0000  -999.2500  -999.2500  -999.2500  -999.2500    88.4870    10.6700   -71.2820   -61.7100    10.2480     9.1430     8.8140  -999.2500  -999.2500
  974.5000  -999.2500  -999.2500  -999.2500  -999.2500    88.3450    10.6500   -71.3940   -62.1600    10.2840     9.1640     8.8620  -999.2500  -999.2500
  975.0000  -999.2500  -999.2500  -999.2500  -999.2500    88.0220    10.6310   -71.4150   -62.6110    10.3210     9.1810     8.9210  -999.2500  -999.2500
  975.5000  -999.2500  -999.2500  -999.2500  -999.2500    87.9380    10.6110   -71.4140   -63.0610    10.3580     9.1990     8.9630  -999.2500  -999.2500
  976.0000  -999.2500  -999.2500  -999.2500  -999.2500    88.2420    10.5940   -71.4130   -63.5120    10.3940     9.2160     9.0060  -999.2500  -999.2500
  976.5000  -999.2500  -999.2500  -999.2500  -999.2500    88.5260    10.5770   -71.4220   -63.9620    10.4310     9.2310     9.0490  -999.2500  -999.2500
  977.0000  -999.2500  -999.2500  -999.2500  -999.2500    89.1000    10.5610   -71.6540   -64.4130    10.4670     9.2540     9.0920  -999.2500  -999.2500
  977.5000  -999.2500  -999.2500  -999.2500  -999.2500    92.2570    10.5440   -71.8930   -64.8630    10.4880     9.2770     9.1360  -999.2500  -999.2500
  978.0000  -999.2500  -999.2500  -999.2500  -999.2500    94.3720    10.5220   -72.1310   -65.3140    10.4130     9.2990     9.1430  -999.2500  -999.2500
  978.5000  -999.2500  -999.2500  -999.2500  -999.2500    94.9680    10.5010   -72.3690   -65.7640    10.3600     9.3220     9.1430  -999.2500  -999.2500
  979.0000  -999.2500  -999.2500  -999.2500  -999.2500    96.0640    10.4890   -72.5860   -66.1030    10.3070     9.3440     9.1430  -999.2500  -999.2500
  979.5000  -999.2500  -999.2500  -999.2500  -999.2500    97.8330    10.4890   -72.5090   -66.1030    10.2540     9.3670     9.1430  -999.2500  -999.2500
  980.0000  -999.2500  -999.2500  -999.2500  -999.2500    97.7830    10.4890   -72.4250   -66.1030    10.2040     9.3970     9.1430  -999.2500  -999.2500
  980.5000  -999.2500  -999.2500  -999.2500  -999.2500    94.9130    10.4890   -72.3420   -66.1030    10.0780     9.3730     9.1430  -999.2500  -999.2500
  981.0000  -999.2500  -999.2500  -999.2500  -999.2500    91.7610    10.5000   -72.2600   -66.1030     9.9590     9.3350     9.1440  -999.2500  -999.2500
  981.5000  -999.2500  -999.2500  -999.2500  -999.2500    88.6250    10.5230   -72.1780   -66.1030     9.8390     9.2980     9.0540  -999.2500  -999.2500
  982.0000  -999.2500  -999.2500  -999.2500  -999.2500    87.6990    10.5470   -72.0950   -66.1030     9.7200     9.2610     8.9720  -999.2500  -999.2500
  982.5000  -999.2500  -999.2500  -999.2500  -999.2500    87.4860    10.5690   -72.0130   -66.1030     9.6590     9.2270     8.8900  -999.2500  -999.2500
  983.0000  -999.2500  -999.2500  -999.2500  -999.2500    85.9720    10.5870   -71.9310   -66.1030     9.6590     9.2260     8.8070  -999.2500  -999.2500
  983.5000  -999.2500  -999.2500  -999.2500  -999.2500    82.9880    10.6050   -71.8480   -66.1030     9.6590     9.2260     8.7340  -999.2500  -999.2500
  984.0000  -999.2500  -999.2500  -999.2500  -999.2500    81.5240    10.6230   -71.7870   -66.1030     9.6700     9.3190     8.9040  -999.2500  -999.2500
  984.5000  -999.2500  -999.2500  -999.2500  -999.2500    83.4100    10.6420   -71.7160   -66.1030     9.7710     9.3800     9.0590  -999.2500  -999.2500
  985.0000  -999.2500  -999.2500  -999.2500  -999.2500    86.0080    10.6490   -71.6440   -66.1030     9.8730     9.4420     9.2270  -999.2500  -999.2500
  985.5000  -999.2500  -999.2500  -999.2500  -999.2500    88.3570    10.6530   -71.7480   -66.1030     9.9750     9.4840     9.2140  -999.2500  -999.2500
  986.0000  -999.2500  -999.2500  -999.2500  -999.2500    89.9710    10.6570   -72.0070   -66.1030    10.0760     9.4840     9.2000  -999.2500  -999.2500
  986.5000  -999.2500  -999.2500  -999.2500  -999.2500    91.6160    10.6600   -72.2670   -66.1030    10.1780     9.4840     9.1860  -999.2500  -999.2500
  987.0000  -999.2500  -999.2500  -999.2500  -999.2500    93.2510    10.6640   -72.5360   -66.1030    10.2040     9.4840     9.1710  -999.2500  -999.2500
  987.5000  -999.2500  -999.2500  -999.2500  -999.2500    93.3380    10.6680   -72.5930   -66.1030    10.1050     9.4690     9.1570  -999.2500  -999.2500
