~VERSION INFORMATION
 VERS.                2.0:   CWLS LOG ASCII STANDARD - VERSION 2.0
 WRAP.                 NO:   ONE LINE PER DEPTH STEP
~WELL INFORMATION
#MNEM.UNIT      DATA TYPE    INFORMATION
#----------   ------------   ------------------------------
 STRT.F         2200.0000:   START DEPTH
 STOP.F         3200.0000:   STOP DEPTH
 STEP.F            0.5000:   STEP LENGTH
 NULL.          -999.2500:   NO VALUE
 COMP.   LAWRENCE ALLISON:   COMPANY
 WELL. LAWRENCE "X" #18-34:   WELL
 FLD .          NPR NO. 3:   FIELD
 LOC .      S34 T39N R78W:   LOCATION
 CNTY.            NATRONA:   COUNTY
 STAT.            WYOMING:   STATE
 CTRY. UNITED STATES OF AMERICA:   COUNTRY
 SRVC.      DRESSER ATLAS:   SERVICE COMPANY
 DATE.        14-MAY-1986:   LOGDATE
 API .     49025110720000:   API NUMBER
~CURVE INFORMATION
#MNEM.UNIT       API CODE    CURVE DESCRIPTION
#----------   ------------   ------------------------------
 DEPT.F                  :   
 CALD.IN     45 280 60 00:   CALIPER FROM DENSITY LOG
 GRD .GAPI   45 310 01 00:   GAMMA RAY FROM DENSITY LOG
 TEND.LBS    45 635 01 00:   TENSION FORM DENSITY LOG
 CORR.G/C3   45 356 01 00:   DENSITY CORRECTION
 DEN .G/C3   45 350 01 00:   BULK DENSITY
 CNC .DEC    42 890 03 00:   NEUTRON POROSITY SANDSTONE
~PARAMETER INFORMATION
#MNEM.UNIT          VALUE    DESCRIPTION
#----------   ------------   ------------------------------
 EKB .F         5192.0000:   Kelly bushing
 EGL .F         5181.0000:   Ground level
 EDF .F         5189.0000:   Drilling floor
 TD  .F         3195.0000:   Total depth
 CLNT.            A2DTECH:   Client Code
 SL  . 722' FWL & 239' FSL:   Surface Location
 PD  .                 GL:   Permanent Datum
 EPD .F              5181:   Elevation Permanent Datum
 LMF .                 KB:   Log Measured From
 DMF .                 KB:   Drilling Measured From
 DAPD.F                11:   Feet Above Permanent Datum
 DATE.        14-MAY-1986:   Date Logged [DD-MMM-YYYY]
 DD  .F              3195:   Depth driller
 DL  .F              3194:   Depth logger
 BLI .F              3192:   Bottom log interval
 TLI .F                 0:   Top log interval
 CS1 .IN            8.625:   Casing size
 CBD1.      8.625" @ 601':   Casing driller 1
 CBL1.F               596:   Casing logger 1
 BS1 .IN            7.875:   Bit size
 BSD1.F              3195:   Depth drilled with bit1
 DFT .        POLYMER-KCL:   Type fluid in hole
 DFD .                  9:   Density
 DFV .                 35:   Viscosity
 DFPH.                9.5:   pH
 DFL .               16.2:   Fluid loss
 MSS .           FLOWLINE:   Source of sample
 RMS .OHMM          0.378:   Rm
 MST .F                65:   Rm Meas. temp.
 RMF .OHMM          0.306:   Rmf
 MFST.F                65:   Rmf Meas. temp.
 MFSS.               MEAS:   Source Rmf.
 RMC .OHMM          0.472:   Rmc
 MCST.F                65:   Rmc Meas. temp.
 MCSS.               CALC:   Source Rmc.
 RMB .OHMM          0.208:   Rm. at BHT
 BHT .F               118:   BHT.
 TCS .HRS               3:   Time Circ. stopped
 MRT .F               118:   Maximum recorded temp.
 LUN .            HL-6274:   Logging unit number
 LUL .           GILLETTE:   Logging unit location
 ENGI.             RAUTIO:   Recorded By
 WITN.             STRONG:   Witnessed by
 ORIG.           5" PRINT:   Origin of data
 UWI .     49025110720000:   Unique Well ID
 DICO. A2D TECHNOLOGIES, INC.:   Digitizing Company
~OTHER INFORMATION
~A  DEPT        CALD      GRD        TEND        CORR        DEN        CNC 
 2200.0000     9.9367   104.8768    -1.8797     0.0287     2.5113     0.2903
 2200.5000     9.9367   104.6697    -9.3985     0.0106     2.5159     0.2937
 2201.0000     9.9517   104.0592    -9.3985     0.0196     2.5241     0.2994
 2201.5000     9.9517   103.1484   -16.9173     0.0256     2.5218     0.2961
 2202.0000     9.9517   100.7293   -16.9173     0.0196     2.5098     0.2954
 2202.5000     9.9517    97.1036   -16.9173     0.0104     2.4985     0.2916
 2203.0000     9.9517    96.4944   -16.9173     0.0010     2.4879     0.2834
 2203.5000     9.9517    97.0919   -16.9173     0.0044     2.4781     0.2871
 2204.0000     9.9517    99.2304   -16.9173    -0.0062     2.4665     0.2977
 2204.5000     9.9517   100.6987   -16.9173     0.0165     2.4630     0.3004
 2205.0000     9.9517    99.7878   -24.4361     0.0361     2.4675     0.2959
 2205.5000     9.9668    97.0671   -24.4361     0.0255     2.4728     0.2947
 2206.0000     9.9668    92.8380   -24.4361     0.0074     2.4795     0.2932
 2206.5000     9.9970    87.4023   -24.4361    -0.0114     2.4878     0.2844
 2207.0000    10.0422    84.3799   -24.4361    -0.0274     2.4946     0.2741
 2207.5000    10.1176    83.4690   -24.4361    -0.0168     2.4976     0.2756
 2208.0000    10.1478    85.0036   -24.4361     0.0254     2.4908     0.2917
 2208.5000    10.1629    87.3775   -16.9173     0.0390     2.4991     0.3023
 2209.0000    10.1931    87.6748   -16.9173     0.0435     2.5044     0.3089
 2209.5000    10.1931    86.7625   -16.9173     0.0556     2.5031     0.2965
 2210.0000    10.1911    86.1533   -16.9173     0.0754     2.4998     0.2920
 2210.5000    10.1780    85.2425   -16.9173     0.0707     2.4946     0.2875
 2211.0000    10.1629    83.7284   -16.9173     0.0525     2.4915     0.2763
 2211.5000    10.1327    81.9126   -16.9173     0.0132     2.4953     0.2639
 2212.0000    10.1176    84.9712   -16.9173    -0.0215     2.4930     0.2603
 2212.5000    10.1327    85.2191   -16.9173    -0.0336     2.5089     0.2697
 2213.0000    10.1327    82.7986   -24.4361    -0.0246     2.5209     0.2728
 2213.5000    10.1478    82.4925   -24.4361    -0.0063     2.5337     0.2715
 2214.0000    10.1629    85.5018   -23.2361     0.0137     2.5390     0.2939
 2214.5000    10.1780    89.4175   -16.9173     0.0283     2.5252     0.3048
 2215.0000    10.1780    93.6349   -24.4361     0.0494     2.5051     0.3201
 2215.5000    10.1931    96.3440   -16.9173     0.0433     2.4945     0.3109
 2216.0000    10.1931    95.1301   -16.9173     0.0267     2.4915     0.3006
 2216.5000    10.1780    92.7110   -16.9173     0.0478     2.5050     0.2975
 2217.0000    10.1629    91.4985   -16.9173     0.0584     2.5126     0.3048
 2217.5000    10.1176    93.3026    -8.5193     0.0563     2.5118     0.3127
 2218.0000    10.0724    96.9167    13.1579     0.0070     2.5042     0.3058
 2218.5000    10.0724    99.3241    -1.8797    -0.0051     2.4914     0.2982
 2219.0000    10.1026    96.9038   -16.9173     0.0040     2.4816     0.3029
 2219.5000    10.1327    95.0892   -24.4361     0.0175     2.4763     0.3137
 2220.0000    10.1327    99.3051   -24.4361     0.0236     2.4854     0.3206
 2220.5000    10.1478   100.5074    -9.3985     0.0266     2.4922     0.2995
 2221.0000    10.1478    99.5951     5.6391     0.0359     2.4884     0.2877
 2221.5000    10.1629    98.6857    -1.8797     0.0628     2.4869     0.2898
 2222.0000    10.1629   100.1882    -9.3985     0.0809     2.4877     0.2971
 2222.5000    10.1478    99.8792   -16.9173     0.0945     2.4891     0.3004
 2223.0000    10.1327    98.3479   -16.9173     0.0899     2.4959     0.3011
 2223.5000    10.1327    95.3412    -9.3985     0.0748     2.4996     0.3059
 2224.0000    10.1327    91.4138    -1.0747     0.0416     2.4921     0.3107
 2224.5000    10.1327    89.2963    -2.1075     0.0234     2.4838     0.3077
 2225.0000    10.1327    89.5921   -16.9173     0.0138     2.4860     0.3029
 2225.5000    10.1478    90.4913   -39.4737     0.0022     2.5016     0.3086
 2226.0000    10.1780    92.5971   -46.9925    -0.0053     2.5154     0.3198
 2226.5000    10.1026    92.8929   -24.4361     0.0007     2.5185     0.3124
 2227.0000    10.1629    91.5746    -1.8797    -0.0008     2.5154     0.2799
 2227.5000    10.1931    87.6335     5.6391    -0.0084     2.5071     0.2750
 2228.0000    10.1931    83.7885    -9.3985     0.0067     2.5011     0.2903
 2228.5000    10.1931    81.0005   -25.3626     0.0191     2.5079     0.2999
 2229.0000    10.2081    78.6837   -31.9549     0.0339     2.5242     0.2963
 2229.5000    10.2081    76.8680   -16.9173     0.0459     2.5418     0.2942
 2230.0000    10.2232    75.3538    -9.3985     0.0308     2.5493     0.2951
 2230.5000    10.2232    84.0961    -9.3985     0.0459     2.5471     0.3107
 2231.0000    10.2232    87.4085    -9.3985     0.0595     2.5386     0.3127
 2231.5000    10.2232    88.3076    -9.3985     0.0596     2.5287     0.2963
 2232.0000    10.2232    88.0000    -9.3985     0.0515     2.5199     0.2866
 2232.5000    10.2383    88.8978    -9.3985     0.0323     2.5086     0.2903
 2233.0000    10.2383    91.0036    -9.3985     0.0171     2.5146     0.2946
 2233.5000    10.2383    92.8077   -16.9173     0.0101     2.5229     0.2918
 2234.0000    10.2383    94.3102   -16.9173    -0.0071     2.5289     0.2937
 2234.5000    10.2383    96.4159   -24.4361     0.0065     2.5274     0.3068
 2235.0000    10.2383    99.1250   -24.4361     0.0140     2.5213     0.3327
 2235.5000    10.2383   102.1552   -24.4361     0.0171     2.5093     0.3403
 2236.0000    10.2534   105.8828   -16.9173     0.0155     2.4939     0.3309
 2236.5000    10.2534   107.5539   -16.9173     0.0231     2.4881     0.3176
 2237.0000    10.2534   106.9433   -16.9173     0.0434     2.4927     0.3049
 2237.5000    10.2534   103.9209   -31.9549     0.0653     2.5047     0.3034
 2238.0000    10.2534    98.4852   -39.4737     0.0487     2.5153     0.3176
 2238.5000    10.2383   101.4959   -31.9549     0.0034     2.5190     0.3345
 2239.0000    10.2383   105.4117   -16.9173    -0.0223     2.5198     0.3409
 2239.5000    10.2534   106.3108   -16.9173    -0.0027     2.5197     0.3276
 2240.0000    10.2685   105.7002   -31.9549     0.0230     2.5228     0.3065
 2240.5000    10.2685   105.6944   -39.4737     0.0429     2.5243     0.3010
 2241.0000    10.2685   105.3868   -39.4737     0.0546     2.5228     0.3140
 2241.5000    10.2685   105.0793   -39.4737     0.0622     2.5167     0.3367
 2242.0000    10.2685   102.9619   -39.4737     0.0667     2.5099     0.3358
 2242.5000    10.2534   100.2411   -24.4361     0.0561     2.5024     0.3132
 2243.0000    10.2685    97.8220   -16.9173     0.0334     2.4955     0.2742
 2243.5000    10.2836    99.3608   -16.9173     0.0077     2.5046     0.2764
 2244.0000    10.2836   101.1271   -16.9173     0.0185     2.5257     0.2910
 2244.5000    10.2986   101.4244   -16.9173     0.0477     2.5310     0.3035
 2245.0000    10.3137    98.4005    -9.3985     0.0493     2.5340     0.3156
 2245.5000    10.3137    94.7747    -9.3985     0.0394     2.5233     0.3199
 2246.0000    10.3137    91.7523    -9.3985     0.0318     2.5159     0.3105
 2246.5000    10.2986    91.1432    -1.8797     0.0211     2.5136     0.3057
 2247.0000    10.2836    92.0556    -1.8797    -0.0060     2.5242     0.3193
 2247.5000    10.2836    94.4483    -1.8797    -0.0181     2.5249     0.3281
 2248.0000    10.2836    96.8557    -1.8797    -0.0015     2.5257     0.3205
 2248.5000    10.2685   100.1681    -1.8797     0.0106     2.5204     0.3109
 2249.0000    10.2685   108.9104    -1.8797     0.0151     2.5196     0.3036
 2249.5000    10.2534   123.3842    -1.8797     0.0197     2.5339     0.2918
 2250.0000    10.2534   137.8580     5.6391     0.0211     2.5445     0.3000
 2250.5000    10.2534   139.0922    -1.8797     0.0211     2.5483     0.3369
 2251.0000    10.2685   134.2259    -1.8797     0.0392     2.5452     0.3608
 2251.5000    10.2685   126.6786    -9.3985     0.0649     2.5313     0.3414
