~VERSION INFORMATION
 VERS.                2.0:   CWLS LOG ASCII STANDARD - VERSION 2.0
 WRAP.                 NO:   ONE LINE PER DEPTH STEP
~WELL INFORMATION
#MNEM.UNIT      DATA TYPE    INFORMATION
#----------   ------------   ------------------------------
 STRT.F           50.0000:   START DEPTH
 STOP.F         5698.0000:   STOP DEPTH
 STEP.F            0.5000:   STEP LENGTH
 NULL.          -999.2500:   NO VALUE
 COMP. LAWRENCE - ALLISON:   COMPANY
 WELL. LAWRENCE TPX #57-3:   WELL
 FLD .              NPR 3:   FIELD
 LOC .       S3 T38N R78W:   LOCATION
 CNTY.            NATRONA:   COUNTY
 STAT.            WYOMING:   STATE
 CTRY. UNITED STATES OF AMERICA:   COUNTRY
 SRVC.       SCHLUMBERGER:   SERVICE COMPANY
 DATE.        09-AUG-1982:   LOGDATE
 API .     49025108900000:   API NUMBER
~CURVE INFORMATION
#MNEM.UNIT       API CODE    CURVE DESCRIPTION
#----------   ------------   ------------------------------
 DEPT.F                  :   
 TEND.LBS    45 635 01 00:   TENSION FROM DENSITY LOG
 CALD.IN     45 280 60 00:   CALIPER FROM DENSITY LOG
 NPHI.DEC    42 890 03 00:   NEUTRON POROSITY SANDSTONE
 CORR.G/C3   45 356 01 00:   DENSITY CORRECTION
 RHOB.G/C3   45 350 01 00:   BULK DENSITY
 SPR .MV     11 010 01 00:   SPONTANEOUS POTENTIAL FROM RESISTIVITY
 TENR.LBS    11 635 01 00:   TENSION FROM RESISTIVITY
 GRR .GAPI   11 310 01 00:   GAMMA RAY FROM RESISTIVITY
 LLD .OHMM   11 220 10 00:   LATEROLOG DEEP
 LLS .OHMM   11 220 09 00:   LATEROLOG LOG SHALLOW
 MSFL.OHMM   11 270 04 00:   MICRO SPHERICALLY FOCUSED
~PARAMETER INFORMATION
#MNEM.UNIT          VALUE    DESCRIPTION
#----------   ------------   ------------------------------
 EKB .F         5190.0000:   Kelly bushing
 EGL .F         5180.0000:   Ground level
 EDF .F         5189.0000:   Drilling floor
 TD  .F         5686.0000:   Total depth
 CLNT.            A2DTECH:   Client Code
 SL  . 1002' FSL & 2479' FEL:   Surface Location
 PD  .                 GL:   Permanent Datum
 EPD .F              5180:   Elevation Permanent Datum
 LMF .                 KB:   Log Measured From
 DMF .                 KB:   Drilling Measured From
 DAPD.F                10:   Feet Above Permanent Datum
 DATE.        09-AUG-1982:   Date Logged [DD-MMM-YYYY]
 DD  .F              5685:   Depth driller
 DL  .F              5686:   Depth logger
 BLI .F              5683:   Bottom log interval
 TLI .F               494:   Top log interval
 CS1 .IN            9.625:   Casing size
 CBD1.      9.625" @ 500':   Casing driller 1
 CBL1.F               494:   Casing logger 1
 BS1 .IN             8.75:   Bit size
 BSD1.F              5685:   Depth drilled with bit1
 DFT .                KCL:   Type fluid in hole
 DFD .                9.0:   Density
 DFV .                 38:   Viscosity
 DFPH.                8.5:   pH
 DFL .                9.0:   Fluid loss
 MSS .            MUDTANK:   Source of sample
 RMS .OHMM           0.27:   Rm
 MST .F                79:   Rm Meas. temp.
 RMF .OHMM           0.27:   Rmf
 MFST.F                79:   Rmf Meas. temp.
 MFSS.               MEAS:   Source Rmf.
 RMB .OHMM            .13:   Rm. at BHT
 BHT .F               164:   BHT.
 TCS .HRS            1300:   Time Circ. stopped
 MRT .F               164:   Maximum recorded temp.
 LUN .               8035:   Logging unit number
 LUL .               CSPR:   Logging unit location
 ENGI.            PERAKIS:   Recorded By
 WITN.           L. FIVAS:   Witnessed by
 ORIG.        2" 5" PRINT:   Origin of data
 UWI .     49025108900000:   Unique Well ID
 DICO. A2D TECHNIOLOGIES,INC.:   Digitizing Company
 RMC .OHMM           0.41:   Rmc
 MCST.F                79:   Rmc Meas. temp.
 MCSS.               CALC:   Source Rmc.
 TLAB.HRS            2000:   Time logger at bottom
~OTHER INFORMATION
~A  DEPTH     TEND       CALD       NPHI       CORR       RHOB        SPR       TENR        GRR        LLD        LLS       MSFL
# ...
  477.0000  -999.2500  -999.2500  -999.2500  -999.2500  -999.2500  -999.2500  -999.2500    70.8471  -999.2500  -999.2500  -999.2500
  477.5000  -999.2500  -999.2500  -999.2500  -999.2500  -999.2500  -999.2500  -999.2500    67.9082  -999.2500  -999.2500  -999.2500
  478.0000  -999.2500  -999.2500  -999.2500  -999.2500  -999.2500  -999.2500  -999.2500    65.0848  -999.2500  -999.2500  -999.2500
  478.5000  -999.2500  -999.2500  -999.2500  -999.2500  -999.2500  -999.2500  -999.2500    62.7604  -999.2500  -999.2500  -999.2500
  479.0000  -999.2500  -999.2500  -999.2500  -999.2500  -999.2500  -999.2500  -999.2500    62.8910  -999.2500  -999.2500  -999.2500
  479.5000  -999.2500  -999.2500  -999.2500  -999.2500  -999.2500  -999.2500  -999.2500    65.6824  -999.2500  -999.2500  -999.2500
  480.0000  -999.2500  -999.2500  -999.2500  -999.2500  -999.2500  -999.2500  -999.2500    69.8028  -999.2500  -999.2500  -999.2500
  480.5000  -999.2500  -999.2500  -999.2500  -999.2500  -999.2500  -999.2500  -999.2500    70.6692  -999.2500  -999.2500  -999.2500
  481.0000  -999.2500  -999.2500  -999.2500  -999.2500  -999.2500  -999.2500  -999.2500    73.1450  -999.2500  -999.2500  -999.2500
  481.5000  -999.2500  -999.2500  -999.2500  -999.2500  -999.2500  -999.2500  -999.2500    76.0833  -999.2500  -999.2500  -999.2500
  482.0000  -999.2500  -999.2500  -999.2500  -999.2500  -999.2500  -999.2500  -999.2500    76.6356  -999.2500  -999.2500  -999.2500
  482.5000  -999.2500  -999.2500  -999.2500  -999.2500  -999.2500  -999.2500  -999.2500    75.8161  -999.2500  -999.2500  -999.2500
  483.0000  -999.2500  -999.2500  -999.2500  -999.2500  -999.2500  -999.2500  -999.2500    74.8718  -999.2500  -999.2500  -999.2500
  483.5000  -999.2500  -999.2500  -999.2500  -999.2500  -999.2500  -999.2500  -999.2500    74.3179  -999.2500  -999.2500  -999.2500
  484.0000  -999.2500  -999.2500  -999.2500  -999.2500  -999.2500  -999.2500  -999.2500    73.6292  -999.2500  -999.2500  -999.2500
  484.5000  -999.2500  -999.2500  -999.2500  -999.2500  -999.2500  -999.2500  -999.2500    72.8516  -999.2500  -999.2500  -999.2500
  485.0000  -999.2500  -999.2500     0.3911  -999.2500  -999.2500  -999.2500  -999.2500    72.0002  -999.2500  -999.2500  -999.2500
  485.5000  -999.2500  -999.2500     0.3886  -999.2500  -999.2500  -999.2500  -999.2500    70.8255  -999.2500  -999.2500  -999.2500
  486.0000  -999.2500  -999.2500     0.3856  -999.2500  -999.2500  -999.2500  -999.2500    69.0711  -999.2500  -999.2500  -999.2500
  486.5000  -999.2500  -999.2500     0.3911  -999.2500  -999.2500  -999.2500  -999.2500    68.0079  -999.2500  -999.2500  -999.2500
  487.0000  -999.2500  -999.2500     0.3962  -999.2500  -999.2500  -999.2500  -999.2500    68.2160  -999.2500  -999.2500  -999.2500
  487.5000  -999.2500  -999.2500     0.4013  -999.2500  -999.2500  -999.2500  -999.2500    68.2327  -999.2500  -999.2500  -999.2500
  488.0000  -999.2500  -999.2500     0.4029  -999.2500  -999.2500  -999.2500  -999.2500    67.5897  -999.2500  -999.2500  -999.2500
  488.5000  -999.2500  -999.2500     0.3993  -999.2500  -999.2500  -999.2500  -999.2500    68.2621  -999.2500  -999.2500  -999.2500
  489.0000  -999.2500  -999.2500     0.4031  -999.2500  -999.2500  -999.2500  -999.2500    68.2795  -999.2500  -999.2500  -999.2500
  489.5000  -999.2500  -999.2500     0.4127  -999.2500  -999.2500  -999.2500  -999.2500    67.9958  -999.2500  -999.2500  -999.2500
  490.0000  -999.2500  -999.2500     0.4397  -999.2500  -999.2500  -999.2500  -999.2500    68.6156  -999.2500  -999.2500  -999.2500
  490.5000  -999.2500  -999.2500     0.4809  -999.2500  -999.2500  -999.2500  -999.2500    69.2355  -999.2500  -999.2500  -999.2500
  491.0000  -999.2500  -999.2500     0.5271  -999.2500  -999.2500  -999.2500  -999.2500    68.6426  -999.2500  -999.2500  -999.2500
  491.5000  -999.2500  -999.2500     0.5581  -999.2500  -999.2500  -999.2500  -999.2500    66.8607  -999.2500  -999.2500  -999.2500
  492.0000  -999.2500  -999.2500     0.5902  -999.2500  -999.2500  -999.2500  -999.2500    65.3765  -999.2500  -999.2500  -999.2500
  492.5000  -999.2500  -999.2500     0.6001  -999.2500  -999.2500  -999.2500  -999.2500    64.1891  -999.2500  -999.2500  -999.2500
  493.0000  -999.2500  -999.2500     0.5754  -999.2500  -999.2500  -999.2500  -999.2500    63.5997  -999.2500  -999.2500  -999.2500
  493.5000  -999.2500  -999.2500     0.5372  -999.2500  -999.2500  -999.2500  -999.2500    64.5251  -999.2500  -999.2500  -999.2500
  494.0000   451.8072     9.2127     0.4675  -999.2500  -999.2500     0.1122   470.5801    71.7715     0.2108     0.2540     0.9256
  494.5000   451.8072     9.2282     0.4253    -0.2192     2.5167    -8.9812   454.9074    79.1146     0.4369     0.4082     3.7487
  495.0000   451.8072     9.2888     0.3875    -0.0401     2.7261   -20.5021   454.3274    87.4734     1.6808     1.3042     7.1165
  495.5000   451.8072     9.6050     0.3678     0.1766     2.7828   -28.6746   453.7473    91.1053    10.6072     7.8437     6.5763
  496.0000   451.8072    10.0415     0.3422     0.1841     2.6353   -33.1759   453.1674    92.3275    11.8808     6.0003     6.0778
  496.5000   465.1941    10.5232     0.3408     0.1223     2.5094   -37.2474   452.5873    92.6461     4.7594     5.4506     6.2934
  497.0000   484.3182    10.9789     0.3576     0.0858     2.4819   -40.7110   466.9656    92.6636     3.8114     5.4889     6.6065
  497.5000   503.4424    11.1708     0.3663     0.0501     2.4752   -44.1565   451.4200    93.5846     3.9186     5.7208     6.7467
  498.0000   522.5665    11.2614     0.3653     0.0188     2.4730   -47.6122   453.4106    96.1566     4.0844     6.0035     6.7956
  498.5000   532.1285    11.2919     0.3665     0.0040     2.4716   -51.0861   465.2149   100.5516     4.2572     6.3003     6.7511
  499.0000   491.9679    11.3224     0.3659     0.0010     2.4701   -52.7787   464.4899    98.4606     4.4070     6.4788     6.7535
  499.5000   491.9733    11.3229     0.3640     0.0018     2.4717   -54.1052   463.9099    94.8635     4.5620     6.7043     6.8029
  500.0000   491.9354    11.3233     0.3595     0.0108     2.4784   -55.4276   463.3298    94.5754     4.6901     6.8449     6.8523
  500.5000   491.9722    11.3238     0.3496     0.0161     2.4829   -56.7510   477.8425    97.9104     4.7933     6.8930     6.8545
  501.0000   491.5161    11.3243     0.3399     0.0146     2.4837   -57.9980   477.1175   100.0363     4.8897     6.8465     6.8568
  501.5000   490.1049    11.3247     0.3297     0.0124     2.4845   -58.4762   475.9830   100.6566     4.9584     6.7539     6.7188
  502.0000   488.6937    11.3252     0.3224     0.0123     2.4860   -58.9822   460.9865   100.0755     5.0280     6.5268     6.4489
  502.5000   487.2825    11.3256     0.3110     0.0222     2.4883   -59.6929   460.2847    98.2858     5.0637     6.0524     6.1045
  503.0000   485.8713    11.3260     0.3100     0.0547     2.4891   -60.4645   459.7047    93.7851     5.0647     6.4397     6.0236
  503.5000   484.4601    11.3265     0.3383     0.0707     2.4869   -61.2373   459.1247    91.6941     5.1007     6.6198     6.1941
  504.0000   483.0489    11.2902     0.3608     0.0604     2.4645   -62.0109   458.5446    91.6627     5.2473     6.4858     6.1076
  504.5000   481.6377    10.9816     0.3668     0.0321     2.4526   -62.7810   457.9646    92.9338     5.3178     6.2246     5.8261
  505.0000   480.2265    10.7113     0.3575     0.0127     2.4534   -63.1697   457.3846    93.8554     5.3189     5.6933     5.7876
  505.5000   478.8152    10.6215     0.3517     0.0038     2.4594   -63.4871   456.4551    94.7803     5.3566     5.4266     5.9109
  506.0000   477.4041    10.5918     0.3491    -0.0006     2.4587   -63.8039   441.2556    95.0989     5.5450     5.5424     5.9585
  506.5000   475.9926    10.6224     0.3530    -0.0013     2.4558   -64.1214   440.5518    95.4175     5.7112     5.9765     6.0876
  507.0000   474.5883    10.6529     0.3632     0.0018     2.4599   -64.4383   439.9718    96.0374     5.9190     6.2719     6.2166
