~VERSION INFORMATION
 VERS.                2.0:   CWLS LOG ASCII STANDARD - VERSION 2.0
 WRAP.                 NO:   ONE LINE PER DEPTH STEP
~WELL INFORMATION
#MNEM.UNIT      DATA TYPE    INFORMATION
#----------   ------------   ------------------------------
 STRT.F          198.5000:   START DEPTH
 STOP.F         3172.0000:   STOP DEPTH
 STEP.F            0.5000:   STEP LENGTH
 NULL.          -999.2500:   NO VALUE
 COMP.    FENIX & SCISSON:   COMPANY
 WELL. FENIX & SCISSON AX #26-11:   WELL
 FLD .              NPR-3:   FIELD
 LOC .      S11 T38N R78W:   LOCATION
 CNTY.            NATRONA:   COUNTY
 STAT.            WYOMING:   STATE
 CTRY. UNITED STATES OF AMERICA:   COUNTRY
 SRVC.              WELEX:   SERVICE COMPANY
 DATE.        11-NOV-1977:   LOGDATE
 API .     49025104420000:   API NUMBER
~CURVE INFORMATION
#MNEM.UNIT       API CODE    CURVE DESCRIPTION
#----------   ------------   ------------------------------
 DEPT.F                  :   
 GRD .GAPI   45 310 01 00:   GAMMA RAY FROM DENSITY LOG
 CALD.IN     45 280 60 00:   CALIPER FROM DENSITY LOG
 CORR.G/C3   45 356 01 00:   DENSITY CORRECTION
 TEND.LBS    45 635 01 00:   TENSION FROM DENSITY LOG
 RHOB.G/C3   45 350 01 00:   BULK DENSITY
 SPR .MV     07 010 01 00:   SPONTANEOUS POTENTIAL
 ILD .OHMM   07 120 46 00:   DEEP INDUCTION RESISTIVITY
 ILM .OHMM   07 120 44 00:   INDUCTION LOG MEDIUM RESISTIVITY
 SGRD.OHMM   07 220 05 00:   SHALLOW SHORT GUARD RESISTIVITY
~PARAMETER INFORMATION
#MNEM.UNIT          VALUE    DESCRIPTION
#----------   ------------   ------------------------------
 EKB .F         5187.0000:   Kelly bushing
 EGL .F         5177.0000:   Ground level
 EDF .F            0.0000:   Drilling floor
 EPD .F         5177.0000:   Permanent datum
 TD  .F         3174.0000:   Total depth
 CLNT.            A2DTECH:   Client Code
 SL  . 1650' FSL & 840' FWL:   Surface Location
 PD  .                 GL:   Permanent Datum
 LMF .                 KB:   Log Measured From
 DMF .                 KB:   Drilling Measured From
 DAPD.F                10:   Feet Above Permanent Datum
 DATE.        11-NOV-1977:   Date Logged [DD-MMM-YYYY]
 DD  .F              3170:   Depth driller
 DL  .F              3174:   Depth logger
 BLI .F              3172:   Bottom log interval
 TLI .F               200:   Top log interval
 CS1 .              8.625:   Casing size
 CBD1.      8.625" @ 220':   Casing driller 1
 CBL1.IN              220:   Casing logger 1
 BS1 .IN            7.875:   Bit size
 BSD1.F              3170:   Depth drilled with bit1
 DFT .            KCL MUD:   Type fluid in hole
 DFD .                8.9:   Density
 DFV .                 37:   Viscosity
 DFPH.               11.0:   pH
 DFL .                6.4:   Fluid loss
 MSS .           FLOWLINE:   Source of sample
 RMS .OHMM           2.79:   Rm
 MST .F                50:   Rm Meas. temp.
 RMF .OHMM           2.16:   Rmf
 MFST.F                50:   Rmf Meas. temp.
 MFSS.               FANN:   Source Rmf.
 MCSS.               TEST:   Source Rmc.
 RMB .OHMM           1.22:   Rm. at BHT
 BHT .F               114:   BHT.
 TCS .HRS               3:   Time Circ. stopped
 MRT .F               114:   Maximum recorded temp.
 LUN .               8611:   Logging unit number
 LUL .             CASPER:   Logging unit location
 ENGI.            C. DOAK:   Recorded By
 WITN.         HARRINGTON:   Witnessed by
 ORIG.      2.5" 5" PRINT:   Origin of data
 UWI .     49025104420000:   Unique Well ID
 DICO. A2D TECHNOLOGIES, INC.:   Digitizing Company
~OTHER INFORMATION
~A   DEPT       GRD      CALD       CORR       TEND       RHOB        SPR        ILD        ILM       SGRD   
# ...
  819.0000   114.2430     9.5805     0.0281  1125.2458     2.5013   -75.2508     4.8577     4.9038     6.5233
  819.5000   117.2416     9.6042     0.0351  1125.6998     2.5068   -75.2611     4.7883     4.9035     6.4297
  820.0000   119.3393     9.6037     0.0383  1126.1538     2.5114   -75.2714     4.7521     4.9031     6.5162
  820.5000   116.6320     9.6033     0.0403  1126.6154     2.5145   -75.2817     4.7826     4.9028     6.5582
  821.0000   114.2251     9.6028     0.0341  1127.0769     2.5140   -75.2922     4.8133     4.9024     6.6003
  821.5000   111.8183     9.6023     0.0297  1127.5385     2.4936   -75.3027     4.8107     4.9020     6.7359
  822.0000   110.9129     9.6329     0.0264  1128.0000     2.4844   -75.3152     4.8759     4.9360     6.7792
  822.5000   109.7022     9.6324     0.0202  1128.4615     2.4813   -75.0217     4.9750     5.0046     6.8704
  823.0000   108.5015     9.6319     0.0155  1128.9231     2.4797   -74.8814     5.0076     5.0042     6.8666
  823.5000   108.4970     9.6314     0.0089  1129.3845     2.4813   -74.8942     4.9696     5.0039     6.7672
  824.0000   108.1923     9.6310     0.0031  1129.8462     2.4782   -74.7514     4.8647     4.9345     6.7167
  824.5000   108.5496     9.6305    -0.0031  1130.3076     2.4720   -74.7642     4.7951     4.9000     6.6665
  825.0000   109.8099     9.6300    -0.0062  1130.7692     2.4658   -74.7745     4.7592     4.8997     6.5708
  825.5000   112.4715     9.6296    -0.0093  1131.2307     2.4612   -74.6342     4.7561     4.8655     6.5217
  826.0000   114.6167     9.6291    -0.0062  1131.6923     2.4610   -74.4939     4.7535     4.8314     6.4729
  826.5000   116.2781     9.6110    -0.0001  1132.1538     2.4673   -74.3353     4.7510     4.7977     6.4694
  827.0000   114.2995     9.5972     0.0060  1132.6154     2.4780   -74.2133     4.7814     4.7641     6.4659
  827.5000   110.6731     9.5967     0.0122  1133.0769     2.4887   -74.0730     4.7788     4.7638     6.4624
  828.0000   109.6581     9.5962     0.0090  1133.5385     2.4995   -74.0858     4.7763     4.7635     6.5040
  828.5000   110.5545     9.5957     0.0121  1134.0000     2.5057   -73.9430     4.7407     4.7631     6.5003
  829.0000   110.1882     9.5953     0.0244  1134.5522     2.5104   -73.9558     4.7381     4.7628     6.4960
  829.5000   109.6441     9.5639     0.0336  1135.0062     2.5185   -73.9661     4.7355     4.7625     6.5387
  830.0000   109.2693     9.5634     0.0397  1135.4602     2.5224   -73.9764     4.7329     4.7292     6.5807
  830.5000   109.4094     9.5629     0.0427  1135.9142     2.5124   -73.9867     4.7298     4.7289     6.5307
  831.0000   110.6106     9.5625     0.0396  1136.3682     2.5031   -74.1476     4.7272     4.7285     6.5736
  831.5000   110.8279     9.5620     0.0362  1106.0530     2.4956   -74.1717     4.7246     4.7612     6.6159
  832.0000   110.0461     9.5616     0.0330  1106.5070     2.4908   -74.3214     4.7556     4.8949     6.5664
  832.5000   109.6178     9.5611     0.0226  1106.9609     2.4865   -74.4823     4.7524     5.0325     6.6084
  833.0000   112.8977     9.5607     0.0069  1107.4149     2.4839   -74.4926     4.7498     5.1382     6.6042
  833.5000   114.4137     9.5602    -0.0012  1107.8689     2.4911   -74.5029     4.7472     5.2096     6.6006
  834.0000   110.2744     9.5597     0.0003  1108.3229     2.4973   -74.5131     4.7447     5.2822     6.6430
  834.5000   107.5760     9.5592     0.0043  1108.7769     2.5035   -74.5234     4.7421     5.3187     6.6849
  835.0000   106.5924     9.5588     0.0127  1109.2308     2.5082   -74.5337     4.7394     5.3182     6.7288
  835.5000   107.1886     9.5584     0.0231  1109.6924     2.5137   -74.5440     4.7699     5.3178     6.7721
  836.0000   107.1832     9.5579     0.0270  1110.1538     2.5183   -74.5543     4.7667     5.2807     6.8156
  836.5000   106.9214     9.5574     0.0243  1110.6155     2.5104   -74.5647     4.7979     5.2022     6.8110
  837.0000   105.8398     9.5260     0.0118  1111.0769     2.4965   -74.5753     4.7947     5.1352     6.8073
  837.5000   105.8058     9.5255     0.0008  1111.5385     2.4880   -74.5878     4.8261     5.0290     6.8036
  838.0000   107.2913     9.5251    -0.0039  1112.0000     2.4775   -74.5981     4.8228     4.9938     6.7999
  838.5000   108.5016     9.5246    -0.0039  1112.4615     2.4713   -74.6084     4.8544     4.9246     6.7962
  839.0000   110.7617     9.5241     0.0022  1112.9231     2.4759   -74.6187     4.8849     4.9586     6.7925
  839.5000   111.8118     9.5237     0.0083  1113.3846     2.4805   -74.6289     4.8822     4.9929     6.7887
  840.0000   112.8729     9.5232     0.0145  1113.8462     2.4836   -74.4886     4.9135     4.9579     6.8315
  840.5000   114.8438     9.5228     0.0113  1114.3077     2.4835   -74.4989     4.9108     4.8553     6.8278
  841.0000   116.3544     9.5223     0.0021  1114.7693     2.4820   -74.5092     4.9076     4.6568     6.8241
  841.5000   118.1651     9.5218     0.0021  1115.2308     2.4820   -74.5196     4.9049     4.5580     6.8689
  842.0000   118.4844     9.5214     0.0082  1115.6924     2.4850   -74.5301     4.9370     4.4972     6.9131
  842.5000   114.3310     9.4899     0.0174  1085.3845     2.4942   -74.5427     4.9337     4.5282     6.9566
  843.0000   109.5217     9.4895     0.0235  1085.8461     2.5034   -74.7036     4.9310     4.5279     6.9525
  843.5000   111.3190     9.5003     0.0266  1086.3076     2.5111   -74.7139     4.9284     4.5909     6.9978
  844.0000   111.9159     9.5196     0.0358  1117.6293     2.5172   -74.7242     4.9257     4.5906     7.0918
  844.5000   112.5120     9.5190     0.0357  1087.3140     2.5202   -74.7345     4.9230     4.6224     7.1374
  845.0000   113.1074     9.5186     0.0326  1087.7679     2.5124   -74.7448     4.9203     4.7193     7.1334
  845.5000   113.7035     9.5181     0.0262  1088.2219     2.5046   -74.7550     4.9176     4.7850     7.1286
  846.0000   114.2997     9.5176     0.0139  1088.6759     2.4985   -74.7653     4.9144     4.9195     7.1248
  846.5000   114.2952     9.5172     0.0042  1089.1299     2.4971   -74.7756     4.9465     5.0232     7.1209
  847.0000   113.9904     9.5167    -0.0044  1089.5839     2.5019   -74.6353     4.9432     5.1281     7.1170
  847.5000   111.2832     9.5333     0.0119  1090.0378     2.5047   -74.6482     4.9756     5.1277     7.1131
  848.0000   112.4800     9.5467     0.0201  1090.4918     2.5010   -74.6585     5.0075     5.0566     7.1093
  848.5000   112.7763     9.5462     0.0201  1090.9457     2.4962   -74.6688     5.0041     5.0213     7.1054
  849.0000   112.7713     9.5457     0.0201  1091.3998     2.4924   -74.6791     5.0369     4.9862     7.1015
  849.5000   111.8660     9.5762     0.0200  1091.8536     2.4937   -74.6894     5.1751     4.9171     7.0977
  850.0000   112.8358     9.5758     0.0138  1092.3076     2.5015   -74.5465     5.3548     4.9167     7.0938
  850.5000   111.6013     9.5753     0.0046  1092.7692     2.5103   -74.2581     5.4680     5.0199     7.0898
  851.0000   108.2763     9.5749     0.0193  1093.2307     2.5159   -74.1174     5.5763     5.3064     7.1443
  851.5000   104.6836     9.5744     0.0261  1093.6923     2.5096   -74.1280     5.6896     5.7273     7.6444
  852.0000   101.7273     9.6049     0.0232  1124.9231     2.4994   -74.1385     5.8061     5.9602     8.5398
  852.5000   100.5423     9.6044     0.0152  1125.3846     2.4900   -74.2997     6.0495     6.4304     8.9610
  853.0000    99.9642     9.6040     0.0104  1125.8462     2.4845   -74.6114     6.3032     6.7946     9.0828
  853.5000    99.9582     9.6035     0.0027  1126.3077     2.4790   -74.7726     6.4770     7.3306     9.1413
  854.0000    99.9920     9.6031    -0.0079  1126.7693     2.4768   -74.8094     6.6556     7.7457     8.8944
  854.5000   101.1555     9.6026    -0.0018  1127.2308     2.4906   -74.9463     6.7450     7.9060     9.0154
  855.0000   104.5672     9.6021     0.0105  1127.6924     2.5074   -74.9566     6.8354     7.9573     9.0746
