~VERSION INFORMATION
 VERS.                2.0:   CWLS LOG ASCII STANDARD - VERSION 2.0
 WRAP.                 NO:   ONE LINE PER DEPTH STEP
~WELL INFORMATION
#MNEM.UNIT      DATA TYPE    INFORMATION
#----------   ------------   ------------------------------
 STRT.F          164.0000:   START DEPTH
 STOP.F         3223.5000:   STOP DEPTH
 STEP.F            0.5000:   STEP LENGTH
 NULL.          -999.2500:   NO VALUE
 COMP.    FENIX & SCISSON:   COMPANY
 WELL. FENIX & SCISSON "AX" #64-34:   WELL
 FLD . NAVAL PETROLEUM RESERVE #3:   FIELD
 LOC .      S34 T39N R78W:   LOCATION
 CNTY.            NATRONA:   COUNTY
 STAT.            WYOMING:   STATE
 CTRY. UNITED STATES OF AMERICA:   COUNTRY
 SRVC.       SCHLUMBERGER:   SERVICE COMPANY
 DATE.        30-DEC-1980:   LOGDATE
 API .     49025108660000:   API NUMBER
~CURVE INFORMATION
#MNEM.UNIT       API CODE    CURVE DESCRIPTION
#----------   ------------   ------------------------------
 DEPT.F                  :   
 GRD .GAPI   45 310 01 00:   GAMMA RAY FROM DENSITY LOG
 RHOB.G/C3   45 350 01 00:   BULK DENSITY
 CALD.IN     45 280 60 00:   CALIPER FROM DENSITY LOG
 CORR.G/C3   45 356 01 00:   DENSITY CORRECTION
 SPR .MV     07 010 01 00:   SPONTANEOUS POTENTIAL
 TENR.LBS    06 635 01 00:   TENSION FROM RESISTIVITY
 ILD .OHMM   07 120 46 00:   DEEP INDUCTION RESISTIVITY
 ILM .OHMM   07 120 44 00:   INDUCTION LOG MEDIUM RESISTIVITY
 SFL .OHMM   07 220 01 00:   SHALLOW FOCUSED LOG RESISTIVITY
~PARAMETER INFORMATION
#MNEM.UNIT          VALUE    DESCRIPTION
#----------   ------------   ------------------------------
 EKB .F         5088.0000:   Kelly bushing
 EGL .F         5078.0000:   Ground level
 TD  .F         3225.0000:   Total depth
 CLNT.            A2DTECH:   Client Code
 SL  . 3107' FSL & 3680' FWL:   Surface Location
 PD  .                 GL:   Permanent Datum
 EPD .F              5078:   Elevation Permanent Datum
 LMF .                 KB:   Log Measured From
 DMF .                 KB:   Drilling Measured From
 DAPD.F                10:   Feet Above Permanent Datum
 DATE.        30-DEC-1980:   Date Logged [DD-MMM-YYYY]
 DD  .F              3225:   Depth driller
 DL  .F              3225:   Depth logger
 BLI .F              3219:   Bottom log interval
 TLI .F               190:   Top log interval
 CS1 .IN            8.625:   Casing size
 CBD1.      8.625" @ 205':   Casing driller 1
 CBL1.F               190:   Casing logger 1
 BS1 .IN            7.875:   Bit size
 BSD1.F              3225:   Depth drilled with bit1
 DFT .              FRESH:   Type fluid in hole
 DFD .                  9:   Density
 DFV .                 46:   Viscosity
 MSS .           MUD TANK:   Source of sample
 RMS .OHMM           2.47:   Rm
 MST .F                57:   Rm Meas. temp.
 RMF .OHMM           1.45:   Rmf
 MFST.F                57:   Rmf Meas. temp.
 MFSS.               MEAS:   Source Rmf.
 RMB .OHMM            1.2:   Rm. at BHT
 BHT .F               124:   BHT.
 TCS .HRS            0400:   Time Circ. stopped
 MRT .F               124:   Maximum recorded temp.
 LUN .               8034:   Logging unit number
 LUL .               CSPR:   Logging unit location
 ENGI.             LARSON:   Recorded By
 WITN.              FIVAS:   Witnessed by
 ORIG.        2" 5" PRINT:   Origin of data
 UWI .     49025108660000:   Unique Well ID
 DICO. A2D TECHNOLOGIES, INC:   Digitizing Company
 TLAB.HRS            2030:   Time logger at bottom
~OTHER INFORMATION
~A   DEPT       GRD      RHOB       CALD       CORR        SPR       TENR        ILD        ILM        SFL   
# ...
 2171.5000   128.7883     2.5196     8.4197     0.0157   -42.0260  1391.5736     8.1681     8.3082    11.2120
 2172.0000   123.9194     2.5211     8.4182     0.0135   -41.5112  1392.3745     8.2208     8.3023    11.0440
 2172.5000   122.3921     2.5209     8.4165     0.0090   -40.9582  1393.1757     8.2838     8.3554    10.6440
 2173.0000   123.5897     2.5164     8.4151     0.0067   -40.4075  1393.9766     8.4493     8.4710    10.6367
 2173.5000   126.6115     2.5086     8.4136     0.0050   -39.9689  1394.1299     8.6285     8.6518    10.5530
 2174.0000   128.4193     2.4977     8.4273     0.0035   -39.9785  1394.1299     8.8115     8.8335    10.6239
 2174.5000   128.5547     2.4869     8.4410     0.0024   -39.9793  1394.1299     8.9984     9.0205    10.6148
 2175.0000   128.9968     2.4837     8.4392     0.0020   -39.9795  1394.1299     9.1878     9.1453    10.8375
 2175.5000   130.9564     2.4868     8.4376     0.0019   -39.9795  1394.1299     9.2499     9.2051    11.3904
 2176.0000   133.2200     2.4837     8.4364     0.0019   -39.9795  1394.1299     9.2428     9.1972    12.0602
 2176.5000   133.2064     2.4821     8.4348     0.0019   -39.9795  1394.1299     9.3038     9.1909    12.0498
 2177.0000   133.4935     2.4813     8.4333     0.0027   -39.9793  1394.1299     9.2981     9.2511    11.8692
 2177.5000   133.9357     2.4805     8.4316     0.0027   -39.9793  1394.1299     9.3595     9.2431    11.7630
 2178.0000   135.4400     2.4812     8.4382     0.0027   -39.9812  1394.1299     9.3523     9.3053    11.6813
 2178.5000   136.3406     2.4843     8.4442     0.0035   -40.0798  1394.1299     9.4141     9.3662    11.6733
 2179.0000   134.8068     2.4912     8.4424     0.0045   -40.3009  1394.1299     9.3408     9.3581    11.7517
 2179.5000   133.1198     2.4935     8.4561     0.0066   -40.5206  1394.1299     9.3350     9.3515    11.8265
 2180.0000   132.3494     2.4912     8.4545     0.0152   -40.7425  1394.1299     9.1285     9.2765    11.9900
 2180.5000   131.5776     2.4921     8.4528     0.0196   -41.0871  1394.1299     8.9924     9.2035    11.9797
 2181.0000   130.6540     2.5050     8.4515     0.0214   -41.4744  1394.1299     8.9224     9.0655    11.8855
 2181.5000   130.0340     2.5221     8.4499     0.0222   -41.8630  1394.1299     8.9169     9.0593    11.1314
 2182.0000   130.0208     2.5306     8.4484     0.0214   -42.2509  1394.1299     8.9758     9.0529    10.6530
 2182.5000   131.3881     2.5220     8.4470     0.0206   -42.6351  1394.1299     8.9688     9.0453    10.4933
 2183.0000   132.4226     2.5111     8.4455     0.0201   -42.7024  1394.1299     9.0295     9.1061    10.7153
 2183.5000   131.4957     2.4894     8.4589     0.0190   -42.4016  1394.1299     9.1534     9.0983    11.2601
 2184.0000   130.5722     2.4878     8.4575     0.0182   -42.1036  1394.1299     9.1478     9.1579    11.7496
 2184.5000   130.4073     2.4971     8.4755     0.0182   -41.8038  1394.1299     9.1421     9.1515    12.0849
 2185.0000   129.9390     2.5048     8.4854     0.0182   -41.4481  1394.1299     9.1351     9.2115    11.8950
 2185.5000   128.0417     2.5125     8.4986     0.0190   -40.9916  1394.1299     9.1295     9.2035    11.0666
 2186.0000   126.2709     2.5156     8.4971     0.0194   -40.5359  1394.1299     9.1238     9.1311    10.4394
 2186.5000   127.7720     2.5109     8.5106     0.0207   -40.0788  1394.1299     9.1182     9.1249    10.2830
 2187.0000   128.6693     2.5031     8.5241     0.0216   -39.6224  1394.1299     9.1125     9.1184    10.3502
 2187.5000   128.0493     2.5016     8.5226     0.0212   -39.6503  1394.1299     9.1056     9.1118    10.9769
 2188.0000   126.9739     2.5085     8.5212     0.0180   -39.7442  1394.1299     9.0999     9.1045    11.7657
 2188.5000   126.0365     2.5108     8.5197     0.0158   -39.8384  1394.1299     9.0291     9.0987    12.0146
 2189.0000   126.1857     2.5068     8.5182     0.0146   -39.9316  1394.1299     9.0235     9.0920    12.0931
 2189.5000   126.6311     2.4999     8.5165     0.0134   -40.0246  1394.1299     9.0179     9.0856    11.9981
 2190.0000   125.5526     2.4983     8.5151     0.0142   -40.1177  1394.1299     8.9463     9.0127    11.7277
 2190.5000   124.0220     2.5060     8.5136     0.0150   -40.2105  1394.1299     8.7497     8.6875    11.3084
 2191.0000   123.0984     2.5075     8.5121     0.0185   -40.3018  1394.1299     8.4961     8.4957    10.8224
 2191.5000   122.9336     2.5052     8.5259     0.0220   -40.4018  1394.1299     8.3694     8.4289    10.5836
 2192.0000   124.8899     2.5020     8.5091     0.0236   -40.6908  1394.1299     8.3041     8.4229    10.2020
 2192.5000   125.7873     2.5152     8.5075     0.0219   -40.9720  1394.1299     8.2383     8.4159     9.9769
 2193.0000   127.5951     2.5167     8.5059     0.0204   -41.2514  1394.1299     8.2332     8.4101    10.1131
 2193.5000   130.6169     2.5027     8.5124     0.0193   -41.5312  1394.1299     8.2281     8.4043    10.3271
 2194.0000   130.6038     2.4980     8.5193     0.0180   -41.8098  1394.1299     8.2231     8.3986    10.5474
 2194.5000   129.2048     2.4996     8.5318     0.0165   -42.0299  1394.1299     8.2180     8.4535    10.6931
 2195.0000   128.2982     2.5150     8.5303     0.0151   -42.0259  1394.1299     8.2723     8.5089    10.7612
 2195.5000   128.2851     2.5266     8.5288     0.0125   -42.0265  1394.1299     8.3269     8.6251    10.8316
 2196.0000   128.1202     2.5320     8.5272     0.0110   -41.9756  1394.1299     8.5022     8.7444    10.9794
 2196.5000   127.8036     2.5304     8.5409     0.0107   -41.5233  1394.1299     8.6204     8.7384    11.2117
 2197.0000   127.3353     2.5265     8.5543     0.0094   -41.0661  1394.1299     8.6148     8.7322    11.4489
 2197.5000   126.3655     2.5200     8.5528     0.0086   -40.6110  1394.1299     8.5465     8.6622    11.5251
 2198.0000   124.1192     2.4955     8.5515     0.0083   -40.1528  1394.1299     8.4800     8.5941    11.8527
 2198.5000   124.5613     2.4823     8.5500     0.0078   -39.9330  1394.1299     8.4139     8.4652    11.6730
 2199.0000   126.2174     2.4706     8.5485     0.0078   -39.8517  1394.1299     8.3484     8.5206    11.4155
 2199.5000   129.0875     2.4651     8.5470     0.0102   -39.7732  1394.1299     8.2834     8.5844    11.2444
 2200.0000   130.7435     2.4729     8.5455     0.0141   -39.6946  1394.1299     8.5082     8.6446    10.9964
 2200.5000   131.9411     2.4860     8.5439     0.0156   -39.6158  1395.0580     8.9538     8.5025    10.7118
 2201.0000   131.9280     2.4945     8.5423     0.0166   -39.5368  1396.3696     9.0122     8.6196    10.4403
 2201.5000   130.7010     2.5069     8.5409     0.0172   -39.4572  1397.6812     9.0044     8.7366    10.3567
 2202.0000   127.6530     2.5091     8.5090     0.0162   -39.3730  1398.9927     9.0633     8.7284    10.2753
 2202.5000   128.8538     2.4997     8.5076     0.0143   -39.5484  1400.3042     9.1241     8.7218    10.1946
 2203.0000   130.6212     2.4957     8.5061     0.0109   -39.7683  1401.6157     9.1823     8.7153    10.0399
 2203.5000   131.5127     2.4957     8.5046     0.0116   -39.9889  1402.9274     9.1099     8.5223     9.9630
 2204.0000   132.7076     2.4902     8.5212     0.0085   -40.2088  1404.2389     9.0370     8.3335    10.0282
 2204.5000   134.8129     2.4824     8.5318     0.0077   -40.4286  1405.5504     8.8378     8.2660    10.0196
 2205.0000   136.3161     2.4823     8.5302     0.0077   -40.6484  1406.8621     8.3976     8.2004    10.0853
 2205.5000   134.6231     2.4877     8.5287     0.0082   -40.8687  1408.1736     8.2719     8.1353    10.3713
 2206.0000   130.3532     2.4907     8.5272     0.0087   -41.0878  1409.4851     8.1466     8.0708    10.6674
 2206.5000   130.1603     2.4891     8.5374     0.0092   -41.3090  1410.7966     8.1410     8.0053    10.8149
 2207.0000   129.7053     2.4890     8.5546     0.0105   -41.2595  1412.1082     8.0785     7.9993    10.8075
 2207.5000   128.9275     2.4898     8.5530     0.0110   -40.9807  1413.4198     8.1313     7.9932    10.5639
