~VERSION INFORMATION
 VERS.                2.0:   CWLS LOG ASCII STANDARD - VERSION 2.0
 WRAP.                 NO:   ONE LINE PER DEPTH STEP
~WELL INFORMATION
#MNEM.UNIT      DATA TYPE    INFORMATION
#----------   ------------   ------------------------------
 STRT.F          218.5000:   START DEPTH
 STOP.F         3291.0000:   STOP DEPTH
 STEP.F            0.5000:   STEP LENGTH
 NULL.          -999.2500:   NO VALUE
 COMP.    FENIX & SCISSON:   COMPANY
 WELL.   FENIX SHX #63-23:   WELL
 FLD .  TEAPOT DOME NPR-3:   FIELD
 LOC .      S23 T38N R78W:   LOCATION
 CNTY.            NATRONA:   COUNTY
 STAT.            WYOMING:   STATE
 CTRY. UNITED STATES OF AMERICA:   COUNTRY
 SRVC.           BIRDWELL:   SERVICE COMPANY
 DATE.        08-JUL-1978:   LOGDATE
 API .     49025106600000:   API NUMBER
~CURVE INFORMATION
#MNEM.UNIT       API CODE    CURVE DESCRIPTION
#----------   ------------   ------------------------------
 DEPT.F                  :   
 GRD .GAPI   45 310 01 00:   GAMMA RAY FROM DENSITY LOG
 CALD.IN     45 280 60 00:   CALIPER FROM DENSITY LOG
 CORR.G/C3   45 356 01 00:   DENSITY CORRECTION
 RHOB.G/C3   45 350 01 00:   BULK DENSITY
 GR  .GAPI   35 310 01 00:   GAMMA RAY
 NEUT.NAPI   35 330 01 00:   NEUTRON
~PARAMETER INFORMATION
#MNEM.UNIT          VALUE    DESCRIPTION
#----------   ------------   ------------------------------
 EKB .F         5368.0000:   Kelly bushing
 EGL .F         5358.0000:   Ground level
 TD  .F         3299.0000:   Total depth
 CLNT.            A2DTECH:   Client Code
 PD  .                 GL:   Permanent Datum
 EPD .F              5358:   Elevation Permanent Datum
 LMF .                 KB:   Log Measured From
 DMF .                 KB:   Drilling Measured From
 DAPD.F                10:   Feet Above Permanent Datum
 DATE.        08-JUL-1978:   Date Logged [DD-MMM-YYYY]
 DD  .F              3299:   Depth driller
 DL  .F              3291:   Depth logger
 BLI .F              3291:   Bottom log interval
 TLI .F              1430:   Top log interval
 CS1 .IN            9.625:   Casing size
 CBD1.     9.625" @ 1450':   Casing driller 1
 CBL1.F              1442:   Casing logger 1
 BS1 .IN            8.750:   Bit size
 BSD1.F              3299:   Depth drilled with bit1
 DFT .          KCL WATER:   Type fluid in hole
 BHT .F               118:   BHT.
 TCS .HRS               2:   Time Circ. stopped
 MRT .F               118:   Maximum recorded temp.
 LUN .               2958:   Logging unit number
 LUL .               CASP:   Logging unit location
 ENGI.             MILLER:   Recorded By
 WITN.           MCGINLEY:   Witnessed by
 ORIG.           5" PRINT:   Origin of data
 UWI .     49025106600000:   Unique Well ID
 DICO. A2D TECHNOLOGIES, INC.:   Digitizing Company
 SL  . 1800' FNL & 1825' FEL:   Surface Location
~OTHER INFORMATION
~A   DEPT      GRD       CALD       CORR       RHOB          GR      NEUT   
# ...
 2142.5000    78.0354     9.5025     0.1081     2.5723  -999.2500  -999.2500
 2143.0000    78.1827     9.6236     0.1081     2.5754  -999.2500  -999.2500
 2143.5000    76.5031     9.7145     0.1081     2.5799  -999.2500  -999.2500
 2144.0000    75.8890     9.6073     0.1081     2.5814  -999.2500  -999.2500
 2144.5000    76.4890     9.6981     0.1081     2.5822  -999.2500  -999.2500
 2145.0000    78.0025     9.5452     0.1081     2.5845  -999.2500  -999.2500
 2145.5000    79.5160     9.4839     0.1081     2.5722  -999.2500  -999.2500
 2146.0000    80.1176     9.6659     0.1081     2.5669  -999.2500  -999.2500
 2146.5000    80.7193     9.5436     0.1111     2.5615  -999.2500  -999.2500
 2147.0000    81.3193     9.5733     0.1111     2.5691  -999.2500  -999.2500
 2147.5000    82.2249     9.6793     0.1127     2.5798  -999.2500  -999.2500
 2148.0000    82.8265     9.7398     0.1127     2.5789  -999.2500  -999.2500
 2148.5000    82.1742     9.5413     0.1111     2.5691  -999.2500  -999.2500
 2149.0000    80.7007     9.5712     0.1081     2.5706  -999.2500  -999.2500
 2149.5000    79.2272     9.6770     0.1081     2.5744  -999.2500  -999.2500
 2150.0000    80.5192     9.7832     0.1081     2.5767  -999.2500  -999.2500
 2150.5000    81.5768     9.6912     0.1048     2.5798  -999.2500  -999.2500
 2151.0000    82.3304     9.6129     0.1049     2.5813  -999.2500  -999.2500
 2151.5000    82.7802     9.5378     0.1094     2.5874  -999.2500  -999.2500
 2152.0000    83.3817     9.4764     0.1124     2.5965  -999.2500  -999.2500
 2152.5000    83.6794     9.4149     0.1169     2.5996  -999.2500  -999.2500
 2153.0000    83.9770     9.4144     0.1168     2.5957  -999.2500  -999.2500
 2153.5000    83.9692     9.4137     0.1122     2.5934  -999.2500  -999.2500
 2154.0000    83.9628     9.4285     0.1061     2.5873  -999.2500  -999.2500
 2154.5000    83.9551     9.4126     0.1060     2.5873  -999.2500  -999.2500
 2155.0000    83.9488     9.4118     0.1060     2.5873  -999.2500  -999.2500
 2155.5000    83.6386     9.3505     0.1059     2.5873  -999.2500  -999.2500
 2156.0000    83.3283     9.3501     0.1041     2.5773  -999.2500  -999.2500
 2156.5000    83.1686     9.3342     0.0815     2.5697  -999.2500  -999.2500
 2157.0000    82.7064     9.2880     0.0860     2.5727  -999.2500  -999.2500
 2157.5000    82.2442     9.2569     0.0935     2.5780  -999.2500  -999.2500
 2158.0000    82.0859     9.2412     0.0997     2.5826  -999.2500  -999.2500
 2158.5000    81.9261     9.2254     0.1040     2.5849  -999.2500  -999.2500
 2159.0000    81.9198     9.2249     0.1070     2.5841  -999.2500  -999.2500
 2159.5000    81.7616     9.2546     0.1100     2.5841  -999.2500  -999.2500
 2160.0000    81.4514     9.2847     0.1147     2.5874  -999.2500  -999.2500
 2160.5000    81.4435     9.2537     0.1190     2.5978  -999.2500  -999.2500
 2161.0000    81.7428     9.3748     0.1189     2.5932  -999.2500  -999.2500
 2161.5000    82.1909     9.4219     0.1128     2.5893  -999.2500  -999.2500
 2162.0000    82.7925     9.4953     0.0975     2.5870  -999.2500  -999.2500
 2162.5000    83.6965     9.5405     0.1051     2.5854  -999.2500  -999.2500
 2163.0000    83.9942     9.5552     0.1141     2.5854  -999.2500  -999.2500
 2163.5000    84.1415     9.5851     0.1065     2.5892  -999.2500  -999.2500
 2164.0000    84.4377     9.5844     0.1034     2.5983  -999.2500  -999.2500
 2164.5000    84.5833     9.5992     0.1033     2.5960  -999.2500  -999.2500
 2165.0000    84.7290     9.5985     0.0972     2.5937  -999.2500  -999.2500
 2165.5000    84.7212     9.5980     0.0910     2.5936  -999.2500  -999.2500
 2166.0000    84.4109     9.6278     0.0818     2.5836  -999.2500  -999.2500
 2166.5000    83.7965     9.6424     0.0757     2.5760  -999.2500  -999.2500
 2167.0000    82.7251     9.6419     0.0726     2.5721  -999.2500  -999.2500
 2167.5000    80.5160     9.6718     0.0832     2.5767  -999.2500  -999.2500
 2168.0000    80.0678     9.7016     0.0968     2.5927  -999.2500  -999.2500
 2168.5000    81.0508     9.7315     0.0724     2.5857  -999.2500  -999.2500
 2169.0000    81.6346     9.7463     0.0602     2.5742  -999.2500  -999.2500
 2169.5000    82.3882     9.7456     0.0647     2.5688  -999.2500  -999.2500
 2170.0000    81.6221     9.7449     0.0920     2.5787  -999.2500  -999.2500
 2170.5000    81.3117     9.7598     0.1254     2.5688  -999.2500  -999.2500
 2171.0000    81.3040     9.7591     0.1329     2.5573  -999.2500  -999.2500
 2171.5000    81.4513     9.7281     0.1420     2.5564  -999.2500  -999.2500
 2172.0000    81.9009     9.8949     0.1510     2.5954  -999.2500  -999.2500
 2172.5000    82.9695     9.7573     0.1692     2.6015  -999.2500  -999.2500
 2173.0000    83.5586     9.8938     0.1782     2.5938  -999.2500  -999.2500
 2173.5000    81.8790     9.7563     0.1701     2.5953  -999.2500  -999.2500
 2174.0000    81.2648     9.6948     0.1386     2.5868  -999.2500  -999.2500
 2174.5000    81.4118     9.6942     0.1264     2.5761  -999.2500  -999.2500
 2175.0000    81.8602     9.6327     0.1157     2.5791  -999.2500  -999.2500
 2175.5000    82.3083     9.5865     0.1141     2.5799  -999.2500  -999.2500
 2176.0000    82.3020     9.6025     0.1156     2.5768  -999.2500  -999.2500
 2176.5000    82.1438     9.5853     0.1170     2.5714  -999.2500  -999.2500
 2177.0000    81.5280     9.5239     0.1170     2.5797  -999.2500  -999.2500
 2177.5000    80.7619     9.5387     0.1169     2.5828  -999.2500  -999.2500
 2178.0000    81.3635     9.5381     0.1168     2.5812  -999.2500  -999.2500
 2178.5000    81.5357     9.4765     0.1183     2.5804  -999.2500  -999.2500
 2179.0000    79.2217     9.5673     0.1198     2.5819  -999.2500  -999.2500
 2179.5000    79.9753     9.6433     0.1197     2.5857  -999.2500  -999.2500
 2180.0000    81.4666     9.5966     0.1196     2.5971  -999.2500  -999.2500
 2180.5000    82.2818     9.5346     0.1165     2.5856  -999.2500  -999.2500
 2181.0000    83.2966     9.4878     0.1013     2.5825  -999.2500  -999.2500
 2181.5000    84.8090     9.4715     0.0921     2.5825  -999.2500  -999.2500
 2182.0000    85.5615     9.4549     0.0860     2.5839  -999.2500  -999.2500
 2182.5000    82.8204     9.4538     0.0798     2.5862  -999.2500  -999.2500
 2183.0000    84.0271     9.4682     0.0767     2.5885  -999.2500  -999.2500
 2183.5000    84.4757     9.4823     0.0767     2.5899  -999.2500  -999.2500
 2184.0000    83.3839     9.4809     0.0766     2.5890  -999.2500  -999.2500
 2184.5000    84.0032     9.4644     0.0766     2.5868  -999.2500  -999.2500
 2185.0000    84.9077     9.4482     0.0765     2.5852  -999.2500  -999.2500
 2185.5000    83.3806     9.4469     0.0764     2.5821  -999.2500  -999.2500
 2186.0000    84.4390     9.4306     0.0749     2.5782  -999.2500  -999.2500
 2186.5000    81.8462     9.4295     0.0733     2.5759  -999.2500  -999.2500
 2187.0000    80.6231     9.4284     0.0732     2.5751  -999.2500  -999.2500
 2187.5000    79.0767     9.4273     0.0716     2.5736  -999.2500  -999.2500
 2188.0000    79.6947     9.4110     0.0731     2.5704  -999.2500  -999.2500
 2188.5000    79.5354     9.3946     0.0761     2.5720  -999.2500  -999.2500
 2189.0000    78.9202     9.3781     0.0760     2.5788  -999.2500  -999.2500
 2189.5000    79.0648     9.3770     0.0759     2.5765  -999.2500  -999.2500
 2190.0000    80.5772     9.3606     0.0759     2.5672  -999.2500  -999.2500
 2190.5000    83.0015     9.3443     0.0819     2.5756  -999.2500  -999.2500
 2191.0000    84.7007     9.3280     0.0834     2.5863  -999.2500  -999.2500
 2191.5000    85.5704     9.3116     0.0787     2.5939  -999.2500  -999.2500
 2192.0000    81.9138     9.3103     0.0787     2.5755  -999.2500  -999.2500
 2192.5000    81.6043     9.3092     0.0817     2.5747  -999.2500  -999.2500
 2193.0000    82.6590     9.3081     0.0832     2.5762  -999.2500  -999.2500
 2193.5000    84.0194     9.3374     0.0861     2.5831  -999.2500  -999.2500
 2194.0000    84.6201     9.3668     0.0876     2.5831  -999.2500  -999.2500
