~VERSION INFORMATION
 VERS.                2.0:   CWLS LOG ASCII STANDARD - VERSION 2.0
 WRAP.                 NO:   ONE LINE PER DEPTH STEP
~WELL INFORMATION
#MNEM.UNIT      DATA TYPE    INFORMATION
#----------   ------------   ------------------------------
 STRT.F           34.0000:   START DEPTH
 STOP.F         2909.0000:   STOP DEPTH
 STEP.F            0.5000:   STEP LENGTH
 NULL.          -999.2500:   NO VALUE
 COMP.   TESORO PETROLEUM:   COMPANY
 WELL. TESORO NPR "A" #3-28:   WELL
 FLD .             TEAPOT:   FIELD
 LOC .      S28 T39N R78W:   LOCATION
 CNTY.            NATRONA:   COUNTY
 STAT.            WYOMING:   STATE
 CTRY. UNITED STATES OF AMERICA:   COUNTRY
 SRVC.              WELEX:   SERVICE COMPANY
 DATE.        22-JUL-1968:   LOGDATE
 API .     49025102620000:   API NUMBER
~CURVE INFORMATION
#MNEM.UNIT       API CODE    CURVE DESCRIPTION
#----------   ------------   ------------------------------
 DEPT.F                  :   
 GRD .GAPI   45 310 01 00:   GAMMA RAY FROM DENSITY LOG
 SPR .MV     05 010 01 00:   SPONTANEOUS POTENTIAL FROM RES.
 ASN .OHMM   05 041 16 00:   AMPLIFIED SHORT NORMAL 16"
 ILD .OHMM   05 120 46 00:   INDUCTION LOG DEEP
~PARAMETER INFORMATION
#MNEM.UNIT          VALUE    DESCRIPTION
#----------   ------------   ------------------------------
 EKB .F         5050.0000:   Kelly bushing
 EGL .F         5039.0000:   Ground level
 EDF .F            0.0000:   Drilling floor
 EPD .F         5039.0000:   Permanent datum
 TD  .F         2906.0000:   Total depth
 CLNT.            A2DTECH:   Client Code
 DATE.       22-JULY-1968:   Date Logged [DD-MMM-YYYY]
 DD  .F              2906:   Depth driller
 DL  .F              2906:   Depth logger
 BLI .F              2901:   Bottom log interval
 TLI .F               356:   Top log interval
 CS1 .              10.75:   Casing size
 CBD1.      10.75" @ 356':   Casing driller 1
 CBL1.IN              356:   Casing logger 1
 BS1 .IN                9:   Bit size
 DFT .     WATER BASE MUD:   Type fluid in hole
 DFD .                9.6:   Density
 DFV .                 60:   Viscosity
 DFPH.                9.0:   pH
 DFL .                  6:   Fluid loss
 MSS .               CTRC:   Source of sample
 RMS .OHMM            2.1:   Rm
 MST .F                74:   Rm Meas. temp.
 RMF .OHMM            1.6:   Rmf
 MFST.F                71:   Rmf Meas. temp.
 MFSS.               MEAS:   Source Rmf.
 RMC .OHMM            3.0:   Rmc
 MCST.F                66:   Rmc Meas. temp.
 RMB .OHMM            1.3:   Rm. at BHT
 BHT .F               120:   BHT.
 MRT .F               120:   Maximum recorded temp.
 LUN .               6869:   Logging unit number
 ORIG.         2.5" PRINT:   Origin of data
 UWI .     49025102620000:   Unique Well ID
 DICO. A2D TECHNOLOGIES, INC.:   Digitizing Company
 LUL .          NEWCASTLE:   Logging unit location
~OTHER INFORMATION
~A   DEPT      GRD        SPR         ASN         ILD 
# ...
 1348.0000  -999.2500   -30.2753     9.1493     9.2073
 1348.5000  -999.2500   -30.2363     9.0593     9.3622
 1349.0000  -999.2500   -30.2414     9.0494     9.3599
 1349.5000  -999.2500   -30.2461     9.1518     9.3576
 1350.0000  -999.2500   -30.2508     9.1824     9.3553
 1350.5000  -999.2500   -30.2555     9.1185     9.3530
 1351.0000  -999.2500   -30.2602     9.1490     9.3507
 1351.5000  -999.2500   -30.2649     9.2431     9.3483
 1352.0000  -999.2500   -30.0857     9.3384     9.3459
 1352.5000  -999.2500   -29.3347     9.4652     9.3436
 1353.0000  -999.2500   -29.0251     9.5605     9.3412
 1353.5000  -999.2500   -29.0303     9.6558     9.3388
 1354.0000  -999.2500   -29.9753     9.7717     9.3365
 1354.5000  -999.2500   -30.2933     9.9024     9.3341
 1355.0000  -999.2500   -30.2979     9.9481     9.3318
 1355.5000  -999.2500   -29.9890     9.7527     9.3290
 1356.0000  -999.2500   -29.6800     9.6562     9.3267
 1356.5000  -999.2500   -29.3711     9.6417     9.3244
 1357.0000  -999.2500   -29.3762     9.6407     9.3221
 1357.5000  -999.2500   -29.3809     9.4826     9.3198
 1358.0000  -999.2500   -29.4942     9.2930     9.3175
 1358.5000  -999.2500   -29.8323     9.3550     9.3152
 1359.0000  -999.2500   -30.0219     9.5427     9.3129
 1359.5000  -999.2500   -30.5084     9.6362     9.3226
 1360.0000  -999.2500   -31.2862     9.5682     9.4656
 1360.5000  -999.2500   -31.6042     9.4771     9.4631
 1361.0000  -999.2500   -31.6088     9.6139     9.4220
 1361.5000  -999.2500   -31.6133     9.6954     9.3011
 1362.0000  -999.2500   -31.3044     9.4958     9.2988
 1362.5000  -999.2500   -31.3090     9.4734     9.2964
 1363.0000  -999.2500   -31.0000     9.6473     9.4513
 1363.5000  -999.2500   -30.6911     9.5030     9.4489
 1364.0000  -999.2500   -30.3822     9.5056     9.4466
 1364.5000  -999.2500   -30.0733     9.5129     9.4438
 1365.0000  -999.2500   -29.6918     9.4684     9.4415
 1365.5000  -999.2500   -29.4554     9.6562     9.4392
 1366.0000  -999.2500   -29.4608     9.6238     9.4369
 1366.5000  -999.2500   -29.4655     9.5600     9.5918
 1367.0000  -999.2500   -29.4702     9.6534     9.5895
 1367.5000  -999.2500   -29.4749     9.7154     9.5872
 1368.0000  -999.2500   -29.4805     9.7807     9.5850
 1368.5000  -999.2500   -29.7985     9.9409     9.5826
 1369.0000  -999.2500   -30.1166    10.0271     9.5802
 1369.5000  -999.2500   -30.4346     9.9632     9.5778
 1370.0000  -999.2500   -31.0661     9.8805     9.5336
 1370.5000  -999.2500   -31.3842     9.7499     9.4159
 1371.0000  -999.2500   -31.7022     9.6955     9.4135
 1371.5000  -999.2500   -31.7069     9.6297     9.2539
 1372.0000  -999.2500   -31.7116     9.5811     9.2516
 1372.5000  -999.2500   -31.7163     9.6429     9.2492
 1373.0000  -999.2500   -31.3302     9.7050     9.2464
 1373.5000  -999.2500   -31.0016     9.6411     9.2441
 1374.0000  -999.2500   -30.2422     9.5773     9.3993
 1374.5000  -999.2500   -29.5408     9.6078     9.3968
 1375.0000  -999.2500   -29.3888     9.6698     9.3945
 1375.5000  -999.2500   -29.7267     9.7003     9.3922
 1376.0000  -999.2500   -30.1827     9.7623     9.3899
 1376.5000  -999.2500   -30.8142     9.6953     9.3876
 1377.0000  -999.2500   -31.4457     9.6295     9.3852
 1377.5000  -999.2500   -31.7637     9.5668     9.3829
 1378.0000  -999.2500   -31.1413     9.5757     9.3805
 1378.5000  -999.2500   -30.5189     9.5529     9.3781
 1379.0000  -999.2500   -31.1546     9.5301     9.3758
 1379.5000  -999.2500   -31.8041     9.4162     9.3734
 1380.0000  -999.2500   -31.7865     9.4845     9.3711
 1380.5000  -999.2500   -31.4164     9.6745     9.3687
 1381.0000  -999.2500   -30.4608     9.6213     9.4470
 1381.5000  -999.2500   -29.4040     9.5377     9.5212
 1382.0000  -999.2500   -28.9834     9.6061     9.5184
 1382.5000  -999.2500   -29.5846     9.7049     9.6734
 1383.0000  -999.2500   -30.8830     9.8341     9.6711
 1383.5000  -999.2500   -32.0005    10.0545     9.8260
 1384.0000  -999.2500   -32.4522     9.4820     9.9810
 1384.5000  -999.2500   -32.7703    10.0480    10.2931
 1385.0000  -999.2500   -32.7748    10.4610    10.4481
 1385.5000  -999.2500   -32.4659    10.7726    10.6030
 1386.0000  -999.2500   -32.1570    10.9321    10.6006
 1386.5000  -999.2500   -31.8481    11.1930    10.5982
 1387.0000  -999.2500   -31.5391    11.1499    10.5655
 1387.5000  -999.2500   -31.2302    11.0056    10.4363
 1388.0000  -999.2500   -30.8757    10.9106    10.3858
 1388.5000  -999.2500   -30.6124    10.4670    10.1172
 1389.0000  -999.2500   -30.3035    10.0182     9.9575
 1389.5000  -999.2500   -30.4143     9.9017     9.7980
 1390.0000  -999.2500   -30.6269     9.8480     9.7956
 1390.5000  -999.2500   -31.0904     9.9220     9.7928
 1391.0000  -999.2500   -32.0554     9.8602     9.6332
 1391.5000  -999.2500   -32.8364     9.6960     9.6309
 1392.0000  -999.2500   -33.1544     9.7264     9.6287
 1392.5000  -999.2500   -32.8448     9.8176     9.4691
 1393.0000  -999.2500   -32.5366     9.8784     9.4668
 1393.5000  -999.2500   -32.2276     9.9392     9.6219
 1394.0000  -999.2500   -31.9187     9.9007     9.6195
 1394.5000  -999.2500   -31.6098     9.7730     9.6171
 1395.0000  -999.2500   -30.9771     9.6556     9.7721
 1395.5000  -999.2500   -30.6785     9.6485     9.7696
 1396.0000  -999.2500   -30.7336     9.7122     9.7673
 1396.5000  -999.2500   -31.4549     9.8176     9.7649
 1397.0000  -999.2500   -32.0366     9.9392     9.7112
 1397.5000  -999.2500   -32.6881     9.9696     9.6030
 1398.0000  -999.2500   -33.2100     9.8784     9.5314
 1398.5000  -999.2500   -33.2147     9.7548     9.4411
 1399.0000  -999.2500   -33.5329     9.6272     9.2814
 1399.5000  -999.2500   -33.2250     9.4762     9.1214
 1400.0000  -999.2500   -32.2892     9.4529     9.1191
 1400.5000  -999.2500   -31.6668     9.4965     9.1168
 1401.0000  -999.2500   -31.3573     9.5745     9.1145
 1401.5000  -999.2500   -31.6759     9.6657     9.1122
 1402.0000  -999.2500   -31.9875     9.6960     9.1099
 1402.5000  -999.2500   -31.9827     9.7264     9.1076
 1403.0000  -999.2500   -31.3062     9.7264     9.2626
 1403.5000  -999.2500   -30.7427     9.7274     9.7314
 1404.0000  -999.2500   -30.4322     9.7913     9.7292
 1404.5000  -999.2500   -30.3381     9.8622     9.7269
 1405.0000  -999.2500   -30.1248     9.9088     9.7247
 1405.5000  -999.2500   -30.1285     9.9088     9.7224
 1406.0000  -999.2500   -30.6102     9.9088     9.5629
 1406.5000  -999.2500   -31.0758     9.9088     9.5605
 1407.0000  -999.2500   -32.0193     9.9392     9.5844
 1407.5000  -999.2500   -32.0223     9.9392     9.7133
 1408.0000  -999.2500   -31.0849     9.9392     9.7107
 1408.5000  -999.2500   -30.7743     9.6742     9.7083
 1409.0000  -999.2500   -31.0910     9.8425     9.7845
 1409.5000  -999.2500   -31.0852    10.1530     9.8609
 1410.0000  -999.2500   -30.7835    10.4661    10.0153
 1410.5000  -999.2500   -30.7869    10.5907    10.0131
 1411.0000  -999.2500   -30.7900    10.3880    10.1683
 1411.5000  -999.2500   -30.8343    10.1300    10.1658
 1412.0000  -999.2500   -30.9024     9.9048     9.8491
 1412.5000  -999.2500   -30.9705     9.7113     9.6895
 1413.0000  -999.2500   -31.0385     9.6556     9.5299
 1413.5000  -999.2500   -31.1066     9.7253     9.5275
 1414.0000  -999.2500   -31.1747     9.7538     9.3679
 1414.5000  -999.2500   -31.2428     9.7817     9.3655
 1415.0000  -999.2500   -31.3108     9.8403     9.5205
 1415.5000  -999.2500   -31.3789     9.8685     9.5176
 1416.0000  -999.2500   -31.4483     9.8967     9.5153
 1416.5000  -999.2500   -31.4415     9.8033     9.6703
 1417.0000  -999.2500   -31.1087     9.9531     9.6680
 1417.5000  -999.2500   -30.8305    10.1029     9.6658
 1418.0000  -999.2500   -30.7565    10.1003     9.8208
 1418.5000  -999.2500   -30.5230    10.0980     9.9757
 1419.0000  -999.2500   -30.5267    10.0957     9.9995
 1419.5000  -999.2500   -30.8433    10.2454    10.1284
 1420.0000  -999.2500   -31.0135    10.2428    10.1258
 1420.5000  -999.2500   -31.4771    10.2406    10.1890
