~VERSION INFORMATION
 VERS.                2.0:   CWLS LOG ASCII STANDARD - VERSION 2.0
 WRAP.                 NO:   ONE LINE PER DEPTH STEP
~WELL INFORMATION
#MNEM.UNIT      DATA TYPE    INFORMATION
#----------   ------------   ------------------------------
 STRT.F          211.0000:   START DEPTH
 STOP.F         3244.0000:   STOP DEPTH
 STEP.F            0.5000:   STEP LENGTH
 NULL.          -999.2500:   NO VALUE
 COMP.    FENIX & SCISSON:   COMPANY
 WELL.  FENIX "AX" #84-15:   WELL
 FLD .  TEAPOT DOME NPR-3:   FIELD
 LOC .      S15 T38N R78W:   LOCATION
 CNTY.            NATRONA:   COUNTY
 STAT.            WYOMING:   STATE
 CTRY. UNITED STATES OF AMERICA:   COUNTRY
 SRVC.           BIRDWELL:   SERVICE COMPANY
 DATE.        17-MAR-1978:   LOGDATE
 API .     49025106050000:   API NUMBER
~CURVE INFORMATION
#MNEM.UNIT       API CODE    CURVE DESCRIPTION
#----------   ------------   ------------------------------
 DEPT.F                  :   
 SPR .MV     05 010 01 00:   SPONTANEOUS POTENTIAL
 SN  .OHMM   05 040 16 00:   SHORT NORMAL
 ILD .OHMM   05 120 46 00:   INDUCTION LOG DEEP
 CALD.IN     45 280 60 00:   CALIPER FROM DENSITY LOG
 GRD .GAPI   45 310 01 00:   GAMMA RAY FROM DENSITY LOG
 RHOB.G/C3   45 350 01 00:   BULK DENSITY
 CORR.G/C3   45 356 01 00:   DENSITY CORRECTION
~PARAMETER INFORMATION
#MNEM.UNIT          VALUE    DESCRIPTION
#----------   ------------   ------------------------------
 EKB .F         5251.0000:   Kelly bushing
 EGL .F         5241.0000:   Ground level
 TD  .F         3250.0000:   Total depth
 CLNT.            A2DTECH:   Client Code
 SL  . 359' FEL & 2310' FNL:   Surface Location
 PD  .                 GL:   Permanent Datum
 LMF .                 KB:   Log Measured From
 DMF .                 KB:   Drilling Measured From
 DATE.        17-MAR-1978:   Date Logged [DD-MMM-YYYY]
 DD  .F              3250:   Depth driller
 DL  .F              3250:   Depth logger
 BLI .F              3244:   Bottom log interval
 TLI .F               224:   Top log interval
 CS1 .IN            8.625:   Casing size
 CBD1.             8.625":   Casing driller 1
 CBL1.F               224:   Casing logger 1
 BS1 .IN            7.875:   Bit size
 BSD1.F              3250:   Depth drilled with bit1
 MSS .           FLOWLINE:   Source of sample
 RMS .OHMM            1.3:   Rm
 MST .F                70:   Rm Meas. temp.
 RMF .OHMM            1.1:   Rmf
 MFST.F                70:   Rmf Meas. temp.
 MFSS.               MEAS:   Source Rmf.
 RMC .OHMM            1.4:   Rmc
 MCST.F                70:   Rmc Meas. temp.
 RMB .OHMM           0.77:   Rm. at BHT
 BHT .F               118:   BHT.
 TCS .HRS               6:   Time Circ. stopped
 MRT .F               118:   Maximum recorded temp.
 LUN .               2958:   Logging unit number
 LUL .               CASP:   Logging unit location
 ENGI.             MILLER:   Recorded By
 WITN.           MCGINLEY:   Witnessed by
 ORIG.           5" PRINT:   Origin of data
 UWI .     49025106050000:   Unique Well ID
 DICO. A2D TECHNOLOGIES, INC.:   Digitizing Company
~OTHER INFORMATION
~A   DEPT      SPR         SN        ILD       CALD         GRD      RHOB       CORR   
# ...
 1030.0000   -33.4388     7.4585     9.1762    12.4551    67.0138     2.2880     0.0194
 1030.5000   -33.4306     7.6189     9.1796    12.4558    68.7977     2.4648     0.0059
 1031.0000   -33.4223     7.6823     9.2281    12.4566    71.3278     2.5011     0.0044
 1031.5000   -33.4035     7.7895     9.2505    12.4575    73.2609     2.5087     0.0045
 1032.0000   -33.2534     7.8441     9.3177    12.4582    74.2984     2.4944     0.0046
 1032.5000   -33.2466     7.9020     9.3282    12.4889    74.9030     2.4899     0.0047
 1033.0000   -33.2383     7.9305     9.3897    12.5195    75.1777     2.4949     0.0078
 1033.5000   -33.2289     7.9637     9.4585    12.5502    75.0213     2.5096     0.0094
 1034.0000   -33.2208     8.0225     9.5278    12.5509    75.0141     2.5157     0.0110
 1034.5000   -33.2134     8.0258     9.5311    12.5517    75.0068     2.5134     0.0111
 1035.0000   -33.2051     7.9727     9.6009    12.5524    74.9996     2.5037     0.0111
 1035.5000   -33.1964     7.9630     9.6042    12.5531    75.7387     2.5128     0.0082
 1036.0000   -33.1885     7.9246     9.5400    12.5539    76.1792     2.5158     0.0083
 1036.5000   -33.3311     7.8885     9.4780    12.5697    76.1702     2.4993     0.0114
 1037.0000   -33.3221     7.8763     9.4812    12.6004    76.4615     2.4984     0.0175
 1037.5000   -33.3145     7.8796     9.4187    12.6311    77.2006     2.5046     0.0206
 1038.0000   -33.4253     7.7597     9.3566    12.6468    78.6859     2.5130     0.0207
 1038.5000   -33.4492     7.6931     9.2949    12.6625    79.2757     2.5153     0.0193
 1039.0000   -33.4390     7.6731     9.2336    12.6932    79.4179     2.5123     0.0179
 1039.5000   -33.4321     7.6769     9.1100    12.7238    79.4104     2.5010     0.0164
 1040.0000   -33.4238     7.6268     9.1131    12.7395    79.2523     2.5101     0.0150
 1040.5000   -33.4146     7.6295     9.1162    12.7552    78.3496     2.5132     0.0151
 1041.0000   -33.2550     7.6326     9.0561    12.7567    76.7006     2.5042     0.0167
 1041.5000   -33.1956     7.6895     9.0592    12.7717    75.2008     2.5087     0.0213
 1042.0000   -33.0890     7.6926     9.0620    12.7726    74.2981     2.5133     0.0259
 1042.5000   -33.0804     7.6955     9.0654    12.7733    74.1269     2.5149     0.0185
 1043.0000   -33.0724     7.6989     9.0685    12.7732    75.5439     2.5149     0.0140
 1043.5000   -33.0641     7.7019     9.0714    12.7731    78.4537     2.5149     0.0126
 1044.0000   -33.0558     7.7051     9.0746    12.7730    79.4913     2.5141     0.0126
 1044.5000   -33.0475     7.7084     9.0778    12.7729    79.9337     2.5120     0.0143
 1045.0000   -33.0377     7.7116     9.0809    12.7728    79.3276     2.5113     0.0174
 1045.5000   -33.0465     7.7148     9.0211    12.7727    79.1712     2.5121     0.0250
 1046.0000   -33.1736     7.7180     9.0242    12.7726    79.3132     2.5144     0.0403
 1046.5000   -33.1652     7.7219     9.0280    12.7725    79.4553     2.5182     0.0540
 1047.0000   -33.1569     7.7250     9.0311    12.7723    79.6210     2.5228     0.0631
 1047.5000   -33.1471     7.7282     9.0342    12.7722    80.0360     2.5259     0.0693
 1048.0000   -33.1403     7.7309     8.9739    12.7721    80.6259     2.5274     0.0754
 1048.5000   -33.1308     7.7341     8.9777    12.7720    81.8127     2.5274     0.0878
 1049.0000   -33.1237     7.7377     8.9808    12.7719    82.2550     2.5335     0.0983
 1049.5000   -33.1154     7.7406     8.9838    12.7718    82.0968     2.5411     0.0318
 1050.0000   -33.1064     7.7441     8.9869    12.7717    81.0448     2.5094     0.0258
 1050.5000   -33.0983     7.7472     9.0527    12.7716    79.3686     2.5291     0.0213
 1051.0000   -33.0905     7.7288     9.0558    12.7714    77.8953     2.5103     0.0199
 1051.5000   -33.0822     7.6998     9.0589    12.7713    77.5895     2.5020     0.0184
 1052.0000   -33.0725     7.6497     9.0620    12.7712    77.7412     2.4990     0.0200
 1052.5000   -33.0644     7.6528     9.0023    12.7711    79.1669     2.4976     0.0262
 1053.0000   -33.0573     7.6560     8.9429    12.7710    80.4035     2.4961     0.0338
 1053.5000   -33.0490     7.6591     8.9378    12.7709    79.9466     2.4931     0.0400
 1054.0000   -33.0399     7.6092     8.7042    12.7708    81.1334     2.4894     0.0446
 1054.5000   -33.1174     7.5598     8.5869    12.7707    82.3201     2.4872     0.0341
 1055.0000   -33.1765     7.5635     8.4704    12.7706    82.7624     2.4935     0.0493
 1055.5000   -33.1663     7.5346     8.4146    12.7704    81.2608     2.5178     0.0327
 1056.0000   -33.1582     7.5165     8.3591    12.7703    80.0595     2.5160     0.0222
 1056.5000   -33.1501     7.4682     8.3040    12.7702    81.8432     2.5085     0.0177
 1057.0000   -33.1418     7.4554     8.3656    12.7701    82.5822     2.5070     0.0178
 1057.5000   -33.1335     7.3712     8.3684    12.7700    82.4254     2.5063     0.0270
 1058.0000   -32.9728     7.3742     8.3713    12.7699    80.4763     2.5267     0.0332
 1058.5000   -32.9005     7.3772     8.3154    12.7698    79.8738     2.5351     0.0286
 1059.0000   -32.8069     7.3291     8.3095    12.7697    81.2080     2.5268     0.0210
 1059.5000   -32.7975     7.3321     8.2920    12.7695    82.2455     2.5231     0.0122
 1060.0000   -32.7894     7.3351     8.2745    12.7694    82.5385     2.5224     0.0092
 1060.5000   -32.7821     7.3382     8.2635    12.7695    82.3802     2.5224     0.0048
 1061.0000   -32.7731     7.3412     8.2667    12.7696    82.3533     2.5216     0.0033
 1061.5000   -33.3683     7.3961     8.2689    12.7697    82.6641     2.5180     0.0034
 1062.0000   -33.9638     7.3992     8.2718    12.7698    84.0100     2.5127     0.0066
 1062.5000   -33.9553     7.4022     8.3319    12.7699    84.5899     2.5105     0.0110
 1063.0000   -33.3439     7.4048     8.3346    12.7700    83.3867     2.5151     0.0156
 1063.5000   -32.7218     7.4083     8.3372    12.7701    83.0809     2.5219     0.0217
 1064.0000   -32.4001     7.4630     8.2819    12.7702    83.3722     2.5242     0.0249
 1064.5000   -32.2632     7.4913     8.2845    12.7703    83.9619     2.5190     0.0280
 1065.0000   -32.2535     7.5593     8.2871    12.7704    85.2979     2.5182     0.0280
 1065.5000   -32.3982     7.6131     8.2902    12.7705    83.9473     2.5213     0.0281
 1066.0000   -32.5409     7.6157     8.2923    12.7706    80.9550     2.5191     0.0312
 1066.5000   -32.5307     7.6183     8.2949    12.7707    79.9029     2.5114     0.0344
 1067.0000   -32.5234     7.6210     8.2978    12.7708    79.8956     2.5047     0.0407
 1067.5000   -32.5494     7.6241     8.3004    12.7709    80.5349     2.5041     0.0481
 1068.0000   -32.6576     7.6263     8.3027    12.7710    80.9259     2.5094     0.0512
 1068.5000   -32.6493     7.6289     8.3053    12.7711    80.3197     2.5231     0.0498
 1069.0000   -32.6410     7.6319     8.3080    12.7712    80.0140     2.5276     0.0468
 1069.5000   -32.7835     7.6513     8.3463    12.7713    80.0067     2.5186     0.0439
 1070.0000   -32.9262     7.6903     8.3984    12.7714    79.9994     2.5171     0.0424
 1070.5000   -32.9178     7.7466     8.4915    12.7715    79.9921     2.5142     0.0471
 1071.0000   -32.9095     7.7741     8.5530    12.7716    78.6415     2.5059     0.0517
 1071.5000   -32.8998     7.8604     8.6261    12.7717    73.1119     2.5301     0.0593
 1072.0000   -32.8916     7.9241     8.8003    12.6528    70.8459     2.5339     0.0458
 1072.5000   -32.8835     8.1446     8.9264    12.6085    70.2612     2.5278     0.0292
 1073.0000   -33.0262     8.3191     9.1810    12.6244    71.4464     2.5265     0.0247
 1073.5000   -33.4705     8.4384     9.3125    12.6401    74.2750     2.5310     0.0295
 1074.0000   -34.0657     8.5594     9.5782    12.6408    77.2528     2.5386     0.0355
 1074.5000   -34.2104     8.6822     9.7154    12.6415    80.3798     2.5266     0.0295
 1075.0000   -34.2003     8.8068     9.8545    12.6422    81.8669     2.5251     0.0144
