~VERSION INFORMATION
 VERS.                2.0:   CWLS LOG ASCII STANDARD - VERSION 2.0
 WRAP.                 NO:   ONE LINE PER DEPTH STEP
~WELL INFORMATION
#MNEM.UNIT      DATA TYPE    INFORMATION
#----------   ------------   ------------------------------
 STRT.F         3288.0000:   START DEPTH
 STOP.F         4421.0000:   STOP DEPTH
 STEP.F            0.5000:   STEP LENGTH
 NULL.          -999.2500:   NO VALUE
 COMP.       FLUOR DANIEL:   COMPANY
 WELL. FLUOR 22 "X" #2-10:   WELL
 FLD . TEA POT DOME NAVAL PETROLEUM DO:   FIELD
 LOC .      S10 T38N R78W:   LOCATION
 CNTY.            NATRONA:   COUNTY
 STAT.            WYOMING:   STATE
 CTRY. UNITED STATES OF AMERICA:   COUNTRY
 SRVC.        HALLIBURTON:   SERVICE COMPANY
 DATE.        13-DEC-1996:   LOGDATE
 API .     49025228330000:   API NUMBER
~CURVE INFORMATION
#MNEM.UNIT       API CODE    CURVE DESCRIPTION
#----------   ------------   ------------------------------
 DEPT.F                  :   
 NPHI.DEC    42 890 03 00:   NEUTRON POROSITY SANDSTONE
 GRD .GAPI   45 310 01 00:   GAMMA RAY FROM DENSITY LOG
 CALD.IN     45 280 60 00:   CALIPER FROM DENSITY LOG
 PE  .B/E    45 358 01 00:   PHOTOELECTRIC FACTOR
 CORR.G/C3   45 356 01 00:   DENSITY CORRECTION
 TEND.LBS    45 635 01 00:   TENSION FORM DENSITY LOG
 RHOB.G/C3   45 350 01 00:   BULK DENSITY
 TENR.LBS    07 635 01 00:   TENSION FROM RESISTIVITY
 ILD .OHMM   07 120 46 00:   DEEP INDUCTION RESISTIVITY
 ILM .OHMM   07 120 44 00:   INDUCTION LOG MEDIUM RESISTIVITY
 SFL .OHMM   07 220 01 00:   SHALLOW FOCUSED LOG RESISTIVITY
~PARAMETER INFORMATION
#MNEM.UNIT          VALUE    DESCRIPTION
#----------   ------------   ------------------------------
 EKB .F         5268.0000:   Kelly bushing
 EGL .F         5258.0000:   Ground level
 EDF .F         5267.0000:   Drilling floor
 TD  .F         4435.0000:   Total depth
 CLNT.            A2DTECH:   Client Code
 SL  . 569' FNL & 1440' FWL:   Surface Location
 PD  .                 GL:   Permanent Datum
 EPD .F              5258:   Elevation Permanent Datum
 LMF .                 KB:   Log Measured From
 DMF .                 KB:   Drilling Measured From
 DAPD.F                10:   Feet Above Permanent Datum
 DATE.        13-DEC-1996:   Date Logged [DD-MMM-YYYY]
 DD  .F              4435:   Depth driller
 DL  .F              4412:   Depth logger
 BLI .F              4403:   Bottom log interval
 TLI .F              3308:   Top log interval
 CS1 .IN            9.625:   Casing size
 CBD1.     9.625" @ 3307':   Casing driller 1
 CBL1.F              3308:   Casing logger 1
 BS1 .IN              8.5:   Bit size
 BSD1.F              4435:   Depth drilled with bit1
 DFT .           POLY-KCL:   Type fluid in hole
 DFD .                  9:   Density
 DFV .                 50:   Viscosity
 DFPH.                  9:   pH
 DFL .                  7:   Fluid loss
 MSS .           MUD TANK:   Source of sample
 RMS .OHMM           0.47:   Rm
 MST .F                56:   Rm Meas. temp.
 RMF .OHMM           0.36:   Rmf
 MFST.F                61:   Rmf Meas. temp.
 MFSS.               MEAS:   Source Rmf.
 RMC .OHMM           0.48:   Rmc
 MCST.F                68:   Rmc Meas. temp.
 MCSS.               MEAS:   Source Rmc.
 RMB .OHMM           0.20:   Rm. at BHT
 BHT .F               138:   BHT.
 TCS .HRS              20:   Time Circ. stopped
 TLAB.HRS            0108:   Time logger at bottom
 MRT .F               138:   Maximum recorded temp.
 LUN .              52546:   Logging unit number
 LUL .              VERNI:   Logging unit location
 ENGI.        JOHN SAVAGE:   Recorded By
 WITN.          STEBBINGS:   Witnessed by
 ORIG.         2.5" PRINT:   Origin of data
 UWI .     49025228330000:   Unique Well ID
 DICO. A2D TECHNOLOGIES, INC.:   Digitizing Company
~OTHER INFORMATION
~A  DEPT        NPHI       GRD      CALD         PE       CORR       TEND       RHOB       TENR        ILD        ILM        SFL   
# ...
 3593.0000     0.2257   141.5750     9.6326     2.8940     0.0360  2984.2764     2.5434  3044.4116     5.7281     5.3642     7.1236
 3593.5000     0.2283   142.0337     9.6323     2.8945     0.0361  2966.5398     2.5430  3015.8818     5.6491     5.3615     7.0243
 3594.0000     0.2286   142.0302     9.6320     2.8949     0.0346  2966.1035     2.5399  3005.1064     5.6469     5.2869     6.9263
 3594.5000     0.2292   141.4230     9.6317     2.8954     0.0331  2935.4558     2.5352  2988.6765     5.6448     5.2840     6.9226
 3595.0000     0.2322   141.4199     9.6616     2.9260     0.0331  2904.8083     2.5298  2989.8936     5.6425     5.2812     6.9188
 3595.5000     0.2382   142.6248     9.6613     2.9567     0.0316  2904.3723     2.5239  2990.8711     5.6596     5.3505     7.1037
 3596.0000     0.2473   144.4346     9.6610     2.9571     0.0301  2905.1531     2.5224  2991.8494     5.7150     5.3472     7.1001
 3596.5000     0.2522   145.6402     9.6607     2.9877     0.0304  2933.7114     2.5240  2992.8276     5.5984     5.1967     6.9074
 3597.0000     0.2546   146.2417     9.6604     2.9580     0.0320  2933.2324     2.5255  2994.9119     5.4093     4.9253     6.7199
 3597.5000     0.2558   145.6344     9.6601     2.9499     0.0332  2932.7793     2.5255  3024.2644     5.0541     4.8567     6.3491
 3598.0000     0.2544   145.0027     9.6598     2.8984     0.0348  2932.3262     2.5271  3054.7056     4.8516     4.8542     6.1905
 3598.5000     0.2487   143.0926     9.6595     2.8555     0.0348  2931.8733     2.5286  3055.7351     5.1189     4.9846     6.3568
 3599.0000     0.2438   141.2890     9.6592     2.8390     0.0348  2931.4199     2.5286  3056.7646     5.1930     5.1184     6.3902
 3599.5000     0.2398   140.0303     9.6589     2.8395     0.0333  2961.0886     2.5287  3057.7942     5.3265     5.1155     6.4838
 3600.0000     0.2368   139.5775     9.6562     2.8701     0.0318  2960.6768     2.5287  3058.9866     5.3241     5.0899     6.6982
 3600.5000     0.2354   140.2278     9.6411     2.9006     0.0299  2960.3875     2.5272  3059.9646     5.3945     5.1108     6.6942
 3601.0000     0.2340   140.8778     9.6272     2.9618     0.0223  2960.0981     2.5287  3060.9429     5.4102     5.1959     6.7819
 3601.5000     0.2329   141.9680     9.6266     3.0825     0.0197  2990.0303     2.5302  3061.9204     5.4908     5.4178     6.9654
 3602.0000     0.2338   142.5635     9.6260     3.1735     0.0198  2989.7280     2.5363  3048.5618     5.5724     5.5353     7.1636
 3602.5000     0.2358   141.6715     9.6254     3.2342     0.0183  2989.4260     2.5454  3021.7302     5.6083     5.5607     7.1228
 3603.0000     0.2386   141.3353     9.6082     3.2345     0.0183  2989.1238     2.5458  2994.8989     5.6057     5.4564     7.0471
 3603.5000     0.2440   145.5543     9.5636     3.2348     0.0183  2988.8218     2.5333  2977.7939     5.4543     5.3811     6.9977
 3604.0000     0.2511   149.7753     9.5329     3.2040     0.0198  2988.5195     2.5227  2978.9019     5.1655     5.0935     6.7593
 3604.5000     0.2517   151.5801     9.5021     3.1413     0.0214  2988.2175     2.5197  3038.7036     4.8775     4.6801     6.6652
 3605.0000     0.2499   150.9664     9.5015     3.0483     0.0229  2987.9153     2.5200  3098.5295     4.5706     4.5093     6.0609
 3605.5000     0.2468   148.5260     9.5009     3.0244     0.0274  2987.5610     2.5217  3070.0710     4.6312     4.5932     5.5863
 3606.0000     0.2450   144.7855     9.5305     3.0550     0.0305  2987.2715     2.5233  3063.5288     4.5992     4.6919     5.5936
 3606.5000     0.2470   142.3643     9.5299     3.0855     0.0304  3017.1936     2.5220  3042.6157     4.4431     4.5648     6.0664
 3607.0000     0.2562   140.4877     9.5293     3.0556     0.0287  2986.6929     2.5195  3043.8235     4.3230     4.3818     6.0237
 3607.5000     0.2602   141.7068     9.4985     2.9955     0.0256  2986.4036     2.5107  3044.8530     4.2634     4.3214     5.5711
 3608.0000     0.2601   144.2257     9.4979     2.9052     0.0230  2986.1025     2.5077  3046.0391     4.4380     4.3817     5.3889
 3608.5000     0.2572   144.8610     9.4671     2.8752     0.0230  2985.8005     2.5077  3047.0168     4.5697     4.5671     5.4931
 3609.0000     0.2511   144.2462     9.4664     2.9058     0.0238  2985.4985     2.5092  3047.9949     4.7727     4.6353     5.6406
 3609.5000     0.2457   142.4249     9.4961     2.9060     0.0260  2985.1963     2.5092  3048.9731     5.0058     4.7685     6.1136
 3610.0000     0.2430   141.2077     9.5256     2.9063     0.0276  2984.8943     2.5091  3050.0000     5.0035     4.9721     6.4496
 3610.5000     0.2488   139.9906     9.5251     2.9066     0.0291  2984.5923     2.5056  3015.5962     4.9340     4.8678     6.5340
 3611.0000     0.2536   141.2101     9.4943     2.9069     0.0291  2984.2336     2.4978  2993.0835     4.7362     4.7363     6.2710
 3611.5000     0.2566   143.0599     9.4937     2.8770     0.0261  2983.9443     2.4900  2964.6499     4.5465     4.5465     5.9905
 3612.0000     0.2585   144.3142     9.4629     2.8649     0.0231  2983.6548     2.4837  2981.1775     4.3643     4.3619     5.6635
 3612.5000     0.2609   144.7898     9.4925     2.8021     0.0199  2983.3655     2.4766  2996.5066     4.2416     4.1239     5.4693
 3613.0000     0.2634   146.4508     9.5034     2.7571     0.0186  2983.0762     2.4670  2997.4849     4.1200     4.0600     5.2495
 3613.5000     0.2681   147.4743     9.5358     2.7574     0.0201  2952.5681     2.4670  2969.0515     3.9844     3.9435     5.0385
 3614.0000     0.2766   148.3867     9.5682     2.7577     0.0221  2952.2659     2.4670  2970.0295     3.8351     3.8023     4.9017
 3614.5000     0.2811   148.3762     9.5807     2.7882     0.0259  2958.8623     2.4715  2941.5955     3.6049     3.5566     4.6984
 3615.0000     0.2821   147.7633     9.6103     2.8187     0.0315  2981.9189     2.4761  2947.0603     3.4604     3.4605     4.4854
 3615.5000     0.2810   147.1504     9.6398     2.8190     0.0371  3006.0486     2.4823  3017.5085     3.6021     3.6022     4.2594
 3616.0000     0.2770   145.9333     9.6393     2.7891     0.0384  3071.9033     2.4904  3062.3530     3.6993     3.8034     4.2164
 3616.5000     0.2646   145.3054     9.6689     2.7836     0.0369  3054.0293     2.4961  3063.3826     3.7992     3.9126     4.5727
 3617.0000     0.2616   144.1027     9.6683     2.7595     0.0338  2980.6169     2.4952  3047.6523     3.8593     4.0086     4.8855
 3617.5000     0.2604   144.0937     9.6677     2.7598     0.0308  2980.3276     2.4936  3006.7766     3.9532     4.0303     5.0167
 3618.0000     0.2592   144.0846     9.6671     2.7601     0.0293  2980.0383     2.4912  3007.7544     4.0051     4.0596     5.0141
 3618.5000     0.2574   143.8388     9.6665     2.7604     0.0278  3009.9602     2.4882  3008.7324     4.0341     4.0577     5.1488
 3619.0000     0.2562   143.1700     9.6961     2.7608     0.0281  2979.4561     2.4867  3009.7107     4.1114     4.0561     5.2231
 3619.5000     0.2587   141.8972     9.6781     2.7611     0.0294  2948.9426     2.4867  3010.7351     4.1656     4.0546     5.2843
 3620.0000     0.2623   139.8173     9.6646     2.7614     0.0309  2948.6406     2.4882  3011.7646     4.1639     4.0530     5.2575
 3620.5000     0.2629   137.3917     9.6640     2.7616     0.0324  2957.0537     2.4912  3012.7939     4.1064     4.0513     5.0382
 3621.0000     0.2603   137.3830     9.6634     2.7619     0.0325  2978.3022     2.4897  3013.8235     4.0498     4.1050     5.1050
 3621.5000     0.2598   139.7913     9.6628     2.7622     0.0325  2977.9456     2.4880  3014.8530     4.1200     4.1031     5.2722
 3622.0000     0.2613   142.2401     9.6622     2.7625     0.0325  2977.6436     2.4852  3016.0679     4.2137     4.1014     5.2695
 3622.5000     0.2626   145.4376     9.6616     2.7628     0.0325  2977.2896     2.4833  3017.0461     4.2120     4.0995     5.1962
 3623.0000     0.2623   148.9586     9.6610     2.7631     0.0325  2977.0000     2.4807  3018.0242     4.2101     4.1538     5.1935
