~VERSION INFORMATION
 VERS.                2.0:   CWLS LOG ASCII STANDARD - VERSION 2.0
 WRAP.                 NO:   ONE LINE PER DEPTH STEP
~WELL INFORMATION
#MNEM.UNIT      DATA TYPE    INFORMATION
#----------   ------------   ------------------------------
 STRT.F          218.0000:   START DEPTH
 STOP.F         2860.0000:   STOP DEPTH
 STEP.F            0.5000:   STEP LENGTH
 NULL.          -999.2500:   NO VALUE
 COMP.    FENIX & SCISSON:   COMPANY
 WELL.  FENIX "AX" #76-20:   WELL
 FLD . TEAPOT DOME NPR -3:   FIELD
 LOC .      S20 T39N R78W:   LOCATION
 CNTY.            NATRONA:   COUNTY
 STAT.            WYOMING:   STATE
 CTRY. UNITED STATES OF AMERICA:   COUNTRY
 SRVC.           BIRDWELL:   SERVICE COMPANY
 DATE.        21-AUG-1978:   LOGDATE
 API .     49025106920000:   API NUMBER
~CURVE INFORMATION
#MNEM.UNIT       API CODE    CURVE DESCRIPTION
#----------   ------------   ------------------------------
 DEPT.F                  :   
 SPR .MV     05 010 01 00:   SPONTANEOUS POTENTIAL FROM RES.
 ILD .OHMM   05 120 46 00:   INDUCTION LOG DEEP
 SN  .OHMM   05 040 16 00:   SHORT NORMAL 16"
 RHOB.G/C3   45 350 01 00:   BULK DENSITY
 CALD.IN     45 280 60 00:   CALIPER FROM DENSITY LOG
 DCOR.G/C3   45 356 01 00:   DENSITY CORRECTION
 GRD .GAPI   45 310 01 00:   GAMMA RAY FROM DENSITY LOG
~PARAMETER INFORMATION
#MNEM.UNIT          VALUE    DESCRIPTION
#----------   ------------   ------------------------------
 EKB .F         5062.0000:   Kelly bushing
 EGL .F         5052.0000:   Ground level
 EDF .F            0.0000:   Drilling floor
 EPD .F            0.0000:   Permanent datum
 TD  .F         2854.0000:   Total depth
 DATE.        21-AUG-1978:   Date logged
 CLNT.            A2DTECH:   Client Code
 SL  . 1500' FNL & 1200' FEL:   Surface Location
 PD  .                 GL:   Permanent Datum
 DD  .F              2850:   Depth driller
 DL  .F              2854:   Depth logger
 BLI .F              2848:   Bottom log interval
 CS1 .IN            8.625:   Casing size
 CBD1.      8.625" @ 200':   Casing driller 1
 CBL1.F               235:   Casing logger 1
 BS1 .IN            7.875:   Bit size
 DFT .                KCL:   Type fluid in hole
 DFD .                9.2:   Density
 DFV .                 30:   Viscosity
 DFL .                8.4:   Fluid loss
 MSS .           FLOWLINE:   Source of sample
 RMS .OHMM            1.2:   Rm
 MST .F                86:   Rm Meas. temp.
 RMF .OHMM            0.8:   Rmf
 MFST.F                68:   Rmf Meas. temp.
 RMC .OHMM            1.6:   Rmc
 MCST.F                70:   Rmc Meas. temp.
 MFSS.              PRESS:   Source Rmf.
 BHT .F               102:   BHT.
 TCS .HRS               3:   Time Circ. stopped
 MRT .F               102:   Maximum recorded temp.
 LUN .               2968:   Logging unit number
 LUL .             CASPER:   Logging unit location
 ENGI.           REYNOLDS:   Recorded By
 ORIG.           5" PRINT:   Origin of data
 UWI .     49025106920000:   Unique Well ID
 DICO. A2D TECHNOLOGIES, INC.:   Digitizing Company
 DAPD.                 12:   Feet Above Permanent Datum
 BSD1.               2850:   Depth drilled with bit1
 MCSS.               MEAS:   Source Rmc.
 TLI .                230:   Top log interval
~OTHER INFORMATION
~A   DEPT      SPR        ILD         SN       RHOB       CALD       DCOR          GRD 
# ...
  582.0000   -84.6010     9.6780    10.3450     2.5330     8.7280     0.0760    84.4930
  582.5000   -84.6370     9.6520    10.3200     2.5360     8.7280     0.0750    87.7260
  583.0000   -84.6130     9.6250    10.2960     2.5390     8.7260     0.0720    88.4420
  583.5000   -84.5200     9.5980    10.2710     2.5420     8.7480     0.0690    88.1510
  584.0000   -84.4310     9.5710    10.2470     2.5390     8.7590     0.0670    88.0280
  584.5000   -84.3420     9.5440    10.2230     2.5350     8.7720     0.0670    92.1570
  585.0000   -84.2530     9.5170    10.1980     2.5320     8.7860     0.0720    87.9470
  585.5000   -84.1640     9.4890    10.1740     2.5280     8.7990     0.0760    83.8690
  586.0000   -84.0750     9.4770    10.1490     2.5280     8.8120     0.0810    79.8600
  586.5000   -83.9860     9.4640    10.1320     2.5370     8.8260     0.0850    77.3610
  587.0000   -83.8970     9.4510    10.1330     2.5390     8.8390     0.0830    79.0670
  587.5000   -83.8390     9.4380    10.1400     2.5320     8.8490     0.0810    80.5890
  588.0000   -83.9360     9.4260    10.1480     2.5330     8.8610     0.0790    83.9060
  588.5000   -84.0290     9.4130    10.1560     2.5430     8.8800     0.0790    86.6150
  589.0000   -84.1200     9.4000    10.1640     2.5420     8.8990     0.0820    84.1500
  589.5000   -84.2120     9.4030    10.1720     2.5360     8.9180     0.0860    80.9880
  590.0000   -84.3040     9.4090    10.1800     2.5300     8.9370     0.0900    77.8250
  590.5000   -84.3960     9.4150    10.1880     2.5240     8.9560     0.0930    76.1060
  591.0000   -84.4880     9.4200    10.1970     2.5240     8.9730     0.0920    77.7640
  591.5000   -84.5800     9.4260    10.2050     2.5350     9.0250     0.0910    79.5940
  592.0000   -84.6720     9.4320    10.2130     2.5480     9.0260     0.0900    79.7450
  592.5000   -84.7630     9.4370    10.2210     2.5620     9.0220     0.0900    77.8760
  593.0000   -84.8530     9.4430    10.2290     2.5470     9.0180     0.0960    76.1460
  593.5000   -84.9440     9.4490    10.2370     2.5280     9.0140     0.1020    77.0780
  594.0000   -85.0840     9.4550    10.2460     2.5220     9.0100     0.1070    78.1110
  594.5000   -84.9850     9.4600    10.2540     2.5330     9.0050     0.1130    79.1650
  595.0000   -84.6850     9.4660    10.2620     2.5420     9.0010     0.1100    79.0500
  595.5000   -84.3740     9.4720    10.2700     2.5440     8.9970     0.1070    78.5970
  596.0000   -84.0640     9.4770    10.2780     2.5390     8.9930     0.1050    78.1250
  596.5000   -83.8300     9.4830    10.2860     2.5340     8.9890     0.1030    78.0070
  597.0000   -83.8350     9.4880    10.2950     2.5290     8.9840     0.1000    80.8660
  597.5000   -83.8370     9.4770    10.3030     2.5240     8.9800     0.0980    83.7210
  598.0000   -83.8710     9.4650    10.3110     2.5200     8.9760     0.0960    86.5580
  598.5000   -83.9070     9.4540    10.3190     2.5200     8.9720     0.0930    89.3420
  599.0000   -83.9420     9.4420    10.3250     2.5230     8.9690     0.0910    91.0510
  599.5000   -83.9770     9.4310    10.3150     2.5220     8.9680     0.0920    86.9680
  600.0000   -84.0130     9.4200    10.2990     2.5170     8.9900     0.0940    83.8140
  600.5000   -84.0480     9.4080    10.2820     2.5140     8.9890     0.0970    80.6600
  601.0000   -84.0830     9.3970    10.2650     2.5350     8.9910     0.0990    77.4800
  601.5000   -84.1190     9.3850    10.2490     2.5280     9.0140     0.1020    77.9330
  602.0000   -84.1540     9.3740    10.2320     2.5240     9.0370     0.1040    79.4640
  602.5000   -84.1890     9.3620    10.2160     2.5360     9.0600     0.1070    80.9910
  603.0000   -84.2240     9.3510    10.1990     2.5330     9.0840     0.1070    82.4830
  603.5000   -84.2600     9.3400    10.1820     2.5310     9.1070     0.1070    84.3380
  604.0000   -84.2950     9.3280    10.1660     2.5360     9.1300     0.1050    94.4380
  604.5000   -84.3300     9.3170    10.1490     2.5320     9.1530     0.1030   100.0860
  605.0000   -84.3660     9.3050    10.1320     2.5240     9.1760     0.1010    97.1240
  605.5000   -84.4010     9.2940    10.1160     2.5240     9.1920     0.1050    89.6460
  606.0000   -84.4360     9.2820    10.0990     2.5170     9.1910     0.1250    81.9950
  606.5000   -84.4720     9.2710    10.0820     2.5010     9.1910     0.1420    81.0750
  607.0000   -84.5070     9.2600    10.0660     2.5000     9.1920     0.1440    82.9490
  607.5000   -84.5420     9.2480    10.0490     2.5050     9.1920     0.1440    84.8870
  608.0000   -84.5780     9.2370    10.0320     2.5100     9.1920     0.1440    86.3280
  608.5000   -84.6130     9.2250    10.0160     2.5110     9.1920     0.1520    85.4160
  609.0000   -84.6480     9.2140     9.9990     2.5050     9.1920     0.1660    79.4050
  609.5000   -84.6830     9.2020     9.9820     2.5060     9.1970     0.1780    74.6610
  610.0000   -84.7190     9.1910     9.9660     2.5130     9.2030     0.1770    76.6370
  610.5000   -84.7540     9.1800     9.9500     2.5210     9.2080     0.1760    81.1370
  611.0000   -84.7910     9.1680     9.8650     2.5270     9.2140     0.1740    80.5920
  611.5000   -84.8280     9.1570     9.8510     2.5270     9.2200     0.1720    78.9960
  612.0000   -84.7990     9.1450     9.8510     2.5230     9.2260     0.1700    85.3170
  612.5000   -84.6250     9.1340     9.8510     2.5190     9.2320     0.1680    93.3930
  613.0000   -84.5860     9.1220     9.8510     2.5190     9.2320     0.1660   100.8190
  613.5000   -84.5560     9.1110     9.8510     2.5190     9.2300     0.1640   100.9070
  614.0000   -84.5260     9.1000     9.8520     2.5130     9.2270     0.1630    99.6660
  614.5000   -84.4970     9.0880     9.8500     2.5050     9.2240     0.1610    93.8350
  615.0000   -84.4670     9.0770     9.8500     2.4960     9.2210     0.1600    91.2780
  615.5000   -84.4370     9.0670    10.0360     2.4870     9.2170     0.1600    89.1840
  616.0000   -84.4070     9.0550    10.2090     2.4820     9.2150     0.1650    83.4500
  616.5000   -84.3780     9.2750    10.3820     2.4950     9.2170     0.1740    80.0980
  617.0000   -84.3480     9.4960    10.5560     2.5050     9.2460     0.1820    80.1520
  617.5000   -84.3180     9.7160    10.7290     2.5150     9.3160     0.1830    83.4120
  618.0000   -84.2880     9.9370    10.9030     2.5220     9.3950     0.1830    86.7760
  618.5000   -84.2580    10.1570    10.9220     2.5010     9.3530     0.1820    90.1420
  619.0000   -84.2420    10.3260    11.0250     2.5160     9.2100     0.1760    91.8360
  619.5000   -84.2600    10.3310    11.0260     2.5320     9.2470     0.1640    91.9180
  620.0000   -83.9940    10.3370    11.0290     2.5070     9.3030     0.1470    89.5110
  620.5000   -83.8480    10.3430    11.0320     2.5700     9.1230     0.1290    86.7920
  621.0000   -83.8370    10.3480    11.0350     2.5390     8.9370     0.1120    84.3970
  621.5000   -83.8350    10.3540    11.0380     2.5200     8.9330     0.1050    86.4250
  622.0000   -83.8350    10.3590    11.0400     2.5220     8.9390     0.1050    89.0410
  622.5000   -83.8350    10.3650    11.0430     2.5250     8.9440     0.1040    90.6830
  623.0000   -83.8410    10.3710    11.0460     2.5260     8.9480     0.1040    89.0620
  623.5000   -83.9560    10.3760    11.0490     2.5230     8.9480     0.1030    87.0620
  624.0000   -84.0680    10.3820    11.0520     2.5200     8.9700     0.1030    87.0180
  624.5000   -84.1800    10.3880    11.0550     2.5210     8.9740     0.1100    83.0990
  625.0000   -84.2920    10.3930    11.0580     2.5350     8.9790     0.1190    78.3860
  625.5000   -84.4030    10.3990    11.0610     2.5320     8.9850     0.1290    73.7530
  626.0000   -84.5150    10.4040    11.0630     2.5310     8.9900     0.1390    74.8720
  626.5000   -84.6270    10.4100    11.0660     2.5450     8.9960     0.1500    77.0060
  627.0000   -84.7410    10.4160    11.0690     2.5410     9.0010     0.1470    77.1590
