~VERSION INFORMATION
 VERS.                2.0:   CWLS LOG ASCII STANDARD - VERSION 2.0
 WRAP.                 NO:   ONE LINE PER DEPTH STEP
~WELL INFORMATION
#MNEM.UNIT      DATA TYPE    INFORMATION
#----------   ------------   ------------------------------
 STRT.F            0.0000:   START DEPTH
 STOP.F          619.0000:   STOP DEPTH
 STEP.F            0.5000:   STEP LENGTH
 NULL.          -999.2500:   NO VALUE
 COMP.       FLUOR DANIEL:   COMPANY
 WELL.      FLUOR X #52-3:   WELL
 FLD .                NPR:   FIELD
 LOC .       S3 T38N R78W:   LOCATION
 CNTY.            NATRONA:   COUNTY
 STAT.            WYOMING:   STATE
 CTRY. UNITED STATES OF AMERICA:   COUNTRY
 SRVC.     ATLAS WIRELINE:   SERVICE COMPANY
 DATE.        18-AUG-1994:   LOGDATE
 API .     49025226460000:   API NUMBER
~CURVE INFORMATION
#MNEM.UNIT       API CODE    CURVE DESCRIPTION
#----------   ------------   ------------------------------
 DEPT.F                  :   
 GRR .GAPI   07 310 01 00:   GAMMA RAY FROM RESISTIVITY
 TENR.LBS    07 635 01 00:   TENSION
 RILD.OHMM   07 120 46 00:   INDUCTION LOG DEEP RESISTIVITY
 RILM.OHMM   07 120 44 00:   INDUCTION LOG MEDIUM RESISTIVITY
~PARAMETER INFORMATION
#MNEM.UNIT          VALUE    DESCRIPTION
#----------   ------------   ------------------------------
 EKB .F         5131.0000:   Kelly bushing
 EGL .F         5121.0000:   Ground level
 EDF .F         5130.0000:   Drilling floor
 EPD .F         5121.0000:   Permanent datum
 TD  .F          611.0000:   Total depth
 DATE.        18-AUG-1994:   Date logged
 CLNT.            A2DTECH:   Client Code
 SL  . 699' FNL & 2048' FEL:   Surface Location
 PD  .                 GL:   Permanent Datum
 LMF .                 KB:   Log Measured From
 DMF .                 KB:   Drilling Measured From
 DAPD.F                10:   Feet Above Permanent Datum
 DD  .F               580:   Depth driller
 DL  .F               611:   Depth logger
 BLI .F               609:   Bottom log interval
 CS1 .IN            9.625:   Casing size
 CBD1.       9.625" @ 54':   Casing driller 1
 CBL1.F                56:   Casing logger 1
 BS1 .IN             8.75:   Bit size
 BSD1.F               580:   Depth drilled with bit1
 DFT .                AIR:   Type fluid in hole
 LUN .            HL 6530:   Logging unit number
 LUL .             CASPER:   Logging unit location
 WITN.        GARY STRONG:   Witnessed by
 ORIG.           5" PRINT:   Origin of data
 UWI .     49025226460000:   Unique Well ID
 DICO. A2D TECHNOLOGIES, INC.:   Digitizing Company
~OTHER INFORMATION
~A    DEPT      GRR      TENR       RILD       RILM   
# ...
  292.0000   152.7110   -54.8810     7.7880     8.0140
  292.5000   151.4610   -57.5920     7.7700     7.9760
  293.0000   151.6800   -60.3030     7.7520     7.9260
  293.5000   151.2740   -63.0150     7.7340     7.8760
  294.0000   149.8310   -59.0730     7.7160     7.8260
  294.5000   148.9590   -53.6500     7.6980     7.7750
  295.0000   151.2530   -48.2280     7.6800     7.7250
  295.5000   154.5780   -43.9180     7.6620     7.6510
  296.0000   155.9510   -49.6420     7.6440     7.6690
  296.5000   154.7590   -55.3650     7.6260     7.7060
  297.0000   154.1220   -61.0890     7.6080     7.7430
  297.5000   153.8970   -66.8120     7.5910     7.7940
  298.0000   152.8560   -72.5360     7.5320     7.6940
  298.5000   151.6240   -66.1710     7.4150     7.5270
  299.0000   150.9870   -57.0800     7.3030     7.3600
  299.5000   150.3980   -47.9900     6.8780     7.0050
  300.0000   146.6230   -44.6820     6.4750     6.5550
  300.5000   145.8440   -47.4120     6.1200     6.1050
  301.0000   149.4570   -50.1410     6.1000     5.8990
  301.5000   157.6820   -52.8710     6.0810     5.8990
  302.0000   161.3870   -53.1590     6.0480     5.8990
  302.5000   160.4830   -52.8220     5.9630     5.9520
  303.0000   157.5120   -52.4850     5.8780     6.0050
  303.5000   154.6540   -52.1480     5.7940     6.0570
  304.0000   153.4520   -51.8110     5.6880     6.1790
  304.5000   155.6010   -51.4730     5.5400     5.9330
  305.0000   155.1770   -51.1360     5.3910     5.4880
  305.5000   150.9610   -50.7990     5.2430     5.2280
  306.0000   147.0360   -50.4620     5.1320     5.2280
  306.5000   146.9190   -50.1250     5.2010     5.2760
  307.0000   149.2340   -49.7880     5.2550     5.4560
  307.5000   152.0760   -49.4510     5.3100     5.7120
  308.0000   153.0180   -49.1140     5.3640     5.9680
  308.5000   152.2460   -48.7770     5.6130     6.2270
  309.0000   151.2080   -48.4390     5.9350     6.4880
  309.5000   150.1350   -48.1020     6.3220     6.7500
  310.0000   149.0120   -47.7650     6.7090     7.0370
  310.5000   147.8850   -47.4280     6.9810     7.1200
  311.0000   148.4500   -47.0910     7.0480     7.2110
  311.5000   149.2580   -46.7540     7.1030     7.3030
  312.0000   148.2700   -46.4170     6.6360     7.1690
  312.5000   145.8730   -46.0800     6.2430     6.6060
  313.0000   141.9320   -45.7430     5.8490     6.0540
  313.5000   141.2660   -45.4050     5.4550     5.5020
  314.0000   143.7840   -45.0680     5.0620     5.1120
  314.5000   149.1720   -44.7310     4.8090     5.0520
  315.0000   154.3630   -44.3940     4.8700     4.9910
  315.5000   158.6850   -44.0570     4.9150     5.1300
  316.0000   158.1290   -43.7200     4.9590     5.5460
  316.5000   149.3810   -43.3830     5.0940     5.9610
  317.0000   143.4250   -54.2580     5.4610     6.3760
  317.5000   144.8390   -66.4730     5.9260     6.7910
  318.0000   147.1990   -78.6880     6.4770     7.2060
  318.5000   148.6840   -76.5740     7.0270     7.6220
  319.0000   150.5410   -64.5940     7.3970     7.9400
  319.5000   152.0940   -53.4270     7.6560     7.9680
  320.0000   151.8430   -54.9680     7.9400     7.9960
  320.5000   147.5950   -56.4100     7.9710     8.0230
  321.0000   143.4510   -57.8520     8.0060     8.0510
  321.5000   141.7420   -59.2940     8.0410     8.0780
  322.0000   143.6070   -60.7360     8.0760     8.1150
  322.5000   145.3750   -62.1780     8.1110     8.1590
  323.0000   142.9730   -63.5080     8.1470     8.2020
  323.5000   140.4690   -56.9260     8.1820     8.2460
  324.0000   141.1470   -50.8180     8.2180     8.2890
  324.5000   144.2740   -44.7110     8.2400     8.3170
  325.0000   147.4240   -41.5940     8.1770     8.2230
  325.5000   148.8390   -39.3360     8.1300     8.1540
  326.0000   147.2550   -37.0790     8.0840     8.0840
  326.5000   145.6180   -34.8220     8.0140     8.0150
  327.0000   147.0000   -33.9830     8.0470     7.9400
  327.5000   148.8040   -36.2900     8.1120     8.0990
  328.0000   148.0610   -38.5980     8.1780     8.3170
  328.5000   145.1080   -40.9050     8.2430     8.5350
  329.0000   142.4450   -43.2120     8.3090     8.7540
  329.5000   142.2580   -45.5200     8.3740     8.9720
  330.0000   140.6920   -47.8270     8.3950     9.1260
  330.5000   136.6590   -50.1340     7.7790     8.5520
  331.0000   132.6400   -52.4420     7.2440     7.7240
  331.5000   133.1360   -51.6250     6.4830     6.8350
  332.0000   137.3940   -48.4790     5.7370     5.9460
  332.5000   147.8500   -45.3320     5.7370     5.7910
  333.0000   155.9720   -42.1860     6.0120     6.1220
  333.5000   156.0420   -39.0400     6.2950     6.7160
  334.0000   148.7220   -35.8930     6.2690     7.2660
  334.5000   141.0910   -34.4900     6.2370     7.8160
  335.0000   135.1300   -41.9070     6.8800     8.3670
  335.5000   131.3070   -49.3230     7.6610     8.9170
  336.0000   129.5510   -53.4270     8.5170     9.4680
  336.5000   128.1490   -49.2010     9.2980     9.7370
  337.0000   127.8120   -45.2080     9.8300     9.8680
  337.5000   129.5320   -41.2140     9.7920    10.0000
  338.0000   130.5770   -37.2210     9.7200    10.1080
  338.5000   128.9880   -33.2660     9.6490    10.1630
  339.0000   127.7250   -36.8810     9.9300    10.2320
  339.5000   129.5860   -40.4620    10.2080    10.2970
  340.0000   131.3860   -44.0420    11.0320    11.5560
  340.5000   131.8330   -47.6220    12.1120    12.8870
  341.0000   127.7840   -51.2030    13.1920    14.2170
  341.5000   114.7220   -52.6410    14.2730    15.5480
  342.0000   101.2510   -50.5650    15.3530    16.8780
  342.5000    88.7900   -48.4880    16.3810    18.2090
  343.0000    87.0710   -46.4110    18.5250    19.5400
  343.5000    86.2160   -44.3350    20.5700    20.8900
  344.0000    82.5880   -44.5560    22.6150    22.2860
  344.5000    78.4010   -46.8640    23.9190    23.6810
  345.0000    79.0070   -49.1710    25.0040    25.0770
  345.5000    81.5770   -51.4780    26.0580    26.4730
  346.0000    82.5520   -53.7860    27.6560    27.8690
  346.5000    81.8770   -56.0930    29.2080    28.9100
  347.0000    78.9710   -58.4010    29.7590    29.6760
  347.5000    75.2240   -60.7080    29.8780    29.5710
  348.0000    71.4620   -63.0150    30.1440    29.4760
  348.5000    70.9910   -57.9450    30.6640    29.4010
  349.0000    75.4370   -50.8700    31.1840    29.9110
  349.5000    80.9170   -43.7950    31.6680    30.3340
  350.0000    87.4070   -36.7210    31.4610    30.7760
  350.5000    82.8170   -33.6720    31.2670    30.5990
  351.0000    78.1680   -34.4670    31.0740    30.3780
  351.5000    73.7530   -35.2610    30.8800    30.1570
  352.0000    74.5620   -36.0550    30.7740    29.9360
  352.5000    79.9970   -36.8490    30.7310    29.7150
  353.0000    82.5710   -37.6430    30.6880    29.6760
  353.5000    82.0540   -38.4370    30.6450    29.6760
  354.0000    81.1050   -39.2310    30.6020    29.6760
  354.5000    80.2690   -40.0250    30.5590    29.6760
  355.0000    80.5650   -40.8190    30.5140    29.3120
  355.5000    81.4810   -41.6130    30.0220    28.9170
  356.0000    81.6480   -42.4070    29.4980    28.4590
  356.5000    80.5810   -43.2010    28.9750    27.7270
  357.0000    79.7340   -46.3570    28.4520    26.9950
  357.5000    81.8240   -50.0430    27.9290    26.2630
  358.0000    85.5390   -53.7300    27.4280    25.5310
  358.5000    90.2530   -57.4160    26.9840    24.8760
  359.0000    89.8370   -61.1030    26.5410    25.0650
  359.5000    88.9610   -62.3120    26.0970    25.2350
  360.0000    88.1060   -58.8710    25.8180    25.8050
  360.5000    87.3380   -55.4300    26.8320    27.0440
  361.0000    88.4010   -51.9890    27.5510    27.2070
  361.5000    90.1480   -48.5480    27.5510    27.2970
  362.0000    89.2860   -45.1080    27.2840    26.3000
  362.5000    86.6100   -45.0850    26.2930    25.4770
  363.0000    88.0660   -48.6440    25.3010    24.4300
  363.5000    90.5850   -52.2040    24.3170    23.3840
  364.0000    93.1350   -55.7630    23.3450    22.3380
  364.5000    95.6850   -59.3230    22.3740    21.2910
