~VERSION INFORMATION
 VERS.                2.0:   CWLS LOG ASCII STANDARD - VERSION 2.0
 WRAP.                 NO:   ONE LINE PER DEPTH STEP
~WELL INFORMATION
#MNEM.UNIT      DATA TYPE    INFORMATION
#----------   ------------   ------------------------------
 STRT.F           29.5000:   START DEPTH
 STOP.F         2719.5000:   STOP DEPTH
 STEP.F            0.5000:   STEP LENGTH
 NULL.          -999.2500:   NO VALUE
 COMP.          INTEX OIL:   COMPANY
 WELL. INTEX NPR 3 "AX" #82-20:   WELL
 FLD .             TEAPOT:   FIELD
 LOC .      S20 T39N R78W:   LOCATION
 CNTY.            NATRONA:   COUNTY
 STAT.            WYOMING:   STATE
 CTRY. UNITED STATES OF AMERICA:   COUNTRY
 SRVC.       SCHLUMBERGER:   SERVICE COMPANY
 DATE.        19-MAY-1956:   LOGDATE
 API .     49025095270000:   API NUMBER
~CURVE INFORMATION
#MNEM.UNIT       API CODE    CURVE DESCRIPTION
#----------   ------------   ------------------------------
 DEPT.F                  :   
 CALD.IN     45 280 60 00:   CALIPER FROM DENSITY LOG
 GRD .GAPI   45 310 01 00:   GAMMA RAY FROM DENSITY LOG
 CORR.G/C3   45 356 01 00:   DENSITY CORRECTION
 RHOB.G/C3   45 350 01 00:   BULK DENSITY
 SPR .MV     05 010 01 00:   SPONTANEOUS POTENTIAL
 ILD .OHMM   05 120 46 00:   DEEP INDUCTION RESISTIVITY
 SN  .OHMM   05 040 00 00:   SHORT NORMAL
~PARAMETER INFORMATION
#MNEM.UNIT          VALUE    DESCRIPTION
#----------   ------------   ------------------------------
 EKB .F         5014.3000:   Kelly bushing
 EGL .F         5004.0000:   Ground level
 EDF .F            0.0000:   Drilling floor
 TD  .F         2717.0000:   Total depth
 DATE.        19-MAY-1956:   Date logged
 CLNT.            A2DTECH:   Client Code
 PD  .                 GL:   Permanent Datum
 EPD .F              5004:   Elevation Permanent Datum
 LMF .                 KB:   Log Measured From
 DMF .                 KB:   Drilling Measured From
 DAPD.F              10.3:   Feet Above Permanent Datum
 DD  .F              2717:   Depth driller
 DL  .F              2717:   Depth logger
 BLI .F              2716:   Bottom log interval
 TLI .F               100:   Top log interval
 CS1 .IN            10.75:   Casing size
 CBD1.       10.75" @ 30':   Casing driller 1
 BS1 .IN            7.875:   Bit size
 BSD1.F              2717:   Depth drilled with bit1
 DFT .        GEL/CAUSTIC:   Type fluid in hole
 DFD .                9.7:   Density
 DFV .                 35:   Viscosity
 DFPH.                7.6:   pH
 DFL .                8.8:   Fluid loss
 MSS .           FLOWLINE:   Source of sample
 RMS .OHMM           1.68:   Rm
 MST .F                58:   Rm Meas. temp.
 RMF .OHMM           1.17:   Rmf
 MFST.F                68:   Rmf Meas. temp.
 MFSS.                 FP:   Source Rmf.
 RMB .OHMM              1:   Rm. at BHT
 BHT .F               101:   BHT.
 TCS .HRS               4:   Time Circ. stopped
 MRT .F               101:   Maximum recorded temp.
 LUN .               4507:   Logging unit number
 LUL .               CSPR:   Logging unit location
 ENGI.            MANGOLD:   Recorded By
 WITN.             TUTTLE:   Witnessed by
 ORIG.           5" PRINT:   Origin of data
 UWI .     49025095270000:   Unique Well ID
 DICO. A2D TECHNOLOGIES, INC.:   Digitizing Company
~OTHER INFORMATION
~A   DEPT     CALD         GRD      CORR       RHOB        SPR        ILD         SN   
# ...
  575.5000     8.6720    85.1490     0.0600     2.4890   -68.5950    10.7850    13.1790
  576.0000     8.6770    85.2720     0.0670     2.4890   -68.6450    10.7850    13.2470
  576.5000     8.6630    85.9590     0.0750     2.5080   -68.6990    10.7850    13.2430
  577.0000     8.6330    86.9710     0.0810     2.5100   -68.7780    10.7850    13.2020
  577.5000     8.6040    88.5100     0.0800     2.5200   -68.8580    10.7560    13.1600
  578.0000     8.5740    87.2600     0.0950     2.5430   -68.9380    10.6720    13.1180
  578.5000     8.5600    85.3970     0.0660     2.5010   -69.0170    10.6450    13.0760
  579.0000     8.5630    83.7870     0.0670     2.5040   -69.0970    10.6200    13.0340
  579.5000     8.5660    86.1510     0.0750     2.5090   -69.1770    10.5950    12.9920
  580.0000     8.5690    88.9510     0.0950     2.5270   -69.2560    10.5700    12.9500
  580.5000     8.5720    86.9480     0.1050     2.5560   -69.3360    10.5450    12.9090
  581.0000     8.5750    82.6780     0.0980     2.5470   -69.4150    10.5200    12.8720
  581.5000     8.5780    78.4570     0.0910     2.5540   -69.4850    10.4990    12.8730
  582.0000     8.5810    75.3890     0.0870     2.5400   -69.4730    10.3810    12.8730
  582.5000     8.5840    76.4450     0.0830     2.5100   -69.4060    10.3870    12.8730
  583.0000     8.5870    78.4190     0.0680     2.5050   -69.3390    10.3880    12.8730
  583.5000     8.5900    80.3810     0.0570     2.5020   -69.2730    10.3880    12.8370
  584.0000     8.5940    82.3590     0.0540     2.4980   -69.2070    10.3580    12.7840
  584.5000     8.5970    84.4030     0.0520     2.4940   -69.1400    10.3140    12.7310
  585.0000     8.5990    84.6450     0.0500     2.4910   -69.0740    10.2690    12.6780
  585.5000     8.5930    84.3750     0.0480     2.4910   -69.0070    10.2250    12.6250
  586.0000     8.5880    86.6840     0.0550     2.4900   -68.9410    10.1810    12.5720
  586.5000     8.5830    88.3600     0.0630     2.4910   -68.8750    10.1370    12.5180
  587.0000     8.5790    84.4610     0.0710     2.5100   -68.8080    10.0920    12.4650
  587.5000     8.5790    82.6070     0.0790     2.5060   -68.7430    10.0480    12.4120
  588.0000     8.5800    83.1760     0.0900     2.5320   -68.6870    10.0040    12.3590
  588.5000     8.5980    84.1910     0.0800     2.5220   -68.6890     9.9590    12.3060
  589.0000     8.6150    86.7870     0.0700     2.5170   -68.7220     9.9150    12.2530
  589.5000     8.6320    88.4700     0.0900     2.5250   -68.9040     9.8710    12.2000
  590.0000     8.6490    88.6200     0.0750     2.5010   -69.0860     9.8270    12.1470
  590.5000     8.6660    88.0650     0.0490     2.4830   -69.2660     9.7900    12.0910
  591.0000     8.6770    85.8890     0.0540     2.4710   -69.4480     9.7930    12.1000
  591.5000     8.6700    85.3390     0.0660     2.4590   -69.6350     9.8360    12.1300
  592.0000     8.6640    86.5750     0.0590     2.4670   -69.6110     9.8900    12.1600
  592.5000     8.6580    87.9160     0.0540     2.5030   -69.5180     9.9050    12.1910
  593.0000     8.6520    86.6980     0.0750     2.4810   -69.4230     9.9170    12.2210
  593.5000     8.6460    86.6170     0.0390     2.4670   -69.3270     9.9280    12.2510
  594.0000     8.6400    86.9630     0.0420     2.4870   -69.2310     9.9400    12.2530
  594.5000     8.6380    82.7030     0.0520     2.5000   -69.1360     9.9520    12.1380
  595.0000     8.6310    77.9380     0.0520     2.4860   -69.0400     9.9630    12.0230
  595.5000     8.6160    74.0970     0.0500     2.4720   -68.9440     9.9750    11.9070
  596.0000     8.6010    76.4060     0.0480     2.4620   -68.8490     9.9870    11.8870
  596.5000     8.5870    81.2230     0.0680     2.4930   -68.7530     9.9900    11.9170
  597.0000     8.5790    86.0490     0.0910     2.5070   -68.6580     9.9900    11.9470
  597.5000     8.5790    88.7290     0.0950     2.5060   -68.5630     9.9900    11.9780
  598.0000     8.5790    85.1240     0.0760     2.5120   -68.4890     9.9900    12.0080
  598.5000     8.5910    85.1560     0.0780     2.5160   -68.5300     9.9900    12.0390
  599.0000     8.6040    87.7470     0.0930     2.5130   -68.7140     9.9890    12.0720
  599.5000     8.6170    87.8490     0.0930     2.5190   -68.8950     9.9680    12.0060
  600.0000     8.6300    86.6510     0.0880     2.5260   -69.0750     9.8710    11.9130
  600.5000     8.6430    85.4280     0.0830     2.5280   -69.2560     9.7760    11.8190
  601.0000     8.6560    84.2050     0.0770     2.5170   -69.4400     9.6810    11.7250
  601.5000     8.6690    82.9790     0.0720     2.5140   -69.4660     9.5860    11.6300
  602.0000     8.6820    81.6890     0.0660     2.4910   -69.4010     9.4910    11.5360
  602.5000     8.6950    81.8280     0.0630     2.4800   -69.3350     9.3960    11.4420
  603.0000     8.7080    84.0430     0.0670     2.4830   -69.2690     9.3010    11.3480
  603.5000     8.7180    83.4690     0.0710     2.4890   -69.2030     9.2060    11.2540
  604.0000     8.7170    81.1440     0.0820     2.5220   -69.1370     9.1110    11.1730
  604.5000     8.7260    80.4550     0.1020     2.5390   -69.0700     9.0160    11.1380
  605.0000     8.7370    84.1410     0.1130     2.5320   -69.0040     8.9190    11.1020
  605.5000     8.7490    86.9770     0.1000     2.5240   -68.9380     8.8990    11.0660
  606.0000     8.7610    88.8840     0.0900     2.5200   -68.8720     8.9410    11.0290
  606.5000     8.7730    89.6380     0.0920     2.5160   -68.8060     9.1040    10.9910
  607.0000     8.7730    89.1460     0.0980     2.5220   -68.7400     9.1230    11.0450
  607.5000     8.7610    87.1600     0.1090     2.5310   -68.6740     9.1450    11.1230
  608.0000     8.7480    85.8110     0.1000     2.5210   -68.6080     9.1670    11.2030
  608.5000     8.7350    88.1820     0.0810     2.5000   -68.5420     9.1890    11.2820
  609.0000     8.7230    87.8770     0.0560     2.4790   -68.4760     9.2110    11.3620
  609.5000     8.7100    84.1790     0.0610     2.4750   -68.4100     9.2330    11.4410
  610.0000     8.6970    83.0010     0.0690     2.4870   -68.3450     9.2560    11.5180
  610.5000     8.6850    84.0430     0.0630     2.5000   -68.3000     9.2770    11.5320
  611.0000     8.6780    82.7550     0.0710     2.5280   -68.3610     9.2950    11.4680
  611.5000     8.6860    81.4010     0.0890     2.5190   -68.4200     9.2940    11.3980
  612.0000     8.6940    83.8030     0.0780     2.4980   -68.4780     9.2940    11.3320
  612.5000     8.7020    86.6250     0.0530     2.4780   -68.5370     9.2940    11.2810
  613.0000     8.7100    88.8570     0.0600     2.4730   -68.5960     9.2940    11.2820
  613.5000     8.7180    87.6870     0.0600     2.4750   -68.6540     9.2940    11.2960
  614.0000     8.7260    86.1800     0.0750     2.5170   -68.7130     9.2940    11.3140
  614.5000     8.7340    87.0420     0.0850     2.5050   -68.7720     9.2940    11.3320
  615.0000     8.7410    87.8250     0.0730     2.4900   -68.8310     9.2940    11.3500
  615.5000     8.7490    86.5610     0.0650     2.4750   -68.8890     9.2940    11.3680
  616.0000     8.7570    86.9550     0.0570     2.4700   -68.9480     9.2950    11.3860
  616.5000     8.7410    89.4060     0.0590     2.4680   -69.0070     9.3200    11.4040
  617.0000     8.7220    91.8200     0.0630     2.4650   -69.0670     9.4310    11.4220
  617.5000     8.7030    93.5870     0.0670     2.4810   -69.0520     9.5410    11.4410
  618.0000     8.6840    91.1810     0.0720     2.5110   -68.8550     9.6500    11.4590
  618.5000     8.6650    87.0720     0.0680     2.5010   -68.6560     9.7590    11.4790
  619.0000     8.6570    82.9690     0.0610     2.4880   -68.4580     9.8680    11.5270
  619.5000     8.6550    82.5600     0.0530     2.4790   -68.2600     9.9780    11.7300
  620.0000     8.6530    79.7830     0.0540     2.4920   -68.0620    10.0870    11.9290
  620.5000     8.6510    78.8640     0.0590     2.4850   -67.8660    10.1960    12.1270
