~VERSION INFORMATION
 VERS.                2.0:   CWLS LOG ASCII STANDARD - VERSION 2.0
 WRAP.                 NO:   ONE LINE PER DEPTH STEP
~WELL INFORMATION
#MNEM.UNIT      DATA TYPE    INFORMATION
#----------   ------------   ------------------------------
 STRT.F            0.0000:   START DEPTH
 STOP.F         3982.0000:   STOP DEPTH
 STEP.F            0.5000:   STEP LENGTH
 NULL.          -999.2500:   NO VALUE
 COMP.   LAWRENCE ALLISON:   COMPANY
 WELL. LAWRENCE NPR 3 "LX" #61-10:   WELL
 FLD .                NPR:   FIELD
 LOC .      S10 T38N R78W:   LOCATION
 CNTY.            NATRONA:   COUNTY
 STAT.            WYOMING:   STATE
 CTRY. UNITED STATES OF AMERICA:   COUNTRY
 SRVC.      DRESSER ATLAS:   SERVICE COMPANY
 DATE.        14-APR-1983:   LOGDATE
 API .     49025109180000:   API NUMBER
~CURVE INFORMATION
#MNEM.UNIT       API CODE    CURVE DESCRIPTION
#----------   ------------   ------------------------------
 DEPT.F                  :   
 CALD.IN     45 280 60 00:   CALIPER FROM DENSITY LOG
 RHOB.G/C3   45 350 01 00:   BULK DENSITY
 DRHO.G/C3   45 356 01 00:   DENSITY CORRECTION
 TEND.LBS    45 635 01 00:   TENSION FROM DENSITY LOG
 CNC .DEC    42 890 03 00:   NEUTRON PORISITY SANDSTONE
 GRR .GAPI   07 310 01 00:   GAMMA RAY FROM RESISTIVITY
 SPR .MV     07 010 01 00:   SPONTANEOUS POTENTIAL
 ILD .OHMM   07 120 46 00:   DEEP INDUCTION RESISTIVITY
 ILM .OHMM   07 120 44 00:   INDUCTION LOG MEDIUM RESISTIVITY
 SFL .OHMM   07 220 01 00:   SHALLOW FOCUSED LOG RESISTIVITY
 TENS.LBS    60 635 01 00:   TENSION FROM SONIC LOG
 DT  .US/F   60 520 00 00:   DELTA TIME
 TENR.LBS    07 635 01 00:   TENSION FROM RESISTIVITY
~PARAMETER INFORMATION
#MNEM.UNIT          VALUE    DESCRIPTION
#----------   ------------   ------------------------------
 EKB .F         5164.0000:   Kelly bushing
 EGL .F         5154.0000:   Ground level
 EDF .F            0.0000:   Drilling floor
 TD  .F         3985.0000:   Total depth
 DATE.        14-APR-1983:   Date logged
 CLNT.            A2DTECH:   Client Code
 SL  . 138' FNL & 1331' FEL:   Surface Location
 PD  .                 GL:   Permanent Datum
 EPD .F              5154:   Elevation Permanent Datum
 LMF .                 KB:   Log Measured From
 DMF .                 KB:   Drilling Measured From
 DD  .F              3985:   Depth driller
 DL  .F              3948:   Depth logger
 BLI .F              3945:   Bottom log interval
 CS1 .IN            8.625:   Casing size
 CBD1.      8.625" @ 442':   Casing driller 1
 CBL1.F               453:   Casing logger 1
 BS1 .IN            7.875:   Bit size
 DFT .                KCI:   Type fluid in hole
 DFD .                8.9:   Density
 DFV .                 40:   Viscosity
 DFPH.                8.5:   pH
 DFL .                 10:   Fluid loss
 MSS .           FLOWLINE:   Source of sample
 RMS .OHMM           0.38:   Rm
 MST .F                68:   Rm Meas. temp.
 RMF .OHMM           0.30:   Rmf
 MFST.F                68:   Rmf Meas. temp.
 RMC .OHMM           0.49:   Rmc
 MCST.F                68:   Rmc Meas. temp.
 MFSS.               MEAS:   Source Rmf.
 RMB .OHMM           0.22:   Rm. at BHT
 BHT .F               122:   BHT.
 TCS .HRS               4:   Time Circ. stopped
 MRT .F               122:   Maximum recorded temp.
 LUN .               6764:   Logging unit number
 LUL .              WLSTN:   Logging unit location
 ENGI.            QUICKEL:   Recorded By
 WITN.           JENNINGS:   Witnessed by
 ORIG.           5" PRINT:   Origin of data
 UWI .     49025109180000:   Unique Well ID
 DICO. A2D TECHNOLOGIES, INC.:   Digitizing Company
 DAPD.                 10:   Feet Above Permanent Datum
 BSD1.               3985:   Depth drilled with bit1
 MCSS.               CALC:   Source Rmc.
~OTHER INFORMATION
~A    DEPT    CALD       RHOB       DRHO       TEND        CNC         GRR       SPR        ILD        ILM        SFL       TENS         DT       TENR   
# ...
 3692.0000     9.2830     2.1800     0.1420  -115.5380     0.4130   106.6790   -27.3840     3.2800     3.8780     4.1550   -18.2780    92.0060    22.5470
 3692.5000     9.0030     2.2400     0.1930  -110.6820     0.3670   107.1950   -27.7170     3.6980     4.2780     4.8600   -26.1020    89.2790     6.9810
 3693.0000     8.9060     2.2980     0.2170  -123.2070     0.3300   108.4270   -28.1670     3.9610     4.4370     5.1880   -40.8620    86.9120   -10.7530
 3693.5000     8.7970     2.3700     0.2080  -135.7320     0.3090   109.5810   -28.5280     4.2410     4.4370     5.4220   -55.6210    83.4680   -28.4880
 3694.0000     8.7050     2.4330     0.1740  -144.5450     0.2880   112.1290   -28.8730     4.2660     4.4370     5.1840   -70.3810    81.9180   -36.9180
 3694.5000     8.6900     2.4960     0.0670  -140.6910     0.2740   117.3080   -29.1400     4.1190     4.3040     4.8660   -71.5310    82.6280   -29.2440
 3695.0000     8.6900     2.5560     0.0480  -136.8370     0.2650   120.3370   -29.0940     3.9720     4.0140     4.4780   -65.3810    83.6390   -22.4530
 3695.5000     8.6900     2.5670     0.0800  -132.9830     0.2650   118.9740   -29.0340     3.8250     3.8370     4.0140   -59.2310    85.4020   -15.6630
 3696.0000     8.6900     2.5540     0.1100  -129.1300     0.2660   116.7050   -28.9370     3.6610     3.6120     3.5010   -53.0810    87.1650    -8.8730
 3696.5000     8.7240     2.5230     0.1230  -125.4980     0.2710   115.6860   -28.4160     3.4840     3.3860     3.4380   -46.9310    89.0120    -2.0830
 3697.0000     8.7650     2.4920     0.1370  -104.3030     0.2930   116.6290   -27.9360     3.3080     3.1670     3.2550   -40.7820    90.8740     4.7080
 3697.5000     8.8690     2.4210     0.1760   -84.2630     0.3120   119.1370   -27.7640     3.1310     3.0780     3.2550   -34.5690    92.7560    12.6360
 3698.0000     8.9830     2.3930     0.2100   -65.7370     0.3170   120.0250   -27.5020     2.9550     2.9910     3.2850   -37.7920    92.5550    10.0220
 3698.5000     9.0960     2.3910     0.1950   -81.0120     0.3210   117.5230   -27.1750     2.7790     2.8190     3.7320   -41.8920    90.2190     6.8820
 3699.0000     9.1090     2.4140     0.1740  -112.8940     0.3290   113.7190   -26.9110     2.6020     2.5450     3.6640   -41.7830    89.2960     2.7250
 3699.5000     9.1110     2.4340     0.1580  -131.7980     0.3450   110.3950   -26.6450     2.4760     2.2400     2.8910   -33.5830    89.1480    19.7220
 3700.0000     9.2950     2.3910     0.1870  -120.5330     0.3940   106.4600   -26.3190     2.3880     2.0450     2.2200   -24.5490    91.8700    42.3690
 3700.5000     9.7580     2.3000     0.2510  -110.5430     0.4340   101.5600   -25.8670     2.4320     2.0640     2.2000   -29.2920    99.8970    22.5470
 3701.0000    10.4460     2.1830     0.2750   -85.6570     0.4440    99.2280   -25.2760     2.5680     2.6640     2.1800   -45.7250   109.0010     2.5490
 3701.5000    11.1280     2.0410     0.2590   -85.6570     0.4330   100.5760   -24.5530     2.7180     3.5330     2.3660   -51.1660   112.2950   -17.0960
 3702.0000    11.5950     2.0120     0.2330  -100.1760     0.3860   101.1430   -23.8970     2.8680     4.2010     3.0540   -37.7210   106.1770     0.6440
 3702.5000    11.3240     2.0030     0.2280  -120.7230     0.3190   100.4580   -23.3610     2.9990     4.7730     4.3570   -24.5490    95.8950    32.4580
 3703.0000    10.7590     2.0500     0.2380  -141.2700     0.3000   102.1410   -22.9100     3.3770     5.0600     6.3860   -28.1990    91.4480    22.5470
 3703.5000     9.9670     2.1490     0.2300  -155.3780     0.2810   105.1430   -22.9070     3.6640     5.3470     8.2460   -45.8060    85.2360    -5.4010
 3704.0000     9.1750     2.2930     0.1320  -155.3780     0.2620   106.3120   -23.2400     4.5870     5.6980     8.0230   -63.4130    79.6550   -30.2780
 3704.5000     8.7390     2.4790     0.0220  -154.5060     0.2540   106.2440   -23.3840     5.6750     6.0480     7.3910   -73.1610    77.7480   -56.7390
 3705.0000     8.6210     2.5430     0.0220  -153.2890     0.2590   107.3630   -23.3230     5.7270     6.3890     6.5660   -63.7700    78.3640   -51.5550
 3705.5000     8.5510     2.5490     0.0600  -152.0720     0.2640   109.2690   -23.1580     5.4460     6.2730     6.3460   -54.3800    79.3980   -36.2470
 3706.0000     8.5620     2.5460     0.0660  -150.8550     0.2670   110.7940   -23.0370     4.9470     5.4710     6.0490   -44.9900    80.5810   -17.0960
 3706.5000     8.5710     2.5470     0.0570  -149.6380     0.2670   112.8410   -23.1460     4.4490     4.7830     5.1340   -35.6000    81.7640   -17.0960
 3707.0000     8.5790     2.5520     0.0470  -148.4210     0.2670   114.6670   -23.3430     4.1010     4.2650     4.4760   -34.5690    84.3920   -15.0360
 3707.5000     8.5860     2.5560     0.0530  -147.2040     0.2620   115.9160   -23.5190     3.8620     4.0240     3.8000   -34.5690    87.6790   -12.8730
 3708.0000     8.5940     2.5360     0.1350  -145.9870     0.2530   117.4070   -23.6970     3.6240     3.7830     3.6810   -24.5490    91.0470   -10.7100
 3708.5000     8.6010     2.4880     0.2250  -145.4180     0.2480   117.9870   -23.8500     3.3850     3.5420     3.5010   -35.2790    94.5590    -8.5470
 3709.0000     8.6120     2.4500     0.2320  -145.4180     0.2700   117.9250   -23.9560     3.1470     3.2550     3.4870   -45.5490    95.8900    -7.1850
 3709.5000     8.7330     2.4240     0.2290  -145.4180     0.3260   115.7580   -23.9380     2.9680     3.1620     3.4690   -55.8200    96.6630    -7.1850
 3710.0000     8.8650     2.3970     0.2250  -135.4580     0.4050   110.2630   -23.8010     2.8280     3.0260     3.5350   -66.0910    95.9600    -7.1850
 3710.5000     8.9970     2.3600     0.2080  -150.2390     0.3860   106.9600   -23.5990     2.6640     3.0050     3.5650   -74.6490    94.6590    -7.1850
 3711.0000     9.1280     2.2980     0.1860  -141.8330     0.3390   107.8460   -23.1840     2.6450     2.9710     3.2070   -78.0420    94.7560    -7.1850
 3711.5000     9.2600     2.2310     0.0600  -116.8820     0.3000   110.4640   -22.6880     2.6220     2.9370     2.9180   -81.5630    95.0300    -7.1850
 3712.0000     9.3930     2.1800     0.0610   -95.6180     0.3020   114.5370   -22.4960     2.6000     2.8450     2.9440   -84.6690    94.9280    -7.1850
 3712.5000     9.5270     2.1560     0.1300   -95.6180     0.3010   117.5530   -22.5720     2.5160     2.6880     3.5650   -75.0070    92.7560    -7.1850
 3713.0000     9.4700     2.1660     0.2230  -145.4180     0.2950   116.6160   -22.7260     2.3980     2.6880     3.5330   -64.4430    90.7940    -7.1850
 3713.5000     9.3890     2.2180     0.2050  -145.4180     0.2920   112.0830   -22.8160     2.2800     2.6880     2.9670   -53.8790    89.6490    -7.1850
 3714.0000     9.4380     2.2440     0.1880  -115.5380     0.2980   107.3230   -22.6440     2.2160     2.6880     2.4540   -43.3150    92.5030    -7.1850
 3714.5000     9.8820     2.1710     0.1920   -85.6570     0.3290   106.1130   -22.4360     2.1790     2.6880     2.4540   -32.7510    97.8550    -7.1850
 3715.0000    10.3240     2.1340     0.2050   -95.6180     0.3710   107.2650   -22.4710     2.1730     2.6610     2.5640   -24.5490   102.2750    -7.1850
 3715.5000    10.5960     2.0540     0.2330  -119.5720     0.3920   108.7050   -22.5500     2.2010     2.6300     2.7130   -35.7270   102.9760    -7.1850
 3716.0000    10.4860     2.0490     0.2420  -144.5220     0.3920   110.7940   -22.6000     2.2300     2.6000     2.7130   -46.6820   102.6080    -7.1850
 3716.5000    10.0190     2.0860     0.2390  -174.6390     0.3580   110.8370   -22.7340     2.2610     2.5690     2.6150   -57.6370   101.3730    -7.1850
 3717.0000    10.0290     2.1070     0.2380  -230.7770     0.3530   106.1130   -23.0160     2.2560     2.5380     2.6880   -64.6290    97.5410    -7.1850
 3717.5000    10.0220     2.1130     0.2440  -264.9400     0.3620    99.8720   -23.4820     2.2500     2.4990     3.0710   -64.6290    93.6910    -7.1850
