~VERSION INFORMATION
 VERS.                2.0:   CWLS LOG ASCII STANDARD - VERSION 2.0
 WRAP.                 NO:   ONE LINE PER DEPTH STEP
~WELL INFORMATION
#MNEM.UNIT      DATA TYPE    INFORMATION
#----------   ------------   ------------------------------
 STRT.F          640.0000:   START DEPTH
 STOP.F         2792.0000:   STOP DEPTH
 STEP.F            0.5000:   STEP LENGTH
 NULL.          -999.2500:   NO VALUE
 COMP.    FENIX & SCISSON:   COMPANY
 WELL.   FENIX SHX #41-11:   WELL
 FLD .        TEAPOT DOME:   FIELD
 LOC .      S11 T38N R78W:   LOCATION
 CNTY.            NATRONA:   COUNTY
 STAT.            WYOMING:   STATE
 CTRY. UNITED STATES OF AMERICA:   COUNTRY
 SRVC.           BIRDWELL:   SERVICE COMPANY
 DATE.        07-JUL-1979:   LOGDATE
 API .     49025107880000:   API NUMBER
~CURVE INFORMATION
#MNEM.UNIT       API CODE    CURVE DESCRIPTION
#----------   ------------   ------------------------------
 DEPT.F                  :   
 CALD.IN     45 280 60 00:   CALIPER FROM DENSITY LOG
 RHOB.G/C3   45 350 01 00:   BULK DENSITY
 CORR.G/C3   45 356 01 00:   DENSITY CORRECTION
 GRD .GAPI   45 310 01 00:   GAMMA RAY FROM DENSITY LOG
~PARAMETER INFORMATION
#MNEM.UNIT          VALUE    DESCRIPTION
#----------   ------------   ------------------------------
 EKB .F         5168.0000:   Kelly bushing
 EGL .F         5158.0000:   Ground level
 EDF .F            0.0000:   Drilling floor
 EPD .F            0.0000:   Permanent datum
 TD  .F         2801.0000:   Total depth
 DATE.        07-JUL-1979:   Date logged
 CLNT.            A2DTECH:   Client Code
 SL  . 95' FNL & 2414' FWL:   Surface Location
 PD  .                 GL:   Permanent Datum
 DAPD.F                10:   Feet Above Permanent Datum
 DD  .F              2801:   Depth driller
 DL  .F              2791:   Depth logger
 BLI .F              2790:   Bottom log interval
 TLI .F               640:   Top log interval
 CS1 .IN            9.625:   Casing size
 CBD1.      9.625" @ 909':   Casing driller 1
 CBL1.F               910:   Casing logger 1
 BS1 .IN             8.75:   Bit size
 BSD1.F              2801:   Depth drilled with bit1
 DFT .                AIR:   Type fluid in hole
 LUN .               2959:   Logging unit number
 LUL .             CASPER:   Logging unit location
 ENGI.         B. RULLINS:   Recorded By
 WITN.           GINSMORE:   Witnessed by
 ORIG.           5" PRINT:   Origin of data
 UWI .     49025107880000:   Unique Well ID
 DICO. A2D TECHNOLOGIES, INC.:   Digitizing Company
~OTHER INFORMATION
~A   DEPT     CALD       RHOB       CORR         GRD  
# ...
 1370.0000    10.2190     2.5010     0.0090   113.2970
 1370.5000    10.2530     2.5120     0.0160   114.3480
 1371.0000    10.2870     2.5220     0.0150   113.1640
 1371.5000    10.3220     2.5160     0.0100   111.9230
 1372.0000    10.3640     2.5090     0.0060   114.6140
 1372.5000    10.3540     2.5090     0.0060   114.7000
 1373.0000    10.3400     2.5160     0.0100   113.5830
 1373.5000    10.3250     2.5210     0.0140   114.2480
 1374.0000    10.3100     2.5020     0.0160   115.6690
 1374.5000    10.2960     2.4920     0.0160   115.7580
 1375.0000    10.2830     2.4960     0.0160   114.3270
 1375.5000    10.2920     2.5000     0.0140   113.3170
 1376.0000    10.3260     2.5030     0.0120   119.7160
 1376.5000    10.3590     2.5020     0.0100   122.8140
 1377.0000    10.3910     2.5010     0.0100   118.7660
 1377.5000    10.4240     2.5000     0.0140   119.1270
 1378.0000    10.4580     2.4930     0.0190   118.5950
 1378.5000    10.4630     2.4850     0.0170   115.7010
 1379.0000    10.4540     2.4780     0.0140   114.9770
 1379.5000    10.4140     2.4830     0.0160   115.6750
 1380.0000    10.3740     2.4940     0.0180   115.4090
 1380.5000    10.3350     2.5060     0.0200   114.0410
 1381.0000    10.2950     2.5090     0.0160   114.4610
 1381.5000    10.2560     2.5050     0.0100   116.7530
 1382.0000    10.2160     2.5010     0.0100   119.0360
 1382.5000    10.1770     2.4970     0.0130   121.3410
 1383.0000    10.1380     2.4990     0.0150   121.3870
 1383.5000    10.0980     2.5010     0.0180   119.4860
 1384.0000    10.0590     2.4950     0.0140   117.6070
 1384.5000    10.0190     2.4870     0.0090   115.7510
 1385.0000     9.9800     2.4800     0.0030   115.5250
 1385.5000     9.9400     2.4860     0.0020   115.5070
 1386.0000     9.9280     2.4930     0.0030   116.4820
 1386.5000     9.9480     2.5000     0.0110   117.7870
 1387.0000     9.9670     2.5070     0.0200   119.0870
 1387.5000     9.9870     2.5110     0.0260   120.1890
 1388.0000    10.0020     2.5080     0.0250   118.2590
 1388.5000     9.9990     2.5050     0.0190   115.1890
 1389.0000     9.9910     2.5030     0.0130   114.1050
 1389.5000     9.9830     2.5020     0.0100   116.9110
 1390.0000     9.9750     2.5040     0.0080   120.5340
 1390.5000     9.9670     2.4970     0.0050   120.4950
 1391.0000     9.9590     2.4840     0.0050   115.9940
 1391.5000     9.9510     2.4830     0.0050   112.0680
 1392.0000     9.9430     2.4880     0.0060   115.2870
 1392.5000     9.9350     2.4930     0.0070   119.6670
 1393.0000     9.9270     2.4980     0.0070   123.8370
 1393.5000     9.9190     2.5030     0.0080   123.9770
 1394.0000     9.9110     2.5070     0.0090   123.9810
 1394.5000     9.9030     2.5120     0.0100   123.0820
 1395.0000     9.8950     2.5160     0.0090   121.9970
 1395.5000     9.8870     2.5210     0.0050   118.5770
 1396.0000     9.8790     2.5230     0.0000   115.2830
 1396.5000     9.8710     2.5290     0.0000   112.0010
 1397.0000     9.8630     2.5370     0.0030   108.7350
 1397.5000     9.8750     2.5450     0.0080   105.8870
 1398.0000     9.9110     2.5400     0.0080   108.8790
 1398.5000     9.9460     2.5320     0.0040   115.2030
 1399.0000     9.9810     2.5260     0.0020   121.4870
 1399.5000    10.0160     2.5210     0.0050   127.8970
 1400.0000    10.0510     2.5120     0.0080   129.2410
 1400.5000    10.0860     2.5020     0.0030   125.5600
 1401.0000    10.1210     2.4940    -0.0080   123.0550
 1401.5000    10.1220     2.4940    -0.0070   120.5560
 1402.0000    10.1210     2.4970    -0.0030   118.0320
 1402.5000    10.1190     2.5030     0.0020   117.0180
 1403.0000    10.1170     2.5100     0.0070   116.4050
 1403.5000    10.1150     2.5120     0.0080   116.0640
 1404.0000    10.1130     2.5110     0.0070   119.3320
 1404.5000    10.1120     2.5100     0.0060   123.4520
 1405.0000    10.1100     2.5090     0.0060   123.7020
 1405.5000    10.1080     2.5110     0.0090   121.7070
 1406.0000    10.1060     2.5200     0.0120   120.1680
 1406.5000    10.1040     2.5220     0.0120   120.4770
 1407.0000    10.1010     2.5180     0.0090   120.5000
 1407.5000    10.1740     2.5140     0.0090   117.7660
 1408.0000    10.2720     2.5220     0.0180   117.4950
 1408.5000    10.3700     2.5270     0.0240   119.6980
 1409.0000    10.4700     2.5260     0.0260   120.4880
 1409.5000    10.5040     2.5070     0.0230   117.1070
 1410.0000    10.4560     2.4870     0.0200   114.6970
 1410.5000    10.4010     2.4710     0.0180   113.5380
 1411.0000    10.3460     2.4850     0.0180   115.2190
 1411.5000    10.2920     2.5030     0.0240   118.3130
 1412.0000    10.2370     2.5090     0.0300   121.4440
 1412.5000    10.1830     2.5100     0.0290   121.9380
 1413.0000    10.1290     2.5100     0.0240   121.8960
 1413.5000    10.1230     2.5160     0.0190   123.8360
 1414.0000    10.1240     2.5180     0.0180   126.0060
 1414.5000    10.1250     2.5150     0.0170   127.0770
 1415.0000    10.1270     2.5120     0.0170   121.2990
 1415.5000    10.1280     2.5080     0.0160   118.4710
 1416.0000    10.1290     2.5060     0.0160   121.8370
 1416.5000    10.1310     2.5120     0.0160   122.1370
 1417.0000    10.1320     2.5190     0.0230   122.1810
 1417.5000    10.1330     2.5260     0.0310   123.6630
 1418.0000    10.1350     2.5210     0.0350   123.9990
 1418.5000    10.1360     2.5150     0.0280   122.7170
 1419.0000    10.1370     2.5090     0.0220   121.1370
 1419.5000    10.1380     2.5120     0.0150   121.0640
 1420.0000    10.1400     2.5230     0.0140   125.0650
 1420.5000    10.1410     2.5340     0.0140   121.1840
 1421.0000    10.1420     2.5440     0.0140   119.7060
 1421.5000    10.1440     2.5440     0.0140   121.5030
 1422.0000    10.1450     2.5330     0.0120   122.5630
 1422.5000    10.1460     2.5190     0.0080   122.4950
 1423.0000    10.1480     2.5060     0.0090   121.3760
 1423.5000    10.1490     2.5090     0.0110   120.2260
 1424.0000    10.1500     2.5170     0.0130   121.2090
 1424.5000    10.1510     2.5240     0.0140   125.2270
 1425.0000    10.1530     2.5240     0.0140   129.0240
 1425.5000    10.1540     2.5220     0.0140   129.2620
 1426.0000    10.1550     2.5200     0.0130   125.5810
 1426.5000    10.1570     2.5190     0.0120   122.4740
 1427.0000    10.1580     2.5210     0.0120   119.3820
 1427.5000    10.1590     2.5300     0.0160   116.2560
 1428.0000    10.1610     2.5370     0.0190   115.1830
 1428.5000    10.1620     2.5450     0.0240   118.1130
 1429.0000    10.1620     2.5480     0.0220   121.9110
 1429.5000    10.1620     2.5380     0.0160   125.7080
 1430.0000    10.1620     2.5360     0.0120   129.5280
 1430.5000    10.1620     2.5370     0.0120   131.3310
 1431.0000    10.1620     2.5410     0.0120   131.0270
 1431.5000    10.1620     2.5410     0.0120   128.6720
 1432.0000    10.1620     2.5340     0.0120   128.2870
 1432.5000    10.1620     2.5240     0.0090   128.7490
 1433.0000    10.1620     2.5160     0.0050   125.4960
 1433.5000    10.1620     2.5170     0.0040   119.8330
 1434.0000    10.1620     2.5190     0.0060   119.4150
 1434.5000    10.1620     2.5210     0.0090   121.6680
 1435.0000    10.1620     2.5200     0.0120   124.1390
 1435.5000    10.1620     2.5240     0.0140   123.3950
 1436.0000    10.1620     2.5280     0.0170   122.1560
 1436.5000    10.1620     2.5320     0.0200   123.8220
 1437.0000    10.1620     2.5350     0.0160   126.3940
 1437.5000    10.1620     2.5330     0.0090   128.9800
 1438.0000    10.1630     2.5160     0.0060   130.8510
 1438.5000    10.1870     2.5020     0.0060   136.5640
 1439.0000    10.2490     2.5030     0.0090   141.6640
 1439.5000    10.3110     2.5010     0.0150   139.1400
 1440.0000    10.3730     2.4970     0.0180   136.1180
 1440.5000    10.4350     2.4910     0.0170   133.1060
 1441.0000    10.4620     2.4850     0.0170   131.5460
 1441.5000    10.4630     2.4790     0.0160   133.3290
 1442.0000    10.4460     2.4790     0.0160   136.0700
 1442.5000    10.4040     2.4960     0.0180   138.9850
