~VERSION INFORMATION
 VERS.                2.0:   CWLS LOG ASCII STANDARD - VERSION 2.0
 WRAP.                 NO:   ONE LINE PER DEPTH STEP
~WELL INFORMATION
#MNEM.UNIT      DATA TYPE    INFORMATION
#----------   ------------   ------------------------------
 STRT.F          176.5000:   START DEPTH
 STOP.F         3010.0000:   STOP DEPTH
 STEP.F            0.5000:   STEP LENGTH
 NULL.          -999.2500:   NO VALUE
 COMP.    FENIX & SCISSON:   COMPANY
 WELL.   FENIX "A" #36-28:   WELL
 FLD .              NPR 3:   FIELD
 LOC .      S28 T39N R78W:   LOCATION
 CNTY.            NATRONA:   COUNTY
 STAT.            WYOMING:   STATE
 CTRY. UNITED STATES OF AMERICA:   COUNTRY
 SRVC.       SCHLUMBERGER:   SERVICE COMPANY
 DATE.        19-AUG-1977:   LOGDATE
 API .     49025104150000:   API NUMBER
~CURVE INFORMATION
#MNEM.UNIT       API CODE    CURVE DESCRIPTION
#----------   ------------   ------------------------------
 DEPT.F                  :   
 SPR .MV     07 010 01 00:   SPONTANEOUS POTENTIAL
 ILM .OHMM   07 120 44 00:   INDUCTION LOG MEDIUM RESISTIVITY
 ILD .OHMM   07 120 46 00:   INDUCTION LOG DEEP RESISTIVITY
 LL8 .OHMM   07 220 08 00:   LATEROLOG-8 RESISTIVITY
 GRD .GAPI   45 310 01 00:   GAMMA RAY FROM DENSITY LOG
 CALD.IN     45 280 60 00:   CALIPER FROM DENSITY LOG
 RHOB.G/C3   45 350 01 00:   BULK DENSITY
 DCOR.G/C3   45 356 01 00:   DENSITY CORRECTION
~PARAMETER INFORMATION
#MNEM.UNIT          VALUE    DESCRIPTION
#----------   ------------   ------------------------------
 EKB .F         5107.0000:   Kelly bushing
 EGL .F         5097.0000:   Ground level
 EDF .F            0.0000:   Drilling floor
 TD  .F         3012.0000:   Total depth
 DATE.        19-AUG-1977:   Date logged
 CLNT.            A2DTECH:   Client Code
 SL  . 1650' FSL & 1650' FWL:   Surface Location
 PD  .                 GL:   Permanent Datum
 EPD .F              5097:   Elevation Permanent Datum
 LMF .                 KB:   Log Measured From
 DMF .                 KB:   Drilling Measured From
 DAPD.F                10:   Feet Above Permanent Datum
 DD  .F              3010:   Depth driller
 DL  .F              3011:   Depth logger
 BLI .F              3005:   Bottom log interval
 TLI .F               215:   Top log interval
 CS1 .IN            8.625:   Casing size
 CBD1.      8.625" @ 205':   Casing driller 1
 CBL1.F               215:   Casing logger 1
 BS1 .IN            7.875:   Bit size
 BSD1.F              3010:   Depth drilled with bit1
 DFT .                FGM:   Type fluid in hole
 DFD .                8.8:   Density
 DFV .                 33:   Viscosity
 DFPH.               10.5:   pH
 DFL .               10.6:   Fluid loss
 MSS .            MUD PIT:   Source of sample
 RMS .OHMM            .19:   Rm
 MST .F                76:   Rm Meas. temp.
 RMF .OHMM            .17:   Rmf
 MFST.F                78:   Rmf Meas. temp.
 MFSS.               MEAS:   Source Rmf.
 RMB .OHMM            .13:   Rm. at BHT
 BHT .F               112:   BHT.
 TCS .HRS            0700:   Time Circ. stopped
 TLAB.HRS            1400:   Time logger at bottom
 MRT .F               112:   Maximum recorded temp.
 LUN .               5642:   Logging unit number
 ENGI.          CHALUPSKY:   Recorded By
 WITN.     WES PETTINGILL:   Witnessed by
 ORIG.           5" PRINT:   Origin of data
 UWI .     49025104150000:   Unique Well ID
 DICO. A2D TECHNOLOGIES, INC.:   Digitizing Company
 LUL .               CSPR:   Logging unit location
~OTHER INFORMATION
~A   DEPT      SPR        ILM        ILD        LL8        GRD       CALD       RHOB       DCOR   
# ...
 1877.5000   -58.0600     8.8210     9.2100    10.6560   153.0940     8.4620     2.4450     0.0610
 1878.0000   -58.3410     8.7510     9.1400    10.5690   153.2530     8.4680     2.4300     0.0440
 1878.5000   -58.5880     8.6800     9.0710    10.5260   151.1330     8.4730     2.4160     0.0290
 1879.0000   -58.5800     8.6090     9.0010    10.4830   149.8890     8.4790     2.4010     0.0380
 1879.5000   -58.5790     8.5380     8.9320    10.4390   151.2730     8.4950     2.4030     0.0280
 1880.0000   -58.5790     8.4290     8.8240    10.3960   153.1200     8.5140     2.3980     0.0490
 1880.5000   -58.5780     8.4510     8.8520    10.3530   152.5790     8.5330     2.3950     0.0710
 1881.0000   -58.4590     8.4980     8.9130    10.3100   151.0150     8.5510     2.4430     0.1020
 1881.5000   -58.2380     8.5450     8.9740    10.2670   148.5210     8.5700     2.4260     0.1320
 1882.0000   -58.0160     8.5920     9.0340    10.2170   146.3480     8.5660     2.3940     0.1360
 1882.5000   -57.7930     8.6390     9.0950    10.3720   148.4650     8.5440     2.3720     0.1290
 1883.0000   -57.5700     8.6860     9.1560    10.5560   151.2220     8.5220     2.3710     0.1560
 1883.5000   -57.3520     8.7340     9.2170    10.7410   153.9690     8.4990     2.3600     0.1100
 1884.0000   -57.2780     8.7810     9.2770    10.9750   156.7270     8.4770     2.3480     0.0650
 1884.5000   -57.6330     8.8280     9.3380    10.9030   159.2850     8.4610     2.3600     0.0430
 1885.0000   -57.9750     8.8750     9.3990    10.7590   156.2340     8.4660     2.3710     0.0720
 1885.5000   -58.3160     8.9220     9.4950    10.6150   152.2520     8.4700     2.4070     0.1160
 1886.0000   -58.6600     8.9690     9.4870    10.5010   150.5580     8.4730     2.4270     0.1480
 1886.5000   -58.9600     8.9940     9.4690    10.7000   153.1190     8.4770     2.3930     0.1180
 1887.0000   -58.6670     9.0040     9.4500    10.8630   154.2760     8.4810     2.3830     0.0880
 1887.5000   -58.7360     9.0150     9.4310    10.9940   152.0790     8.4850     2.3970     0.0590
 1888.0000   -58.9630     9.0260     9.4130    10.8930   149.9450     8.4890     2.4170     0.0330
 1888.5000   -59.1910     9.0360     9.3940    11.0290   149.0630     8.4930     2.4350     0.0460
 1889.0000   -59.3070     9.0470     9.3760    11.1990   150.1810     8.4970     2.4340     0.0410
 1889.5000   -58.9690     9.0580     9.3570    11.3690   151.5540     8.5000     2.4280     0.0280
 1890.0000   -58.6150     9.0700     9.3380    11.5090   152.9360     8.4960     2.4240     0.0350
 1890.5000   -58.2240     8.9750     9.3030    11.2110   154.0390     8.4930     2.4350     0.0470
 1891.0000   -58.0260     8.8500     9.1920    10.9590   154.5740     8.4900     2.4410     0.0520
 1891.5000   -58.1230     8.7260     9.0800    10.5980   154.8860     8.4870     2.4320     0.0430
 1892.0000   -58.0690     8.6030     8.9690    10.6770   153.6360     8.4840     2.4240     0.0320
 1892.5000   -57.7760     8.4790     8.8580    10.7940   155.5200     8.4810     2.4180     0.0410
 1893.0000   -57.4830     8.3550     8.7470    10.3500   159.0530     8.4780     2.4240     0.0370
 1893.5000   -57.2130     8.2010     8.5850    10.5760   163.2270     8.4750     2.4320     0.0310
 1894.0000   -57.7020     8.3000     8.6610    11.3270   168.4350     8.4720     2.4400     0.0510
 1894.5000   -58.2340     8.4320     8.7980    12.2710   166.6750     8.4690     2.4360     0.0370
 1895.0000   -58.7570     8.5630     8.9350    12.1350   163.4050     8.4660     2.4290     0.0420
 1895.5000   -58.6990     8.6950     9.0730    11.9530   162.0310     8.4630     2.4210     0.0440
 1896.0000   -58.6100     8.8270     9.2100    11.7210   160.7330     8.4600     2.4140     0.0230
 1896.5000   -58.5240     8.9590     9.3470    11.7840   159.3960     8.4570     2.4070     0.0220
 1897.0000   -58.4400     9.1540     9.4950    11.9030   157.3830     8.4540     2.4020     0.0320
 1897.5000   -58.4190     9.1240     9.4700    12.0220   155.3230     8.4510     2.4320     0.0370
 1898.0000   -58.5590     9.0680     9.4440    12.1410   153.2640     8.4480     2.4220     0.0280
 1898.5000   -58.6920     9.0120     9.4170    12.2710   151.0750     8.4440     2.4280     0.0360
 1899.0000   -58.8250     8.9560     9.3900    11.8600   148.4950     8.4410     2.4150     0.0160
 1899.5000   -58.9580     8.9050     9.3640    11.4090   146.1550     8.4370     2.4030     0.0380
 1900.0000   -59.0920     8.9050     9.3370    11.0950   143.5360     8.4330     2.4290     0.0640
 1900.5000   -59.2260     8.9050     9.3100    11.4380   140.8950     8.4300     2.4660     0.0770
 1901.0000   -59.3560     8.9050     9.2830    11.7030   139.7830     8.4260     2.4720     0.0660
 1901.5000   -59.2160     8.9050     9.2570    12.0480   143.6800     8.4220     2.4620     0.0580
 1902.0000   -59.0410     8.9050     9.2360    11.7480   147.0780     8.4180     2.4660     0.0550
 1902.5000   -58.8680     8.9050     9.2320    11.0950   150.5550     8.4140     2.4480     0.0670
 1903.0000   -58.5870     8.8920     9.2270    11.2660   151.9510     8.4100     2.4230     0.0450
 1903.5000   -58.4640     8.8780     9.2220    11.6170   153.3190     8.4060     2.4050     0.0220
 1904.0000   -58.6290     8.8630     9.2170    11.9380   155.0030     8.4020     2.4300     0.0190
 1904.5000   -58.7720     8.8480     9.2120    11.7830   157.3090     8.4070     2.4170     0.0440
 1905.0000   -58.6980     8.8340     9.2080    11.6400   155.8760     8.4120     2.3920     0.0220
 1905.5000   -58.6220     8.8190     9.2030    11.5090   153.0090     8.4160     2.4180     0.0300
 1906.0000   -58.7790     8.8040     9.1980    11.6300   152.1920     8.4210     2.4540     0.0380
 1906.5000   -59.1950     8.7900     9.1930    11.7430   154.4760     8.4260     2.4410     0.0290
 1907.0000   -59.6100     8.7750     9.1890    11.8560   156.4070     8.4300     2.4170     0.0460
 1907.5000   -60.0430     8.7610     9.1840    11.9810   157.6980     8.4350     2.4360     0.0390
 1908.0000   -60.1140     8.7460     9.1790    12.1400   154.6670     8.4400     2.4660     0.0610
 1908.5000   -60.0470     8.6750     9.1740    12.2990   152.1880     8.4450     2.4590     0.0510
 1909.0000   -59.9780     8.6640     9.1700    12.3830   149.7250     8.4500     2.4390     0.0340
 1909.5000   -60.1680     8.1260     9.1650    11.8180   148.0770     8.4550     2.4180     0.0250
 1910.0000   -60.3990     8.2250     9.1600    11.2870   152.3690     8.4600     2.3960     0.0180
 1910.5000   -60.6290     8.7400     9.1550    10.8930   149.9430     8.4650     2.3680     0.0130
 1911.0000   -60.5550     8.7150     9.1240    11.5050   151.4510     8.4710     2.3910     0.0180
 1911.5000   -60.1090     8.6820     9.0790    12.1590   154.0870     8.4760     2.4280     0.0350
 1912.0000   -59.6680     8.6480     9.0330    12.0990   150.7850     8.4810     2.4520     0.0520
 1912.5000   -59.2250     8.6120     8.9880    12.0080   148.2110     8.4860     2.4340     0.0580
 1913.0000   -58.9150     8.5760     8.9430    11.9160   145.7240     8.4910     2.3970     0.0360
 1913.5000   -58.7730     8.5400     8.8980    11.8290   145.3640     8.4960     2.4040     0.0230
 1914.0000   -58.6270     8.5050     8.8520    11.4430   146.1070     8.5020     2.4180     0.0390
 1914.5000   -58.6640     8.4690     8.8070    11.0740   146.8430     8.5070     2.4320     0.0260
 1915.0000   -58.7930     8.4330     8.7620    10.7940   147.5790     8.5120     2.4480     0.0440
 1915.5000   -58.9230     8.3970     8.7170    11.0840   149.1700     8.5170     2.4330     0.0520
 1916.0000   -59.0530     8.3610     8.6640    11.3860   151.2750     8.5200     2.4190     0.0380
 1916.5000   -59.1840     8.3250     8.6750    11.3230   151.7690     8.5200     2.4520     0.0530
 1917.0000   -59.3140     8.2780     8.6870    11.1950   149.3800     8.5200     2.4280     0.0390
 1917.5000   -59.4450     8.2840     8.6990    11.0680   146.4660     8.5200     2.4120     0.0250
