~VERSION INFORMATION
 VERS.                2.0:   CWLS LOG ASCII STANDARD - VERSION 2.0
 WRAP.                 NO:   ONE LINE PER DEPTH STEP
~WELL INFORMATION
#MNEM.UNIT      DATA TYPE    INFORMATION
#----------   ------------   ------------------------------
 STRT.F          196.5000:   START DEPTH
 STOP.F         2376.0000:   STOP DEPTH
 STEP.F            0.5000:   STEP LENGTH
 NULL.          -999.2500:   NO VALUE
 COMP.    FENIX & SCISSON:   COMPANY
 WELL. FENIX & SCISSON NPR-3 #55-10:   WELL
 FLD .  TEAPOT DOME NPR-3:   FIELD
 LOC .      S10 T38N R78W:   LOCATION
 CNTY.            NATRONA:   COUNTY
 STAT.            WYOMING:   STATE
 CTRY. UNITED STATES OF AMERICA:   COUNTRY
 SRVC.           BIRDWELL:   SERVICE COMPANY
 DATE.        09-MAY-1979:   LOGDATE
 API .     49025107780000:   API NUMBER
~CURVE INFORMATION
#MNEM.UNIT       API CODE    CURVE DESCRIPTION
#----------   ------------   ------------------------------
 DEPT.F                  :   
 CALD.IN     45 280 60 00:   CALIPER FROM DENSITY LOG
 GRD .GAPI   45 310 01 00:   GAMMA RAY FROM DENSITY LOG
 RHOB.G/C3   45 350 01 00:   BULK DENSITY
 CORR.G/C3   45 356 01 00:   DENSITY CORRECTION
~PARAMETER INFORMATION
#MNEM.UNIT          VALUE    DESCRIPTION
#----------   ------------   ------------------------------
 EKB .F         5203.0000:   Kelly bushing
 EGL .F         5193.0000:   Ground level
 EDF .F            0.0000:   Drilling floor
 TD  .F         2376.0000:   Total depth
 CLNT.            A2DTECH:   Client Code
 SL  . 2283' FSL & 2107' FEL:   Surface Location
 PD  .                 GL:   Permanent Datum
 EPD .F              5193:   Elevation Permanent Datum
 LMF .                 KB:   Log Measured From
 DMF .                 KB:   Drilling Measured From
 DAPD.F                10:   Feet Above Permanent Datum
 DATE.        09-MAY-1979:   Date Logged [DD-MMM-YYYY]
 DD  .F              2360:   Depth driller
 DL  .F              2376:   Depth logger
 BLI .F              2376:   Bottom log interval
 TLI .F               196:   Top log interval
 CS1 .IN            9.625:   Casing size
 CBD1.             9.625":   Casing driller 1
 CBL1.F               545:   Casing logger 1
 BS1 .IN             8.75:   Bit size
 BSD1.F              2360:   Depth drilled with bit1
 DFT .                AIR:   Type fluid in hole
 TCS .HRS               3:   Time Circ. stopped
 LUN .               2959:   Logging unit number
 LUL .             CASPER:   Logging unit location
 ENGI.         B. ROLLINS:   Recorded By
 WITN.             RHODES:   Witnessed by
 ORIG.           5" PRINT:   Origin of data
 UWI .     49025107780000:   Unique Well ID
 DICO. A2D TECHNIOLOGIES,INC.:   Digitizing Company
~OTHER INFORMATION
~A  DEPTH     CALD        GRD       RHOB       CORR
# ...
  999.5000     9.2684   137.7025     2.5553     0.1321
 1000.0000     9.2685   138.0100     2.5591     0.1216
 1000.5000     9.2535   137.1109     2.5621     0.1261
 1001.0000     9.2385   132.2903     2.5652     0.1277
 1001.5000     9.2386   129.8829     2.5674     0.1111
 1002.0000     9.2235   135.0170     2.5375     0.0840
 1002.5000     9.2085   138.3411     2.4968     0.0598
 1003.0000     9.1935   140.7603     2.4894     0.0508
 1003.5000     9.1785   139.0757     2.5099     0.0432
 1004.0000     9.1786   133.7981     2.4735     0.0340
 1004.5000     9.1636   131.3863     2.4743     0.0235
 1005.0000     9.1637   129.7287     2.4917     0.0131
 1005.5000     9.1637   127.7694     2.5190     0.0572
 1006.0000     9.1487   129.2792     2.5365     0.0960
 1006.5000     9.1471   131.6940     2.5410     0.1126
 1007.0000     9.1399   133.6562     2.5471     0.1065
 1007.5000     9.1327   134.1102     2.5159     0.0673
 1008.0000     9.1255   135.6200     2.4968     0.0357
 1008.5000     9.1183   136.6773     2.4910     0.0146
 1009.0000     9.1110   136.6788     2.4918     0.0085
 1009.5000     9.1038   136.5294     2.4933     0.0055
 1010.0000     9.0845   137.5867     2.4933     0.0010
 1010.5000     9.0851   142.6334     2.4888    -0.0020
 1011.0000     9.0705   145.7496     2.4812    -0.0050
 1011.5000     9.0712   145.8868     2.4744    -0.0050
 1012.0000     9.0718   143.4754     2.4699    -0.0005
 1012.5000     9.0724   140.7620     2.4653     0.0055
 1013.0000     9.0730   140.0089     2.4737     0.0116
 1013.5000     9.0736   142.2733     2.4891     0.0176
 1014.0000     9.0742   144.3863     2.4979     0.0236
 1014.5000     9.0759   143.4829     2.4995     0.0236
 1015.0000     9.0905   141.5236     2.5025     0.0282
 1015.5000     9.0912   141.9775     2.5108     0.0424
 1016.0000     9.0766   144.9956     2.5260     0.0608
 1016.5000     9.0622   146.6562     2.5611     0.0884
 1017.0000     9.0628   147.2610     2.5839     0.1186
 1017.5000     9.0634   146.8101     2.5877     0.1352
 1018.0000     9.0488   144.6999     2.5832     0.1442
 1018.5000     9.0343   142.2881     2.5575     0.1352
 1019.0000     9.0351   140.4796     2.5348     0.1261
 1019.5000     9.0356   141.6878     2.5250     0.1171
 1020.0000     9.0362   143.1976     2.5304     0.1083
 1020.5000     9.0368   141.6607     2.5258     0.0975
 1021.0000     9.0374   138.1479     2.5213     0.0884
 1021.5000     9.0380   135.8719     2.5152     0.0779
 1022.0000     9.0386   134.1541     2.5099     0.0693
 1022.5000     9.0392   134.4573     2.5085     0.0643
 1023.0000     9.0398   135.3638     2.5101     0.0658
 1023.5000     9.0404   135.0636     2.5192     0.0764
 1024.0000     9.0411   133.2551     2.5306     0.0839
 1024.5000     9.0417   129.6367     2.5420     0.0899
 1025.0000     9.0423   127.2249     2.5496     0.0945
 1025.5000     9.0429   125.1148     2.5580     0.0914
 1026.0000     9.0435   127.3787     2.5618     0.0851
 1026.5000     9.0441   130.5476     2.5225     0.0615
 1027.0000     9.0447   131.3029     2.4945     0.0330
 1027.5000     9.0453   129.4948     2.4642    -0.0005
 1028.0000     9.0459   127.9880     2.4408    -0.0322
 1028.5000     9.0465   127.9895     2.4650    -0.0412
 1029.0000     9.0471   128.4435     2.4810    -0.0171
 1029.5000     9.0778   129.9533     2.4956    -0.0050
 1030.0000     9.0935   132.0664     2.4876    -0.0005
 1030.5000     9.1092   134.7980     2.4811    -0.0005
 1031.0000     9.1400   135.9909     2.4811    -0.0065
 1031.5000     9.1406   134.8459     2.4827    -0.0050
 1032.0000     9.1412   131.9219     2.4880     0.0161
 1032.5000     9.1419   130.6787     2.4987     0.0357
 1033.0000     9.1425   130.1145     2.5116     0.0538
 1033.5000     9.1582   129.5131     2.5366     0.0719
 1034.0000     9.1588   128.4587     2.5480     0.0884
 1034.5000     9.1594   127.5549     2.5534     0.1005
 1035.0000     9.1599   129.5175     2.5572     0.1020
 1035.5000     9.1605   131.6306     2.5391     0.0960
 1036.0000     9.1611   132.9896     2.5141     0.0884
 1036.5000     9.1465   131.9353     2.5035     0.0808
 1037.0000     9.1472   126.5069     2.5112     0.0747
 1037.5000     9.1327   122.7376     2.5304     0.0717
 1038.0000     9.1182   118.6667     2.5363     0.0704
 1038.5000     9.1038   116.2550     2.5317     0.0975
 1039.0000     9.1044   113.8432     2.5249     0.1020
 1039.5000     9.1050   113.8370     2.5234     0.0854
 1040.0000     9.0905   117.3152     2.5470     0.0688
 1040.5000     9.0609   123.0673     2.5713     0.0915
 1041.0000     9.0617   122.8537     2.5660     0.1065
 1041.5000     9.0622   121.8446     2.5403     0.1111
 1042.0000     9.0628   123.5056     2.5055     0.1020
 1042.5000     9.0634   125.3170     2.4896     0.0447
 1043.0000     9.0640   126.3743     2.5313     0.0085
 1043.5000     9.0646   126.6771     2.5760     0.0719
 1044.0000     9.0652   122.9082     2.5730     0.1005
 1044.5000     9.0658   119.8931     2.5420     0.0884
 1045.0000     9.0664   116.1239     2.5177     0.0734
 1045.5000     9.0670   113.1088     2.5023     0.0598
 1046.0000     9.0676   114.0152     2.4967     0.0402
 1046.5000     9.0682   117.7875     2.5149     0.0206
 1047.0000     9.0688   120.6547     2.5233     0.0176
 1047.5000     9.0694   121.5612     2.5172     0.0113
 1048.0000     9.0714   118.9986     2.5067     0.0402
 1048.5000     9.0857   115.6818     2.5006     0.0568
 1049.0000     9.0864   113.8733     2.4969     0.0492
 1049.5000     9.0870   112.0649     2.4962     0.0583
 1050.0000     9.0876   113.8763     2.5008     0.0583
 1050.5000     9.0880   114.9336     2.5091     0.0660
 1051.0000     9.0842   113.3967     2.5183     0.0765
 1051.5000     9.0807   111.5957     2.5266     0.0889
 1052.0000     9.0772   113.1285     2.5342     0.1008
 1052.5000     9.0737   115.2416     2.5381     0.1111
 1053.0000     9.0702   116.6006     2.5333     0.1156
 1053.5000     9.0667   114.9429     2.5163     0.1186
 1054.0000     9.0632   111.6262     2.4857     0.0824
 1054.5000     9.0463   111.9293     2.4557     0.0477
 1055.0000     9.0468   112.8358     2.4436     0.0266
 1055.5000     9.0472   110.6414     2.4557     0.0116
 1056.0000     9.0477   108.5372     2.4861     0.0070
 1056.5000     9.0481   108.3800     2.5066     0.0251
 1057.0000     9.0486   109.6079     2.5339     0.0598
 1057.5000     9.0490   112.2095     2.5384     0.0854
 1058.0000     9.0496   114.1841     2.5361     0.1050
 1058.5000     9.0651   114.7583     2.5293     0.1216
 1059.0000     9.0655   112.8068     2.5300     0.1322
 1059.5000     9.0660   113.4175     2.5315     0.1276
 1060.0000     9.0664   115.0841     2.5217     0.1156
 1060.5000     9.0669   115.9946     2.5065     0.0960
 1061.0000     9.0673   112.0823     2.4898     0.0688
 1061.5000     9.0677   111.3337     2.4754     0.0402
 1062.0000     9.0682   113.7562     2.4663     0.0131
 1062.5000     9.0686   115.8753     2.4647     0.0055
 1063.0000     9.0842   117.8435     2.4754     0.0040
 1063.5000     9.0846   116.9459     2.4898     0.0118
 1064.0000     9.0851   113.4842     2.4935     0.0191
 1064.5000     9.1007   113.6515     2.4926     0.0131
 1065.0000     9.1162   115.3692     2.4897     0.0116
 1065.5000     9.1167   117.6817     2.4897     0.0236
 1066.0000     9.1322   120.6047     2.4965     0.0327
 1066.5000     9.1326   121.9696     2.4927     0.0281
 1067.0000     9.1331   120.1671     2.4813     0.0191
 1067.5000     9.1335   118.6643     2.4722     0.0146
 1068.0000     9.1490   120.7852     2.4669     0.0236
 1068.5000     9.1495   123.5075     2.4661     0.0251
 1069.0000     9.1650   122.0067     2.4858     0.0176
 1069.5000     9.1805   120.3549     2.4896     0.0160
 1070.0000     9.1810   119.4574     2.4926     0.0342
 1070.5000     9.1814   120.8223     2.5229     0.0585
 1071.0000     9.1820   123.5446     2.5592     0.0742
 1071.5000     9.1824   125.5128     2.5669     0.1005
 1072.0000     9.1829   123.9521     2.5385     0.1095
