~VERSION INFORMATION
 VERS.                2.0:   CWLS LOG ASCII STANDARD - VERSION 2.0
 WRAP.                 NO:   ONE LINE PER DEPTH STEP
~WELL INFORMATION
#MNEM.UNIT      DATA TYPE    INFORMATION
#----------   ------------   ------------------------------
 STRT.F          196.5000:   START DEPTH
 STOP.F         3202.0000:   STOP DEPTH
 STEP.F            0.5000:   STEP LENGTH
 NULL.          -999.2500:   NO VALUE
 COMP.    FENIX & SCISSON:   COMPANY
 WELL.   FENIX "AX" #26-3:   WELL
 FLD .              NPR-3:   FIELD
 LOC .       S3 T38N R78W:   LOCATION
 CNTY.            NATRONA:   COUNTY
 STAT.            WYOMING:   STATE
 CTRY. UNITED STATES OF AMERICA:   COUNTRY
 SRVC.              WELEX:   SERVICE COMPANY
 DATE.        19-JUN-1977:   LOGDATE
 API .     49025103800000:   API NUMBER
~CURVE INFORMATION
#MNEM.UNIT       API CODE    CURVE DESCRIPTION
#----------   ------------   ------------------------------
 DEPT.F                  :   
 CALD.IN     45 280 60 00:   CALIPER FROM DENSITY LOG
 GRD .GAPI   45 310 01 00:   GAMMA RAY FROM DENSITY LOG
 RHOB.G/C3   45 350 01 00:   BULK DENSITY
 CORR.G/C3   45 356 01 00:   DENSITY CORRECTION
 SPR .MV     07 010 01 00:   SPONTANEOUS POTENTIAL
 ILD .OHMM   07 120 46 00:   DEEP INDUCTION RESISTIVITY
 ILM .OHMM   07 120 44 00:   INDUCTION LOG MEDIUM RESISTIVITY
 SGRD.OHMM   07 220 05 00:   SHALLOW SHORT GUARD RESISTIVITY
~PARAMETER INFORMATION
#MNEM.UNIT          VALUE    DESCRIPTION
#----------   ------------   ------------------------------
 EKB .F         5231.0000:   Kelly bushing
 EGL .F         5221.0000:   Ground level
 EDF .F            0.0000:   Drilling floor
 TD  .F         3204.0000:   Total depth
 CLNT.            A2DTECH:   Client Code
 SL  . 1320' FSL & 740' FWL:   Surface Location
 PD  .                 GL:   Permanent Datum
 EPD .F              5221:   Elevation Permanent Datum
 LMF .                 KB:   Log Measured From
 DMF .                 KB:   Drilling Measured From
 DAPD.F                10:   Feet Above Permanent Datum
 DATE.        19-JUN-1977:   Date Logged [DD-MMM-YYYY]
 DD  .F              3200:   Depth driller
 DL  .F              3204:   Depth logger
 BLI .F              3202:   Bottom log interval
 TLI .F               220:   Top log interval
 CS1 .IN            8.625:   Casing size
 CBD1.      8.625" @ 220':   Casing driller 1
 CBL1.F               220:   Casing logger 1
 BS1 .IN            7.875:   Bit size
 BSD1.F              3200:   Depth drilled with bit1
 DFT .                KCL:   Type fluid in hole
 DFD .                9.1:   Density
 RMS .OHMM           1.19:   Rm
 MST .F                65:   Rm Meas. temp.
 TCS .HRS               4:   Time Circ. stopped
 MRT .F               115:   Maximum recorded temp.
 LUN .               8766:   Logging unit number
 ENGI.          T. JOYNER:   Recorded By
 WITN.         PETTINGILL:   Witnessed by
 ORIG.           5" PRINT:   Origin of data
 UWI .     49025103800000:   Unique Well ID
 DICO. A2D TECHNOLOGIES, INC.:   Digitizing Company
 DFPH.                7.5:   pH
 DFL .                4.2:   Fluid loss
 MSS .            MUD PIT:   Source of sample
 RMF .OHMM           1.19:   Rmf
 MFST.F                65:   Rmf Meas. temp.
 MFSS.               MEAS:   Source Rmf.
 RMC .OHMM           2.01:   Rmc
 MCST.F                65:   Rmc Meas. temp.
 MCSS.               MEAS:   Source Rmc.
 RMB .OHMM            .67:   Rm. at BHT
 BHT .F               115:   BHT.
~OTHER INFORMATION
~A   DEPT     CALD         GRD      RHOB       CORR        SPR        ILD        ILM       SGRD   
# ...
 3153.0000     7.9437    92.1675     2.4709     0.0147   -52.3820     4.6655     5.1286     5.4177
 3153.5000     7.8423    92.5095     2.4688     0.0156   -52.5206     4.6683     5.0971     5.2014
 3154.0000     7.7997    91.0925     2.4735     0.0158   -52.9550     4.6527     5.0643     5.3133
 3154.5000     7.8018    89.9589     2.4719     0.0159   -53.2415     4.6093     4.9985     5.6959
 3155.0000     7.8039    89.7168     2.4707     0.0161   -53.5280     4.5502     5.0016     6.0225
 3155.5000     7.8059    89.4784     2.4730     0.0154   -53.8145     4.5418     4.9352     6.1098
 3156.0000     7.8080    90.1349     2.4680     0.0141   -53.8047     4.5200     4.8711     5.8553
 3156.5000     7.8105    90.7934     2.4621     0.0120   -53.9437     4.4958     4.8405     5.4792
 3157.0000     7.8125    91.7437     2.4525     0.0114   -53.7841     4.4369     4.7770     5.1883
 3157.5000     7.8143    92.1433     2.4474     0.0115   -53.7747     4.4097     4.7470     4.9811
 3158.0000     7.8312    92.7541     2.4468     0.0117   -53.7654     4.3521     4.7171     4.7821
 3158.5000     7.8335    91.6351     2.4454     0.0119   -53.7560     4.3242     4.6875     4.5911
 3159.0000     7.8398    90.7996     2.4440     0.0120   -53.8950     4.2676     4.6906     4.4078
 3159.5000     7.8572    90.5455     2.4427     0.0121   -53.8853     4.2708     4.6939     4.3500
 3160.0000     7.8694    92.7053     2.4436     0.0115   -53.8757     4.2734     4.6967     4.3527
 3160.5000     7.8863    92.1678     2.4491     0.0102   -53.8661     4.2175     4.6996     4.4225
 3161.0000     7.9180    91.0342     2.4553     0.0111   -53.8548     4.2201     4.7024     4.5741
 3161.5000     7.8458    89.8860     2.4627     0.0127   -53.8455     4.1939     4.7379     4.6725
 3162.0000     7.7882    92.0457     2.4643     0.0136   -53.8361     4.1846     4.7737     4.8727
 3162.5000     7.7607    92.9986     2.4712     0.0160   -53.8268     4.1699     4.7772     5.1521
 3163.0000     7.7777    93.9514     2.4781     0.0176   -53.8174     4.1731     4.7801     5.3730
 3163.5000     7.7950    94.6062     2.4849     0.0178   -53.9560     4.1809     4.8162     5.5265
 3164.0000     7.8268    95.2846     2.4828     0.0172   -53.9467     4.2069     4.7852     5.6169
 3164.5000     7.8586    95.9764     2.4785     0.0158   -53.9371     4.2095     4.7888     5.3457
 3165.0000     7.8606    96.6683     2.4741     0.0145   -53.7661     4.2412     4.7917     5.1620
 3165.5000     7.8775    97.5283     2.4694     0.0124   -53.6204     4.2443     4.7946     4.9280
 3166.0000     7.8642    97.6117     2.4644     0.0111   -53.6110     4.3058     4.7645     4.7639
 3166.5000     7.8370    96.1553     2.4594     0.0112   -53.4538     4.3084     4.7321     4.6692
 3167.0000     7.8237    95.0217     2.4545     0.0106   -53.4444     4.2699     4.6409     4.5764
 3167.5000     7.8411    95.6781     2.4508     0.0100   -53.5853     4.2543     4.6111     4.5792
 3168.0000     7.8580    96.0358     2.4480     0.0101   -53.5736     4.2570     4.5505     4.5819
 3168.5000     7.8601    95.2123     2.4458     0.0110   -53.7122     4.2304     4.4908     4.6164
 3169.0000     7.8770    94.3768     2.4512     0.0112   -53.8508     4.1752     4.4630     4.5875
 3169.5000     7.8642    92.0510     2.4544     0.0113   -53.9870     4.1474     4.4350     4.5903
 3170.0000     7.8216    94.4942     2.4508     0.0107   -54.1279     4.0948     4.4200     4.5615
 3170.5000     7.8088    96.9373     2.4434     0.0109   -54.2823     4.0141     4.3796     4.4715
 3171.0000     7.8114    98.7843     2.4413     0.0102   -54.4038     3.9338     4.3222     4.4122
 3171.5000     7.8283   100.3333     2.4444     0.0096   -54.3942     3.8299     4.2365     4.3544
 3172.0000     7.8303   101.2862     2.4447     0.0098   -54.3846     3.7798     4.1521     4.2974
 3172.5000     7.8324    99.5564     2.4432     0.0099   -54.3747     3.7298     4.0694     4.2711
 3173.0000     7.8493    96.9326     2.4411     0.0101   -54.5133     3.6563     3.9883     4.1005
 3173.5000     7.8513    96.3951     2.4390     0.0102   -54.5037     3.6085     3.9632     3.9914
 3174.0000     7.8534    97.3479     2.4361     0.0096   -54.3443     3.5369     3.9383     3.9664
 3174.5000     7.8400    98.3010     2.4318     0.0098   -54.3365     3.4906     3.8866     3.9688
 3175.0000     7.8426    96.5226     2.4282     0.0099   -54.3256     3.4450     3.8622     3.9168
 3175.5000     7.8446    96.0336     2.4290     0.0101   -54.3173     3.3999     3.8121     3.9197
 3176.0000     7.8467    99.6837     2.4314     0.0110   -54.3068     3.3560     3.7876     3.9218
 3176.5000     7.8386   100.6219     2.4330     0.0111   -54.2975     3.3345     3.7378     3.9242
 3177.0000     7.8359    98.9068     2.4332     0.0120   -54.4364     3.3136     3.7143     3.9269
 3177.5000     7.8380   100.1577     2.4311     0.0122   -54.4267     3.2702     3.6910     3.8754
 3178.0000     7.8355   102.3028     2.4358     0.0131   -54.2692     3.2502     3.6683     3.8511
 3178.5000     7.8273   101.4673     2.4488     0.0147   -54.2577     3.2299     3.6453     3.8267
 3179.0000     7.8294    99.1268     2.4502     0.0156   -54.2484     3.1877     3.6224     3.7769
 3179.5000     7.8318   101.2865     2.4496     0.0165   -54.2390     3.1901     3.5996     3.7274
 3180.0000     7.8338   103.7297     2.4482     0.0181   -54.3776     3.1701     3.6024     3.6791
 3180.5000     7.8359   105.5767     2.4484     0.0190   -54.3683     3.1720     3.6045     3.6813
 3181.0000     7.8379   106.8276     2.4492     0.0192   -54.3589     3.1517     3.5814     3.6580
 3181.5000     7.8400   108.3766     2.4516     0.0193   -54.3495     3.1541     3.5841     3.6605
 3182.0000     7.8420   105.7527     2.4577     0.0195   -54.4882     3.1123     3.5614     3.6880
 3182.5000     7.8440   110.5804     2.4534     0.0196   -54.7746     3.1147     3.5637     3.6903
 3183.0000     7.8461   110.3410     2.4505     0.0198   -54.7629     3.0952     3.5659     3.6419
 3183.5000     7.8630   111.5919     2.4499     0.0199   -54.7536     3.0758     3.5680     3.6168
 3184.0000     7.8658   110.1602     2.4485     0.0200   -54.8922     3.0356     3.5212     3.5471
 3184.5000     7.8820   109.0266     2.4487     0.0202   -54.8828     3.0166     3.5238     3.5007
 3185.0000     7.8845   111.4845     2.4466     0.0203   -54.7255     2.9572     3.4771     3.4793
 3185.5000     7.8865   111.2450     2.4435     0.0197   -54.7162     2.8985     3.4314     3.4569
 3186.0000     7.8886   109.8134     2.4408     0.0199   -54.7068     2.8542     3.3864     3.4595
 3186.5000     7.8906   107.4876     2.4365     0.0193   -54.6975     2.7942     3.2966     3.4616
 3187.0000     7.8773   108.1423     2.4344     0.0187   -54.6879     2.7670     3.2532     3.4637
 3187.5000     7.8645   109.3932     2.4293     0.0172   -54.5127     2.7309     3.2106     3.4658
 3188.0000     7.8522   108.5577     2.4249     0.0152   -54.4433     2.7126     3.1890     3.4441
 3188.5000     7.8542   107.3258     2.4243     0.0146   -54.3739     2.6752     3.1704     3.4225
 3189.0000     7.8563   109.2712     2.4237     0.0140   -54.3044     2.6437     3.1292     3.3777
 3189.5000     7.8434   109.0318     2.4231     0.0134   -54.2350     2.6268     3.1311     3.2432
 3190.0000     7.8455   106.6763     2.4195     0.0128   -54.0371     2.5924     3.1110     3.1137
 3190.5000     7.8475   110.6999     2.4188     0.0130   -54.0278     2.5762     3.1133     3.0937
 3191.0000     7.8347   111.9412     2.4227     0.0131   -53.5746     2.5781     3.1368     3.2046
 3191.5000     7.8368   113.1559     2.4259     0.0140   -53.1215     2.5975     3.1387     3.2962
 3192.0000     7.8393   114.4068     2.4298     0.0149   -52.8163     2.5991     3.1843     3.3904
 3192.5000     7.8414   114.4654     2.4329     0.0158   -52.3631     2.6556     3.2324     3.4874
 3193.0000     7.8583   113.3318     2.4435     0.0167   -51.7467     2.7120     3.3764     3.5662
