~VERSION INFORMATION
 VERS.                2.0:   CWLS LOG ASCII STANDARD - VERSION 2.0
 WRAP.                 NO:   ONE LINE PER DEPTH STEP
~WELL INFORMATION
#MNEM.UNIT      DATA TYPE    INFORMATION
#----------   ------------   ------------------------------
 STRT.F           95.0000:   START DEPTH
 STOP.F          866.5000:   STOP DEPTH
 STEP.F            0.5000:   STEP LENGTH
 NULL.          -999.2500:   NO VALUE
 COMP.          U.S. NAVY:   COMPANY
 WELL. U.S NAVY RES 3 TEAPOT DOM "SX" #41-2:   WELL
 FLD .        TEAPOT DOME:   FIELD
 LOC .       S2 T38N R78W:   LOCATION
 CNTY.            NATRONA:   COUNTY
 STAT.            WYOMING:   STATE
 CTRY. UNITED STATES OF AMERICA:   COUNTRY
 SRVC.       SCHLUMBERGER:   SERVICE COMPANY
 DATE.        20-JUL-1953:   LOGDATE
 API .     49025064770000:   API NUMBER
~CURVE INFORMATION
#MNEM.UNIT       API CODE    CURVE DESCRIPTION
#----------   ------------   ------------------------------
 DEPT.F                  :   
 SPR .MV     05 010 01 00:   SPONTANEOUS POTENTIAL FROM RES.
 ASN .OHMM   05 041 16 00:   AMPLIFIED SHORT NORMAL 16"
 ILD .OHMM   05 120 46 00:   INDUCTION LOG DEEP
 GR  .GAPI   30 310 01 00:   GAMMA RAY
~PARAMETER INFORMATION
#MNEM.UNIT          VALUE    DESCRIPTION
#----------   ------------   ------------------------------
 EKB .F         5140.0000:   Kelly bushing
 EGL .F         5135.0000:   Ground level
 TD  .F          862.0000:   Total depth
 DATE.        20-JUL-1953:   Date logged
 CLNT.            A2DTECH:   Client Code
 DD  .F               862:   Depth driller
 DL  .F               855:   Depth logger
 BLI .F               654:   Bottom log interval
 TLI .F                50:   Top log interval
 CS1 .IN            8.625:   Casing size
 CBD1.       8.625" @ 10':   Casing driller 1
 BS1 .IN             6.75:   Bit size
 BSD1.F               862:   Depth drilled with bit1
 DFT .            GEL-OIL:   Type fluid in hole
 DFD .                9.4:   Density
 DFV .                 50:   Viscosity
 DFPH.                8.0:   pH
 DFL .                3.1:   Fluid loss
 RMS .OHMM           1.83:   Rm
 MST .F                96:   Rm Meas. temp.
 RMF .OHMM           1.56:   Rmf
 MFST.F                96:   Rmf Meas. temp.
 TCS .HRS               1:   Time Circ. stopped
 LUN .               4507:   Logging unit number
 LUL .               CSPR:   Logging unit location
 ENGI.            WINKLER:   Recorded By
 WITN.          JORGENSON:   Witnessed by
 ORIG.           5" PRINT:   Origin of data
 UWI .     49025064770000:   Unique Well ID
 DICO. A2D TECHNOLOGIES, INC.:   Digitizing Company
 MSS .           FLOWLINE:   Source of sample
~OTHER INFORMATION
~A  DEPTH      SPR        ASN        ILD         GR
# ...
  679.0000   -56.2109     5.7036     5.5589    95.1687
  679.5000   -56.2158     6.6317     5.9365    94.1269
  680.0000   -56.2205     6.7665     6.3140    92.3400
  680.5000   -56.5232     6.8413     6.6170    91.7451
  681.0000   -56.6764     6.8862     6.8453    86.6797
  681.5000   -56.8296     6.9216     6.9243    85.0418
  682.0000   -56.9828     6.9910     6.8541    86.2357
  682.5000   -56.9872     7.0659     6.7832    90.1119
  683.0000   -56.9916     7.1557     6.5645    92.6469
  683.5000   -56.9955     7.1407     6.1211    98.1625
  684.0000   -56.8512     7.0509     5.6032    92.6500
  684.5000   -56.7785     6.7964     5.0113    95.4831
  685.0000   -56.5383     6.1826     4.7165    99.9554
  685.5000   -56.2695     5.5389     4.5709   100.5528
  686.0000   -56.1244     5.3443     4.5007    89.8244
  686.5000   -55.9800     5.3443     4.4305    88.7826
  687.0000   -55.6875     5.2096     4.4364    88.3367
  687.5000   -55.5339     5.0449     4.4409    88.7855
  688.0000   -55.1018     5.2545     4.5199    93.7050
  688.5000   -54.9566     5.6287     4.5990    97.5810
  689.0000   -54.6634     5.8234     4.9019    98.3281
  689.5000   -54.6685     6.0030     5.2048    98.6273
  690.0000   -55.0149     6.2425     5.6570    90.8794
  690.5000   -55.4214     6.5120     5.9599    93.2656
  691.0000   -55.8729     6.9012     6.4121    92.2238
  691.5000   -56.0254     7.2455     6.8651    91.7779
  692.0000   -56.0305     7.6347     7.1680    95.9524
  692.5000   -56.0349     7.8892     7.3963    95.9539
  693.0000   -55.8898     8.1737     7.6246    95.0614
  693.5000   -55.7455     8.3683     7.7783    95.8080
  694.0000   -55.6009     8.4731     7.7827    95.6601
  694.5000   -55.3084     8.5329     7.8618    97.7482
  695.0000   -55.1640     8.5180     7.8662    96.5577
  695.5000   -55.0196     8.4281     7.8706    91.6411
  696.0000   -54.8752     8.2784     7.7997    89.4068
  696.5000   -54.7300     8.1437     7.7302    89.7065
  697.0000   -54.5856     8.0090     7.5854    94.9241
  697.5000   -54.2939     7.8593     7.4398    99.3967
  698.0000   -54.1487     7.6647     7.1465   103.7200
  698.5000   -54.1538     7.4401     6.6293   101.6350
  699.0000   -54.0087     7.2305     6.0367   100.4442
  699.5000   -54.1626     7.0359     5.5187    98.5085
  700.0000   -54.1667     6.7089     5.2231    94.5086
  700.5000   -54.4721     6.2418     5.1461    91.8160
  701.0000   -54.6281     5.8071     5.0681    89.8904
  701.5000   -54.6365     5.3724     4.9906    91.6905
  702.0000   -54.4949     5.6412     4.9877    95.8770
  702.5000   -54.5015     5.7904     4.9102    94.5475
  703.0000   -54.3592     5.8496     4.9824    88.8961
  703.5000   -54.2188     6.3580     5.2770    85.4801
  704.0000   -54.0774     7.1059     5.6473    88.6215
  704.5000   -53.9976     7.4646     6.0922    88.1861
  705.0000   -53.9435     7.7484     6.6117    87.6018
  705.5000   -53.7646     7.9180     7.2058    85.3781
  706.0000   -53.6607     8.1215     7.5755    82.2601
  706.5000   -53.5179     8.2856     7.6482    81.5248
  707.0000   -53.4992     8.4048     7.6444    81.9856
  707.5000   -53.3854     8.5388     7.6415    84.2347
  708.0000   -53.3943     8.6430     7.6386    85.1368
  708.5000   -53.4003     8.7173     7.6357    84.1053
  709.0000   -53.4087     8.7916     7.7079    90.8274
  709.5000   -53.4152     8.8509     7.7791    96.8004
  710.0000   -53.4231     8.8502     7.8004   100.0908
  710.5000   -53.4315     8.8496     7.8480   102.1890
  711.0000   -53.4387     8.8341     7.8446   101.1575
  711.5000   -53.4449     8.8035     7.7666    99.8260
  712.0000   -53.4531     8.7281     7.6896    98.2004
  712.5000   -53.4598     8.6077     7.6862    95.8276
  713.0000   -53.3193     8.5322     7.6833    92.4136
  713.5000   -53.3265     8.4718     7.6806    90.4879
  714.0000   -53.3333     8.4413     7.7526    89.4565
  714.5000   -53.3420     8.4107     7.7488    89.3153
  715.0000   -53.1994     8.3801     7.8215    92.3115
  715.5000   -53.2082     8.3646     7.5937    93.9626
  716.0000   -53.2154     8.3191     6.9938    94.8686
  716.5000   -53.2226     8.0341     6.3188    96.0726
  717.0000   -53.0804     7.5694     5.8682    97.2766
  717.5000   -53.0376     6.4310     5.4921   100.2689
  718.0000   -52.9454     6.2061     5.3400   105.6458
  718.5000   -52.8038     6.4897     5.2625   104.3182
  719.0000   -52.8134     6.0700     5.2596   103.8790
  719.5000   -52.9694     5.8598     5.3313   103.5946
  720.0000   -52.9765     6.2184     5.4026   101.9690
  720.5000   -52.9849     6.8167     5.4748   100.1923
  721.0000   -52.8409     7.0706     5.4714   103.1847
  721.5000   -52.5529     7.0700     5.3192    99.1726
  722.0000   -52.4101     6.7251     5.1666    96.7999
  722.5000   -52.1197     5.9610     5.0891    96.6606
  723.0000   -51.9781     5.5562     5.0862    98.9098
  723.5000   -51.8376     5.5408     5.0833   102.0512
  724.0000   -51.8460     5.8694     5.0058   105.4926
  724.5000   -51.8527     5.9288     5.0780   101.7786
  725.0000   -51.8604     5.6736     5.1497    96.1271
  725.5000   -51.8688     5.8676     5.2955    97.7782
  726.0000   -52.0248     6.6005     5.5907    98.6842
  726.5000   -52.0320     7.4682     6.2595    99.5901
  727.0000   -51.8904     7.7071     6.7795   100.4960
  727.5000   -51.7500     7.8263     7.2234   102.7433
  728.0000   -51.6072     7.9006     7.4444   105.5866
  728.5000   -51.6156     7.9449     7.4415   100.9784
  729.0000   -51.6220     7.8993     7.3639    99.6488
  729.5000   -51.7788     7.7940     6.9879    99.2154
  730.0000   -51.9360     7.6587     6.4622    96.9917
  730.5000   -51.7932     7.3436     6.1608    93.8719
  731.0000   -51.8015     6.8939     5.8594    95.8230
  731.5000   -51.6599     6.4742     5.6326   100.7527
  732.0000   -51.6667     6.5035     5.5551   103.4451
  732.5000   -51.6755     6.5180     5.4771    98.9879
  733.0000   -51.5339     6.4875     5.3995    92.2932
  733.5000   -51.5411     6.8460     5.3966    94.0933
  734.0000   -51.5483     7.3694     5.5435    93.8070
  734.5000   -51.5555     7.9227     5.9132    95.7562
  735.0000   -51.5639     8.3712     6.7308    99.3466
  735.5000   -51.5711     8.7149     7.3249    96.9739
  736.0000   -51.5783     8.9538     7.9936    94.0050
  736.5000   -51.4355     9.1329     8.4385    93.2716
  737.0000   -51.3606     9.2820     8.8087    92.8362
  737.5000   -51.3021     9.3712     9.0297    91.9538
  738.0000   -51.3095     9.4007     9.1761    85.7062
  738.5000   -51.1678     9.4151     9.1727    89.1457
  739.0000   -51.1762     9.4295     9.1698    91.9890
  739.5000   -51.1834     9.5035     9.0923    91.2556
  740.0000   -51.1918     9.5928     9.0148    93.6519
  740.5000   -51.0478     9.6819     8.9368    89.9398
  741.0000   -51.0565     9.7413     8.8593    88.0141
  741.5000   -51.0646     9.7558     8.8564    86.5355
  742.0000   -50.9218     9.7251     8.7788    86.9944
  742.5000   -50.9313     9.6646     8.7760    89.9868
  743.0000   -50.6409     9.5442     8.8482    90.1456
  743.5000   -50.4993     9.4837     8.9194    86.8806
  744.0000   -50.5065     9.6029     9.0653    84.0607
  744.5000   -50.3637     9.8419     9.1375    82.1351
  745.0000   -50.3733    10.1407     9.2839    82.8920
  745.5000   -50.3795    10.3048     9.0561    83.9450
  746.0000   -50.3877    10.3491     8.5309    81.8723
  746.5000   -50.3949    10.3185     7.7817    81.1389
  747.0000   -50.1032    10.0933     6.5848    84.2822
  747.5000   -49.9616     9.1347     5.9102    90.7023
  748.0000   -49.8200     7.5024     5.9073    93.8437
  748.5000   -49.8296     7.1424     5.9040    95.1967
  749.0000   -49.8368     7.4712     5.9767    96.6988
  749.5000   -49.8452     7.5604     6.0479    98.0518
  750.0000   -49.8512     7.5748     6.0445    89.4381
  750.5000   -49.8586     8.6002     6.6434    84.2027
  751.0000   -49.8669     9.7844     7.8391    84.6498
  751.5000   -50.0229    10.2758     9.2585    88.8227
