~VERSION INFORMATION
 VERS.                2.0:   CWLS LOG ASCII STANDARD - VERSION 2.0
 WRAP.                 NO:   ONE LINE PER DEPTH STEP
~WELL INFORMATION
#MNEM.UNIT      DATA TYPE    INFORMATION
#----------   ------------   ------------------------------
 STRT.F          206.0000:   START DEPTH
 STOP.F         3218.0000:   STOP DEPTH
 STEP.F            0.5000:   STEP LENGTH
 NULL.          -999.2500:   NO VALUE
 COMP.    FENIX & SCISSON:   COMPANY
 WELL.     FENIX AX #16-2:   WELL
 FLD .              NPR 3:   FIELD
 LOC .       S2 T38N R78W:   LOCATION
 CNTY.            NATRONA:   COUNTY
 STAT.            WYOMING:   STATE
 CTRY. UNITED STATES OF AMERICA:   COUNTRY
 SRVC.       SCHLUMBERGER:   SERVICE COMPANY
 DATE.        10-OCT-1977:   LOGDATE
 API .     49025105780000:   API NUMBER
~CURVE INFORMATION
#MNEM.UNIT       API CODE    CURVE DESCRIPTION
#----------   ------------   ------------------------------
 DEPT.F                  :   
 GRD .GAPI   45 310 01 00:   GAMMA RAY FROM DENSITY LOG
 CALD.IN     45 280 60 00:   CALIPER FROM DENSITY LOG
 RHOB.G/C3   45 350 01 00:   BULK DENSITY
 CORR.G/C3   45 356 01 00:   DENSITY CORRECTION
 SPR .MV     07 010 01 00:   SPONTANEOUS POTENTIAL FROM RES.
 RILD.OHMM   07 120 46 00:   DEEP INDUCTION RESISTIVITY
 RILM.OHMM   07 120 44 00:   INDUCTION LOG MEDIUM RESISTIVITY
 RLL8.OHMM   07 220 08 00:   LATEROLOG-8 RES.
~PARAMETER INFORMATION
#MNEM.UNIT          VALUE    DESCRIPTION
#----------   ------------   ------------------------------
 EKB .F         5123.0000:   Kelly bushing
 EGL .F         5113.0000:   Ground level
 EDF .F            0.0000:   Drilling floor
 TD  .F         3220.0000:   Total depth
 CLNT.            A2DTECH:   Client Code
 SL  . 1772' FSL & 576' FWL:   Surface Location
 PD  .                 GL:   Permanent Datum
 EPD .F              5113:   Elevation Permanent Datum
 LMF .                 KB:   Log Measured From
 DMF .                 KB:   Drilling Measured From
 DAPD.F                10:   Feet Above Permanent Datum
 DATE.        10-OCT-1977:   Date Logged [DD-MMM-YYYY]
 DD  .F              3220:   Depth driller
 DL  .F              3218:   Depth logger
 BLI .F              3212:   Bottom log interval
 TLI .F               223:   Top log interval
 CS1 .IN            8.625:   Casing size
 CBD1.      8.625" @ 222':   Casing driller 1
 CBL1.F               223:   Casing logger 1
 BS1 .IN            7.875:   Bit size
 BSD1.F              3220:   Depth drilled with bit1
 DFT .                KCL:   Type fluid in hole
 DFD .                8.6:   Density
 DFV .                 32:   Viscosity
 DFPH.                 11:   pH
 MSS .            MUD PIT:   Source of sample
 RMS .OHMM           0.29:   Rm
 MST .F                82:   Rm Meas. temp.
 RMF .OHMM          0.228:   Rmf
 MFST.F                81:   Rmf Meas. temp.
 MFSS.               MEAS:   Source Rmf.
 RMB .OHMM           0.21:   Rm. at BHT
 BHT .F               122:   BHT.
 TCS .HRS            0600:   Time Circ. stopped
 MRT .F               122:   Maximum recorded temp.
 LUN .               5642:   Logging unit number
 ENGI. CHALUPSKY PETERSON:   Recorded By
 WITN.     WES PETTINGILL:   Witnessed by
 ORIG.           5" PRINT:   Origin of data
 UWI .     49025105780000:   Unique Well ID
 DICO. A2D TECHNOLOGIES, INC.:   Digitizing Company
 TLAB.HRS            1000:   Time logger at bottom
 LUL .               CSPR:   Logging unit location
~OTHER INFORMATION
~A   DEPT       GRD      CALD       RHOB       CORR        SPR       RILD       RILM       RLL8   
# ...
 2757.5000   121.2078     9.3368     2.4503    -0.0002   -33.3398    10.1738     9.5551    12.7935
 2758.0000   124.2245     9.3095     2.4579     0.0052   -33.8093     9.5306     9.0978    11.2633
 2758.5000   123.7640     9.2962     2.4727     0.0038   -34.9992     8.4792     8.4184    10.0586
 2759.0000   121.1901     9.2778     2.4935     0.0054   -36.1774     7.4632     7.5702     9.5109
 2759.5000   119.6574     9.2241     2.5151     0.0063   -37.5692     6.2932     6.6156     8.7397
 2760.0000   123.3752     9.2255     2.4887     0.0071   -38.8853     5.4216     5.7814     8.0887
 2760.5000   127.5710     9.2266     2.4812     0.0064   -39.8331     4.4429     4.7717     7.1722
 2761.0000   134.3071     9.2281     2.4970     0.0043   -41.0046     3.7464     3.9103     6.2247
 2761.5000   140.0414     9.2294     2.4782    -0.0011   -42.3879     3.1366     3.2044     5.0969
 2762.0000   150.4690     9.2308     2.4571    -0.0092   -43.2767     2.4275     2.5659     4.0944
 2762.5000   164.0482     9.2471     2.4149    -0.0075   -43.9475     2.0617     2.2626     2.8793
 2763.0000   178.2407     9.2634     2.3961     0.0039   -43.7327     1.8636     1.9355     2.2054
 2763.5000   183.5233     9.2497     2.3969     0.0100   -42.7726     1.7159     1.8168     2.1604
 2764.0000   175.6724     9.2060     2.4067     0.0161   -41.0259     1.6807     1.6931     2.2421
 2764.5000   163.0860     9.1773     2.4233     0.0170   -39.2105     2.2078     1.9975     2.4107
 2765.0000   148.7605     9.1787     2.4512     0.0080   -37.2964     2.8787     2.7187     2.7641
 2765.5000    97.0930     9.1650     2.4964    -0.0017   -33.7751     3.8348     3.1394     3.4038
 2766.0000    90.8952     9.1816     2.4995    -0.0025   -30.7476     5.3323     4.1228    36.7288
 2766.5000    92.3984     9.1830     2.4957     0.0037   -29.3208     7.7949     7.0527    38.0957
 2767.0000    94.5073     9.1993     2.4875     0.0046   -27.6687    10.6850     9.5988    30.7937
 2767.5000    98.5800     9.2156     2.4875     0.0047   -26.9022    13.8329    14.3524    26.3471
 2768.0000   102.7259     9.2320     2.4875     0.0139   -26.4423    18.5596    16.1020    22.3821
 2768.5000   106.8431     9.2483     2.4845     0.0087   -25.7984    17.5014    16.2190    19.8197
 2769.0000   109.2859     9.2647     2.4733     0.0012   -25.3317    16.0087    15.6689    17.5831
 2769.5000   109.2800     9.2960     2.4635     0.0013   -25.0828    15.1341    15.0260    17.3674
 2770.0000   107.1593     9.3124     2.4666     0.0029   -24.9663    14.5131    14.5129    17.3918
 2770.5000   108.2108     9.3287     2.4704     0.0045   -24.8527    14.0175    14.0173    17.1644
 2771.0000   110.2999     9.3601     2.4734     0.0061   -24.7528    13.7336    13.6356    16.3460
 2771.5000   113.3517     9.3496     2.4735     0.0100   -24.7430    13.4555    13.6490    15.4558
 2772.0000   113.4807     9.3279     2.4577     0.0146   -24.5958    13.3695    13.4685    14.8243
 2772.5000   111.8117     9.3190     2.4584     0.0200   -24.5601    13.1970    13.2904    14.6264
 2773.0000   109.9931     9.3206     2.4641     0.0163   -24.0088    13.2099    13.3034    14.8576
 2773.5000   109.5340     9.3220     2.4675     0.0035   -22.9835    13.2228    13.4122    15.3052
 2774.0000   110.7366     9.3233     2.4397    -0.0017   -21.9118    13.2357    13.4256    15.9931
 2774.5000   113.2987     9.3246     2.4427    -0.0039   -20.9346    13.3437    13.2508    16.5929
 2775.0000   116.0118     9.3410     2.4541    -0.0053   -19.3705    13.5490    12.7983    16.2595
 2775.5000   118.1208     9.3423     2.4722    -0.0060   -16.5238    13.6598    12.0991    15.6990
 2776.0000   118.4170     9.3436     2.4842    -0.0066   -12.6808    13.6762    11.1158    14.9429
 2776.5000   107.6440     9.3449     2.4609    -0.0064   -10.1998    13.6896    10.3593    14.5572
 2777.0000    96.8025     9.3613     2.4534    -0.0064    -8.1724    13.9002    10.1471    12.5444
 2777.5000    87.2800     9.3626     2.4151    -0.0094    -6.4562    14.2153    10.6806    10.5808
 2778.0000    72.6216     9.3489     2.3835    -0.0025    -5.6830    14.6417    11.3200    10.8220
 2778.5000    69.8966     9.3506     2.3948     0.0037    -5.8160    15.1891    11.9977    11.4710
 2779.0000    67.1717     9.3519     2.3820    -0.0061    -6.8862    15.6448    12.4463    12.2460
 2779.5000    65.5042     9.3532     2.3677    -0.0030    -7.6814    16.1141    12.5481    12.8881
 2780.0000    63.8977     9.3395     2.3911     0.0100    -8.2646    16.5975    12.6532    13.2763
 2780.5000    60.9607     9.3408     2.4137     0.0108    -8.8463    17.1020    12.5724    13.1930
 2781.0000    59.5952     9.3422     2.4251     0.0084    -9.4241    17.6089    12.4061    12.9315
 2781.5000    61.4905     9.3435     2.4266     0.0019   -10.0012    17.7563    12.1579    12.8538
 2782.0000    71.5156     9.3448     2.4342     0.0066   -10.5807    17.3925    12.0802    12.8684
 2782.5000    79.2136     9.3461     2.4485     0.0135   -11.1624    16.6830    11.9204    12.9755
 2783.0000    83.1352     9.3475     2.4583     0.0158   -11.7115    16.1132    11.8472    12.9897
 2783.5000    83.8861     9.3488     2.4505     0.0023   -12.2173    15.6745    11.6934    12.5517
 2784.0000    84.0312     9.3502     2.4049     0.0001   -11.6478    15.5743    11.6212    12.1251
 2784.5000    81.9091     9.3668     2.4095     0.0100   -11.0364    15.7052    11.5500    11.9633
 2785.0000    79.1842     9.3681     2.4118     0.0124   -10.0401    15.7205    11.6445    11.9801
 2785.5000    78.8761     9.3845     2.3899     0.0072    -9.0301    15.7359    11.8369    12.1660
 2786.0000    83.2828     9.3858     2.3950     0.0012    -7.5114    15.7513    12.1811    12.4434
 2786.5000    83.9988     9.3871     2.4209     0.0051    -5.9837    15.6385    12.1931    12.7270
 2787.0000    83.9929     9.3884     2.4111    -0.0023    -4.5051    15.4474    12.0289    12.7413
 2787.5000    81.5701     9.3897     2.3886    -0.0053    -3.8787    15.3524    11.8698    12.5748
 2788.0000    73.5577     9.4061     2.3863     0.0077    -3.1722    15.2580    11.5495    12.2344
 2788.5000    75.8177     9.4224     2.3894     0.0009    -2.9563    14.9527    11.2351    11.7346
 2789.0000    76.7181     9.4238     2.3992     0.0101    -3.3387    14.6463    10.9265    11.2467
 2789.5000    74.8996     9.4251     2.4007     0.0162    -3.8569    14.3532    10.5560    10.7761
 2790.0000    67.9450     9.4264     2.3714     0.0057    -4.4955    14.2615    10.3422    10.4283
 2790.5000    68.6944     9.4278     2.3646    -0.0040    -5.5281    14.1769    10.2055    10.5178
 2791.0000    72.6160     9.4294     2.3767    -0.0005    -6.5655    14.2929    10.2969    10.9905
 2791.5000    77.4440     9.4307     2.4189     0.0075    -7.6219    14.4180    10.7525    11.7330
 2792.0000    85.7458     9.4320     2.4318     0.0069    -8.9121    14.7367    11.6432    13.0740
 2792.5000    90.4226     9.4484     2.4416     0.0070    -9.6375    15.0738    12.7890    14.4646
 2793.0000    91.7763     9.4497     2.4530     0.0078   -10.3719    14.9811    13.7498    15.7763
 2793.5000    91.6193     9.4360     2.4653     0.0086   -11.0534    14.7830    14.0614    16.4853
 2794.0000    88.3853     9.4373     2.4740     0.0208   -11.5486    14.5839    14.2778    16.8611
 2794.5000    87.9822     9.4387     2.4696     0.0149   -11.7537    14.3910    14.2918    17.2455
 2795.0000    90.3917     9.4400     2.4628     0.0044   -11.9780    14.5119    14.3058    16.4232
 2795.5000    93.8601     9.4413     2.4440     0.0048   -11.9192    14.6303    14.3198    15.6383
 2796.0000    97.3286     9.4276     2.4252     0.0129   -11.2882    14.6446    14.3338    15.1003
 2796.5000   101.8544     9.4290     2.4139     0.0016   -10.5131    14.4509    14.3481    15.0021
 2797.0000   105.7760     9.4153     2.4260     0.0010   -10.3435    14.3621    14.2452    15.0389
 2797.5000   108.0360     9.4169     2.4351    -0.0042   -10.6163    14.2738    14.1720    15.2724
