~VERSION INFORMATION
 VERS.                2.0:   CWLS LOG ASCII STANDARD - VERSION 2.0
 WRAP.                 NO:   ONE LINE PER DEPTH STEP
~WELL INFORMATION
#MNEM.UNIT      DATA TYPE    INFORMATION
#----------   ------------   ------------------------------
 STRT.F          190.0000:   START DEPTH
 STOP.F         3050.0000:   STOP DEPTH
 STEP.F            0.5000:   STEP LENGTH
 NULL.          -999.2500:   NO VALUE
 COMP.    FENIX & SCISSON:   COMPANY
 WELL. FENIX NPR 3 "AX" #86-29:   WELL
 FLD .      NPR - WILDCAT:   FIELD
 LOC .      S29 T39N R78W:   LOCATION
 CNTY.            NATRONA:   COUNTY
 STAT.            WYOMING:   STATE
 CTRY. UNITED STATES OF AMERICA:   COUNTRY
 SRVC.              WELEX:   SERVICE COMPANY
 DATE.        24-JUN-1977:   LOGDATE
 API .     49025103830000:   API NUMBER
~CURVE INFORMATION
#MNEM.UNIT       API CODE    CURVE DESCRIPTION
#----------   ------------   ------------------------------
 DEPT.F                  :   
 SPR .MV     07 010 01 00:   SPONTANEOUS POTENTIAL
 ILD .OHMM   07 120 46 00:   DEEP INDUCTION RESISTIVITY
 ILM .OHMM   07 120 44 00:   INDUCTION LOG MEDIUM RESISTIVITY
 SGRD.OHMM   07 220 05 00:   SHALLOW SHORT GUARD RESISTIVITY
 GRD .GAPI   45 310 01 00:   GAMMA RAY FROM DENSITY LOG
 CALD.IN     45 280 60 00:   CALIPER FROM DENSITY LOG
 RHOB.G/C3   45 350 01 00:   BULK DENSITY
 CORR.G/C3   45 356 01 00:   DENSITY CORRECTION
~PARAMETER INFORMATION
#MNEM.UNIT          VALUE    DESCRIPTION
#----------   ------------   ------------------------------
 EKB .F         5056.0000:   Kelly bushing
 EGL .F         5046.0000:   Ground level
 EDF .F            0.0000:   Drilling floor
 TD  .F         3051.0000:   Total depth
 DATE.        24-JUN-1977:   Date logged
 CLNT.            A2DTECH:   Client Code
 SL  . 1746' FSL & 534' FEL:   Surface Location
 PD  .                 GL:   Permanent Datum
 EPD .F              5046:   Elevation Permanent Datum
 LMF .                 KB:   Log Measured From
 DMF .                 KB:   Drilling Measured From
 DAPD.F                10:   Feet Above Permanent Datum
 DD  .F              3038:   Depth driller
 DL  .F              3051:   Depth logger
 BLI .F              3049:   Bottom log interval
 TLI .F               200:   Top log interval
 CS1 .IN            8.625:   Casing size
 CBD1.      8.625" @ 217':   Casing driller 1
 CBL1.F               213:   Casing logger 1
 BS1 .IN            7.875:   Bit size
 BSD1.F              3038:   Depth drilled with bit1
 DFT .            KCL/MUD:   Type fluid in hole
 DFD .                8.7:   Density
 DFV .                134:   Viscosity
 DFPH.                7.5:   pH
 DFL .                7.2:   Fluid loss
 MSS .           FLOWLINE:   Source of sample
 RMS .OHMM            .62:   Rm
 MST .F                82:   Rm Meas. temp.
 RMF .OHMM            .28:   Rmf
 MFST.F                82:   Rmf Meas. temp.
 RMC .OHMM            .78:   Rmc
 MCST.F                82:   Rmc Meas. temp.
 MFSS.               MEAS:   Source Rmf.
 MCSS.               MEAS:   Source Rmc.
 RMB .OHMM            .45:   Rm. at BHT
 BHT .F               111:   BHT.
 TCS .HRS               2:   Time Circ. stopped
 MRT .F               111:   Maximum recorded temp.
 LUN .               8766:   Logging unit number
 LUL .             CASPER:   Logging unit location
 ENGI.          D. LAWSON:   Recorded By
 WITN.      B. HARRINGTON:   Witnessed by
 ORIG.           5" PRINT:   Origin of data
 UWI .     49025103830000:   Unique Well ID
 DICO. A2D TECHNOLOGIES, INC.:   Digitizing Company
~OTHER INFORMATION
~A   DEPT      SPR        ILD        ILM       SGRD        GRD       CALD         RHOB      CORR  
# ...
 2822.5000   -57.4030     5.7400     7.0470     8.5910    73.8180     8.4070     2.4960    -0.0010
 2823.0000   -57.4090     5.7720     7.0560     8.2970    73.8190     8.4090     2.4990     0.0000
 2823.5000   -57.3950     5.7970     7.0650     8.5150    73.8100     8.4050     2.5050     0.0000
 2824.0000   -57.3680     5.8230     7.0740     8.9290    74.0850     8.4000     2.5150     0.0030
 2824.5000   -57.3420     5.8480     7.0840     8.8770    74.4110     8.3950     2.5180     0.0070
 2825.0000   -57.3150     5.8740     7.0930     8.8140    74.7340     8.3900     2.5190     0.0110
 2825.5000   -57.2880     5.8990     7.1030     8.7500    74.9220     8.3850     2.5210     0.0130
 2826.0000   -57.2620     5.9250     7.1150     8.6860    74.4470     8.3810     2.5230     0.0150
 2826.5000   -57.2350     5.9500     7.1280     8.7360    73.9830     8.3760     2.5250     0.0170
 2827.0000   -57.2080     5.9660     7.1400     8.7860    73.5160     8.3720     2.5260     0.0190
 2827.5000   -57.1820     5.9130     7.1530     8.8370    73.4270     8.3720     2.5320     0.0210
 2828.0000   -57.1550     5.8460     7.1660     8.9200    73.4240     8.3720     2.5390     0.0230
 2828.5000   -57.1280     5.7790     7.0750     9.0940    73.4260     8.3720     2.5390     0.0240
 2829.0000   -57.1020     5.7020     6.9830     8.8390    73.4290     8.3720     2.5350     0.0220
 2829.5000   -57.0750     5.6180     6.8770     8.4040    73.4010     8.3720     2.5310     0.0210
 2830.0000   -57.0480     5.5330     6.7090     8.0610    72.5780     8.3720     2.5250     0.0180
 2830.5000   -57.0210     5.4490     6.5420     7.7850    71.9200     8.3720     2.5190     0.0120
 2831.0000   -57.0160     5.3650     6.3740     7.5020    72.4910     8.3720     2.5110     0.0070
 2831.5000   -57.0160     5.2910     6.2700     7.4330    72.9830     8.3720     2.5030     0.0010
 2832.0000   -57.0160     5.2620     6.2130     7.5590    71.6710     8.3720     2.4940    -0.0050
 2832.5000   -57.0160     5.2340     6.1320     7.6890    70.2710     8.3720     2.4850    -0.0080
 2833.0000   -57.0160     5.1990     6.1470     7.8180    68.9820     8.3720     2.4850    -0.0080
 2833.5000   -57.0160     5.2330     6.1870     7.9260    68.5820     8.3720     2.4850    -0.0090
 2834.0000   -57.0160     5.2770     6.2450     7.7130    68.3180     8.3720     2.4880    -0.0090
 2834.5000   -57.0160     5.3380     6.2320     7.5310    68.9400     8.3720     2.4920    -0.0080
 2835.0000   -57.0160     5.4140     6.2080     7.3490    69.5990     8.3720     2.4970    -0.0070
 2835.5000   -57.0160     5.4930     6.1880     7.2320    70.5780     8.3720     2.5010    -0.0060
 2836.0000   -57.0160     5.5340     6.5380     7.7820    71.7980     8.3720     2.5050    -0.0010
 2836.5000   -57.0160     5.5760     6.8400     8.3560    73.0290     8.3720     2.5070     0.0040
 2837.0000   -57.0160     5.6190     7.0360     8.9570    74.1620     8.3750     2.5080     0.0110
 2837.5000   -57.0160     5.6620     7.0360     9.6080    75.1670     8.3930     2.5040     0.0120
 2838.0000   -57.0160     5.6980     6.7900     9.3790    76.4390     8.4100     2.4980     0.0120
 2838.5000   -57.0150     5.4160     6.5310     8.4300    78.5810     8.4280     2.4920     0.0120
 2839.0000   -57.0150     5.1700     6.2380     7.7750    80.6460     8.4460     2.4810     0.0120
 2839.5000   -56.9460     4.9240     5.8820     7.3630    82.7000     8.4570     2.4710     0.0120
 2840.0000   -56.8190     4.6780     5.4720     6.9520    83.5980     8.4660     2.4600     0.0090
 2840.5000   -56.6920     4.4320     4.9610     6.0000    82.9590     8.4750     2.4510     0.0060
 2841.0000   -56.5650     4.1860     4.4490     4.8570    81.0120     8.4840     2.4510     0.0030
 2841.5000   -56.4380     3.9880     4.1730     4.0970    79.4370     8.4930     2.4570     0.0010
 2842.0000   -56.3110     3.8780     4.3620     4.2030    77.1740     8.5020     2.4670     0.0010
 2842.5000   -56.2300     3.8780     4.9310     5.0580    72.8200     8.5100     2.4880     0.0010
 2843.0000   -56.2800     4.0990     5.4340     7.9990    68.4580     8.5060     2.5100     0.0010
 2843.5000   -56.3290     4.3110     5.9110     8.3480    64.0920     8.5000     2.5330     0.0020
 2844.0000   -56.3770     4.6150     6.2700     8.4510    62.0290     8.4950     2.5400     0.0020
 2844.5000   -56.4260     4.9190     6.6580     8.5390    62.1870     8.4870     2.5400     0.0020
 2845.0000   -56.4740     5.2470     7.0450     8.8110    62.5190     8.4660     2.5380     0.0020
 2845.5000   -56.5230     5.5460     7.3410     9.0830    63.1930     8.4450     2.5370     0.0020
 2846.0000   -56.5710     5.8940     7.5710     9.3560    64.3100     8.4230     2.5370     0.0020
 2846.5000   -56.6200     6.1520     7.5420     9.4330    65.7210     8.4020     2.5360     0.0020
 2847.0000   -56.6680     6.2150     7.5110     8.9960    67.1160     8.3800     2.5340     0.0020
 2847.5000   -56.7170     6.2450     7.3420     8.6580    68.5100     8.3580     2.5310     0.0020
 2848.0000   -56.7650     6.2450     7.1880     8.3100    69.5290     8.3530     2.5280     0.0020
 2848.5000   -56.8160     6.2450     7.1010     8.0050    69.6760     8.3520     2.5270     0.0020
 2849.0000   -56.8670     6.2450     7.0140     8.0720    69.8470     8.3520     2.5280     0.0020
 2849.5000   -56.9200     6.1880     6.9080     7.9990    70.0210     8.3520     2.5300     0.0020
 2850.0000   -56.9740     6.1310     6.9080     7.9260    70.1930     8.3520     2.5310     0.0020
 2850.5000   -57.0280     6.0490     7.0690     8.0520    70.7010     8.3510     2.5320     0.0020
 2851.0000   -57.0810     5.9680     7.1660     8.1830    71.5430     8.3500     2.5320     0.0020
 2851.5000   -57.1350     5.8620     7.1000     8.6860    72.3830     8.3480     2.5310     0.0020
 2852.0000   -57.1880     5.7030     6.9080     8.5710    73.2240     8.3470     2.5300     0.0020
 2852.5000   -57.2130     5.5180     6.7650     8.3740    74.0430     8.3460     2.5290     0.0020
 2853.0000   -57.2130     5.2750     6.5070     7.8280    75.3930     8.3440     2.5270     0.0030
 2853.5000   -57.2130     5.0320     6.0340     7.2750    76.5490     8.3430     2.5270     0.0040
 2854.0000   -57.2130     4.8650     5.5610     6.5660    76.0360     8.3420     2.5280     0.0060
 2854.5000   -57.2130     4.7150     5.1520     5.8570    73.9490     8.3400     2.5310     0.0080
 2855.0000   -57.2130     4.4490     5.1520     5.2060    71.9280     8.3390     2.5360     0.0100
 2855.5000   -57.2130     4.3690     5.1750     5.0120    69.9120     8.3380     2.5410     0.0110
 2856.0000   -57.2140     4.4070     5.2470     8.4420    67.8930     8.3360     2.5470     0.0130
 2856.5000   -57.2160     4.4580     5.3550    10.9230    65.8740     8.3350     2.5530     0.0140
 2857.0000   -57.1180     4.5090     5.4260     6.9080    63.8630     8.3340     2.5520     0.0140
 2857.5000   -57.0020     4.6420     5.8210     7.1880    61.8390     8.3300     2.5480     0.0130
 2858.0000   -56.8860     4.8390     6.3210     7.9990    60.5990     8.3200     2.5440     0.0110
 2858.5000   -56.8280     5.0370     6.8210     8.4120    59.6930     8.3090     2.5410     0.0080
 2859.0000   -56.5810     5.2340     7.1500     8.7660    59.9630     8.2990     2.5410     0.0120
 2859.5000   -56.3810     5.4320     7.3520     8.2970    60.3320     8.2890     2.5450     0.0170
 2860.0000   -56.2830     5.6290     7.5530     8.7590    60.6970     8.2790     2.5510     0.0210
 2860.5000   -56.1840     5.8240     7.7550     9.1760    61.0600     8.2690     2.5570     0.0260
 2861.0000   -56.0860     6.0160     7.9560     9.3170    61.4230     8.2590     2.5580     0.0310
 2861.5000   -55.9890     6.2070     8.1900     9.7550    61.7850     8.2550     2.5520     0.0320
 2862.0000   -55.8910     6.3990     8.4310     8.5290    62.1440     8.2580     2.5490     0.0280
 2862.5000   -55.7930     6.5900     8.6730     8.8900    62.4180     8.2610     2.5500     0.0250
