~VERSION INFORMATION
 VERS.                2.0:   CWLS LOG ASCII STANDARD - VERSION 2.0
 WRAP.                 NO:   ONE LINE PER DEPTH STEP
~WELL INFORMATION
#MNEM.UNIT      DATA TYPE    INFORMATION
#----------   ------------   ------------------------------
 STRT.F          200.5000:   START DEPTH
 STOP.F         3012.5000:   STOP DEPTH
 STEP.F            0.5000:   STEP LENGTH
 NULL.          -999.2500:   NO VALUE
 COMP.    FENIX & SCISSON:   COMPANY
 WELL.  FENIX "AX" #75-29:   WELL
 FLD .              NPR-3:   FIELD
 LOC .      S29 T39N R78W:   LOCATION
 CNTY.            NATRONA:   COUNTY
 STAT.            WYOMING:   STATE
 CTRY. UNITED STATES OF AMERICA:   COUNTRY
 SRVC.           BIRDWELL:   SERVICE COMPANY
 DATE.        15-FEB-1978:   LOGDATE
 API .     49025105830000:   API NUMBER
~CURVE INFORMATION
#MNEM.UNIT       API CODE    CURVE DESCRIPTION
#----------   ------------   ------------------------------
 DEPT.F                  :   
 GRD .GAPI   45 310 01 00:   GAMMA RAY FROM DENSITY LOG
 CALD.IN     45 280 60 00:   CALIPER FROM DENSITY LOG
 DEN .G/C3   45 350 01 00:   BULK DENSITY
 DCOR.G/C3   45 356 01 00:   DENSITY CORRECTION
 SPR .MV     05 010 01 00:   SPONTANEOUS POTENTIAL
 SN  .OHMM   05 040 16 00:   SHORT NORMAL 16"
 RILD.OHMM   05 120 46 00:   DEEP INDUCTION RESISTIVITY
~PARAMETER INFORMATION
#MNEM.UNIT          VALUE    DESCRIPTION
#----------   ------------   ------------------------------
 EKB .F         5042.0000:   Kelly bushing
 EGL .F         5032.0000:   Ground level
 EDF .F            0.0000:   Drilling floor
 TD  .F         3010.0000:   Total depth
 DATE.        15-FEB-1978:   Date logged
 CLNT.            A2DTECH:   Client Code
 SL  . 2550' FSL & 950' FEL:   Surface Location
 PD  .                 GL:   Permanent Datum
 EPD .F              5032:   Elevation Permanent Datum
 LMF .                 KB:   Log Measured From
 DMF .                 KB:   Drilling Measured From
 DAPD.F                10:   Feet Above Permanent Datum
 DD  .F              3010:   Depth driller
 DL  .F              3010:   Depth logger
 BLI .F              3002:   Bottom log interval
 TLI .F               200:   Top log interval
 CS1 .IN            8.625:   Casing size
 CBD1.      8.625" @ 222':   Casing driller 1
 CBL1.F               222:   Casing logger 1
 BS1 .IN            7.875:   Bit size
 BSD1.F              3010:   Depth drilled with bit1
 DFT .         LIGNO/SULF:   Type fluid in hole
 DFD .                9.1:   Density
 DFV .                 33:   Viscosity
 DFPH.                 10:   pH
 DFL .                4.9:   Fluid loss
 MSS .           FLOWLINE:   Source of sample
 RMS .OHMM              2:   Rm
 MST .F                66:   Rm Meas. temp.
 RMF .OHMM            2.2:   Rmf
 MFST.F                58:   Rmf Meas. temp.
 RMC .OHMM            1.8:   Rmc
 MCST.F                60:   Rmc Meas. temp.
 MFSS.               MEAS:   Source Rmf.
 RMB .OHMM            1.7:   Rm. at BHT
 BHT .F               118:   BHT.
 TCS .HRS               5:   Time Circ. stopped
 MRT .F               118:   Maximum recorded temp.
 LUN .               2958:   Logging unit number
 LUL .               CASP:   Logging unit location
 ENGI.            POINTER:   Recorded By
 WITN.           MCGINLEY:   Witnessed by
 ORIG.           5" PRINT:   Origin of data
 UWI .     49025105830000:   Unique Well ID
 DICO. A2D TECHNOLOGIES, INC.:   Digitizing Company
~OTHER INFORMATION
~A   DEPT       GRD      CALD        DEN       DCOR        SPR         SN       RILD   
# ...
 2976.0000    85.2910     7.9050     2.4900     0.1040   -35.1250     5.0170     4.5800
 2976.5000    85.6160     7.9300     2.4790     0.1080   -35.1100     4.9500     4.5400
 2977.0000    86.8610     7.9390     2.4790     0.1090   -35.0960     4.8490     4.4630
 2977.5000    89.0920     7.9380     2.4820     0.1100   -35.0820     4.7340     4.3060
 2978.0000    91.3320     7.9360     2.4880     0.1110   -35.0670     4.6010     4.1340
 2978.5000    92.4060     7.9340     2.4810     0.1120   -35.0530     4.5540     4.0840
 2979.0000    92.4840     7.9320     2.4730     0.1130   -35.0380     4.4890     3.9590
 2979.5000    92.5420     7.9300     2.4750     0.1080   -35.0240     4.2370     3.8340
 2980.0000    91.8240     7.9280     2.4720     0.1000   -35.0100     4.0040     3.7010
 2980.5000    86.1900     7.9260     2.4650     0.0970   -34.9950     3.8750     3.7200
 2981.0000    82.8310     7.9240     2.4540     0.0980   -34.9810     3.8400     3.7400
 2981.5000    82.6870     7.9220     2.4480     0.1060   -34.9660     3.8770     3.7610
 2982.0000    83.7960     7.9210     2.4630     0.1120   -34.9600     3.9300     3.7810
 2982.5000    87.3450     7.9220     2.4670     0.1130   -34.9610     3.9560     3.8050
 2983.0000    91.0310     7.9220     2.4670     0.1130   -34.9590     3.9690     3.7790
 2983.5000    99.5490     7.9230     2.4670     0.1120   -34.8490     3.9840     3.7220
 2984.0000   101.9990     7.9230     2.4680     0.1120   -34.7270     3.9210     3.6620
 2984.5000   100.4590     7.9240     2.4710     0.1110   -34.5980     3.8440     3.6000
 2985.0000    99.6410     7.9250     2.4680     0.1110   -34.6620     3.7680     3.5070
 2985.5000    99.2520     7.9250     2.4650     0.1100   -34.8110     3.6630     3.4150
 2986.0000    97.7560     7.9260     2.4640     0.1100   -34.9540     3.5360     3.3220
 2986.5000    97.0870     7.9270     2.4620     0.1110   -34.8910     3.3750     3.2230
 2987.0000    94.9420     7.9270     2.4530     0.1140   -34.8200     3.3900     3.2520
 2987.5000    89.4370     7.9280     2.4660     0.1140   -34.7770     3.4110     3.2830
 2988.0000    86.6800     7.9280     2.4780     0.1110   -34.9120     3.4330     3.3150
 2988.5000    84.1030     7.9290     2.4670     0.1090   -35.1130     3.4540     3.3440
 2989.0000    84.4720     7.9300     2.4560     0.1090   -34.7220     3.4700     3.2360
 2989.5000    87.1900     7.9300     2.4600     0.1090   -34.4020     3.4100     3.0780
 2990.0000    96.2340     7.9310     2.4550     0.1090   -34.5910     3.3620     3.0920
 2990.5000   105.3910     7.9320     2.4470     0.1110   -34.7600     3.3060     3.1240
 2991.0000   108.1570     7.9320     2.4400     0.1120   -34.6370     3.2450     3.1640
 2991.5000   107.0390     7.9330     2.4500     0.1190   -34.4430     3.1830     3.0920
 2992.0000   103.8170     7.9340     2.4610     0.1150   -34.2460     3.1210     3.0130
 2992.5000   102.6250     7.9340     2.4580     0.1110   -34.3360     3.0710     2.9330
 2993.0000   100.4160     7.9350     2.4520     0.1110   -34.6280     3.0490     2.8850
 2993.5000   100.6340     7.9350     2.4490     0.1110   -34.5790     3.0490     2.8920
 2994.0000   101.7800     7.9360     2.4440     0.1110   -34.2410     3.0490     2.9050
 2994.5000    99.1710     7.9370     2.4370     0.1110   -34.4010     3.0490     2.9190
 2995.0000    95.4020     7.9370     2.4250     0.1090   -34.7170     3.0490     2.9320
 2995.5000    95.6570     7.9380     2.4230     0.1060   -34.5490     3.0200     2.9390
 2996.0000    99.4210     7.9390     2.4270     0.1050   -34.4130     2.9930     2.8840
 2996.5000    97.4620     7.9390     2.4220     0.1030   -34.6700     2.9660     2.8510
 2997.0000    95.7500     7.9400     2.4280     0.1020   -34.7050     2.9660     2.8330
 2997.5000    95.9760     7.9400     2.4300     0.1010   -34.6170     2.8680     2.7510
 2998.0000    96.9200     7.9410     2.4370     0.0990   -34.5280     2.7690     2.6690
 2998.5000    95.9450     7.9410     2.4290     0.1010   -34.4390     2.7050     2.5830
 2999.0000    94.3190     7.9410     2.4230     0.1020   -34.3670     2.7090     2.5990
 2999.5000    94.3390     7.9380     2.4260     0.1020   -34.3980     2.7230     2.6150
 3000.0000    96.0130     7.9190     2.4220     0.1000   -34.4300     2.7360     2.6320
 3000.5000    97.9260     7.8990     2.4200     0.1020   -34.4620     2.7500     2.6480
 3001.0000    97.9050     7.8810     2.4170     0.1080   -34.4940     2.7630     2.6650
 3001.5000    93.9120     7.8410     2.4070     0.1140   -34.5260     2.7810     2.6800
 3002.0000    88.6140     7.7960     2.4060     0.1300   -34.5560     2.7700     2.6410
 3002.5000    85.4080     7.7420     2.4070     0.1520   -34.5590     2.7530     2.6040
 3003.0000    85.6770     7.6560     2.4060     0.1880   -34.3880     2.7370     2.5820
 3003.5000    86.8550     7.5360     2.4040     0.2230   -33.9980     2.7200     2.5810
 3004.0000    92.7910     6.6120     2.3670     0.2590   -33.8320     2.7030     2.5790
 3004.5000    95.7060     6.2640     2.3600     0.2940   -34.1610     2.6800     2.5770
 3005.0000    93.5080     6.2580     2.3410     0.3010   -34.1660     2.6820     2.5760
 3005.5000    89.9130     6.2570     2.3120     0.3010   -33.6730     2.6840     2.5740
 3006.0000    92.0840     6.2570     2.2910     0.3000   -33.5370     2.6860     2.5720
 3006.5000   100.7160     6.2570     2.2920     0.3000   -34.0050     2.6890     2.5700
 3007.0000   100.2950     6.2570     2.2940     0.3000   -34.4600     2.6910     2.5690
 3007.5000    98.1910     6.2570     2.3000     0.2990   -34.6620     2.6930     2.5670
 3008.0000    98.1030     6.2570     2.2970     0.2990   -34.3490     2.6960     2.5650
 3008.5000    98.1090     6.2570     2.2930     0.2990   -34.0320     2.6980     2.5640
 3009.0000    98.0970     6.2570     2.2910     0.2980   -34.2250     2.7000     2.5620
 3009.5000    98.1830     6.2570     2.2890     0.2980   -34.5750     2.7030     2.5590
 3010.0000    98.5780     6.2570     2.2880     0.2980   -34.9430     2.7050     2.5710
 3010.5000  -999.2500  -999.2500  -999.2500     0.2970  -999.2500     2.7050  -999.2500
 3011.0000  -999.2500  -999.2500  -999.2500     0.2980  -999.2500  -999.2500  -999.2500
 3011.5000  -999.2500  -999.2500  -999.2500     0.2980  -999.2500  -999.2500  -999.2500
 3012.0000  -999.2500  -999.2500  -999.2500     0.2980  -999.2500  -999.2500  -999.2500
 3012.5000  -999.2500  -999.2500  -999.2500     0.2990  -999.2500  -999.2500  -999.2500
