~VERSION INFORMATION
 VERS.                2.0:   CWLS LOG ASCII STANDARD - VERSION 2.0
 WRAP.                 NO:   ONE LINE PER DEPTH STEP
~WELL INFORMATION
#MNEM.UNIT      DATA TYPE    INFORMATION
#----------   ------------   ------------------------------
 STRT.F           85.5000:   START DEPTH
 STOP.F         3267.0000:   STOP DEPTH
 STEP.F            0.5000:   STEP LENGTH
 NULL.          -999.2500:   NO VALUE
 COMP. LAWRENCE ALLISON & ASSOCIATES:   COMPANY
 WELL. LAWRENCE "X" #78-33:   WELL
 FLD .           N P R #3:   FIELD
 LOC .      S33 T39N R78W:   LOCATION
 CNTY.            NATRONA:   COUNTY
 STAT.            WYOMING:   STATE
 CTRY. UNITED STATES OF AMERICA:   COUNTRY
 SRVC.      DRESSER ATLAS:   SERVICE COMPANY
 DATE.        04-FEB-1986:   LOGDATE
 API .     49025110630000:   API NUMBER
~CURVE INFORMATION
#MNEM.UNIT       API CODE    CURVE DESCRIPTION
#----------   ------------   ------------------------------
 DEPT.F                  :   
 CNC .DEC    42 890 03 00:   NEUTRON PORISITY SANDSTONE
 DEN .G/C3   45 350 01 00:   BULK DENSITY
 DCOR.G/C3   45 356 01 00:   DENSITY CORRECTION
 TEND.LBS    45 635 01 00:   TENSION FROM DENSITY LOG
 GRR .GAPI   07 310 01 00:   GAMMA RAY FROM RESISTIVITY
 CALR.IN     07 280 01 00:   CALIPER FROM RESISTIVITY
 RILM.OHMM   07 120 44 00:   INDUCTION LOG MEDIUM RESISTIVITY
 RILD.OHMM   07 120 46 00:   DEEP INDUCTION RESISTIVITY
 RFOC.OHMM   07 220 04 00:   RESISTIVITY FOCUSED LOG RES.
 TENR.LBS    07 635 01 00:   TENSION FROM RESISTIVITY
 DT  .US/F   60 520 00 00:   DELTA TIME
 TENS.LBS    60 635 01 00:   TENSION FROM SONIC
 SPR .MV     07 010 01 00:   SPONTANEOUS POTENTIAL
~PARAMETER INFORMATION
#MNEM.UNIT          VALUE    DESCRIPTION
#----------   ------------   ------------------------------
 EKB .F            0.0000:   Kelly bushing
 EGL .F         5150.0000:   Ground level
 EDF .F         5161.0000:   Drilling floor
 TD  .F         3260.0000:   Total depth
 DATE.        04-FEB-1986:   Date logged
 CLNT.            A2DTECH:   Client Code
 SL  . 1200' FEL & 650' FEL:   Surface Location
 PD  .                 GL:   Permanent Datum
 DD  .F              3260:   Depth driller
 DL  .F              3260:   Depth logger
 BLI .F              3258:   Bottom log interval
 CS1 .IN            8.625:   Casing size
 CBD1.      8.625" @ 566':   Casing driller 1
 CBL1.F               566:   Casing logger 1
 BS1 .IN            7.875:   Bit size
 DFT .        POLYMER-KCL:   Type fluid in hole
 DFD .                9.0:   Density
 DFV .                 36:   Viscosity
 DFPH.                8.5:   pH
 DFL .                 14:   Fluid loss
 MSS .           FLOWLINE:   Source of sample
 RMS .OHMM          0.367:   Rm
 MST .F                65:   Rm Meas. temp.
 RMF .OHMM          0.275:   Rmf
 MFST.F                65:   Rmf Meas. temp.
 RMC .OHMM          0.459:   Rmc
 MCST.F                65:   Rmc Meas. temp.
 MFSS.               CALC:   Source Rmf.
 RMB .OHMM          0.227:   Rm. at BHT
 BHT .F               105:   BHT.
 TCS .HRS               6:   Time Circ. stopped
 MRT .F               105:   Maximum recorded temp.
 LUN .               6274:   Logging unit number
 LUL .           GILLETTE:   Logging unit location
 ENGI.             MILLER:   Recorded By
 WITN.             STRONG:   Witnessed by
 ORIG.           5" PRINT:   Origin of data
 UWI .     49025110630000:   Unique Well ID
 DICO. A2D TECHNOLOGIES, INC.:   Digitizing Company
 DAPD.                 11:   Feet Above Permanent Datum
 BSD1.               3260:   Depth drilled with bit1
 MCSS.               CALC:   Source Rmc.
 EPD .F              5150:   Elevation Permanent Datum
 LMF .                 KB:   Log Measured From
 DMF .                 KB:   Drilling Measured From
 TLI .                566:   Top log interval
~OTHER INFORMATION
~A   DEPT      CNC        DEN       DCOR       TEND         GRR      CALR       RILM       RILD       RFOC       TENR         DT       TENS        SPR   
# ...
  917.5000  -999.2500  -999.2500  -999.2500  -999.2500    89.7640     9.3010     8.9560     9.9120     9.0850   -53.2920  -999.2500  -999.2500   -75.6310
  918.0000  -999.2500  -999.2500  -999.2500  -999.2500    90.8910     9.3070     8.8240     9.8420     9.1000   -49.1830  -999.2500  -999.2500   -75.1840
  918.5000  -999.2500  -999.2500  -999.2500  -999.2500    90.1300     9.3100     8.5500     9.7710     8.8520   -45.0750  -999.2500  -999.2500   -74.8410
  919.0000  -999.2500  -999.2500  -999.2500  -999.2500    89.9620     9.3100     8.6110     9.7010     8.9190   -40.9670  -999.2500  -999.2500   -74.8980
  919.5000  -999.2500  -999.2500  -999.2500  -999.2500    91.7740     9.3100     8.7460     9.6300     9.0050   -36.8580  -999.2500  -999.2500   -74.9270
  920.0000  -999.2500  -999.2500  -999.2500  -999.2500    91.1680     9.3100     8.9340     9.5600     9.0910   -37.3480  -999.2500  -999.2500   -74.9600
  920.5000  -999.2500  -999.2500  -999.2500  -999.2500    90.9480     9.3100     8.9340     9.4890     9.1840   -41.6350  -999.2500  -999.2500   -75.0040
  921.0000  -999.2500  -999.2500  -999.2500  -999.2500    94.3950     9.3100     8.9340     9.4410     9.1460   -45.9220  -999.2500  -999.2500   -75.0250
  921.5000  -999.2500  -999.2500  -999.2500  -999.2500    97.7270     9.3100     8.9340     9.3550     9.1000   -50.2090  -999.2500  -999.2500   -75.1990
  922.0000  -999.2500  -999.2500  -999.2500  -999.2500    97.7640     9.3100     8.2230     9.2590     8.7910   -55.0000  -999.2500  -999.2500   -75.4470
  922.5000  -999.2500  -999.2500  -999.2500  -999.2500    95.8130     9.3080     8.1340     9.1640     8.6250   -51.3750  -999.2500  -999.2500   -75.7450
  923.0000  -999.2500  -999.2500  -999.2500  -999.2500    95.1220     9.3050     8.1150     9.0690     8.6550   -47.2670  -999.2500  -999.2500   -76.0300
  923.5000  -999.2500  -999.2500  -999.2500  -999.2500    95.7050     9.3020     8.0960     9.0250     8.6900   -43.1580  -999.2500  -999.2500   -76.2060
  924.0000  -999.2500  -999.2500  -999.2500  -999.2500    97.1780     9.3000     8.0770     9.0430     8.6810   -39.0500  -999.2500  -999.2500   -76.3680
  924.5000  -999.2500  -999.2500  -999.2500  -999.2500    98.4740     9.2970     8.0570     9.0610     8.6690   -35.0000  -999.2500  -999.2500   -76.3020
  925.0000  -999.2500  -999.2500  -999.2500  -999.2500    96.2060     9.2940     8.0380     9.0800     8.6570   -43.0000  -999.2500  -999.2500   -76.0760
  925.5000  -999.2500  -999.2500  -999.2500  -999.2500    93.5440     9.2910     8.0190     9.0980     8.6460   -52.8600  -999.2500  -999.2500   -75.8410
  926.0000  -999.2500  -999.2500  -999.2500  -999.2500    93.1530     9.2910     7.9990     9.1160     8.6340   -62.7200  -999.2500  -999.2500   -75.3660
  926.5000  -999.2500  -999.2500  -999.2500  -999.2500    92.9980     9.2900     8.0180     9.1350     8.6230   -75.0000  -999.2500  -999.2500   -75.1140
  927.0000  -999.2500  -999.2500  -999.2500  -999.2500    92.1470     9.2910     8.0370     9.1530     8.6110   -71.1520  -999.2500  -999.2500   -75.3070
  927.5000  -999.2500  -999.2500  -999.2500  -999.2500    92.7750     9.2900     8.0560     9.1710     8.7040   -66.0520  -999.2500  -999.2500   -75.4870
  928.0000  -999.2500  -999.2500  -999.2500  -999.2500    95.3240     9.2910     8.0730     9.1840     8.8040   -60.9520  -999.2500  -999.2500   -75.6830
  928.5000  -999.2500  -999.2500  -999.2500  -999.2500    95.2200     9.3040     8.0150     8.9210     8.9340   -55.8520  -999.2500  -999.2500   -75.8360
  929.0000  -999.2500  -999.2500  -999.2500  -999.2500    93.9330     9.3160     7.9630     8.6850     8.8060   -50.7520  -999.2500  -999.2500   -75.7880
  929.5000  -999.2500  -999.2500  -999.2500  -999.2500    93.8670     9.3310     7.9260     8.5350     8.6220   -45.0000  -999.2500  -999.2500   -75.7020
  930.0000  -999.2500  -999.2500  -999.2500  -999.2500    93.8090     9.3620     7.0310     8.4530     8.4390   -49.6070  -999.2500  -999.2500   -75.6620
  930.5000  -999.2500  -999.2500  -999.2500  -999.2500    93.0680     9.4020     7.0710     8.0330     8.5350   -54.8890  -999.2500  -999.2500   -75.7760
  931.0000  -999.2500  -999.2500  -999.2500  -999.2500    90.0510     9.4290     6.8730     7.7010     8.7710   -60.1710  -999.2500  -999.2500   -75.9790
  931.5000  -999.2500  -999.2500  -999.2500  -999.2500    86.9300     9.4300     6.3620     7.3690     9.5270   -65.4540  -999.2500  -999.2500   -76.1180
  932.0000  -999.2500  -999.2500  -999.2500  -999.2500    86.0600     9.4300     5.9570     7.0360    10.2570   -70.7360  -999.2500  -999.2500   -76.3190
  932.5000  -999.2500  -999.2500  -999.2500  -999.2500    87.4790     9.4290     5.8300     6.8930     8.8160   -75.0000  -999.2500  -999.2500   -76.4270
  933.0000  -999.2500  -999.2500  -999.2500  -999.2500    88.6930     9.4080     6.8400     6.8750     6.5650   -71.0800  -999.2500  -999.2500   -76.2690
  933.5000  -999.2500  -999.2500  -999.2500  -999.2500    85.7890     9.3830     6.7050     6.8580     5.1070   -67.7930  -999.2500  -999.2500   -76.0930
  934.0000  -999.2500  -999.2500  -999.2500  -999.2500    83.5440     9.3620     6.5320     6.8400     5.3710   -64.5070  -999.2500  -999.2500   -75.9520
  934.5000  -999.2500  -999.2500  -999.2500  -999.2500    86.4960     9.3630     6.7470     7.1160     6.2900   -61.2200  -999.2500  -999.2500   -75.8280
  935.0000  -999.2500  -999.2500  -999.2500  -999.2500    90.9690     9.3900     7.0370     7.4030     7.0960   -57.9330  -999.2500  -999.2500   -75.7890
  935.5000  -999.2500  -999.2500  -999.2500  -999.2500    94.3260     9.4140     7.2950     7.6900     7.3750   -55.0000  -999.2500  -999.2500   -75.7510
  936.0000  -999.2500  -999.2500  -999.2500  -999.2500    95.0770     9.4410     7.1740     7.9770     7.6220   -50.4500  -999.2500  -999.2500   -75.7060
  936.5000  -999.2500  -999.2500  -999.2500  -999.2500    93.7100     9.4680     7.0960     8.2990     7.8690   -46.3420  -999.2500  -999.2500   -75.6700
  937.0000  -999.2500  -999.2500  -999.2500  -999.2500    92.5970     9.4790     7.3260     8.3270     8.1150   -42.2330  -999.2500  -999.2500   -75.6980
  937.5000  -999.2500  -999.2500  -999.2500  -999.2500    92.2510     9.4890     7.5050     8.3580     8.2990   -38.1250  -999.2500  -999.2500   -75.8110
  938.0000  -999.2500  -999.2500  -999.2500  -999.2500    91.4150     9.5010     7.5060     8.3570     8.2470   -35.0000  -999.2500  -999.2500   -75.9230
  938.5000  -999.2500  -999.2500  -999.2500  -999.2500    88.1260     9.5090     7.4090     8.3130     8.2060   -41.3210  -999.2500  -999.2500   -76.0350
  939.0000  -999.2500  -999.2500  -999.2500  -999.2500    85.0680     9.5180     7.3120     8.2700     8.1640   -46.4210  -999.2500  -999.2500   -76.1470
  939.5000  -999.2500  -999.2500  -999.2500  -999.2500    87.0920     9.5260     7.2150     8.2260     8.1160   -51.5210  -999.2500  -999.2500   -76.2580
  940.0000  -999.2500  -999.2500  -999.2500  -999.2500    92.6970     9.5260     7.0960     8.1830     8.0620   -56.6210  -999.2500  -999.2500   -76.3710
  940.5000  -999.2500  -999.2500  -999.2500  -999.2500    96.0020     9.5210     7.1040     8.1390     8.0090   -61.7210  -999.2500  -999.2500   -76.3370
  941.0000  -999.2500  -999.2500  -999.2500  -999.2500    94.9150     9.5170     7.1150     8.0950     7.9560   -62.8880  -999.2500  -999.2500   -76.0440
  941.5000  -999.2500  -999.2500  -999.2500  -999.2500    93.2530     9.5120     7.1250     8.0520     7.9030   -56.9720  -999.2500  -999.2500   -75.5000
  942.0000  -999.2500  -999.2500  -999.2500  -999.2500    93.7830     9.5110     7.1360     8.0080     7.8500   -51.0560  -999.2500  -999.2500   -74.9280
  942.5000  -999.2500  -999.2500  -999.2500  -999.2500    95.8230     9.5190     7.1460     7.9650     7.7810   -45.1400  -999.2500  -999.2500   -74.7910
  943.0000  -999.2500  -999.2500  -999.2500  -999.2500    97.5510     9.5260     7.1570     7.9260     7.8300   -39.2240  -999.2500  -999.2500   -75.0580
