~VERSION INFORMATION
 VERS.                2.0:   CWLS LOG ASCII STANDARD - VERSION 2.0
 WRAP.                 NO:   ONE LINE PER DEPTH STEP
~WELL INFORMATION
#MNEM.UNIT      DATA TYPE    INFORMATION
#----------   ------------   ------------------------------
 STRT.F          200.0000:   START DEPTH
 STOP.F         3135.5000:   STOP DEPTH
 STEP.F            0.5000:   STEP LENGTH
 NULL.          -999.2500:   NO VALUE
 COMP.    FENOX & SCISSON:   COMPANY
 WELL. FENIX NPR 23 "AX" #3-11:   WELL
 FLD .                NPR:   FIELD
 LOC .      S11 T38N R78W:   LOCATION
 CNTY.            NATRONA:   COUNTY
 STAT.            WYOMING:   STATE
 CTRY. UNITED STATES OF AMERICA:   COUNTRY
 SRVC.       SCHLUMBERGER:   SERVICE COMPANY
 DATE.        06-NOV-1977:   LOGDATE
 API .     49025104320000:   API NUMBER
~CURVE INFORMATION
#MNEM.UNIT       API CODE    CURVE DESCRIPTION
#----------   ------------   ------------------------------
 DEPT.F                  :   
 CALD.IN     45 280 60 00:   CALIPER FROM DENSITY LOG
 GRD .GAPI   45 310 01 00:   GAMMA RAY FROM DENSITY LOG
 RHOB.G/C3   45 350 01 00:   BULK DENSITY
 CORR.G/C3   45 356 01 00:   DENSITY CORRECTION
 SPR .MV     07 010 01 00:   SPONTANEOUS POTENTIAL
 LL8 .OHMM   07 220 08 00:   LATEROLOG-8 RES.
 ILD .OHMM   07 120 46 00:   DEEP INDUCTION RESISTIVITY
 ILM .OHMM   07 120 44 00:   INDUCTION LOG MEDIUM RESISTIVITY
~PARAMETER INFORMATION
#MNEM.UNIT          VALUE    DESCRIPTION
#----------   ------------   ------------------------------
 EKB .F         5176.0000:   Kelly bushing
 EGL .F         5171.0000:   Ground level
 TD  .F         3138.0000:   Total depth
 DATE.        06-NOV-1977:   Date logged
 CLNT.            A2DTECH:   Client Code
 SL  . 1650' FNL & 750' FWL:   Surface Location
 PD  .                 GL:   Permanent Datum
 EPD .F              5171:   Elevation Permanent Datum
 LMF .                 KB:   Log Measured From
 DMF .                 KB:   Drilling Measured From
 DAPD.F                 5:   Feet Above Permanent Datum
 DD  .F              3138:   Depth driller
 DL  .F              3135:   Depth logger
 BLI .F              3134:   Bottom log interval
 TLI .F               196:   Top log interval
 CS1 .IN            8.625:   Casing size
 CBD1.      8.625" @ 205':   Casing driller 1
 CBL1.F               205:   Casing logger 1
 BS1 .IN            7.875:   Bit size
 BSD1.F              3138:   Depth drilled with bit1
 DFT .            KCL/MUD:   Type fluid in hole
 DFD .                8.8:   Density
 DFV .                 34:   Viscosity
 DFPH.                 11:   pH
 DFL .                  6:   Fluid loss
 MSS .            MUD/PIT:   Source of sample
 RMS .OHMM           0.27:   Rm
 MST .F                48:   Rm Meas. temp.
 RMF .OHMM           0.29:   Rmf
 MFST.F                48:   Rmf Meas. temp.
 RMC .OHMM           0.39:   Rmc
 MCST.F                48:   Rmc Meas. temp.
 MFSS.               MEAS:   Source Rmf.
 MCSS.               CALC:   Source Rmc.
 RMB .OHMM           0.12:   Rm. at BHT
 BHT .F               104:   BHT.
 TCS .HRS            1500:   Time Circ. stopped
 TLAB.HRS            1930:   Time logger at bottom
 MRT .F               104:   Maximum recorded temp.
 LUN .               7711:   Logging unit number
 LUL .               CSPR:   Logging unit location
 ENGI.       CRAIG/SAYLER:   Recorded By
 WITN.         PETTINGILL:   Witnessed by
 ORIG.           5" PRINT:   Origin of data
 UWI .     49025104320000:   Unique Well ID
 DICO. A2D TECHNOLOGIES, INC.:   Digitizing Company
~OTHER INFORMATION
~A   DEPT     CALD        GRD       RHOB       CORR        SPR        LL8        ILD        ILM   
# ...
  969.5000     8.3027   105.9717     2.5277     0.0110   -67.3025    10.9216    11.1847    10.7807
  970.0000     8.3427   103.8580     2.5227     0.0080   -67.3045    10.8211    11.1838    10.6812
  970.5000     8.3023    99.0304     2.5227     0.0029   -67.3062    10.6237    11.1828    10.4858
  971.0000     8.3021    96.9167     2.5197    -0.0021   -67.3078    10.8195    11.1820    10.6796
  971.5000     8.3018    96.9128     2.5157    -0.0071   -67.5106    10.4291    11.1812    10.2932
  972.0000     8.3016    97.8130     2.5106    -0.0071   -67.3112    10.8178    11.1803    10.6780
  972.5000     8.3014    98.1104     2.5026    -0.0062   -67.5139    10.1446    11.0773    10.0116
  973.0000     8.3012    97.5037     2.4966    -0.0062   -67.5156    10.2373    11.0763    10.1033
  973.5000     8.3010    96.5956     2.4926    -0.0072   -67.5172    10.2365    10.6756    10.1025
  974.0000     8.2606    96.2903     2.4905    -0.0072   -67.5185    10.3300    10.3300    10.1951
  974.5000     8.2804    95.6837     2.4875    -0.0072   -67.3184    10.7151    10.7151    10.5763
  975.0000     8.2802    95.9811     2.4895    -0.0053   -67.3197    10.7143    10.7143    10.5755
  975.5000     8.2800    97.1826     2.4945    -0.0013   -67.1202    11.0121    11.0121    10.8703
  976.0000     8.3199    98.0827     2.5035     0.0007   -67.1219    11.1127    11.1127    10.9699
  976.5000     8.2996    97.7774     2.5155     0.0077   -67.1239    11.3175    11.3175    11.1726
  977.0000     8.2994    97.7735     2.5114     0.0097   -67.3281    11.5261    11.6972    11.0694
  977.5000     8.2991    98.0708     2.5194     0.0117   -67.3298    11.4200    11.8046    11.0687
  978.0000     8.2989    97.4634     2.5264     0.0146   -67.3314    11.5244    12.1339    11.0680
  978.5000     8.2786    96.8568     2.5244     0.0126   -67.3331    11.5235    12.1331    11.0672
  979.0000     8.2985    96.8529     2.5334     0.0166   -67.3347    11.5227    12.1321    11.0662
  979.5000     8.2983    97.4516     2.5434     0.0246   -67.3364    11.5218    11.9101    11.0654
  980.0000     8.2980    98.0516     2.5514     0.0346   -67.5392    11.5209    11.8004    11.0645
  980.5000     8.2978    97.4450     2.5573     0.0306   -67.5409    11.4149    11.7995    11.0637
  981.0000     8.2976    96.2358     2.5473     0.0185   -67.3414    11.5192    11.7986    11.0630
  981.5000     8.2974    96.2305     2.5403     0.0155   -67.1411    11.3090    11.7977    11.0616
  982.0000     8.2972    95.3226     2.5303     0.0135   -66.9424    11.2050    11.7967    11.0614
  982.5000     8.2969    95.0174     2.5242     0.0115   -67.3462    11.1019    11.6878    10.9593
  983.0000     8.2967    95.0134     2.5192     0.0124   -67.3469    10.9997    11.4740    10.8580
  983.5000     8.2965    95.3108     2.5162     0.0124   -67.3485    11.1000    11.3682    10.7577
  984.0000     8.2963    94.1017     2.5172     0.0114   -67.3502    10.6018    11.1599    10.6584
  984.5000     8.2960    93.7965     2.5231     0.0134   -67.3519    10.6010    11.0569    10.5600
  985.0000     8.2959    93.4913     2.5281     0.0144   -67.3539    10.5035    10.9549    10.5592
  985.5000     8.2956    92.5835     2.5261     0.0123   -67.3552    10.5994    10.9540    10.5584
  986.0000     8.2954    93.1821     2.5311     0.0143   -67.3583    10.5019    10.9532    10.5581
  986.5000     8.2951    93.7808     2.5291     0.0183   -67.3600    10.7940    10.9526    10.5568
  987.0000     8.2949    93.7769     2.5280     0.0213   -67.3617    10.5003    10.9517    10.4594
  987.5000     8.2947    94.6769     2.5250     0.0163   -67.3633    10.4995    10.9508    10.4586
  988.0000     8.2945    96.1786     2.5220     0.0132   -67.3650    10.3079    10.9499    10.1732
  988.5000     8.2942    95.5721     2.5150     0.0042   -67.3666    10.4021    10.7496    10.2664
  989.0000     8.2940    94.0618     2.5130     0.0022   -67.3683    10.4013    10.5529    10.2657
  989.5000     8.2938    94.0578     2.5099    -0.0008   -67.3700    10.4005    10.5521    10.2649
  990.0000     8.2936    97.0666     2.5059    -0.0009   -67.5728    10.2107    10.6487    10.0771
  990.5000     8.2933    99.1715     2.5019    -0.0009   -67.3733    10.3040    10.7465    10.1694
  991.0000     8.2931   101.5777     2.5059     0.0031   -67.3753    10.3982    10.7455    10.2626
  991.5000     8.3130   102.1762     2.5149     0.0091   -67.5781    10.4932    10.8440    10.3566
  992.0000     8.2927   102.4735     2.5198     0.0091   -67.5798    10.3965    10.8430    10.2609
  992.5000     8.2925   102.4695     2.5208     0.0121   -67.5814    10.3008    10.8422    10.1662
  993.0000     8.2922   101.5617     2.5158     0.0100   -67.7843    10.2060    10.5463    10.0723
  993.5000     8.2920   100.0515     2.5158     0.0030   -67.5848    10.2052    10.5455    10.0716
  994.0000     8.3119    99.1438     2.5208     0.0060   -67.5864    10.2984    10.5449    10.1639
  994.5000     8.3117    99.1398     2.5288     0.0120   -67.5881    10.2977    10.5441    10.1631
  995.0000     8.2914    99.6896     2.5407     0.0110   -67.7909    10.1097    10.6406     9.9771
  995.5000     8.3112   100.0356     2.5467     0.0210   -67.7926    10.2961    10.6399    10.1616
  996.0000     8.3109   100.3329     2.5497     0.0289   -67.9955    10.2953    10.6390    10.1608
  996.5000     8.3108   101.2326     2.5487     0.0289   -67.7959    10.2006    10.5408    10.0670
  997.0000     8.3105   100.9278     2.5527     0.0239   -67.9988    10.1998    10.4435    10.0662
  997.5000     8.2902    99.1165     2.5607     0.0269   -68.0005    10.2930    10.4427    10.1585
  998.0000     8.3101    96.7027     2.5566     0.0269   -68.0025    10.1052    10.4421     9.9726
  998.5000     8.3098    95.7939     2.5496     0.0078   -68.2053    10.0122    10.4411     9.8805
  999.0000     8.3096    96.3924     2.5416     0.0038   -68.0058    10.1036    10.4405     9.9711
  999.5000     8.3094    98.1958     2.5506     0.0038   -68.0075    10.1960    10.3441    10.0624
 1000.0000     8.3293   101.8063     2.5556     0.0168   -68.0091    10.1021    10.3430     9.9695
 1000.5000     8.3290   102.3417     2.5481     0.0148   -67.8313    10.1012    10.4230     9.9687
 1001.0000     8.3289   102.1015     2.5365     0.0107   -68.2105    10.1026    10.4392     9.9700
 1001.5000     8.3287   101.1949     2.5225     0.0057   -68.2105     9.9193     9.9193     9.7886
 1002.0000     8.3285    98.7823     2.5205     0.0047   -68.2105    10.1963    10.1963    10.0627
 1002.5000     8.3283    96.9721     2.5215     0.0077   -68.2105    10.1966    10.3854    10.0630
 1003.0000     8.3281    95.7643     2.5205     0.0047   -68.2105    10.4405    11.4879    10.4404
 1003.5000     8.3278    95.7613     2.5255     0.0037   -68.2105    11.6589    11.7009     9.9715
 1004.0000     8.3276    97.2644     2.5265     0.0007   -68.0093    11.6592    11.7010    10.0639
 1004.5000     8.3274    98.4657     2.5225    -0.0003   -68.0093    11.3423    11.3840    10.4412
 1005.0000     8.3272    99.0651     2.5174     0.0027   -68.0093    10.1575    10.9743     9.9724
 1005.5000     8.3270    99.9658     2.5124     0.0037   -68.0093    10.0649    10.2924    10.0649
 1006.0000     8.3268   102.3725     2.5144     0.0027   -68.4117    10.0650    10.1987    10.0652
 1006.5000     8.3266   104.4780     2.5224     0.0027   -68.4117    10.1992    10.1990    10.0655
 1007.0000     8.3465   105.6798     2.5384     0.0037   -68.4117    10.3881    10.3881    10.2526
 1007.5000     8.3463   105.6769     2.5304     0.0007   -68.4105    10.4841    10.4841    10.3476
 1008.0000     8.3662   104.7703     2.5364     0.0037   -68.4105    10.9762    10.9762    10.8347
 1008.5000     8.3459   103.2613     2.5384     0.0087   -68.4105    10.4847    10.4847    10.3482
 1009.0000     8.3658   102.3547     2.5374     0.0096   -68.6129    10.1075    10.1075     9.9749
 1009.5000     8.3455   102.3517     2.5394     0.0136   -68.6129    10.0156    10.0156     9.8839
