~VERSION INFORMATION
 VERS.                2.0:   CWLS LOG ASCII STANDARD - VERSION 2.0
 WRAP.                 NO:   ONE LINE PER DEPTH STEP
~WELL INFORMATION
#MNEM.UNIT      DATA TYPE    INFORMATION
#----------   ------------   ------------------------------
 STRT.F          545.0000:   START DEPTH
 STOP.F         3193.0000:   STOP DEPTH
 STEP.F            0.5000:   STEP LENGTH
 NULL.          -999.2500:   NO VALUE
 COMP. FENIX & SCISSON-U.S. NAVY:   COMPANY
 WELL.   FENIX "A" #47-34:   WELL
 FLD .          N.P.R. #3:   FIELD
 LOC .      S34 T39N R78W:   LOCATION
 CNTY.            NATRONA:   COUNTY
 STAT.            WYOMING:   STATE
 CTRY. UNITED STATES OF AMERICA:   COUNTRY
 SRVC.       SCHLUMBERGER:   SERVICE COMPANY
 DATE.        26-MAR-1977:   LOGDATE
 API .     49025103260000:   API NUMBER
~CURVE INFORMATION
#MNEM.UNIT       API CODE    CURVE DESCRIPTION
#----------   ------------   ------------------------------
 DEPT.F                  :   
 SPR .MV     07 010 01 00:   SPONTANEOUS POTENTIAL FROM RES.
 ILM .OHMM   07 120 44 00:   INDUCTION LOG MEDIUM RESISTIVITY
 ILD .OHMM   07 120 46 00:   DEEP INDUCTION RESISTIVITY
 LL8 .OHMM   07 220 08 00:   LATEROLOG-8 RES.
 CALD.IN     45 280 60 00:   CALIPER FROM DENSITY LOG
 GRD .GAPI   45 310 01 00:   GAMMA RAY FROM DENSITY LOG
 RHOB.G/C3   45 350 01 00:   BULK DENSITY
 CORR.G/C3   45 356 01 00:   DENSITY CORRECTION
~PARAMETER INFORMATION
#MNEM.UNIT          VALUE    DESCRIPTION
#----------   ------------   ------------------------------
 EKB .F         5144.0000:   Kelly bushing
 EGL .F         5132.0000:   Ground level
 TD  .F         3194.0000:   Total depth
 CLNT.            A2DTECH:   Client Code
 SL  . 2310' FWL & 990' FSL:   Surface Location
 PD  .                 GL:   Permanent Datum
 EPD .F              5132:   Elevation Permanent Datum
 LMF .                 KB:   Log Measured From
 DMF .                 KB:   Drilling Measured From
 DAPD.F                12:   Feet Above Permanent Datum
 DATE.        26-MAR-1977:   Date Logged [DD-MMM-YYYY]
 DD  .F              3188:   Depth driller
 DL  .F              3194:   Depth logger
 BLI .F              3188:   Bottom log interval
 TLI .F               564:   Top log interval
 CS1 .IN            8.625:   Casing size
 CBD1.      8.625" @ 570':   Casing driller 1
 CBL1.F               564:   Casing logger 1
 BS1 .IN            7.875:   Bit size
 BSD1.F              3188:   Depth drilled with bit1
 DFT .                KCL:   Type fluid in hole
 DFD .                9.2:   Density
 DFV .                 30:   Viscosity
 DFL .                9.2:   Fluid loss
 MSS .                PIT:   Source of sample
 RMS .OHMM          0.354:   Rm
 MST .F                70:   Rm Meas. temp.
 RMF .OHMM          0.326:   Rmf
 MFST.F                70:   Rmf Meas. temp.
 MFSS.               MEAS:   Source Rmf.
 RMC .OHMM          0.531:   Rmc
 MCST.F                70:   Rmc Meas. temp.
 MCSS.               CALC:   Source Rmc.
 RMB .OHMM          0.205:   Rm. at BHT
 BHT .F               121:   BHT.
 TLAB.HRS            1900:   Time logger at bottom
 MRT .F               121:   Maximum recorded temp.
 LUN .               5642:   Logging unit number
 LUL .               CSPR:   Logging unit location
 ENGI.             MARTIN:   Recorded By
 WITN.         PETTINGILL:   Witnessed by
 ORIG.           5" PRINT:   Origin of data
 UWI .     49025103260000:   Unique Well ID
 DICO. A2D TECHNOLOGIES, INC.:   Digitizing Company
~OTHER INFORMATION
~A   DEPT      SPR        ILM        ILD        LL8       CALD         GRD      RHOB       CORR   
# ...
 1598.0000   -61.8683     7.1432     6.7714    10.7853     8.3221   121.8567     2.5525     0.0388
 1598.5000   -62.0033     7.1989     6.7781    10.3536     8.3221   122.3377     2.5563     0.0327
 1599.0000   -62.0661     7.2551     6.8304    11.8981     8.3221   122.0564     2.5474     0.0235
 1599.5000   -62.2733     7.3709     6.8359    13.4829     8.3221   121.0289     2.5385     0.0158
 1600.0000   -62.4083     7.4214     6.8887    11.9163     8.3221   120.5941     2.5334     0.0270
 1600.5000   -62.5433     7.3243     6.9417    10.9445     8.3221   125.8396     2.5274     0.0291
 1601.0000   -62.5263     7.2801     6.9475    11.7732     8.3221   128.5435     2.5381     0.0153
 1601.5000   -62.5127     7.2879     6.9532    11.6206     8.3221   129.9040     2.5450     0.0378
 1602.0000   -62.4991     7.2434     6.9599    11.0046     8.3221   126.6420     2.5278     0.0247
 1602.5000   -62.4851     7.1015     6.9543    10.8599     8.3221   124.1220     2.5144     0.0000
 1603.0000   -62.3199     7.0602     6.8755    11.3301     8.3221   122.4975     2.5348     0.0093
 1603.5000   -62.3063     7.0161     6.8333    11.1773     8.3221   121.9177     2.5319     0.0117
 1604.0000   -62.2927     6.9273     6.7454    10.3039     8.3221   120.1440     2.5368     0.0141
 1604.5000   -62.2791     6.9333     6.6125    10.8974     8.3221   119.2657     2.5554     0.0181
 1605.0000   -61.9385     6.9409     6.5597    10.7562     8.3221   119.6019     2.5682     0.0230
 1605.5000   -61.9220     7.0922     6.6769    10.3276     8.3221   120.4986     2.5691     0.0337
 1606.0000   -62.0541     7.1475     6.8090    10.3355     8.3221   122.0084     2.5459     0.0245
 1606.5000   -62.0335     7.3542     6.8612    10.7809     8.3221   121.5780     2.5588     0.0176
 1607.0000   -62.1657     7.4116     6.9213    11.4192     8.3221   120.3969     2.5716     0.0339
 1607.5000   -62.3019     7.5733     7.0163    12.3987     8.3221   122.3588     2.5575     0.0169
 1608.0000   -62.5785     7.6325     6.9731    12.3228     8.3221   123.1223     2.5456     0.0000
 1608.5000   -63.0078     7.5932     6.9290    11.9138     8.3221   121.5762     2.5667    -0.0009
 1609.0000   -63.2885     7.5405     6.8877    11.5760     8.3221   119.8776     2.5698     0.0272
 1609.5000   -63.2679     7.4249     6.8925    11.1137     8.3221   118.9994     2.5684     0.0100
 1610.0000   -63.2515     7.3794     6.8978    11.5226     8.3221   118.1211     2.5865     0.0553
 1610.5000   -63.2350     7.3850     6.8666    11.3633     8.3222   118.2884     2.5821     0.0375
 1611.0000   -63.0700     7.3394     6.8585    10.2522     8.3212   119.4999     2.5552     0.0221
 1611.5000   -63.0542     7.3461     6.8112    11.0686     8.3199   120.7114     2.5410     0.0152
 1612.0000   -62.8885     7.3009     6.7601    11.5425     8.3186   120.4303     2.5464     0.0114
 1612.5000   -62.7229     7.2547     6.6897    10.7072     8.3174   120.5970     2.5480     0.0091
 1613.0000   -62.5542     7.2100     6.6320    10.1386     8.3161   121.8570     2.5564     0.0131
 1613.5000   -62.2406     7.2166     6.6076    10.6085     8.3148   124.0691     2.5640     0.0264
 1614.0000   -62.2241     7.1722     6.5671    11.3399     8.3135   126.0268     2.5482     0.0244
 1614.5000   -62.2077     7.1294     6.5721    11.1899     8.3122   124.7010     2.5437     0.0164
 1615.0000   -62.1912     7.0855     6.5319    11.1993     8.3110   123.6693     2.5456     0.0188
 1615.5000   -62.1746     7.0907     6.5409    11.1278     8.3097   125.3329     2.5584     0.0289
 1616.0000   -62.1542     7.0471     6.5877    11.0586     8.3084   126.9878     2.5720     0.0468
 1616.5000   -62.4390     7.0523     6.5921    10.8409     8.3071   125.2186     2.5646     0.0554
 1617.0000   -62.7156     7.0574     6.5971    10.4667     8.3059   124.7881     2.5422     0.0206
 1617.5000   -62.8477     7.0140     6.6479    10.2014     8.3046   124.1789     2.5498     0.0113
 1618.0000   -62.8312     6.9228     6.6528    10.6400     8.3033   122.6566     2.5709     0.0264
 1618.5000   -62.8148     6.9292     6.6579    11.5687     8.3020   120.3673     2.5890     0.0386
 1619.0000   -62.9469     6.9335     6.6638    12.4899     8.3007   120.9818     2.5778     0.0503
 1619.5000   -62.9294     6.9875     6.6222    11.7452     8.2995   124.4321     2.5427     0.0310
 1620.0000   -62.9099     6.9927     6.5810    10.9690     8.2982   122.5092     2.5579     0.0156
 1620.5000   -62.7448     6.9978     6.5264    10.5986     8.2969   119.9893     2.5745     0.0304
 1621.0000   -62.7283     7.0030     6.5003    10.3934     8.2956   119.1069     2.5858     0.0467
 1621.5000   -62.5633     7.0082     6.5062    10.6198     8.2944   123.1586     2.5957     0.0608
 1622.0000   -62.3982     7.0632     6.5562    10.8492     8.2931   125.1164     2.5793     0.0430
 1622.5000   -62.3811     7.0684     6.6067    11.0074     8.2918   125.2836     2.5501     0.0265
 1623.0000   -62.3612     7.0736     6.6117    11.0911     8.2905   125.0063     2.5300     0.0191
 1623.5000   -62.3447     7.1279     6.6632    11.1754     8.2892   120.8446     2.5361     0.0153
 1624.0000   -62.3299     7.1331     6.6676    11.1829     8.2880   119.0710     2.5452     0.0107
 1624.5000   -62.3118     7.1384     6.6730    11.8278     8.2867   119.6855     2.5413     0.0123
 1625.0000   -62.2953     7.2430     6.7239    12.3363     8.2854   120.7477     2.5386     0.0101
 1625.5000   -62.5859     7.2988     6.7756    12.2595     8.2841   121.6607     2.5508     0.0210
 1626.0000   -62.8568     7.3546     6.8171    11.7699     8.2828   122.4244     2.5584     0.0288
 1626.5000   -62.8362     7.3093     6.8364    11.2998     8.2840   122.4437     2.5487     0.0328
 1627.0000   -62.9683     7.3668     6.8862    10.6997     8.2857   122.3100     2.5436     0.0271
 1627.5000   -62.9519     7.3718     6.8906    10.1315     8.2874   123.3766     2.5407     0.0151
 1628.0000   -62.9354     7.3776     6.8959    11.2464     8.2890   121.0060     2.5385     0.0090
 1628.5000   -62.9189     7.3831     6.9014    11.5691     8.2907   119.0832     2.5626    -0.0011
 1629.0000   -62.7533     7.4433     6.9065    11.3395     8.2924   119.9961     2.5597     0.0308
 1629.5000   -62.7333     7.5502     6.9116    11.4257     8.2941   121.5061     2.5358     0.0161
 1630.0000   -62.5682     7.6081     6.9168    11.2765     8.2958   122.7176     2.5097    -0.0001
 1630.5000   -62.5518     7.6137     6.9221    10.8261     8.2975   123.1828     2.5330     0.0070
 1631.0000   -62.6880     7.4116     6.9281    11.6164     8.2992   123.3495     2.5782     0.0320
 1631.5000   -62.5189     7.3153     6.8849    13.1525     8.3009   123.5244     2.5650     0.0420
 1632.0000   -62.3536     7.2200     6.8424    11.9507     8.3026   122.8655     2.5521     0.0289
 1632.5000   -62.1846     7.0773     6.8012    11.1609     8.3043   120.5704     2.5447     0.0197
 1633.0000   -62.0196     7.0307     6.7593    10.4954     8.3060   120.4342     2.5388     0.0166
 1633.5000   -62.0031     6.8958     6.7179    10.1444     8.3077   120.6009     2.5374     0.0159
 1634.0000   -62.1394     6.9008     6.6623    10.5823     8.3094   118.9809     2.5593     0.0330
 1634.5000   -62.2715     6.8571     6.5899    10.1596     8.3111   118.6955     2.5661     0.0447
 1635.0000   -62.3997     6.8630     6.5506    10.6163     8.3127   121.5531     2.5572     0.0378
 1635.5000   -62.5316     6.8685     6.5035    11.0538     8.3144   122.9138     2.5468     0.0285
 1636.0000   -62.5141     6.8735     6.4546    10.6858     8.3161   120.9891     2.5387     0.0158
 1636.5000   -62.6473     6.8787     6.4304    10.3301     8.3178   120.2622     2.5305     0.0047
 1637.0000   -62.7794     6.8839     6.4353     9.7815     8.3195   120.1347     2.5318     0.0118
 1637.5000   -62.9115     6.8733     6.4196     9.1984     8.3212   119.7044     2.5645     0.0366
 1638.0000   -63.0401     6.8004     6.4005    10.6407     8.3209   120.1696     2.5515     0.0413
