~VERSION INFORMATION
 VERS.                2.0:   CWLS LOG ASCII STANDARD - VERSION 2.0
 WRAP.                 NO:   ONE LINE PER DEPTH STEP
~WELL INFORMATION
#MNEM.UNIT      DATA TYPE    INFORMATION
#----------   ------------   ------------------------------
 STRT.F          590.0000:   START DEPTH
 STOP.F         3428.0000:   STOP DEPTH
 STEP.F            0.5000:   STEP LENGTH
 NULL.          -999.2500:   NO VALUE
 COMP.    FENIX & SCISSON:   COMPANY
 WELL. FENIX NPR 3 "AX" #25-27:   WELL
 FLD .                NPR:   FIELD
 LOC .      S27 T39N R78W:   LOCATION
 CNTY.            NATRONA:   COUNTY
 STAT.            WYOMING:   STATE
 CTRY. UNITED STATES OF AMERICA:   COUNTRY
 SRVC.       SCHLUMBERGER:   SERVICE COMPANY
 DATE.        13-AUG-1981:   LOGDATE
 API .     49025108780000:   API NUMBER
~CURVE INFORMATION
#MNEM.UNIT       API CODE    CURVE DESCRIPTION
#----------   ------------   ------------------------------
 DEPT.F                  :   
 CALD.IN     45 280 60 00:   CALIPER FROM DENSITY LOG
 GRD .GAPI   45 310 01 00:   GAMMA RAY FROM DENSITY LOG
 CORR.G/C3   45 356 01 00:   DENSITY CORRECTION
 RHOB.G/C3   45 350 01 00:   BULK DENSITY
 NPHI.DEC    42 890 03 00:   NEUTRON POROSITY SANDSTONE
 TENR.LBS    07 635 01 00:   TENSION
 SPR .MV     07 010 01 00:   SPONTANEOUS POTENTIAL
 ILD .OHMM   07 120 46 00:   INDUCTION LOG DEEP RESISTIVITY
 ILM .OHMM   07 120 44 00:   INDUCTION LOG MEDIUM RESISTIVITY
 SFL .OHMM   07 220 01 00:   SHALLOW FOCUSED LOG RESISTIVITY
 TEND.LBS    45 635 01 00:   TENSION FROM DENSITY LOG
~PARAMETER INFORMATION
#MNEM.UNIT          VALUE    DESCRIPTION
#----------   ------------   ------------------------------
 EKB .F         5057.0000:   Kelly bushing
 EGL .F         5047.0000:   Ground level
 EDF .F            0.0000:   Drilling floor
 TD  .F         3415.0000:   Total depth
 DATE.        13-AUG-1981:   Date logged
 CLNT.            A2DTECH:   Client Code
 SL  . 2100' FSL & 1050' FWL:   Surface Location
 PD  .                 GL:   Permanent Datum
 EPD .F              5047:   Elevation Permanent Datum
 LMF .                 KB:   Log Measured From
 DMF .                 KB:   Drilling Measured From
 DAPD.F                10:   Feet Above Permanent Datum
 DD  .F              3400:   Depth driller
 DL  .F              3415:   Depth logger
 BLI .F              3409:   Bottom log interval
 TLI .F               603:   Top log interval
 CS1 .IN            9.625:   Casing size
 CBD1.      9.625" @ 607':   Casing driller 1
 CBL1.F               603:   Casing logger 1
 BS1 .IN            7.875:   Bit size
 BSD1.F              3400:   Depth drilled with bit1
 DFT .                FGM:   Type fluid in hole
 DFD .                8.7:   Density
 DFV .                 36:   Viscosity
 DFPH.                  9:   pH
 DFL .                 13:   Fluid loss
 MSS .           MUD/TANK:   Source of sample
 RMS .OHMM           1.69:   Rm
 MST .F                75:   Rm Meas. temp.
 RMF .OHMM           1.34:   Rmf
 MFST.F                75:   Rmf Meas. temp.
 MFSS.               MEAS:   Source Rmf.
 RMB .OHMM           1.09:   Rm. at BHT
 BHT .F               120:   BHT.
 TCS .HRS            2145:   Time Circ. stopped
 TLAB.HRS            0200:   Time logger at bottom
 MRT .F               120:   Maximum recorded temp.
 LUN .               8039:   Logging unit number
 LUL .               CSPR:   Logging unit location
 ENGI.            PURPICH:   Recorded By
 WITN.              FIVAS:   Witnessed by
 ORIG.           5" PRINT:   Origin of data
 UWI .     49025108780000:   Unique Well ID
 DICO. A2D TECHNOLOGIES, INC.:   Digitizing Company
~OTHER INFORMATION
~A   DEPT     CALD         GRD      CORR       RHOB         NPHI     TENR        SPR        ILD        ILM        SFL       TEND   
# ...
 2816.5000     8.2860   115.1160     0.0450     2.5640     0.2030  1024.7760   -71.2360     7.0050     6.6060     9.5880  1074.0360
 2817.0000     8.2860   125.1510     0.0610     2.5740     0.2140  1024.9871   -71.3260     6.8650     6.2470     8.7980  1074.1300
 2817.5000     8.2850   133.0070     0.0540     2.5570     0.2370  1025.1970   -71.2030     6.7250     5.8180     8.0080  1074.2250
 2818.0000     8.2850   129.0400     0.0400     2.5330     0.2650  1025.4080   -70.9110     6.5850     5.9550     7.2170  1074.3190
 2818.5000     8.2840   120.4960     0.0230     2.5270     0.2660  1025.6190   -70.6210     6.4480     6.1610     6.6270  1074.4139
 2819.0000     8.2840   113.1580     0.0240     2.5460     0.2430  1025.8290   -70.3310     6.4100     6.0800     7.8730  1074.5081
 2819.5000     8.2830   108.9290     0.0260     2.5610     0.2200  1026.0400   -70.0310     6.3900     6.0490     9.0620  1074.6030
 2820.0000     8.2830   107.8470     0.0240     2.5560     0.2190  1026.2510   -69.7780     6.5570     6.0760    10.6530  1074.6970
 2820.5000     8.2820   109.8140     0.0220     2.5480     0.2250  1026.4611   -69.5280     6.6900     6.1010    10.0980  1074.7920
 2821.0000     8.2820   111.7000     0.0200     2.5490     0.2300  1026.6720   -69.3180     6.8240     6.1050     9.2590  1074.8860
 2821.5000     8.2810   113.6660     0.0190     2.5530     0.2350  1026.8820   -69.2300     6.9570     6.1950     8.4200  1074.9810
 2822.0000     8.2810   113.1130     0.0190     2.5510     0.2410  1027.0930   -69.1480     7.0640     6.3870     7.8110  1075.0750
 2822.5000     8.2800   111.2400     0.0200     2.5450     0.2380  1027.3040   -69.1460     7.1580     6.5280     8.2270  1075.1700
 2823.0000     8.2800   107.8390     0.0210     2.5420     0.2330  1027.5140   -69.1470     7.2520     6.6460     8.6130  1075.2640
 2823.5000     8.2790   104.5160     0.0210     2.5540     0.2280  1027.7250   -69.1480     7.3470     6.7640     9.0000  1075.3590
 2824.0000     8.2790   101.5150     0.0220     2.5610     0.2240  1027.9360   -69.2810     7.3950     6.8820     9.3870  1075.4530
 2824.5000     8.2780   102.1150     0.0210     2.5670     0.2200  1028.1460   -69.5520     7.4620     7.0000     9.8020  1075.5480
 2825.0000     8.2780   105.2350     0.0190     2.5560     0.2170  1028.3571   -69.7710     7.6820     7.1300     9.7440  1075.6420
 2825.5000     8.2770   109.1180     0.0170     2.5480     0.2190  1028.5680   -69.8590     7.8830     7.0720     9.6670  1075.7371
 2826.0000     8.2770   110.8310     0.0160     2.5460     0.2220  1028.7780   -69.9560     8.1010     7.0070     9.5900  1075.8311
 2826.5000     8.2760   111.4360     0.0230     2.5570     0.2240  1028.9890   -70.1060     7.8700     6.9370     9.5120  1075.9260
 2827.0000     8.2770   111.5800     0.0350     2.5730     0.2220  1029.1990   -69.9440     7.6150     6.8740     9.4350  1076.0200
 2827.5000     8.2770   111.7350     0.0340     2.5780     0.2240  1029.4100   -69.6760     7.3590     6.7170     9.3580  1076.1150
 2828.0000     8.2780   112.6570     0.0290     2.5630     0.2280  1029.6210   -69.6670     7.1040     6.5460     9.2260  1076.2090
 2828.5000     8.2780   115.2180     0.0210     2.5390     0.2360  1029.8311   -69.8970     6.8490     6.3750     8.7080  1076.3040
 2829.0000     8.2790   117.6730     0.0250     2.5290     0.2470  1030.0420   -70.1280     6.6270     6.2040     8.1890  1076.3890
 2829.5000     8.2790   118.4930     0.0320     2.5250     0.2630  1030.2531   -70.0670     6.6270     6.0330     7.6710  1074.0500
 2830.0000     8.2800   115.9210     0.0310     2.5300     0.2740  1030.4630   -69.9850     6.6690     5.8860     7.1520  1071.9250
 2830.5000     8.2800   111.5740     0.0280     2.5370     0.2780  1030.6740   -69.9050     6.6990     5.9350     6.8110  1069.7990
 2831.0000     8.2810   109.4010     0.0270     2.5490     0.2700  1030.8850   -69.8260     6.7300     6.0270     7.5000  1067.6730
 2831.5000     8.2820   110.8400     0.0250     2.5610     0.2590  1031.0950   -69.7420     6.7610     6.1050     8.2510  1065.5470
 2832.0000     8.2820   113.6960     0.0240     2.5690     0.2480  1031.3060   -69.5840     6.7920     6.2670     8.1710  1063.4210
 2832.5000     8.2830   115.7740     0.0230     2.5720     0.2370  1031.5160   -69.4170     6.9000     6.4710     8.0280  1061.2950
 2833.0000     8.2830   115.0050     0.0170     2.5700     0.2260  1031.7271   -69.2420     7.1480     6.6160     8.2530  1059.1700
 2833.5000     8.2840   113.5600     0.0100     2.5660     0.2180  1031.9380   -69.0610     7.3950     6.7600     8.6550  1057.0439
 2834.0000     8.2840   112.2610     0.0040     2.5580     0.2220  1032.1479   -68.8880     7.6000     6.9040     9.0570  1054.9180
 2834.5000     8.2850   111.2220     0.0040     2.5540     0.2280  1032.3590   -68.7520     7.8830     7.0480     9.5480  1052.7920
 2835.0000     8.2850   111.0810     0.0060     2.5510     0.2300  1032.5699   -68.7980     7.8830     7.1950     9.4480  1050.6660
 2835.5000     8.2860   111.2300     0.0090     2.5480     0.2250  1032.7800   -68.8400     7.8830     7.2290     9.2900  1048.5400
 2836.0000     8.2870   111.1610     0.0120     2.5460     0.2190  1032.9910   -68.8820     7.8830     7.2880     9.2900  1051.5870
 2836.5000     8.2870   110.4120     0.0090     2.5430     0.2200  1033.2020   -68.9250     7.8830     7.3470     9.5530  1056.5480
 2837.0000     8.2880   109.6860     0.0070     2.5370     0.2210  1033.4120   -69.0900     7.8830     7.3950     9.8190  1056.5480
 2837.5000     8.2880   108.9520     0.0060     2.5370     0.2150  1033.6230   -69.4520     7.8830     7.3320    10.0860  1056.5480
 2838.0000     8.2890   108.2120     0.0070     2.5560     0.2090  1033.8340   -69.7820     7.8840     7.2530    10.6530  1056.5480
 2838.5000     8.2890   109.3620     0.0300     2.5860     0.2080  1034.0439   -69.9450     7.8780     7.1740    10.4080  1056.5480
 2839.0000     8.2900   110.5660     0.0410     2.6110     0.2180  1034.2550   -70.2450     7.9660     7.0760    10.0020  1056.6130
 2839.5000     8.2900   110.4720     0.0460     2.6020     0.2260  1034.4650   -70.5490     8.0080     7.1950     9.5970  1056.7440
 2840.0000     8.2910   108.2030     0.0260     2.5780     0.2260  1034.6760   -70.8520     8.0280     7.4080     8.9570  1056.8750
 2840.5000     8.2920   103.8190     0.0090     2.5530     0.2160  1034.8870   -71.1510     8.2140     7.6200     9.4660  1057.0060
 2841.0000     8.2920    99.5520     0.0050     2.5580     0.2040  1035.0970   -71.3260     8.3950     7.8330    10.6700  1057.1370
 2841.5000     8.2930    97.4460     0.0070     2.5690     0.1930  1035.3080   -71.1030     8.5770     8.0460    11.8750  1057.2679
 2842.0000     8.2930    98.0910     0.0110     2.5730     0.1810  1035.5190   -70.5740     8.7800     8.3260    13.0790  1057.3979
 2842.5000     8.2940   100.6520     0.0150     2.5680     0.1840  1035.7120   -70.0490     8.6510     8.2170    13.8820  1057.5291
 2843.0000     8.2940   103.1500     0.0180     2.5620     0.1920  1035.8521   -69.5370     8.4250     7.9660    13.3490  1057.6600
 2843.5000     8.2950   105.3300     0.0200     2.5510     0.2040  1035.9919   -69.0850     8.1990     7.7160    12.1150  1057.7910
 2844.0000     8.2950   104.6140     0.0140     2.5350     0.2160  1036.1310   -68.7410     7.9730     7.4660    10.7900  1057.9220
 2844.5000     8.2960   102.9480     0.0090     2.5200     0.2260  1036.2710   -68.7500     7.7470     7.2150     9.4650  1058.0530
 2845.0000     8.2990   101.0800     0.0070     2.5210     0.2310  1036.4110   -68.7500     7.6010     7.0010     7.9550  1058.1840
 2845.5000     8.3050   100.9870     0.0040     2.5290     0.2320  1036.5500   -68.7510     7.4950     6.9370     8.4840  1058.3149
 2846.0000     8.3110   100.9740     0.0020     2.5400     0.2310  1036.6899   -68.7080     7.3900     6.8110     9.2840  1058.4460
 2846.5000     8.3170    99.5790     0.0060     2.5500     0.2250  1036.8300   -68.6470     7.2850     6.8650    10.0840  1058.5770
