~VERSION INFORMATION
 VERS.                2.0:   CWLS LOG ASCII STANDARD - VERSION 2.0
 WRAP.                 NO:   ONE LINE PER DEPTH STEP
~WELL INFORMATION
#MNEM.UNIT      DATA TYPE    INFORMATION
#----------   ------------   ------------------------------
 STRT.F          200.0000:   START DEPTH
 STOP.F         3160.0000:   STOP DEPTH
 STEP.F            0.5000:   STEP LENGTH
 NULL.          -999.2500:   NO VALUE
 COMP.    FENIX & SCISSON:   COMPANY
 WELL. FENIX NPR 3 "AX" #72-3:   WELL
 FLD .             TEAPOT:   FIELD
 LOC .       S3 T38N R78W:   LOCATION
 CNTY.            NATRONA:   COUNTY
 STAT.            WYOMING:   STATE
 CTRY. UNITED STATES OF AMERICA:   COUNTRY
 SRVC.           BIRDWELL:   SERVICE COMPANY
 DATE.        10-JAN-1978:   LOGDATE
 API .     49025105530000:   API NUMBER
~CURVE INFORMATION
#MNEM.UNIT       API CODE    CURVE DESCRIPTION
#----------   ------------   ------------------------------
 DEPT.F                  :   
 CALD.IN     45 280 60 00:   CALIPER FROM DENSITY LOG
 GRD .GAPI   45 310 01 00:   GAMMA RAY FROM DENSITY LOG
 DEN .LBS    45 635 01 00:   BUCK DENSITY
 CORR.G/C3   45 356 01 00:   DENSITY CORRECTION
 SPR .MV     07 010 01 00:   SPONTANEOUS POTENTIAL
 ILD .OHMM   07 120 46 00:   DEEP INDUCTION RESISTIVITY
 ILM .OHMM   07 120 44 00:   INDUCTION LOG MEDIUM RESISTIVITY
~PARAMETER INFORMATION
#MNEM.UNIT          VALUE    DESCRIPTION
#----------   ------------   ------------------------------
 EKB .F         5164.0000:   Kelly bushing
 EGL .F         5153.0000:   Ground level
 TD  .F         3157.0000:   Total depth
 DATE.        10-JAN-1978:   Date logged
 CLNT.            A2DTECH:   Client Code
 SL  . 900' FNL & 900' FEL:   Surface Location
 PD  .                 GL:   Permanent Datum
 EPD .F              5153:   Elevation Permanent Datum
 LMF .                 KB:   Log Measured From
 DMF .                 KB:   Drilling Measured From
 DAPD.F                11:   Feet Above Permanent Datum
 DD  .F              3156:   Depth driller
 DL  .F              3157:   Depth logger
 BLI .F              3157:   Bottom log interval
 TLI .F               200:   Top log interval
 CS1 .IN            8.625:   Casing size
 CBD1.      8.625" @ 222':   Casing driller 1
 CBL1.F               220:   Casing logger 1
 BS1 .IN            7.875:   Bit size
 BSD1.F              3156:   Depth drilled with bit1
 DFT .                KCL:   Type fluid in hole
 DFD .                8.5:   Density
 DFV .                 36:   Viscosity
 DFPH.                 10:   pH
 DFL .                8.8:   Fluid loss
 MSS .           FLOWLINE:   Source of sample
 RMS .OHMM            1.4:   Rm
 MST .F                66:   Rm Meas. temp.
 RMF .OHMM            .85:   Rmf
 MFST.F                74:   Rmf Meas. temp.
 RMC .OHMM            1.4:   Rmc
 MCST.F                72:   Rmc Meas. temp.
 MFSS.               MEAS:   Source Rmf.
 MCSS.               MEAS:   Source Rmc.
 RMB .OHMM            .83:   Rm. at BHT
 BHT .F               112:   BHT.
 TCS .HRS               4:   Time Circ. stopped
 MRT .F               112:   Maximum recorded temp.
 LUN .               2958:   Logging unit number
 LUL .             CASPER:   Logging unit location
 ENGI.            POINTER:   Recorded By
 WITN.         HARRINGTON:   Witnessed by
 ORIG.           5" PRINT:   Origin of data
 UWI .     49025105530000:   Unique Well ID
 DICO. A2D TECHNOLOGIES, INC.:   Digitizing Company
~OTHER INFORMATION
~A   DEPT     CALD        GRD          DEN     CORR        SPR        ILD        ILM   
# ...
 1747.0000     9.9658    93.9624     2.5472     0.0141   -52.0292    11.7900    10.3377
 1747.5000     9.9660    94.7545     2.5472     0.0182   -51.8308    11.7927    10.3369
 1748.0000     9.9663    94.9525     2.5442     0.0202   -51.6339    11.7955    10.9232
 1748.5000     9.9665    95.3485     2.5302     0.0222   -52.0352    11.7982    10.9226
 1749.0000     9.9668    93.9624     2.5312     0.0182   -52.0378    11.8010    10.9220
 1749.5000     9.9670    91.9802     2.5292     0.0242   -52.2397    11.8037    10.9213
 1750.0000     9.9673    89.8020     2.5262     0.0242   -52.2422    11.8065    10.9205
 1750.5000     9.9675    88.6139     2.5272     0.0263   -52.2447    11.8092    10.8195
 1751.0000     9.9678    88.6139     2.5293     0.0203   -52.2473    11.8120    10.8183
 1751.5000     9.9680    89.2079     2.5303     0.0203   -52.4492    11.8148    10.7111
 1752.0000     9.9683    90.0020     2.5383     0.0243   -52.6511    11.8175    10.6197
 1752.5000     9.9685    91.9822     2.5523     0.0283   -52.4542    11.8203    10.5217
 1753.0000     9.9688    92.9723     2.5383     0.0303   -52.4568    11.8230    10.4244
 1753.5000     9.9690    93.1703     2.5363     0.0364   -52.4593    11.8258    10.4236
 1754.0000     9.9693    93.1703     2.5393     0.0404   -52.6612    11.8285    10.4229
 1754.5000     9.9695    92.9723     2.5383     0.0444   -52.4644    11.8313    10.4221
 1755.0000     9.9698    93.7644     2.5403     0.0504   -52.4669    11.8344    10.4214
 1755.5000     9.9700    95.1505     2.5393     0.0524   -52.4694    11.7465    10.4208
 1756.0000     9.9703    96.3386     2.5383     0.0524   -52.4719    11.8543    10.4197
 1756.5000     9.9705    98.7149     2.5383     0.0525   -52.4745    11.7448    10.3235
 1757.0000     9.9708    98.9129     2.5463     0.0525   -52.4770    11.7439    10.2275
 1757.5000     9.9710    96.9327     2.5483     0.0485   -52.4795    11.7431    10.2272
 1758.0000     9.9713    93.5663     2.5503     0.0465   -52.2826    11.7422    10.1327
 1758.5000     9.9715    92.1802     2.5534     0.0325   -52.2852    11.7414    10.0390
 1759.0000     9.9718    92.1802     2.5674     0.0206   -52.2877    11.7405     9.9462
 1759.5000     9.9720    92.1802     2.5764     0.0146   -52.2902    11.7397    10.0375
 1760.0000     9.9723    92.3782     2.5754     0.0126   -51.6944    11.7388     9.9448
 1760.5000     9.9725    90.9921     2.5654     0.0046   -52.2953    11.7380     9.9440
 1761.0000     9.9728    90.2000     2.5604     0.0046   -52.0984    11.7372    10.0354
 1761.5000     9.9730    90.3980     2.5434     0.0066   -52.1009    11.7363     9.9426
 1762.0000     9.9733    90.5960     2.5324     0.0067   -52.7017    11.8441    10.0339
 1762.5000     9.9735    91.9822     2.5244     0.0067   -52.5048    11.7346    10.0332
 1763.0000     9.9738    92.3782     2.5194     0.0067   -52.7068    11.8424    10.0324
 1763.5000     9.9740    92.7743     2.5264     0.0087   -52.7093    11.8415    10.0317
 1764.0000     9.9743    93.5663     2.5314     0.0107   -52.7119    11.7321    10.0310
 1764.5000     9.9745    95.5465     2.5345     0.0207   -52.7144    11.7312    10.0302
 1765.0000     9.9748    95.9426     2.5305     0.0208   -52.7169    11.7304    10.0295
 1765.5000     9.9750    95.9426     2.5265     0.0188   -52.7194    11.7295     9.9368
 1766.0000     9.9753    94.5564     2.5345     0.0148   -52.7220    11.7287    10.0280
 1766.5000     9.9755    91.3881     2.5475     0.0188   -52.7245    11.7278    10.0273
 1767.0000     9.9758    89.4079     2.5465     0.0208   -52.7270    11.6193     9.9346
 1767.5000     9.9760    88.0218     2.5395     0.0249   -52.1312    11.6186    10.0258
 1768.0000     9.9763    87.8238     2.5365     0.0229   -51.9342    11.6179     9.9332
 1768.5000     9.9765    88.6158     2.5325     0.0249   -51.9368    11.7246    10.0244
 1769.0000     9.9768    89.8040     2.5375     0.0249   -51.9393    11.7238     9.9317
 1769.5000     9.9770    91.3881     2.5445     0.0249   -51.7423    11.7229     9.9310
 1770.0000     9.9773    91.7842     2.5455     0.0249   -51.7449    11.7221     9.9303
 1770.5000     9.9775    89.8040     2.5495     0.0250   -51.7474    11.7213     9.9295
 1771.0000     9.9778    87.8238     2.5525     0.0290   -51.7499    11.6129     9.9288
 1771.5000     9.9780    87.2297     2.5526     0.0330   -51.7524    11.8283     9.9281
 1772.0000     9.9783    88.6158     2.5466     0.0310   -51.7549    11.8273     9.9274
 1772.5000     9.9785    89.6059     2.5426     0.0330   -51.7575    11.7179     9.9268
 1773.0000     9.9788    90.0020     2.5466     0.0290   -51.5605    11.8255     9.9261
 1773.5000     9.9790    89.8040     2.5496     0.0271   -51.7625    11.8246     9.9253
 1774.0000     9.9793    89.0119     2.5536     0.0271   -51.3661    11.8238     9.9246
 1774.5000     9.9795    88.0218     2.5626     0.0271   -51.5681    11.8229    10.0158
 1775.0000     9.9803    88.4178     2.5686     0.0331   -51.7696    11.9313    10.0150
 1775.5000     9.9803    89.2099     2.5686     0.0331   -51.7721    11.7129    10.0143
 1776.0000     9.9803    90.2000     2.5626     0.0292   -51.3756    11.7121    10.0136
 1776.5000     9.9803    92.9723     2.5616     0.0272   -51.7771    11.7112    10.0128
 1777.0000     9.9803    93.7644     2.5666     0.0212   -51.7797    11.7104    10.0123
 1777.5000     9.9803    93.3683     2.5636     0.0192   -51.9817    11.7095     9.8976
 1778.0000     9.9803    91.7842     2.5617     0.0172   -51.9842    11.7087     9.8970
 1778.5000     9.9803    90.0020     2.5567     0.0152   -52.1862    11.7078     9.8963
 1779.0000     9.9803    90.0020     2.5537     0.0153   -52.1888    11.7070     9.8956
 1779.5000     9.9803    89.6059     2.5587     0.0153   -51.9918    11.7061     9.8949
 1780.0000     9.9803    89.4079     2.5567     0.0153   -51.9943    12.0335     9.8941
 1780.5000     9.9803    89.6059     2.5517     0.0153   -51.9968    11.7045     9.8934
 1781.0000     9.9803    91.1901     2.5477     0.0133   -51.9994    11.7036     9.8927
 1781.5000     9.9803    93.9624     2.5467     0.0133   -52.0019    11.7028     9.8920
 1782.0000     9.9803    95.3485     2.5487     0.0134   -52.0044    11.7019     9.8912
 1782.5000     9.9803    96.3386     2.5507     0.0154   -52.0069    11.7011     9.8905
 1783.0000     9.9803    96.3386     2.5477     0.0174   -52.2090    11.7002     9.8898
 1783.5000     9.9803    97.3287     2.5427     0.0194   -52.2115    11.6994     9.8890
 1784.0000     9.9803    98.9129     2.5388     0.0214   -51.8150    11.6986     9.8883
 1784.5000     9.9803   100.2990     2.5348     0.0235   -52.0170    11.6977     9.8876
 1785.0000     9.9803   100.2990     2.5338     0.0295   -52.0196    11.6969     9.8869
 1785.5000     9.9803   100.1010     2.5308     0.0495   -52.2216    11.6960     9.8861
 1786.0000     9.9803    99.5069     2.5288     0.0495   -52.0246    11.6952     9.8854
 1786.5000     9.9803    97.1307     2.5288     0.0515   -52.2267    11.6943     9.8848
 1787.0000     9.9803    95.7446     2.5488     0.0535   -52.2292    11.6935     9.8149
 1787.5000     9.9803    95.5465     2.5558     0.0536   -52.2317    11.6926     9.6349
 1788.0000     9.9803    96.5366     2.5538     0.0516   -52.2343    11.6918     9.6344
 1788.5000     9.9803   100.1010     2.5538     0.0496   -52.2368    11.6910     9.5452
 1789.0000     9.9803   103.4673     2.5528     0.0476   -52.2393    11.6901     9.5449
 1789.5000     9.9803   103.8634     2.5518     0.0416   -52.2418    11.6893     9.5438
 1790.0000     9.9803   101.8832     2.5468     0.0336   -52.4439    11.6884     9.5431
 1790.5000     9.9803    98.9129     2.5409     0.0257   -52.2469    11.6876     9.5425
 1791.0000     9.9803    96.7347     2.5359     0.0137   -52.2494    11.6867     9.5419
 1791.5000     9.9803    97.1307     2.5339     0.0097   -52.2520    11.6859     9.5412
 1792.0000     9.9803    98.7149     2.5419     0.0117   -52.4540    11.6852     9.5403
