~VERSION INFORMATION
 VERS.                2.0:   CWLS LOG ASCII STANDARD - VERSION 2.0
 WRAP.                 NO:   ONE LINE PER DEPTH STEP
~WELL INFORMATION
#MNEM.UNIT      DATA TYPE    INFORMATION
#----------   ------------   ------------------------------
 STRT.F          640.0000:   START DEPTH
 STOP.F         2792.0000:   STOP DEPTH
 STEP.F            0.5000:   STEP LENGTH
 NULL.          -999.2500:   NO VALUE
 COMP.    FENIX & SCISSON:   COMPANY
 WELL.   FENIX SHX #41-11:   WELL
 FLD .        TEAPOT DOME:   FIELD
 LOC .      S11 T38N R78W:   LOCATION
 CNTY.            NATRONA:   COUNTY
 STAT.            WYOMING:   STATE
 CTRY. UNITED STATES OF AMERICA:   COUNTRY
 SRVC.           BIRDWELL:   SERVICE COMPANY
 DATE.        07-JUL-1979:   LOGDATE
 API .     49025107880000:   API NUMBER
~CURVE INFORMATION
#MNEM.UNIT       API CODE    CURVE DESCRIPTION
#----------   ------------   ------------------------------
 DEPT.F                  :   
 CALD.IN     45 280 60 00:   CALIPER FROM DENSITY LOG
 RHOB.G/C3   45 350 01 00:   BULK DENSITY
 CORR.G/C3   45 356 01 00:   DENSITY CORRECTION
 GRD .GAPI   45 310 01 00:   GAMMA RAY FROM DENSITY LOG
~PARAMETER INFORMATION
#MNEM.UNIT          VALUE    DESCRIPTION
#----------   ------------   ------------------------------
 EKB .F         5168.0000:   Kelly bushing
 EGL .F         5158.0000:   Ground level
 EDF .F            0.0000:   Drilling floor
 EPD .F            0.0000:   Permanent datum
 TD  .F         2801.0000:   Total depth
 DATE.        07-JUL-1979:   Date logged
 CLNT.            A2DTECH:   Client Code
 SL  . 95' FNL & 2414' FWL:   Surface Location
 PD  .                 GL:   Permanent Datum
 DAPD.F                10:   Feet Above Permanent Datum
 DD  .F              2801:   Depth driller
 DL  .F              2791:   Depth logger
 BLI .F              2790:   Bottom log interval
 TLI .F               640:   Top log interval
 CS1 .IN            9.625:   Casing size
 CBD1.      9.625" @ 909':   Casing driller 1
 CBL1.F               910:   Casing logger 1
 BS1 .IN             8.75:   Bit size
 BSD1.F              2801:   Depth drilled with bit1
 DFT .                AIR:   Type fluid in hole
 LUN .               2959:   Logging unit number
 LUL .             CASPER:   Logging unit location
 ENGI.         B. RULLINS:   Recorded By
 WITN.           GINSMORE:   Witnessed by
 ORIG.           5" PRINT:   Origin of data
 UWI .     49025107880000:   Unique Well ID
 DICO. A2D TECHNOLOGIES, INC.:   Digitizing Company
~OTHER INFORMATION
~A   DEPT     CALD       RHOB       CORR         GRD  
# ...
 1151.0000    10.4210     2.5000     0.0040   120.9830
 1151.5000    10.4330     2.5030     0.0060   122.6270
 1152.0000    10.4440     2.5060     0.0070   122.2490
 1152.5000    10.4550     2.5090     0.0090   121.0330
 1153.0000    10.4660     2.5120     0.0110   119.9400
 1153.5000    10.4770     2.5150     0.0120   119.9560
 1154.0000    10.4880     2.5090     0.0070   121.6850
 1154.5000    10.5000     2.5020     0.0040   123.6050
 1155.0000    10.5110     2.4950     0.0000   124.5010
 1155.5000    10.5220     2.4940    -0.0020   123.3280
 1156.0000    10.5330     2.4940    -0.0020   121.9270
 1156.5000    10.5500     2.4950    -0.0040   122.2500
 1157.0000    10.6080     2.4940    -0.0030   123.0590
 1157.5000    10.6660     2.4940     0.0010   121.8300
 1158.0000    10.7220     2.4910     0.0050   119.8280
 1158.5000    10.7230     2.4880     0.0080   117.9510
 1159.0000    10.7430     2.4840     0.0100   117.2990
 1159.5000    10.7400     2.4880     0.0100   117.4980
 1160.0000    10.7130     2.4940     0.0070   118.0180
 1160.5000    10.6860     2.4890     0.0020   118.4900
 1161.0000    10.6650     2.4820    -0.0020   117.1140
 1161.5000    10.5710     2.4820    -0.0060   114.7620
 1162.0000    10.4570     2.4890    -0.0060   112.3760
 1162.5000    10.4420     2.4960    -0.0040   109.9020
 1163.0000    10.4420     2.5020    -0.0010   109.5720
 1163.5000    10.4420     2.5000     0.0030   111.5240
 1164.0000    10.4410     2.4940     0.0060   113.5040
 1164.5000    10.4410     2.4890     0.0050   115.4750
 1165.0000    10.4400     2.4840     0.0030   117.4500
 1165.5000    10.4400     2.4800     0.0020   119.4140
 1166.0000    10.4390     2.4780     0.0000   121.2010
 1166.5000    10.4380     2.4860     0.0020   119.3630
 1167.0000    10.4380     2.4940     0.0040   116.0150
 1167.5000    10.4370     2.4960     0.0050   114.9200
 1168.0000    10.4370     2.5000     0.0070   118.6290
 1168.5000    10.4360     2.5050     0.0090   120.0280
 1169.0000    10.4360     2.5090     0.0100   118.4790
 1169.5000    10.4350     2.5090     0.0100   116.9230
 1170.0000    10.4350     2.5030     0.0080   115.8680
 1170.5000    10.4340     2.4950     0.0030   116.4370
 1171.0000    10.4340     2.4880    -0.0020   120.2700
 1171.5000    10.4330     2.4820    -0.0020   123.7140
 1172.0000    10.4330     2.4810    -0.0020   123.7500
 1172.5000    10.4320     2.4890     0.0000   121.8100
 1173.0000    10.4320     2.4980     0.0030   119.6490
 1173.5000    10.4310     2.5030     0.0060   117.5070
 1174.0000    10.4310     2.5030     0.0080   117.1980
 1174.5000    10.4300     2.5070     0.0100   124.0780
 1175.0000    10.4300     2.5110     0.0100   124.5340
 1175.5000    10.4290     2.5070     0.0060   120.0120
 1176.0000    10.4290     2.5010     0.0020   123.2950
 1176.5000    10.4280     2.4940    -0.0020   125.5950
 1177.0000    10.4280     2.4910    -0.0060   122.1070
 1177.5000    10.4270     2.4970    -0.0080   118.4280
 1178.0000    10.4270     2.5070    -0.0060   114.7270
 1178.5000    10.4260     2.5090    -0.0030   112.7650
 1179.0000    10.4260     2.5070    -0.0010   113.8850
 1179.5000    10.4250     2.4940     0.0010   117.2200
 1180.0000    10.4250     2.4820     0.0010   117.1040
 1180.5000    10.4240     2.4690    -0.0010   115.7320
 1181.0000    10.4240     2.4570    -0.0040   115.5170
 1181.5000    10.4230     2.4530    -0.0060   119.1610
 1182.0000    10.4230     2.4610    -0.0060   122.8000
 1182.5000    10.4230     2.4850    -0.0020   124.4730
 1183.0000    10.4230     2.5080     0.0050   124.5520
 1183.5000    10.4210     2.5260     0.0120   124.5550
 1184.0000    10.4800     2.5230     0.0120   124.7430
 1184.5000    10.5460     2.5060     0.0080   125.6160
 1185.0000    10.6140     2.5050     0.0040   126.4570
 1185.5000    10.6430     2.5100     0.0050   127.1710
 1186.0000    10.6430     2.5130     0.0060   126.6910
 1186.5000    10.6430     2.5120     0.0060   125.1720
 1187.0000    10.6430     2.5070     0.0050   122.3640
 1187.5000    10.6430     2.5010     0.0030   120.6250
 1188.0000    10.6440     2.4980     0.0010   121.8550
 1188.5000    10.6960     2.4990     0.0000   123.8190
 1189.0000    10.7530     2.5030     0.0010   122.9130
 1189.5000    10.8100     2.5040     0.0020   120.1620
 1190.0000    10.8630     2.4910     0.0020   117.3870
 1190.5000    10.8640     2.4770     0.0020   116.6490
 1191.0000    10.8450     2.4700     0.0010   118.7080
 1191.5000    10.7820     2.4680    -0.0010   120.7470
 1192.0000    10.7190     2.4710    -0.0020   122.7610
 1192.5000    10.6560     2.4760    -0.0040   124.3920
 1193.0000    10.5940     2.4790    -0.0050   123.9670
 1193.5000    10.5310     2.4800    -0.0050   123.4060
 1194.0000    10.4680     2.4820    -0.0060   124.1570
 1194.5000    10.4050     2.4920    -0.0040   126.6130
 1195.0000    10.3730     2.5020     0.0040   126.5830
 1195.5000    10.3420     2.5100     0.0080   124.5960
 1196.0000    10.3110     2.5030     0.0080   121.3520
 1196.5000    10.2800     2.4910     0.0030   118.3170
 1197.0000    10.2490     2.4780    -0.0020   118.7780
 1197.5000    10.2180     2.4720    -0.0060   119.6790
 1198.0000    10.1870     2.4750    -0.0050   118.7370
 1198.5000    10.1610     2.4770    -0.0010   115.8310
 1199.0000    10.1640     2.4770     0.0030   112.9480
 1199.5000    10.1990     2.4810     0.0060   110.0830
 1200.0000    10.2340     2.4900     0.0060   109.3430
 1200.5000    10.2700     2.4960     0.0020   109.5740
 1201.0000    10.3050     2.4960    -0.0020   111.8260
 1201.5000    10.3410     2.4900    -0.0020   114.0940
 1202.0000    10.3780     2.4840    -0.0020   116.3450
 1202.5000    10.3860     2.4880    -0.0020   117.6460
 1203.0000    10.3880     2.4930    -0.0020   114.4150
 1203.5000    10.3900     2.4980    -0.0020   114.2870
 1204.0000    10.3930     2.4980     0.0000   115.0760
 1204.5000    10.3950     2.4940    -0.0010   114.0970
 1205.0000    10.3980     2.4890    -0.0030   111.3390
 1205.5000    10.4010     2.4840    -0.0060   110.4060
 1206.0000    10.4030     2.4850    -0.0080   111.8400
 1206.5000    10.4060     2.4940    -0.0080   111.7960
 1207.0000    10.4080     2.4990    -0.0050   110.7550
 1207.5000    10.4110     2.4910    -0.0020   112.7080
 1208.0000    10.4130     2.4820     0.0000   116.2450
 1208.5000    10.4160     2.4730    -0.0010   119.6620
 1209.0000    10.4180     2.4710    -0.0030   119.9870
 1209.5000    10.4210     2.4720    -0.0060   118.7080
 1210.0000    10.4230     2.4790    -0.0060   117.2150
 1210.5000    10.4260     2.4880    -0.0020   116.1650
 1211.0000    10.4280     2.4960     0.0030   117.3690
 1211.5000    10.4300     2.5050     0.0080   117.9020
 1212.0000    10.4320     2.5110     0.0120   115.2960
 1212.5000    10.4350     2.5060     0.0050   113.5340
 1213.0000    10.4370     2.4990    -0.0020   113.5310
 1213.5000    10.4390     2.4910    -0.0060   113.2280
 1214.0000    10.4410     2.4830    -0.0060   111.4360
 1214.5000    10.4440     2.4830    -0.0010   111.0930
 1215.0000    10.4460     2.4930     0.0050   113.3040
 1215.5000    10.4480     2.5030     0.0100   116.7080
 1216.0000    10.4500     2.4990     0.0120   118.6990
 1216.5000    10.4530     2.4880     0.0080   118.4860
 1217.0000    10.4550     2.4800     0.0040   117.4260
 1217.5000    10.4570     2.4840     0.0000   116.3980
 1218.0000    10.4590     2.4890     0.0000   115.3770
 1218.5000    10.4620     2.4940     0.0020   114.2690
 1219.0000    10.4910     2.4990     0.0040   115.3490
 1219.5000    10.5680     2.5040     0.0080   116.6890
 1220.0000    10.6450     2.4980     0.0080   116.5220
 1220.5000    10.7220     2.4810     0.0050   115.7040
 1221.0000    10.7830     2.4650     0.0030   116.6040
 1221.5000    10.7840     2.4560     0.0020   117.8290
 1222.0000    10.7840     2.4630     0.0020   117.3580
 1222.5000    10.7750     2.4750     0.0020   114.8590
 1223.0000    10.7030     2.4810     0.0020   112.4680
 1223.5000    10.6300     2.4850     0.0020   110.0780
