~VERSION INFORMATION
 VERS.                2.0:   CWLS LOG ASCII STANDARD - VERSION 2.0
 WRAP.                 NO:   ONE LINE PER DEPTH STEP
~WELL INFORMATION
#MNEM.UNIT      DATA TYPE    INFORMATION
#----------   ------------   ------------------------------
 STRT.F          199.5000:   START DEPTH
 STOP.F         2983.0000:   STOP DEPTH
 STEP.F            0.5000:   STEP LENGTH
 NULL.          -999.2500:   NO VALUE
 COMP.    FENIX & SCISSON:   COMPANY
 WELL. FENIX (UE-49) "AX" #52-29:   WELL
 FLD . U.S. NAVAL PETROLEUM RESERVE #3:   FIELD
 LOC .      S29 T39N R78W:   LOCATION
 CNTY.            NATRONA:   COUNTY
 STAT.            WYOMING:   STATE
 CTRY. UNITED STATES OF AMERICA:   COUNTRY
 SRVC.           BIRDWELL:   SERVICE COMPANY
 DATE.        07-AUG-1977:   LOGDATE
 API .     49025104090000:   API NUMBER
~CURVE INFORMATION
#MNEM.UNIT       API CODE    CURVE DESCRIPTION
#----------   ------------   ------------------------------
 DEPT.F                  :   
 GRD .GAPI   45 310 01 00:   GAMMA RAY FROM DENSITY LOG
 CALD.IN     45 280 60 00:   CALIPER FROM DENSITY LOG
 DEN .G/C3   45 350 01 00:   BULK DENSITY
 DCOR.G/C3   45 356 01 00:   DENSITY CORRECTION
 SN  .OHMM   05 040 16 00:   SHORT NORMAL 16"
 ILD .OHMM   05 120 46 00:   INDUCTION LOG DEEP RESISTIVITY
~PARAMETER INFORMATION
#MNEM.UNIT          VALUE    DESCRIPTION
#----------   ------------   ------------------------------
 EKB .F         4995.0000:   Kelly bushing
 EGL .F         4985.0000:   Ground level
 EDF .F            0.0000:   Drilling floor
 TD  .F         2973.0000:   Total depth
 DATE.         7-AUG-1977:   Date logged
 CLNT.            A2DTECH:   Client Code
 SL  . 1400' FNL & 2380' FEL:   Surface Location
 PD  .                 GL:   Permanent Datum
 EPD .F              4985:   Elevation Permanent Datum
 LMF .                 KB:   Log Measured From
 DMF .                 KB:   Drilling Measured From
 DAPD.F                10:   Feet Above Permanent Datum
 DD  .F              2972:   Depth driller
 DL  .F              2973:   Depth logger
 BLI .F              2968:   Bottom log interval
 TLI .F               216:   Top log interval
 CS1 .IN            8.625:   Casing size
 CBD1.      8.625" @ 216':   Casing driller 1
 CBL1.F               216:   Casing logger 1
 BS1 .IN            7.875:   Bit size
 BSD1.F              2972:   Depth drilled with bit1
 DFT .            GEL-KCL:   Type fluid in hole
 DFD .                8.9:   Density
 DFV .                 33:   Viscosity
 DFL .                  9:   Fluid loss
 MSS .            MUD PIT:   Source of sample
 RMS .OHMM           0.26:   Rm
 MST .F                73:   Rm Meas. temp.
 RMF .OHMM           0.26:   Rmf
 MFST.F                72:   Rmf Meas. temp.
 RMC .OHMM           0.96:   Rmc
 MCST.F                72:   Rmc Meas. temp.
 MFSS.              PRESS:   Source Rmf.
 RMB .OHMM           0.14:   Rm. at BHT
 BHT .F               130:   BHT.
 TCS .HRS               5:   Time Circ. stopped
 MRT .F               130:   Maximum recorded temp.
 LUN .               2958:   Logging unit number
 LUL .             CASPER:   Logging unit location
 ENGI.                LAW:   Recorded By
 WITN.             RHODES:   Witnessed by
 ORIG.           5" PRINT:   Origin of data
 UWI .     49025104090000:   Unique Well ID
 DICO. A2D TECHNOLOGIES, INC.:   Digitizing Company
~OTHER INFORMATION
~A   DEPT       GRD      CALD        DEN       DCOR         SN        ILD   
# ...
 2955.5000    64.4350     7.9270     2.5280     0.0330     5.6110     5.4510
 2956.0000    63.8600     7.9270     2.5280     0.0320     5.5980     5.4370
 2956.5000    62.2870     7.9270     2.5310     0.0290     5.5950     5.4220
 2957.0000    62.2410     7.9270     2.5300     0.0310     5.5950     5.4080
 2957.5000    62.1560     7.9270     2.5290     0.0370     5.5390     5.3940
 2958.0000    66.9460     7.9270     2.5410     0.0360     5.3940     5.2430
 2958.5000    70.5820     7.9270     2.5500     0.0310     5.3200     5.1170
 2959.0000    71.3010     7.9270     2.5430     0.0300     5.2470     5.0300
 2959.5000    74.0900     7.9270     2.5300     0.0310     5.1000     4.9430
 2960.0000    76.6330     7.9270     2.5290     0.0320     4.9210     4.8550
 2960.5000    75.0680     7.9270     2.5310     0.0280     5.0580     4.7680
 2961.0000    77.0580     7.9270     2.5260     0.0250     4.8200     4.6800
 2961.5000    79.5020     7.9270     2.5200     0.0240     4.6850     4.5920
 2962.0000    59.9060     7.9270     2.5220     0.0270     4.6150     4.4900
 2962.5000    61.9980     7.9270     2.5220     0.0240     4.6580     4.4940
 2963.0000    63.8450     7.9270     2.5210     0.0230     4.6530     4.4980
 2963.5000    64.1250     7.9270     2.5150     0.0280     4.6490     4.5010
 2964.0000    66.5570     7.9270     2.5210     0.0310     4.6450     4.5050
 2964.5000    67.3920     7.9270     2.5270     0.0300     4.6420     4.5090
 2965.0000    68.5610     7.9270     2.5220     0.0350     4.6380     4.5130
 2965.5000    69.7110     7.9270     2.5320     0.0390     4.6350     4.5170
 2966.0000    68.2680     7.9270     2.5400     0.0360     4.6310     4.5210
 2966.5000    69.2740     7.9270     2.5310     0.0360     4.6270     4.5250
 2967.0000    70.0370     7.9270     2.5190     0.0370     4.6240     4.5290
 2967.5000    69.0160     7.9270     2.5210     0.0360     4.6200  -999.2500
 2968.0000    73.0910     7.9270     2.5220     0.0320     4.6160  -999.2500
 2968.5000    66.4830     7.9270     2.5050     0.0290     4.6150  -999.2500
 2969.0000    65.8040     7.9270     2.4870     0.0420  -999.2500  -999.2500
 2969.5000    70.7210     7.9250     2.4870     0.0540  -999.2500  -999.2500
 2970.0000    66.8050     7.9780     2.4900     0.0630  -999.2500  -999.2500
 2970.5000    67.5260     8.0450     2.4800     0.0640  -999.2500  -999.2500
 2971.0000    69.1840     8.1450     2.4590     0.0630  -999.2500  -999.2500
 2971.5000  -999.2500     7.4330     2.4260     0.0620  -999.2500  -999.2500
 2972.0000  -999.2500     7.5160     2.3850     0.1160  -999.2500  -999.2500
 2972.5000  -999.2500     7.5310     2.3400     0.2000  -999.2500  -999.2500
 2973.0000  -999.2500     7.5480     2.4290     0.2040  -999.2500  -999.2500
 2973.5000  -999.2500     7.5510     2.4350     0.2020  -999.2500  -999.2500
 2974.0000  -999.2500     7.5510     2.4370     0.2020  -999.2500  -999.2500
 2974.5000  -999.2500     7.5510  -999.2500     0.2030  -999.2500  -999.2500
 2975.0000  -999.2500     7.5510  -999.2500     0.2030  -999.2500  -999.2500
 2975.5000  -999.2500     7.5510  -999.2500     0.2020  -999.2500  -999.2500
 2976.0000  -999.2500     7.5510  -999.2500     0.2000  -999.2500  -999.2500
 2976.5000  -999.2500     7.5510  -999.2500     0.1990  -999.2500  -999.2500
 2977.0000  -999.2500     7.5510  -999.2500     0.1980  -999.2500  -999.2500
 2977.5000  -999.2500     7.5510  -999.2500     0.1980  -999.2500  -999.2500
 2978.0000  -999.2500     7.5510  -999.2500     0.1990  -999.2500  -999.2500
 2978.5000  -999.2500     7.5510  -999.2500     0.2010  -999.2500  -999.2500
 2979.0000  -999.2500     7.5510  -999.2500     0.2010  -999.2500  -999.2500
 2979.5000  -999.2500     7.5510  -999.2500     0.2010  -999.2500  -999.2500
 2980.0000  -999.2500     7.5510  -999.2500     0.2020  -999.2500  -999.2500
 2980.5000  -999.2500     7.5510  -999.2500     0.2020  -999.2500  -999.2500
 2981.0000  -999.2500     7.5510  -999.2500  -999.2500  -999.2500  -999.2500
 2981.5000  -999.2500     7.5510  -999.2500  -999.2500  -999.2500  -999.2500
 2982.0000  -999.2500     7.5510  -999.2500  -999.2500  -999.2500  -999.2500
 2982.5000  -999.2500     7.5510  -999.2500  -999.2500  -999.2500  -999.2500
 2983.0000  -999.2500     7.5510  -999.2500  -999.2500  -999.2500  -999.2500
