~VERSION INFORMATION
 VERS.                2.0:   CWLS LOG ASCII STANDARD - VERSION 2.0
 WRAP.                 NO:   ONE LINE PER DEPTH STEP
~WELL INFORMATION
#MNEM.UNIT      DATA TYPE    INFORMATION
#----------   ------------   ------------------------------
 STRT.F          224.0000:   START DEPTH
 STOP.F         2912.0000:   STOP DEPTH
 STEP.F            0.5000:   STEP LENGTH
 NULL.          -999.2500:   NO VALUE
 COMP.    FENIX & SCISSON:   COMPANY
 WELL. FENIX & SCISSON NPR 34 "A" #3-21:   WELL
 FLD .             NPR #3:   FIELD
 LOC .      S21 T39N R78W:   LOCATION
 CNTY.            NATRONA:   COUNTY
 STAT.            WYOMING:   STATE
 CTRY. UNITED STATES OF AMERICA:   COUNTRY
 SRVC.              WELEX:   SERVICE COMPANY
 DATE.        15-JUL-1977:   LOGDATE
 API .     49025103970000:   API NUMBER
~CURVE INFORMATION
#MNEM.UNIT       API CODE    CURVE DESCRIPTION
#----------   ------------   ------------------------------
 DEPT.F                  :   
 CALD.IN     45 280 60 00:   CALIPER FROM DENSITY LOG
 CORR.G/C3   45 356 01 00:   DENSITY CORRECTION
 RHOB.G/C3   45 350 01 00:   BULK DENSITY
 GRD .GAPI   45 310 01 00:   GAMMA RAY FROM DENSITY LOG
 SPR .MV     07 010 01 00:   SPONTANEOUS POTENTIAL
 ILD .OHMM   07 120 46 00:   DEEP INDUCTION RESISTIVITY
 ILM .OHMM   07 120 44 00:   INDUCTION LOG MEDIUM RESISTIVITY
 SGRD.OHMM   07 220 05 00:   SHALLOW SHORT GUARD RESISTIVITY
~PARAMETER INFORMATION
#MNEM.UNIT          VALUE    DESCRIPTION
#----------   ------------   ------------------------------
 EKB .F         4921.0000:   Kelly bushing
 EGL .F         4911.0000:   Ground level
 TD  .F         2914.0000:   Total depth
 CLNT.            A2DTECH:   Client Code
 SL  . 2310' FNL & 1650' FWL:   Surface Location
 DATE.        15-JUL-1977:   Date Logged [DD-MMM-YYYY]
 DD  .F              2900:   Depth driller
 DL  .F              2914:   Depth logger
 BLI .F              2912:   Bottom log interval
 TLI .F               218:   Top log interval
 CS1 .              8.625:   Casing size
 CBD1.      8.625" @ 230':   Casing driller 1
 CBL1.IN              226:   Casing logger 1
 BS1 .IN            7.875:   Bit size
 BSD1.F              2900:   Depth drilled with bit1
 DFT .                KCL:   Type fluid in hole
 DFD .                8.9:   Density
 DFV .               1.42:   Viscosity
 DFPH.                7.5:   pH
 DFL .               19.6:   Fluid loss
 MSS .            MUD PIT:   Source of sample
 RMS .OHMM           3.75:   Rm
 MST .F                83:   Rm Meas. temp.
 RMF .OHMM           3.40:   Rmf
 MFST.F                83:   Rmf Meas. temp.
 MFSS.           MEASURED:   Source Rmf.
 RMC .OHMM            9.0:   Rmc
 MCST.F                83:   Rmc Meas. temp.
 MCSS.           MEASURED:   Source Rmc.
 RMB .OHMM           2.80:   Rm. at BHT
 BHT .F               111:   BHT.
 TCS .HRS               3:   Time Circ. stopped
 MRT .F               111:   Maximum recorded temp.
 LUN .               8766:   Logging unit number
 LUL .             CASPER:   Logging unit location
 ENGI.          T. JOYNER:   Recorded By
 WITN.     MR. PETTINGILL:   Witnessed by
 ORIG.           5" PRINT:   Origin of data
 UWI .     49025103970000:   Unique Well ID
 DICO. A2D TECHNOLOGIES, INC.:   Digitizing Company
 PD  .                 GL:   Permanent Datum
 EPD .F              4911:   Elevation Permanent Datum
 LMF .                 KB:   Log Measured From
 DMF .                 KB:   Drilling Measured From
 DAPD.F                10:   Feet Above Permanent Datum
~OTHER INFORMATION
~A   DEPT      CALD        CORR       RHOB       GRD       SPR        ILD        ILM       SGRD   
# ...
  588.5000     9.3802     0.0365     2.4360    79.8811   -60.0810     9.1480     9.1049     9.7645
  589.0000     9.3836     0.0381     2.4368    79.5991   -60.0631     9.0308     8.9837     9.6372
  589.5000     9.3872     0.0412     2.4407    79.4711   -60.1985     8.9118     8.8030     9.6426
  590.0000     9.3904     0.0413     2.4445    79.3432   -60.4738     8.7976     8.6858     9.5802
  590.5000     9.3935     0.0355     2.4476    79.3692   -60.4559     8.6833     8.5701     9.5868
  591.0000     9.3966     0.0296     2.4365    79.5389   -60.5913     8.6300     8.5147     9.6585
  591.5000     9.3997     0.0282     2.4284    80.1550   -60.7178     8.5162     8.4604     9.6639
  592.0000     9.4029     0.0313     2.4248    81.0687   -60.8487     8.5243     8.4639     9.6692
  592.5000     9.4060     0.0344     2.4234    81.5307   -60.8308     8.5308     8.5261     9.6745
  593.0000     9.4091     0.0375     2.4377    80.5151   -60.8129     8.5373     8.5297     9.6799
  593.5000     9.4122     0.0406     2.4482    79.9408   -60.7950     8.4833     8.5924     9.6852
  594.0000     9.4154     0.0422     2.4566    79.6588   -60.7771     8.4914     8.7156     9.6226
  594.5000     9.4185     0.0468     2.4641    79.5308   -60.6104     8.4978     8.7192     9.6950
  595.0000     9.4067     0.0499     2.4680    79.5569   -60.5926     8.5633     8.7833     9.7013
  595.5000     9.4099     0.0545     2.4711    79.5777   -60.5747     8.5699     8.8478     9.7066
  596.0000     9.4130     0.0576     2.4734    79.5986   -60.4080     8.6359     8.9129     9.7120
  596.5000     9.4302     0.0607     2.4869    79.9170   -60.3901     8.7629     8.9166     9.7174
  597.0000     9.4185     0.0608     2.4759    80.3843   -60.3722     8.8305     8.8579     9.7218
  597.5000     9.4224     0.0594     2.4767    80.7028   -60.3543     9.0226     8.8625     9.7272
  598.0000     9.4255     0.0550     2.4805    80.8725   -60.3364     9.2189     8.8662     9.7335
  598.5000     9.4286     0.0521     2.4836    80.5905   -60.3185     9.2899     8.8699     9.8063
  599.0000     9.4318     0.0567     2.4935    80.1701   -60.3006     9.3616     8.8735     9.8797
  599.5000     9.4349     0.0598     2.4816    80.0369   -60.2828     9.4337     8.9388     9.8851
  600.0000     9.4380     0.0524     2.4634    79.9090   -60.4182     9.4409     9.0669     9.8906
  600.5000     9.4411     0.0480     2.4490    80.5303   -60.4579     9.4481     9.1336     9.8280
  601.0000     9.4158     0.0481     2.4513    80.6999   -60.5415     9.3883     9.2007     9.7657
  601.5000     9.3995     0.0497     2.4581    80.8696   -60.5675     9.3324     9.2683     9.7711
  602.0000     9.4025     0.0529     2.4627    80.7364   -60.5433     9.3395     9.3365     9.7079
  602.5000     9.3898     0.0560     2.4740    80.7600   -60.5239     9.2804     9.3403     9.7146
  603.0000     9.3923     0.0516     2.4796    80.6310   -60.5045     9.2234     9.3442     9.7873
  603.5000     9.3947     0.0383     2.4615    79.7598   -60.4851     9.1668     9.3481     9.7927
  604.0000     9.3970     0.0339     2.4459    78.7389   -60.4695     9.1105     9.3520     9.7981
  604.5000     9.4003     0.0295     2.4386    79.6524   -60.4502     9.1192     9.3558     9.8035
  605.0000     9.4167     0.0281     2.4342    80.8636   -60.4309     9.1261     9.3597     9.8090
  605.5000     9.4191     0.0283     2.4313    81.7772   -60.5609     9.0701     9.3636     9.8144
  606.0000     9.4214     0.0254     2.4283    82.6908   -60.6901     9.0770     9.3020     9.8198
  606.5000     9.4243     0.0225     2.4247    82.1161   -60.8193     9.0195     9.2418     9.8252
  607.0000     9.4266     0.0092     2.4226    82.7322   -60.7994     9.0281     9.1820     9.8306
  607.5000     9.4290     0.0033     2.4205    83.7947   -60.7801     8.9710     9.1225     9.8361
  608.0000     9.4313     0.0154     2.4319    83.5176   -60.7608     8.9795     9.0635     9.8415
  608.5000     9.4337     0.0230     2.4447    84.8874   -60.7415     8.9779     8.9428     9.8469
  609.0000     9.4360     0.0291     2.4537    85.1964   -60.7221     8.9724     8.8849     9.8524
  609.5000     9.4229     0.0292     2.4568    85.0679   -60.5542     8.9669     8.8895     9.8557
  610.0000     9.4104     0.0230     2.4420    83.5813   -60.6835     8.9614     8.9548     9.8582
  610.5000     9.3982     0.0082     2.4294    82.8772   -60.8128     8.9559     9.0832     9.8607
  611.0000     9.3857     0.0121     2.4243    82.7233   -60.7933     8.9504     9.1500     9.8632
  611.5000     9.3883     0.0256     2.4244    81.4357   -60.9227     8.9449     9.2172     9.8656
  612.0000     9.3905     0.0298     2.4282    82.0516   -61.0520     8.9394     9.2850     9.8681
  612.5000     9.3928     0.0284     2.4231    82.6676   -61.3295     8.9339     9.4181     9.8706
  613.0000     9.3952     0.0289     2.4202    82.6883   -61.4592     8.9284     9.4220     9.8731
  613.5000     9.3826     0.0302     2.4211    82.4062   -61.4393     8.9229     9.4259     9.8756
  614.0000     9.3856     0.0348     2.4331    82.2781   -61.4199     8.9174     9.4298     9.8781
  614.5000     9.3879     0.0439     2.4414    83.1969   -61.4005     8.9119     9.4337     9.8888
  615.0000     9.3903     0.0485     2.4490    83.5152   -61.3811     8.9064     9.4376     9.9581
  615.5000     9.3772     0.0516     2.4514    82.9407   -61.3617     8.9009     9.3756     9.8284
  616.0000     9.3801     0.0562     2.4500    82.5098   -61.3423     8.8953     9.2507     9.7675
  616.5000     9.3822     0.0624     2.4516    82.8333   -61.3229     8.8898     9.1276     9.7066
  617.0000     9.3848     0.0625     2.4547    84.1933   -61.3035     8.8843     8.9449     9.5806
  617.5000     9.3872     0.0566     2.4562    85.8509   -61.2841     8.8788     8.7651     9.3261
  618.0000     9.3895     0.0432     2.4437    85.4252   -61.4181     8.8733     8.7074     9.2683
  618.5000     9.3919     0.0418     2.4303    84.6967   -61.2501     8.8678     8.7119     9.1476
  619.0000     9.3788     0.0435     2.4267    85.7642   -61.3793     8.8623     8.7156     9.0908
  619.5000     9.3817     0.0436     2.4410    86.2314   -61.3551     8.8568     8.7192     9.0972
  620.0000     9.3841     0.0452     2.4500    85.0616   -61.4891     8.7362     8.7228     9.1036
  620.5000     9.3864     0.0468     2.4561    84.6359   -61.3163     8.6204     8.7869     9.1099
  621.0000     9.3888     0.0439     2.4622    84.5026   -61.1483     8.5050     8.7291     9.1162
  621.5000     9.3912     0.0441     2.4675    84.8261   -61.1289     8.4504     8.7336     9.1225
  622.0000     9.3935     0.0337     2.4714    84.5440   -60.9609     8.4555     8.7373     9.1921
  622.5000     9.4107     0.0204     2.4648    84.1183   -60.7929     8.4003     8.7409     9.1985
  623.0000     9.4131     0.0085     2.4462    85.7811   -60.6249     8.4054     8.7445     9.2049
  623.5000     9.4155     0.0026     2.4261    87.4387   -60.6055     8.4094     8.7305     9.1463
  624.0000     9.4029     0.0088     2.4232    88.0495   -60.4376     8.4135     8.6924     9.1542
  624.5000     9.4054     0.0149     2.4323    86.5873   -60.5716     8.4176     8.6544     9.0960
  625.0000     9.4077     0.0210     2.4324    87.6497   -60.5474     8.4212     8.6385     9.0397
  625.5000     9.4106     0.0226     2.4318    85.8847   -60.6814     8.4258     8.6445     8.9837
  626.0000     9.4129     0.0227     2.4342    86.6494   -60.8106     8.4299     8.6505     8.9915
  626.5000     9.4149     0.0213     2.4358    86.6840   -60.7863     8.4925     8.6565     8.9977
  627.0000     9.4177     0.0229     2.4381    85.6492   -60.9204     8.4966     8.6625     9.0040
  627.5000     9.4200     0.0276     2.4412    86.5628   -60.8961     8.5007     8.6686     9.0102
  628.0000     9.4224     0.0337     2.4517    89.4109   -60.8767     8.6234     8.6746     9.0165
  628.5000     9.4247     0.0428     2.4623    88.3899   -60.8573     8.6276     8.6806     9.0227
