~VERSION INFORMATION
 VERS.                2.0:   CWLS LOG ASCII STANDARD - VERSION 2.0
 WRAP.                 NO:   ONE LINE PER DEPTH STEP
~WELL INFORMATION
#MNEM.UNIT      DATA TYPE    INFORMATION
#----------   ------------   ------------------------------
 STRT.F          197.0000:   START DEPTH
 STOP.F         3074.5000:   STOP DEPTH
 STEP.F            0.5000:   STEP LENGTH
 NULL.          -999.2500:   NO VALUE
 COMP.    FENIX & SCISSON:   COMPANY
 WELL.   FENIX "A" #36-21:   WELL
 FLD .             NPR #3:   FIELD
 LOC .      S21 T39N R78W:   LOCATION
 CNTY.            NATRONA:   COUNTY
 STAT.            WYOMING:   STATE
 CTRY. UNITED STATES OF AMERICA:   COUNTRY
 SRVC.              WELEX:   SERVICE COMPANY
 DATE.        06-JUL-1977:   LOGDATE
 API .     49025103920000:   API NUMBER
~CURVE INFORMATION
#MNEM.UNIT       API CODE    CURVE DESCRIPTION
#----------   ------------   ------------------------------
 DEPT.F                  :   
 CALD.IN     45 280 60 00:   CALIPER FROM DENSITY LOG
 GRD .GAPI   45 310 01 00:   GAMMA RAY FROM DENSITY LOG
 CORR.G/C3   45 356 01 00:   DENSITY CORRECTION
 RHOB.G/C3   45 350 01 00:   BULK DENSITY
 SPR .MV     11 010 01 00:   SPONTANEOUS POTENTIAL FROM RES.
 FORX.OHMM   11 000 00 00:   FORMATION FACTOR
 GURD.OHMM   11 220 05 00:   GUARD LOG RESISTIVITY
 NPHI.DEC    42 890 03 00:   NEUTRON POROSITY SANDSTONE
~PARAMETER INFORMATION
#MNEM.UNIT          VALUE    DESCRIPTION
#----------   ------------   ------------------------------
 EKB .F         4960.0000:   Kelly bushing
 EGL .F         4950.0000:   Ground level
 EDF .F            0.0000:   Drilling floor
 EPD .F         4950.0000:   Permanent datum
 TD  .F         3078.0000:   Total depth
 CLNT.            A2DTECH:   Client Code
 SL  . 1650' FSL & 1650' FWL:   Surface Location
 PD  .                 GL:   Permanent Datum
 DAPD.F                10:   Feet Above Permanent Datum
 DATE.        06-JUL-1977:   Date Logged [DD-MMM-YYYY]
 DD  .F              3066:   Depth driller
 DL  .F              3078:   Depth logger
 BLI .F              3076:   Bottom log interval
 TLI .F               200:   Top log interval
 CS1 .IN            8.625:   Casing size
 BS1 .IN            7.875:   Bit size
 BSD1.F              3066:   Depth drilled with bit1
 DFT .            KCL MUD:   Type fluid in hole
 DFD .                9.2:   Density
 DFV .                 35:   Viscosity
 DFPH.                7.5:   pH
 DFL .                 18:   Fluid loss
 MSS .           FLOWLINE:   Source of sample
 RMS .OHMM            0.9:   Rm
 MST .F                80:   Rm Meas. temp.
 RMF .OHMM           0.81:   Rmf
 MFST.F                80:   Rmf Meas. temp.
 MFSS.               FANN:   Source Rmf.
 RMC .OHMM           1.06:   Rmc
 MCST.F                80:   Rmc Meas. temp.
 MCSS.                KIT:   Source Rmc.
 RMB .OHMM           0.60:   Rm. at BHT
 BHT .F               119:   BHT.
 TCS .HRS               3:   Time Circ. stopped
 MRT .F               119:   Maximum recorded temp.
 LUN .               8611:   Logging unit number
 LUL .             CASPER:   Logging unit location
 ENGI.             C DOAK:   Recorded By
 WITN.         HARRINGTON:   Witnessed by
 ORIG.           5" PRINT:   Origin of data
 UWI .     49025103920000:   Unique Well ID
 DICO. A2D TECHNOLOGIES,INC.:   Digitizing Company
~OTHER INFORMATION
~A   DEPT     CALD         GRD      CORR       RHOB        SPR       FORX       GURD       NPHI   
# ...
  399.5000     9.3260    56.1309     0.0156     2.3278   -85.6377     7.1100     7.5328     0.3634
  400.0000     9.3132    55.5587     0.0082     2.2781   -85.6287     6.9654     7.2792     0.3583
  400.5000     9.2858    56.0220    -0.0005     2.2358   -85.6198     6.8237     7.0825     0.3519
  401.0000     9.2886    57.2260    -0.0095     2.2121   -85.6108     6.7232     6.9389     0.3408
  401.5000     9.2908    58.7263    -0.0189     2.1548   -85.4505     6.5492     6.5676     0.3366
  402.0000     9.3225    60.2266    -0.0404     2.0792   -85.4417     6.4160     6.2162     0.3321
  402.5000     9.3395    61.7269    -0.0611     1.9963   -85.2832     6.1146     5.9964     0.3249
  403.0000     9.3723    61.5976    -0.0864     1.9286   -85.1247     5.7873     5.6333     0.3177
  403.5000     9.4514    58.3572    -0.0937     1.8410   -85.0713     5.4775     5.2711     0.3096
  404.0000     9.6868    55.5457    -0.1100     1.7553   -84.9574     5.1486     5.0584     0.3075
  404.5000     9.9257    53.8874    -0.1338     1.7129   -84.7989     4.7079     4.6574     0.3093
  405.0000    10.2385    51.7518    -0.1441     1.6944   -84.4907     4.2168     3.9475     0.3147
  405.5000    11.3206    50.5854    -0.1334     1.6826   -84.1825     2.6737     3.3458     0.3189
  406.0000    11.5003    51.9376    -0.1197     1.6745   -84.0240     1.8491     2.6468     0.3300
  406.5000    11.4729    55.2157    -0.1105     1.7184   -83.8653     1.1502     2.0089     0.3360
  407.0000    10.8834    57.7530    -0.0728     1.8791   -83.7049     0.7626     1.5947     0.3430
  407.5000    10.1311    59.2533    -0.0246     2.0368   -83.5464     0.7267     1.7386     0.3563
  408.0000     9.3936    60.1611     0.0176     2.2741   -83.5376     0.7949     1.9554     0.3658
  408.5000     9.0852    60.2198     0.0268     2.3745   -83.3791     1.3991     2.8971     0.3705
  409.0000     8.9394    59.6061     0.0301     2.3924   -83.3703     4.6386     5.0752     0.3684
  409.5000     8.9120    59.3287     0.0349     2.3984   -83.3615     6.4653     5.5914     0.3612
  410.0000     8.9142    60.2765     0.0367     2.3955   -83.2030     6.0767     5.5929     0.3558
  410.5000     8.9164    61.4451     0.0397     2.4008   -83.0445     6.2471     5.6331     0.3465
  411.0000     8.9186    62.2047     0.0383     2.4187   -82.8860     6.3780     5.8324     0.3393
  411.5000     8.9213    62.6680     0.0386     2.4300   -82.7275     6.3785     6.0806     0.3318
  412.0000     8.9235    62.9831     0.0373     2.4324   -82.5569     6.6026     6.3393     0.3252
  412.5000     8.9257    63.0020     0.0375     2.4395   -82.4102     6.6487     6.4291     0.3224
  413.0000     8.9278    62.8727     0.0362     2.4465   -82.3996     7.4246     6.4308     0.3215
  413.5000     8.9300    62.2989     0.0364     2.4273   -82.2411     7.8644     6.3402     0.3224
  414.0000     8.9320    61.8733     0.0381     2.4199   -82.2323     7.3746     6.2161     0.3272
  414.5000     8.9344    61.7353     0.0413     2.4297   -81.7313     7.0196     6.2613     0.3314
  415.0000     8.9366    63.4025     0.0445     2.4506   -81.8713     6.8369     6.2629     0.3325
  415.5000     8.9388    64.5970     0.0462     2.4640   -81.7110     6.9324     6.2216     0.3286
  416.0000     8.9409    63.2867     0.0435     2.4596   -81.7006     7.3260     6.1800     0.3223
  416.5000     8.9430    61.6759     0.0422     2.4530   -81.6880     7.8493     6.2680     0.3160
  417.0000     8.9601    60.8058     0.0424     2.4478   -81.8276     7.5319     6.3127     0.3082
  417.5000     8.9623    60.6718     0.0410     2.4532   -81.8174     7.2272     6.2283     0.3033
  418.0000     8.9793    62.0287     0.0398     2.4525   -81.8072     7.0796     6.1024     0.3009
  418.5000     8.9815    63.2327     0.0400     2.4473   -81.9493     7.1785     5.9379     0.3009
  419.0000     8.9842    64.7330     0.0372     2.4421   -81.9365     7.3290     5.8581     0.3015
  419.5000     8.9710    65.9370     0.0375     2.4341   -81.7766     7.3295     5.9411     0.3046
  420.0000     8.9584    66.9929     0.0392     2.4283   -81.7665     7.4317     5.8612     0.3088
  420.5000     8.9611    68.0524     0.0409     2.4261   -81.5888     7.2259     5.8632     0.3108
  421.0000     8.9633    68.6602     0.0426     2.4321   -81.2945     7.0339     5.8648     0.3111
  421.5000     8.9502    67.4986     0.0443     2.4426   -81.1346     6.9861     6.1143     0.3099
  422.0000     8.9375    67.0730     0.0445     2.4568   -80.9747     6.9385     6.0321     0.3096
  422.5000     8.8959    66.6473     0.0462     2.4732   -80.8148     6.7504     5.8695     0.3144
  423.0000     8.8827    66.0736     0.0464     2.4860   -80.8046     6.3886     5.4420     0.3216
  423.5000     8.9003    65.4998     0.0466     2.4897   -80.7944     6.0462     5.3320     0.3252
  424.0000     8.9172    65.3658     0.0438     2.4735   -80.7843     5.8417     5.4827     0.3273
  424.5000     8.9194    64.9449     0.0425     2.4594   -80.7739     5.8019     5.8078     0.3279
  425.0000     8.9512    67.4823     0.0427     2.4439   -80.7635     6.0059     6.2254     0.3255
  425.5000     8.9534    69.4270     0.0429     2.4448   -80.7512     6.4795     6.3865     0.3222
  426.0000     8.9556    70.3387     0.0401     2.4518   -80.7410     6.9424     6.3007     0.3071
  426.5000     8.9583    70.0118     0.0404     2.4575   -80.7308     7.4384     6.3028     0.3002
  427.0000     8.9457    68.0068     0.0406     2.4457   -80.7206     7.1705     6.3045     0.3005
  427.5000     8.9325    65.9515     0.0378     2.4338   -80.7104     6.8487     6.2194     0.3011
  428.0000     8.9352    64.9333     0.0380     2.4086   -80.5506     6.6630     6.0940     0.3023
  428.5000     8.9221    65.3966     0.0382     2.4102   -80.5404     6.7560     5.9708     0.3053
  429.0000     8.9095    67.9340     0.0384     2.4132   -80.5299     6.7100     5.9724     0.3113
  429.5000     8.9122    70.0269     0.0371     2.4044   -80.3678     6.5730     5.9740     0.3158
  430.0000     8.9292    71.6753     0.0329     2.3948   -80.3576     6.3946     5.8937     0.3209
  430.5000     8.9314    72.6084     0.0286     2.3807   -80.1977     6.2643     5.8084     0.3263
  431.0000     8.9335    72.0093     0.0257     2.3682   -80.0378     6.1364     5.6578     0.3260
  431.5000     8.9357    71.1388     0.0214     2.3571   -79.8779     6.1369     5.6204     0.3216
  432.0000     8.9527    70.4040     0.0157     2.3406   -79.7181     6.1373     5.6223     0.3184
  432.5000     8.9549    69.5520     0.0114     2.3109   -79.7079     6.1377     5.5468     0.3167
  433.0000     8.9867    68.8301     0.0056     2.2723   -79.6977     5.9643     5.4722     0.3151
  433.5000     9.0037    67.9600     0.0088     2.3046   -79.8372     5.3480     5.2157     0.3202
  434.0000     9.0211    66.9418     0.0195     2.3813   -79.8245     4.9921     4.1836     0.3346
  434.5000     9.0229    65.6273     0.0347     2.4260   -79.6646     4.2311     3.2419     0.3448
  435.0000     9.0251    64.4610     0.0394     2.4372   -79.5047     3.2116     3.1314     0.3529
  435.5000     9.0277    63.4428     0.0411     2.4343   -79.3448     3.8957     3.8201     0.3586
  436.0000     9.0299    61.9801     0.0398     2.4344   -79.3346     5.0280     5.1921     0.3613
  436.5000     9.0358    62.2953     0.0416     2.4396   -79.1748     5.4620     5.4453     0.3622
  437.0000     9.0490    62.9076     0.0478     2.4523   -79.0149     5.5765     5.5224     0.3619
  437.5000     9.0512    61.5802     0.0510     2.4807   -78.8548     5.8124     5.8778     0.3584
  438.0000     9.0534    62.7259     0.0542     2.4897   -78.9954     6.1424     6.3429     0.3478
  438.5000     9.0556    64.0050     0.0529     2.4868   -78.8329     6.5888     6.7511     0.3454
  439.0000     9.0578    63.8709     0.0516     2.4808   -78.6731     6.8755     6.8941     0.3562
  439.5000     9.0599    63.5935     0.0518     2.4632   -78.3635     7.0520     6.9437     0.3631
