~VERSION INFORMATION
 VERS.                2.0:   CWLS LOG ASCII STANDARD - VERSION 2.0
 WRAP.                 NO:   ONE LINE PER DEPTH STEP
~WELL INFORMATION
#MNEM.UNIT      DATA TYPE    INFORMATION
#----------   ------------   ------------------------------
 STRT.F           15.0000:   START DEPTH
 STOP.F         3245.5000:   STOP DEPTH
 STEP.F            0.5000:   STEP LENGTH
 NULL.          -999.2500:   NO VALUE
 COMP. LAWRENCE ALLISON AND ASSOCIATES:   COMPANY
 WELL. LAWRENCE ALLISON 11 X34 #3-3:   WELL
 FLD .             NPR #3:   FIELD
 LOC .       S3 T38N R78W:   LOCATION
 CNTY.            NATRONA:   COUNTY
 STAT.            WYOMING:   STATE
 CTRY. UNITED STATES OF AMERICA:   COUNTRY
 SRVC.      DRESSER ATLAS:   SERVICE COMPANY
 DATE.        23-MAY-1985:   LOGDATE
 API .     49025110530000:   API NUMBER
~CURVE INFORMATION
#MNEM.UNIT       API CODE    CURVE DESCRIPTION
#----------   ------------   ------------------------------
 DEPT.F                  :   
 SPR .MV     07 010 01 00:   SPONTANEOUS POTENTIAL
 GRR .GAPI   07 310 01 00:   GAMMA RAY FROM RESISTIVITY
 SFL .OHMM   07 220 01 00:   SHALLOW FOCUSED LOG RES.
 ILD .OHMM   07 120 46 00:   INDUCTION LOG DEEP RESISTIVITY
 ILM .OHMM   07 120 44 00:   INDUCTION LOG MEDIUM RESISTIVITY
 TENR.LBS    07 635 01 00:   TENSION
 CALR.IN     07 280 01 00:   CALIPER FROM RESISTIVITY
 RHOB.G/C3   45 350 01 00:   BULK DENSITY
 CORR.G/C3   45 356 01 00:   DENSITY CORRECTION
 CNC .DEC    42 890 03 00:   NEUTRON POROSITY SANDSTONE
~PARAMETER INFORMATION
#MNEM.UNIT          VALUE    DESCRIPTION
#----------   ------------   ------------------------------
 EKB .F         5099.0000:   Kelly bushing
 EGL .F         5087.0000:   Ground level
 EDF .F            0.0000:   Drilling floor
 EPD .F         5087.0000:   Permanent datum
 TD  .F         3240.0000:   Total depth
 DATE.         2-MAY-1985:   Date logged
 CLNT.            A2DTECH:   Client Code
 PD  .                 GL:   Permanent Datum
 DD  .F              3239:   Depth driller
 DL  .F              3242:   Depth logger
 BLI .F              3240:   Bottom log interval
 TLI .F                15:   Top log interval
 CS1 .IN            8.625:   Casing size
 CBD1.      8.625" @ 487':   Casing driller 1
 CBL1.F               487:   Casing logger 1
 BSD1.F              3239:   Depth drilled with bit1
 DFT .            KCL GEL:   Type fluid in hole
 ENGI.      MACK. EDWARDS:   Recorded By
 WITN.         MR. STRONG:   Witnessed by
 ORIG.           5" PRINT:   Origin of data
 UWI .     49025110530000:   Unique Well ID
 DICO. A2D TECHNOLOGIES, INC.:   Digitizing Company
 DAPD.IN               12:   Feet Above Permanent Datum
 BS1 .              7.875:   Bit size
 DFD .                9.1:   Density
 DFV .                 35:   Viscosity
 DFPH.                  8:   pH
 DFL .                9.8:   Fluid loss
 MSS .           FLOWLINE:   Source of sample
 RMS .OHMM            .27:   Rm
 MST .F                68:   Rm Meas. temp.
 RMF .OHMM             .2:   Rmf
 MFST.F                68:   Rmf Meas. temp.
 MFSS.               MEAS:   Source Rmf.
 RMC .OHMM            .34:   Rmc
 MCST.F                68:   Rmc Meas. temp.
 MCSS.               CALC:   Source Rmc.
 RMB .OHMM            .15:   Rm. at BHT
 BHT .F               126:   BHT.
 TCS .HRS               3:   Time Circ. stopped
 MRT .F               126:   Maximum recorded temp.
 LUN .               6274:   Logging unit number
 LUL .               GLTE:   Logging unit location
~OTHER INFORMATION
~A   DEPT      SPR        GRR        SFL        ILD        ILM       TENR       CALR       RHOB       CORR        CNC   
# ...
 3030.0000   -47.5848    74.7343     5.5914     5.4896     5.4896   -10.4990     8.8541     2.4830     0.0020     0.2160
 3030.5000   -47.4588    74.7331     5.4896     5.2916     5.3897   -10.4990     8.8345     2.4800    -0.0139     0.2220
 3031.0000   -47.3890    74.1377     5.3897     5.0078     5.1952   -10.4990     8.8347     2.4800    -0.0278     0.2284
 3031.5000   -47.3899    74.1365     5.2916     5.0078     5.1006   -20.4790     8.8449     2.4761    -0.0377     0.2328
 3032.0000   -47.1930    75.9156     4.9166     5.0078     5.0078   -20.4790     8.8549     2.4721    -0.0377     0.2367
 3032.5000   -47.1933    77.1017     4.7392     5.0078     4.9166   -20.4790     8.8353     2.4661    -0.0177     0.2367
 3033.0000   -47.2754    78.8809     4.5682     5.0078     4.9166   -10.4990     8.8551     2.4632     0.0062     0.2300
 3033.5000   -47.3574    80.0671     4.4850     5.0078     5.0078   -20.4790     8.8427     2.4622     0.0042     0.2205
 3034.0000   -47.4395    81.8465     4.6529     5.0078     5.0078   -40.4391     8.8359     2.4642    -0.0057     0.2109
 3034.5000   -47.5215    84.2202     5.1952     5.1006     5.1006   -20.4790     8.8558     2.4712    -0.0137     0.2021
 3035.0000   -47.3964    87.1876     5.9083     5.1006     5.1006   -10.4990     8.8469     2.4792    -0.0116     0.2029
 3035.5000   -47.3974    86.5924     6.1295     5.1006     5.1006   -20.4790     8.8379     2.4851    -0.0236     0.2061
 3036.0000   -47.3983    81.2474     5.9628     5.0078     5.1006   -10.4990     8.8367     2.4832    -0.0415     0.2100
 3036.5000   -47.2011    80.6526     5.1952     4.8271     5.0078   -10.4990     8.8368     2.4752    -0.0594     0.2112
 3037.0000   -47.2023    81.8385     4.8271     4.6529     4.6529   -10.4990     8.8371     2.4672    -0.0793     0.2168
 3037.5000   -47.2030    87.1807     4.4850     4.5682     4.4034   -10.4990     8.8373     2.4593    -0.0773     0.2284
 3038.0000   -47.6000    90.4456     4.4034     4.4034     4.2445   -10.4990     8.8572     2.4583    -0.0254     0.2439
 3038.5000   -47.6001    91.6320     4.1672     4.3232     4.1672   -10.4990     8.8573     2.4643    -0.0154     0.2487
 3039.0000   -47.7998    91.0368     4.1672     4.2445     4.1672   -10.4990     8.8724     2.4723    -0.0154     0.2463
 3039.5000   -47.9986    88.3633     4.0914     4.1672     4.1672   -10.4990     8.8578     2.4823    -0.0034     0.2344
 3040.0000   -47.8016    83.0180     4.1672     4.0914     4.0914   -20.4790     8.8186     2.4872     0.0265     0.2204
 3040.5000   -47.8028    81.8291     4.3232     4.0169     4.0914   -20.4790     8.8393     2.4992     0.0385     0.2140
 3041.0000   -48.0016    81.2339     4.5682     3.9437     4.0914   -20.4790     8.8584     2.5002     0.0325     0.2136
 3041.5000   -48.0026    81.2325     4.6529     3.8719     3.9437   -20.4790     8.8586     2.4992     0.0067     0.2384
 3042.0000   -48.3994    81.8251     4.4850     3.8719     3.8719   -30.4591     8.8391     2.4963    -0.0033     0.2511
 3042.5000   -48.4000    84.4961     4.2445     3.8015     3.8015   -30.4591     8.8523     2.4863     0.0027     0.2611
 3043.0000   -50.3810    85.9795     3.5976     3.5976     3.6643   -30.4591     8.8395     2.4764    -0.0052     0.2627
 3043.5000   -48.7982    86.5714     3.4678     3.5321     3.4724   -30.4591     8.8397     2.4564    -0.0211     0.2563
 3044.0000   -48.7990    85.3831     3.8015     3.4678     3.4090   -30.4591     8.8596     2.4465    -0.0291     0.2511
 3044.5000   -48.8002    84.1940     3.9437     3.4678     3.4090   -30.4591     8.8598     2.4306    -0.0390     0.2495
 3045.0000   -48.8009    81.5198     3.8015     3.4046     3.3427   -30.4591     8.8403     2.4226    -0.0729     0.2491
 3045.5000   -48.8021    80.3305     3.7667     3.3735     3.3427   -40.4391     8.8602     2.4236    -0.0669     0.2511
 3046.0000   -49.1988    79.4382     3.7322     3.3735     3.3559   -30.4591     8.8801     2.4246    -0.0489     0.2563
 3046.5000   -49.2000    79.1399     3.6981     3.3735     3.3692   -30.4591     8.8802     2.4256    -0.0230     0.2555
 3047.0000   -49.2007    80.3264     3.7322     3.3735     3.3826   -30.4591     8.8804     2.4266    -0.0050     0.2519
 3047.5000   -49.5979    81.2160     3.7322     3.3427     3.3960   -40.4391     8.8806     2.4386     0.0110     0.2531
 3048.0000   -49.5987    80.3237     3.8719     3.3735     3.4095   -40.4391     8.8808     2.4416     0.0146     0.2607
 3048.5000   -49.5999    80.0253     3.9077     3.3735     3.4230   -40.4391     8.8811     2.4546     0.0019     0.2567
 3049.0000   -49.6006    80.9150     3.9077     3.4046     3.4366   -40.4391     8.8813     2.4655    -0.0093     0.2503
 3049.5000   -49.6018    82.3987     3.8365     3.4361     3.4502   -20.4790     8.8815     2.4715    -0.0212     0.2428
 3050.0000   -49.6026    84.1795     3.8365     3.4361     3.4678   -30.4591     8.8817     2.4805    -0.0012     0.2368
 3050.5000   -49.6038    84.7723     3.9077     3.3735     3.4046   -40.4391     8.8819     2.4895     0.0143     0.2412
 3051.0000   -49.6049    85.0680     4.0540     3.3121     3.3427   -40.4391     8.8821     2.4965     0.0211     0.2547
 3051.5000   -49.2097    86.2549     3.9801     3.2818     3.3427   -40.4391     8.8822     2.4965     0.0192     0.2627
 3052.0000   -49.2108    87.1448     3.8719     3.3121     3.3427   -40.4391     8.8627     2.4945     0.0272     0.2647
 3052.5000   -48.8159    86.8465     3.4998     3.4998     3.4678   -40.4391     8.8037     2.4925     0.0467     0.2611
 3053.0000   -48.6186    87.7364     3.5976     3.5647     3.5976   -40.4391     8.8038     2.4906     0.0553     0.2543
 3053.5000   -48.4216    88.3294     3.5976     3.7322     3.6643   -30.4591     8.7852     2.4866     0.0428     0.2368
 3054.0000   -48.0264    88.0311     3.6643     3.9437     3.9437   -30.4591     8.7649     2.4826     0.0053     0.2280
 3054.5000   -48.0277    83.5737     4.1291     4.4850     4.2445   -40.4391     8.7454     2.4816    -0.0205     0.2216
 3055.0000   -47.6320    78.5217     4.4440     4.7392     4.6529   -40.4391     8.7091     2.4886    -0.0145     0.2113
 3055.5000   -47.3719    76.4407     4.8716     5.0078     4.8271   -40.4391     8.6866     2.4996    -0.0025     0.2061
 3056.0000   -47.1119    77.0329     5.2432     5.4896     5.1952   -50.4192     8.6868     2.5046    -0.0005     0.2081
 3056.5000   -46.8518    75.2494     6.1295     5.8007     5.5914   -40.4391     8.6869     2.5116    -0.0105     0.2089
 3057.0000   -46.5918    74.6537     6.3589     6.0179     5.8007   -40.4391     8.6709     2.5036    -0.0244     0.2081
 3057.5000   -46.4484    74.6522     6.4768     6.0179     5.9083   -40.4391     8.6676     2.4966    -0.0303     0.2069
 3058.0000   -46.4492    74.6507     6.4768     5.9083     5.9083   -40.4391     8.6678     2.4927    -0.0247     0.2101
 3058.5000   -46.4503    74.6493     6.0179     5.8007     5.6951   -30.4591     8.6681     2.4777    -0.0203     0.2161
 3059.0000   -46.4510    74.9449     5.8007     5.6951     5.6951   -30.4591     8.6485     2.4738    -0.0203     0.2241
 3059.5000   -46.4521    76.1320     5.4896     5.5914     5.4896   -20.4790     8.6685     2.4708    -0.0143     0.2272
 3060.0000   -46.4528    79.3991     5.3897     5.3897     5.1952   -20.4790     8.6687     2.4698    -0.0123     0.2268
 3060.5000   -46.4539    79.6948     5.4896     5.2916     5.1006   -40.4391     8.6689     2.4768    -0.0222     0.2245
 3061.0000   -46.8509    79.3963     5.5914     5.1952     5.0078   -40.4391     8.6691     2.4848    -0.0262     0.2225
 3061.5000   -46.8520    78.5034     5.4896     5.1006     4.9166   -40.4391     8.6693     2.4898    -0.0221     0.2268
 3062.0000   -47.2489    78.2048     5.1952     4.9166     4.8378   -40.4391     8.6805     2.4898     0.0034     0.2332
 3062.5000   -47.6463    78.2034     5.1006     4.9166     4.8378   -50.4192     8.6894     2.4848    -0.0046     0.2368
 3063.0000   -47.6470    77.9048     4.9166     4.9166     4.8378   -50.4192     8.6698     2.4838    -0.0205     0.2320
