~VERSION INFORMATION
 VERS.                2.0:   CWLS LOG ASCII STANDARD - VERSION 2.0
 WRAP.                 NO:   ONE LINE PER DEPTH STEP
~WELL INFORMATION
#MNEM.UNIT      DATA TYPE    INFORMATION
#----------   ------------   ------------------------------
 STRT.F          200.0000:   START DEPTH
 STOP.F         3209.0000:   STOP DEPTH
 STEP.F            0.5000:   STEP LENGTH
 NULL.          -999.2500:   NO VALUE
 COMP.    FENIX & SCISSON:   COMPANY
 WELL. FENIX & SCISSON "AX" #88-3:   WELL
 FLD .             NPR #3:   FIELD
 LOC .       S3 T38N R78W:   LOCATION
 CNTY.            NATRONA:   COUNTY
 STAT.            WYOMING:   STATE
 CTRY. UNITED STATES OF AMERICA:   COUNTRY
 SRVC.              WELEX:   SERVICE COMPANY
 DATE.        27-JUL-1977:   LOGDATE
 API .     49025104060000:   API NUMBER
~CURVE INFORMATION
#MNEM.UNIT       API CODE    CURVE DESCRIPTION
#----------   ------------   ------------------------------
 DEPT.F                  :   
 CALD.IN     45 280 60 00:   CALIPER FROM DENSITY LOG
 GRD .GAPI   45 310 01 00:   GAMMA RAY FROM DENSITY LOG
 RHOB.G/C3   45 350 01 00:   BULK DENSITY
 CORR.G/C3   45 356 01 00:   DENSITY CORRECTION
 NPHI.DEC    42 890 03 00:   NEUTRON POROSITY SANDSTONE
 SPR .MV     07 010 01 00:   SPONTANEOUS POTENTIAL
 SGRD.OHMM   07 220 05 00:   GUARD LOG RESISTIVITY
 FORX.OHMM   07 000 00 00:   
~PARAMETER INFORMATION
#MNEM.UNIT          VALUE    DESCRIPTION
#----------   ------------   ------------------------------
 EKB .F         5134.0000:   Kelly bushing
 EGL .F         5124.0000:   Ground level
 EDF .F            0.0000:   Drilling floor
 TD  .F         3211.0000:   Total depth
 CLNT.            A2DTECH:   Client Code
 SL  . 230' FSL & 380' FEL:   Surface Location
 PD  .                 GL:   Permanent Datum
 EPD .F              5124:   Elevation Permanent Datum
 LMF .                 KB:   Log Measured From
 DMF .                 KB:   Drilling Measured From
 DAPD.F                10:   Feet Above Permanent Datum
 DATE.        27-JUL-1977:   Date Logged [DD-MMM-YYYY]
 DD  .F              3200:   Depth driller
 DL  .F              3211:   Depth logger
 BLI .F              3210:   Bottom log interval
 TLI .F               200:   Top log interval
 CS1 .IN            8.625:   Casing size
 CBD1.      8.625" @ 218':   Casing driller 1
 CBL1.F               218:   Casing logger 1
 BS1 .IN            7.875:   Bit size
 BSD1.F              3200:   Depth drilled with bit1
 DFT .            KCL MUD:   Type fluid in hole
 DFD .                9.2:   Density
 DFV .                 36:   Viscosity
 DFPH.                9.5:   pH
 DFL .                9.6:   Fluid loss
 MSS .           FLOWLINE:   Source of sample
 RMS .OHMM           0.61:   Rm
 MST .F                85:   Rm Meas. temp.
 RMF .OHMM           0.53:   Rmf
 MFST.F                85:   Rmf Meas. temp.
 MFSS.               FANN:   Source Rmf.
 RMC .OHMM           0.48:   Rmc
 MCST.F                85:   Rmc Meas. temp.
 MCSS.                KIT:   Source Rmc.
 RMB .OHMM           0.42:   Rm. at BHT
 BHT .F               122:   BHT.
 TCS .HRS             2.5:   Time Circ. stopped
 MRT .F               122:   Maximum recorded temp.
 LUN .               8611:   Logging unit number
 LUL .             CASPER:   Logging unit location
 ENGI.            C. DOAK:   Recorded By
 WITN.      E. HARRINGTON:   Witnessed by
 ORIG.      2.5" 5" PRINT:   Origin of data
 UWI .     49025104060000:   Unique Well ID
 DICO. A2D TECHNOLOGIES, INC.:   Digitizing Company
~OTHER INFORMATION
~A   DEPT       CALD       GRD        RHOB      CORR        NPHI       SPR      SGRD         FORX 
  200.0000     8.1957    74.9753     1.9096    -0.3886     0.2869    -1.7647  -999.2500     0.3129
  200.5000     8.1975    73.1675     1.8958    -0.3928     0.2853    -1.7647  -999.2500     0.3365
  201.0000     8.1992    71.1717     1.9002    -0.3941     0.2824    -1.7647  -999.2500     0.3154
  201.5000     8.2009    69.4173     1.9063    -0.3953     0.2766    -1.7647  -999.2500     0.2634
  202.0000     8.2028    68.0425     1.9001    -0.3951     0.2750    -1.7647  -999.2500     0.2342
  202.5000     8.2044    67.7585     1.8952    -0.3963     0.2753    -1.7647  -999.2500     0.2316
  203.0000     8.2062    70.9170     1.8904    -0.3961     0.2785    -1.7647  -999.2500     0.2979
  203.5000     8.2082    72.1255     1.8968    -0.3973     0.2928    -1.7673  -999.2500     0.2671
  204.0000     8.2096    71.2405     1.9024    -0.3970     0.2928    -1.7647  -999.2500     0.2088
  204.5000     8.2116    72.6302     1.9058    -0.3968     0.2922    -1.7647  -999.2500     0.2636
  205.0000     8.2131    74.4085     1.9062    -0.3966     0.2916    -1.7647  -999.2500     0.2601
  205.5000     8.2149    75.4961     1.9074    -0.3963     0.2904    -1.7647  -999.2500     0.2674
  206.0000     8.2166    74.0229     1.9138    -0.3953     0.2892    -1.7647  -999.2500     0.3109
  206.5000     8.2183    72.6989     1.9272    -0.3943     0.2892    -1.7647  -999.2500     0.2528
  207.0000     8.2201    72.4149     1.9389    -0.3940     0.2904    -1.7647  -999.2500     0.2465
  207.5000     8.2220    73.7823     1.9472    -0.3938     0.2952    -1.7647  -999.2500     0.3097
  208.0000     8.2237    73.5032     1.9483    -0.3920     0.2981    -1.7647  -999.2500     0.3199
  208.5000     8.2253    71.5822     1.9517    -0.3888     0.2993    -1.7647  -999.2500     0.2827
  209.0000     8.2121    70.2300     1.9566    -0.3870     0.2993    -1.7647  -999.2500     0.2491
  209.5000     8.1990    69.6806     1.9615    -0.3838     0.2967    -1.7647  -999.2500     0.2884
  210.0000     8.1932    71.4958     1.9709    -0.3806     0.2918    -1.7647  -999.2500     0.3504
  210.5000     8.1875    72.5428     1.9803    -0.3772     0.2864    -1.7647  -999.2500     0.3319
  211.0000     8.1893    73.5862     1.9889    -0.3710     0.2814    -1.7647  -999.2500     0.3141
  211.5000     8.1912    74.2403     1.9796    -0.3660     0.2749    -1.7647  -999.2500     0.3386
  212.0000     8.1927    74.8567     1.9688    -0.3585     0.2698    -1.7647  -999.2500     0.3528
  212.5000     8.1796    75.7715     1.9723    -0.3523     0.2684    -1.7647  -999.2500     0.3728
  213.0000     8.1816    76.5506     1.9770    -0.3446     0.2698    -1.7647  -999.2500     0.3530
  213.5000     8.1831    77.6263     1.9731    -0.3352     0.2680    -1.7647  -999.2500     0.3343
  214.0000     8.1849    78.6701     1.9726    -0.3230     0.2604    -1.7647  -999.2500     0.2408
  214.5000     8.1866    79.2865     1.9828    -0.3123     0.2588    -1.7596  -999.2500     0.2044
  215.0000     8.1883    77.8133     1.9913    -0.2986     0.2588    -1.7473  -999.2500     0.2159
  215.5000     8.1900    76.6386     2.0057    -0.2833     0.2604    -1.7760  -999.2500     0.2616
  216.0000     8.1920    76.0560     2.0246    -0.2636     0.2737    -1.7160  -999.2500     0.2610
  216.5000     8.1935    77.5727     2.0436    -0.2416     0.2820    -1.7423  -999.2500     0.2430
  217.0000     8.1952    80.1294     2.0648    -0.2106     0.2939    -1.8627  -999.2500     0.2308
  217.5000     8.1970    81.5257     2.0914    -0.1744     0.2962    -1.3593  -999.2500     0.2448
  218.0000     8.2229    82.2624     2.1150    -0.1472     0.2974    -5.8031  -999.2500     0.4399
  218.5000     8.2327    82.7295     2.1460    -0.1259     0.2974   -14.0722  -999.2500     0.5562
  219.0000     8.2472    83.7936     2.2085    -0.0687     0.2956   -21.3091  -999.2500     0.5457
  219.5000     8.2637    87.8428     2.2552    -0.0143     0.2891   -29.0773  -999.2500     1.5166
  220.0000     8.3101    91.2950     2.2922     0.0428     0.2831   -36.5927  -999.2500     3.2011
  220.5000     8.3863    93.4038     2.3626     0.0835     0.2790   -43.8289  -999.2500     3.5451
  221.0000     8.6562    95.2142     2.3725     0.0882     0.2760   -42.5908  -999.2500     3.7460
  221.5000     9.1501    95.8306     2.3771     0.0690     0.2754   -43.5838  -999.2500     4.7644
  222.0000     9.5542    94.0637     2.4108     0.0617     0.2800   -44.3878     0.6883     6.2819
  222.5000     9.8986    93.1826     2.4618     0.0605     0.2878   -45.4949     0.2734     6.2836
  223.0000    10.1536    94.6993     2.4843     0.0608     0.2869   -46.6318     0.5224     6.1999
  223.5000    10.3640    96.2112     2.4994     0.0625     0.2824   -47.7278     1.0359     6.2016
  224.0000    10.4848    96.0813     2.5077     0.0657     0.2722   -48.8403     1.4590     6.2036
  224.5000    10.5913    94.9066     2.4922     0.0675     0.2680   -49.9229     2.1409     6.2052
  225.0000    10.6376    95.3737     2.4833     0.0692     0.2660   -50.9224     1.9460     6.2069
  225.5000    10.6764    96.1393     2.4759     0.0725     0.2623   -51.8628     1.3203     4.2322
  226.0000    10.7304    94.9213     2.4746     0.0732     0.2572   -52.7783     1.1577     3.3943
  226.5000    10.7470    93.4962     2.4755     0.0745     0.2571   -53.6927     1.8323     5.1287
  227.0000    10.7784    93.0678     2.4756     0.0762     0.2640   -54.6122     1.9479     5.7237
  227.5000    10.7951    93.6841     2.4742     0.0810     0.2730   -55.5285     2.7718     5.8041
  228.0000    10.8120    95.1045     2.4699     0.0858     0.2784   -56.4462     5.7488     5.7205
  228.5000    10.8316    96.7078     2.4603     0.0890     0.2795   -57.3627     5.7170     5.5634
  229.0000    10.8451    97.5108     2.4473     0.0913     0.2783   -58.2819     5.5038     5.3968
  229.5000    10.8617    98.5375     2.4276     0.0940     0.2753   -59.1975     5.3333     5.0865
  230.0000    10.8783    99.1542     2.4106     0.0942     0.2723   -60.1131     5.1596     4.7598
  230.5000    10.9036    97.3870     2.4017     0.0945     0.2722   -61.0453     4.8867     4.4395
  231.0000    10.9281    96.5108     2.3959     0.0992     0.2735   -61.7804     4.6917     4.1181
  231.5000    10.9582    96.5301     2.3885     0.1070     0.2759   -62.1385     4.3828     3.9154
  232.0000    10.9897    96.3954     2.3795     0.1147     0.2806   -62.4480     3.9296     3.6510
  232.5000    11.0510    95.8225     2.3619     0.1240     0.2865   -62.7571     3.5233     3.1271
  233.0000    11.1421    95.2448     2.3388     0.1287     0.2960   -63.0679     3.1563     2.7054
  233.5000    11.3230    93.9209     2.3120     0.1334     0.2972   -63.3769     2.6678     2.3279
  234.0000    11.4439    92.6390     2.2950     0.1384     0.2978   -63.6807     2.2387     2.0031
  234.5000    11.5499    91.5511     2.2697     0.1445     0.2984   -64.0092     1.7508     1.6318
  235.0000    11.6261    90.2523     2.2451     0.1447     0.2997   -64.0520     1.4997     1.5243
  235.5000    11.8215    88.9284     2.2163     0.1375     0.3028   -63.8908     1.4309     1.4835
  236.0000    11.9722    87.7537     2.1826     0.1272     0.3055   -63.7546     1.3365     1.4839
  236.5000    12.0857    88.9670     2.1790     0.1169     0.3055   -63.6110     1.4680     1.6589
  237.0000    12.1995    91.6729     2.2083     0.1037     0.3046   -63.4760     1.9936     2.2381
  237.5000    12.2608    94.0803     2.2495     0.0920     0.3019   -63.3526     2.9593     3.3259
  238.0000    12.2773    96.6370     2.3303     0.0832     0.2927   -63.5629     3.5855     3.8580
  238.5000    12.2194    99.1642     2.4379     0.0804     0.2867   -63.7807     4.4646     4.3782
  239.0000    11.8038   100.5546     2.4569     0.0852     0.2815   -64.0132     4.9151     4.8810
  239.5000    11.6093   100.1797     2.4675     0.0839     0.2767   -64.2373     4.9845     5.0951
  240.0000    11.4946   100.4488     2.4886     0.0768     0.2736   -64.4638     4.8877     5.0269
