~VERSION INFORMATION
 VERS.                2.0:   CWLS LOG ASCII STANDARD - VERSION 2.0
 WRAP.                 NO:   ONE LINE PER DEPTH STEP
~WELL INFORMATION
#MNEM.UNIT      DATA TYPE    INFORMATION
#----------   ------------   ------------------------------
 STRT.F          200.0000:   START DEPTH
 STOP.F         3248.0000:   STOP DEPTH
 STEP.F            0.5000:   STEP LENGTH
 NULL.          -999.2500:   NO VALUE
 COMP.    FENIX & SCISSON:   COMPANY
 WELL.   FENIX "AX" #28-3:   WELL
 FLD .              NPR-3:   FIELD
 LOC .       S3 T38N R78W:   LOCATION
 CNTY.            NATRONA:   COUNTY
 STAT.            WYOMING:   STATE
 CTRY. UNITED STATES OF AMERICA:   COUNTRY
 SRVC.              WELEX:   SERVICE COMPANY
 DATE.        30-JUN-1977:   LOGDATE
 API .     49025104200000:   API NUMBER
~CURVE INFORMATION
#MNEM.UNIT       API CODE    CURVE DESCRIPTION
#----------   ------------   ------------------------------
 DEPT.F                  :   
 CALD.IN     45 280 60 00:   CALIPER FROM DENSITY LOG
 GRD .GAPI   45 310 01 00:   GAMMA RAY FROM DENSITY LOG
 RHOB.G/C3   45 350 01 00:   BULK DENSITY
 CORR.G/C3   45 356 01 00:   DENSITY CORRECTION
 SPR .MV     07 010 01 00:   SPONTANEOUS POTENTIAL
 ILD .OHMM   07 120 46 00:   DEEP INDUCTION RESISTIVITY
 ILM .OHMM   07 120 44 00:   INDUCTION LOG MEDIUM RESISTIVITY
 SGRD.OHMM   07 220 05 00:   SHALLOW SHORT GUARD RESISTIVITY
~PARAMETER INFORMATION
#MNEM.UNIT          VALUE    DESCRIPTION
#----------   ------------   ------------------------------
 EKB .F         4969.0000:   Kelly bushing
 EGL .F         4959.0000:   Ground level
 TD  .F         3250.0000:   Total depth
 CLNT.            A2DTECH:   Client Code
 SL  . 500' FSL & 800' FWL:   Surface Location
 PD  .                 GL:   Permanent Datum
 EPD .F              4959:   Elevation Permanent Datum
 LMF .                 KB:   Log Measured From
 DMF .                 KB:   Drilling Measured From
 DAPD.F                10:   Feet Above Permanent Datum
 DATE.        30-JUN-1977:   Date Logged [DD-MMM-YYYY]
 DD  .F              3250:   Depth driller
 DL  .F              3250:   Depth logger
 BLI .F              3248:   Bottom log interval
 TLI .F               200:   Top log interval
 CS1 .IN            8.625:   Casing size
 CBD1.      8.625" @ 217':   Casing driller 1
 CBL1.F               225:   Casing logger 1
 BS1 .IN            7.875:   Bit size
 BSD1.F              3250:   Depth drilled with bit1
 DFT .                KCL:   Type fluid in hole
 DFD .                8.9:   Density
 RMS .OHMM           1.76:   Rm
 MST .F                63:   Rm Meas. temp.
 TCS .HRS             2.5:   Time Circ. stopped
 MRT .F                68:   Maximum recorded temp.
 LUN .               8611:   Logging unit number
 ENGI.         G. BENTSEN:   Recorded By
 WITN.         PETTINGILL:   Witnessed by
 ORIG.         2.5" PRINT:   Origin of data
 UWI .     49025104200000:   Unique Well ID
 DICO. A2D TECHNOLOGIES, INC.:   Digitizing Company
 DFV .                 30:   Viscosity
 DFPH.                  7:   pH
 DFL .                 10:   Fluid loss
 MSS .                PIT:   Source of sample
 RMF .OHMM           1.09:   Rmf
 MFST.F                68:   Rmf Meas. temp.
 MFSS.               MEAS:   Source Rmf.
 RMC .OHMM           2.01:   Rmc
 MCST.F                68:   Rmc Meas. temp.
 MCSS.               MEAS:   Source Rmc.
 RMB .OHMM           1.01:   Rm. at BHT
 BHT .F               118:   BHT.
 LUL .             CASPER:   Logging unit location
~OTHER INFORMATION
~A   DEPT       CALD       GRD        RHOB      CORR       SPR        ILD        ILM       SGRD   
# ...
 3197.0000     7.8180   119.7067     2.4581     0.0176   -54.2906     4.9614     6.3491     7.9641
 3197.5000     7.8465   118.4638     2.4488     0.0162   -54.2883     4.9621     6.4384     7.6193
 3198.0000     7.8455   118.1325     2.4406     0.0162   -53.9911     4.9628     6.5732     7.1097
 3198.5000     7.8447   118.7199     2.4273     0.0158   -53.8269     4.9635     6.6204     7.2326
 3199.0000     7.8438   119.6624     2.4272     0.0146   -53.6917     4.9641     6.5177     7.8293
 3199.5000     7.8722   120.4942     2.4334     0.0141   -53.6891     4.9648     6.2695     8.2408
 3200.0000     7.8713   120.9336     2.4395     0.0128   -53.3920     4.9655     6.1850     7.5966
 3200.5000     7.8643   122.2817     2.4354     0.0118   -53.0948     4.9662     6.1618     7.3537
 3201.0000     7.8572   122.2443     2.4293     0.0109   -53.0926     4.9669     6.2733     7.1549
 3201.5000     7.8502   121.0617     2.4252     0.0099   -53.0905     5.0362     6.2745     7.6268
 3202.0000     7.8431   119.8494     2.4302     0.0114   -53.0883     5.0369     6.2896     8.2550
 3202.5000     7.8366   118.5620     2.4409     0.0129   -52.7911     5.0376     6.2770     8.3137
 3203.0000     7.8355   117.9365     2.4486     0.0144   -53.0841     4.9989     6.2785     7.9283
 3203.5000     7.8052   117.4172     2.4481     0.0144   -53.3768     4.9703     6.4546     7.4463
 3204.0000     7.7749   115.9631     2.4450     0.0144   -53.9646     4.9711     6.6356     7.3436
 3204.5000     7.7639   114.7217     2.4439     0.0144   -54.2632     4.9039     6.6369     6.8881
 3205.0000     7.7434   112.4247     2.4490     0.0143   -54.5675     4.8378     6.4585     6.9270
 3205.5000     7.7423   110.4293     2.4536     0.0145   -55.1380     4.8384     6.2847     7.8602
 3206.0000     7.7412   108.9458     2.4561     0.0158   -55.1762     4.8391     6.2003     8.1890
 3206.5000     7.7401   110.9413     2.4546     0.0173   -55.4287     4.7737     6.1171     7.4384
 3207.0000     7.7390   111.3417     2.4592     0.0173   -55.4263     4.7744     6.1184     6.6648
 3207.5000     7.7379   110.1294     2.4673     0.0173   -55.4240     4.7750     6.2042     6.5470
 3208.0000     7.7661   112.7711     2.4719     0.0173   -55.3352     4.7757     6.2912     7.1351
 3208.5000     7.7356   114.9322     2.4668     0.0175   -55.1246     4.7763     6.2925     7.7454
 3209.0000     7.7319   116.9438     2.4575     0.0188   -54.8274     4.7770     6.2079     7.4321
 3209.5000     7.7225   119.4201     2.4514     0.0188   -54.5302     4.8437     6.2093     6.8442
 3210.0000     7.7131   120.3313     2.4524     0.0187   -54.2330     4.8443     6.2964     6.5674
 3210.5000     7.7037   120.3238     2.4626     0.0202   -53.7914     4.8566     6.2977     7.1291
 3211.0000     7.6943   120.3163     2.4728     0.0202   -53.3437     4.9271     6.3861     7.2263
 3211.5000     7.6848   119.7063     2.4743     0.0187   -53.0465     4.9812     6.3874     7.0297
 3212.0000     7.6754   119.6973     2.4671     0.0171   -53.0438     5.0712     6.5104     6.6535
 3212.5000     7.6683   119.0875     2.4579     0.0168   -53.0416     5.1448     6.6586     6.3844
 3213.0000     7.6672   118.4776     2.4467     0.0137   -52.7445     5.2645     6.6600     6.9305
 3213.5000     7.6661   117.8678     2.4370     0.0121   -52.4473     5.2953     6.7077     7.6304
 3214.0000     7.6651   117.8603     2.4211     0.0109   -52.1502     5.4125     6.8482     8.5094
 3214.5000     7.6640   117.2505     2.4323     0.0109   -52.1480     5.5256     6.8496     8.0290
 3215.0000     7.6629   117.2430     2.4461     0.0113   -52.1458     5.5647     6.9459     7.8350
 3215.5000     7.6618   117.2356     2.4578     0.0143   -52.4387     5.6424     6.8524     8.6618
 3216.0000     7.6900   117.2282     2.4675     0.0170   -52.7315     5.7213     6.3994     9.1069
 3216.5000     7.6889   117.2207     2.4736     0.0170   -52.7293     5.5671     5.9761     8.9812
 3217.0000     7.6878   117.2133     2.4797     0.0169   -52.7271     5.4920     5.8155     9.1038
 3217.5000     7.6868   117.2059     2.4848     0.0169   -52.7249     5.2711     5.6591     8.9783
 3218.0000     7.6857   116.5960     2.4878     0.0169   -52.7227     5.1291     5.4319     8.1158
 3218.5000     7.6846   115.9862     2.4786     0.0169   -53.0156     4.9908     5.3589     7.1326
 3219.0000     7.6835   115.3763     2.4648     0.0169   -53.0133     4.8563     5.2870     6.8221
 3219.5000     7.6824   114.7665     2.4495     0.0168   -53.0111     4.7255     5.2159     6.7923
 3220.0000     7.6813   114.7590     2.4408     0.0153   -53.0089     4.7261     5.2170     6.6052
 3220.5000     7.6802   115.3540     2.4285     0.0137   -53.0066     4.6623     5.2902     6.3359
 3221.0000     7.6791   115.9490     2.4249     0.0137   -53.0044     4.6629     5.3025     6.2465
 3221.5000     7.6780   116.5890     2.4305     0.0137   -53.0022     4.6636     5.3655     6.1927
 3222.0000     7.6769   117.8011     2.4361     0.0142   -53.0000     4.6642     5.3667     6.1916
 3222.5000     7.6758   118.4114     2.4427     0.0167   -52.9978     4.6735     5.5936     6.2760
 3223.0000     7.6747   118.9313     2.4488     0.0167   -52.9956     4.7300     5.8299     6.3167
 3223.5000     7.6736   118.9232     2.4549     0.0182   -52.9934     4.7306     5.9934     6.5393
 3224.0000     7.6725   118.9157     2.4605     0.0182   -52.9911     4.7313     6.0775     6.8172
 3224.5000     7.6714   118.3057     2.4631     0.0166   -52.9889     4.7319     6.3342     7.1070
 3225.0000     7.6703   118.2982     2.4590     0.0166   -52.6913     4.7326     6.5119     7.3497
 3225.5000     7.6692   117.6883     2.4539     0.0166   -52.6892     4.7332     6.6945     6.6226
 3226.0000     7.6679   117.0783     2.4570     0.0151   -52.6870     4.7339     6.6958     6.4990
 3226.5000     7.6963   117.0708     2.4630     0.0135   -52.9801     4.7345     6.6972     6.6206
 3227.0000     7.6658   117.0633     2.4691     0.0135   -53.2726     4.7033     6.6985     6.6193
 3227.5000     7.6941   116.4533     2.4599     0.0135   -53.5654     4.6713     6.5184     6.6181
 3228.0000     7.6929   115.6026     2.4384     0.0150   -53.8584     4.6719     6.5198     6.4381
 3228.5000     7.6918   114.6310     2.4354     0.0150   -53.8561     4.6727     6.5211     6.2630
 3229.0000     7.6907   114.8946     2.4307     0.0157   -53.5589     4.6095     6.4336     6.0926
 3229.5000     7.6896   116.1068     2.4292     0.0157   -53.5568     4.6102     6.4349     6.1757
 3230.0000     7.6886   117.0181     2.4292     0.0149   -53.2596     4.6108     6.4365     6.3462
 3230.5000     7.6875   117.0105     2.4307     0.0126   -53.2574     4.5485     6.4378     6.6114
 3231.0000     7.6864   115.0743     2.4353     0.0110   -53.2272     4.4871     6.3511     6.8878
 3231.5000     7.6853   109.8411     2.4322     0.0103   -52.9580     4.4878     6.0963     6.5192
 3232.0000     7.6550   104.3359     2.4168     0.0102   -53.2509     4.3669     6.0144     6.3419
 3232.5000     7.6552   118.7863     2.3984     0.0102   -53.3111     4.3079     6.0156     6.3408
 3233.0000     7.6567   118.1764     2.3969     0.0110   -53.8366     4.2497     5.8539     6.4272
 3233.5000     7.6581   116.9641     2.4045     0.0132   -53.8341     4.1916     5.5423     6.2504
 3234.0000     7.6595   116.3543     2.4106     0.0148   -54.1272     4.1328     5.3197     5.6744
 3234.5000     7.6609   115.1421     2.4183     0.0163   -54.1246     4.0748     5.1767     5.6877
 3235.0000     7.6623   113.9298     2.4272     0.0178   -54.1224     4.0249     5.1072     5.9158
 3235.5000     7.6638   112.1151     2.4360     0.0202   -54.4152     4.0255     5.1083     5.4988
 3236.0000     7.6652   111.5053     2.4447     0.0223   -54.8516     3.9711     5.1093     5.2275
 3236.5000     7.6666   109.6906     2.4534     0.0223   -55.2957     3.9717     5.1435     5.5454
 3237.0000     7.6680   107.2735     2.4442     0.0208   -55.2935     3.9722     5.2027     5.7520
