~VERSION INFORMATION
 VERS.                2.0:   CWLS LOG ASCII STANDARD - VERSION 2.0
 WRAP.                 NO:   ONE LINE PER DEPTH STEP
~WELL INFORMATION
#MNEM.UNIT      DATA TYPE    INFORMATION
#----------   ------------   ------------------------------
 STRT.F            0.0000:   START DEPTH
 STOP.F         3964.0000:   STOP DEPTH
 STEP.F            0.5000:   STEP LENGTH
 NULL.          -999.2500:   NO VALUE
 COMP. LAWRENCE ALLISON & ASSOCIATES:   COMPANY
 WELL. LAWRENCE NPR 3 "X" #43-10:   WELL
 FLD .              N P R:   FIELD
 LOC .      S10 T38N R78W:   LOCATION
 CNTY.            NATRONA:   COUNTY
 STAT.            WYOMING:   STATE
 CTRY. UNITED STATES OF AMERICA:   COUNTRY
 SRVC.      DRESSER ATLAS:   SERVICE COMPANY
 DATE.        07-AUG-1985:   LOGDATE
 API .     49025111390000:   API NUMBER
~CURVE INFORMATION
#MNEM.UNIT       API CODE    CURVE DESCRIPTION
#----------   ------------   ------------------------------
 DEPT.F                  :   
 CNC .DEC    42 890 03 00:   NEUTRON PORISITY SANDSTONE
 RHOB.G/C3   45 350 01 00:   BULK DENSITY
 CORR.G/C3   45 356 01 00:   DENSITY CORRECTION
 TEND.LBS    45 635 01 00:   TENSION FROM DENSITY LOG
 GRR .GAPI   07 310 01 00:   GAMMA RAY FROM RESISTIVITY
 CALR.IN     07 280 01 00:   CALIPER FROM RESISTIVITY
 SPR .MV     07 010 01 00:   SPONTANEOUS POTENTIAL
 TENR.LBS    07 635 01 00:   TENSION FROM RESISTIVITY
 RILD.OHMM   07 120 46 00:   DEEP INDUCTION RESISTIVITY
 RILM.OHMM   07 120 44 00:   INDUCTION LOG MEDIUM RESISTIVITY
 RFOC.OHMM   07 220 04 00:   RESISTIVITY FOCUSED LOG RES.
 DT  .US/F   60 520 00 00:   DELTA TIME
 TENS.LBS    60 635 01 00:   TENSION FROM SONIC
~PARAMETER INFORMATION
#MNEM.UNIT          VALUE    DESCRIPTION
#----------   ------------   ------------------------------
 EKB .F         5223.0000:   Kelly bushing
 EGL .F         5211.0000:   Ground level
 EDF .F            0.0000:   Drilling floor
 EPD .F         5211.0000:   Permanent datum
 TD  .F         3950.0000:   Total depth
 DATE.        07-AUG-1985:   Date logged
 CLNT.            A2DTECH:   Client Code
 SL  . 2016' FNL & 2230' FWL:   Surface Location
 PD  .                 GL:   Permanent Datum
 DD  .F              3950:   Depth driller
 DL  .F              3950:   Depth logger
 BLI .F              3948:   Bottom log interval
 CS1 .IN            8.625:   Casing size
 CBD1.      8.625" @ 518':   Casing driller 1
 CBL1.F               520:   Casing logger 1
 BS1 .IN            7.875:   Bit size
 DFT .            KCL-GEL:   Type fluid in hole
 DFD .                8.9:   Density
 DFV .                 40:   Viscosity
 DFPH.                  9:   pH
 DFL .                 12:   Fluid loss
 MSS .           FLOWLINE:   Source of sample
 RMS .OHMM           .318:   Rm
 MST .F                82:   Rm Meas. temp.
 RMF .OHMM            .24:   Rmf
 MFST.F                82:   Rmf Meas. temp.
 RMC .OHMM            .40:   Rmc
 MCST.F                82:   Rmc Meas. temp.
 MFSS.               CALC:   Source Rmf.
 RMB .OHMM            .19:   Rm. at BHT
 BHT .F               140:   BHT.
 TCS .HRS               4:   Time Circ. stopped
 MRT .F               140:   Maximum recorded temp.
 LUN .               6264:   Logging unit number
 LUL .               GLTE:   Logging unit location
 ENGI.           FAHLSING:   Recorded By
 WITN.             STRONG:   Witnessed by
 ORIG.           5" PRINT:   Origin of data
 UWI .     49025111390000:   Unique Well ID
 DICO. A2D TECHNOLOGIES, INC.:   Digitizing Company
 DAPD.                 12:   Feet Above Permanent Datum
 BSD1.               3950:   Depth drilled with bit1
 MCSS.               CALC:   Source Rmc.
~OTHER INFORMATION
~A    DEPT     CNC       RHOB       CORR       TEND         GRR      CALR        SPR       TENR       RILD       RILM       RFOC         DT       TENS   
# ...
 3250.0000     0.2490     2.4940     0.0370   -46.2230   147.7340     8.3790   -71.9950   -48.9820     4.7280     5.0010     6.1410    80.6970   -82.4170
 3250.5000     0.2570     2.4860     0.0300   -40.7090   146.8380     8.3750   -72.1910   -52.1100     4.3240     4.4730     5.4760    82.1250   -83.0210
 3251.0000     0.2560     2.4790     0.0310   -34.5860   145.9630     8.3710   -72.3000   -55.2390     3.9200     4.1120     5.1830    83.3200   -83.6260
 3251.5000     0.2620     2.4730     0.0310   -28.4640   145.1580     8.3680   -72.4090   -55.1970     3.5160     3.7960     5.0890    83.5190   -84.2300
 3252.0000     0.2840     2.4580     0.0350   -22.3410   148.1920     8.3600   -72.5190   -53.8270     3.1110     3.4820     5.1160    83.8140   -84.8350
 3252.5000     0.3200     2.4330     0.0440   -16.2190   157.8780     8.3520   -72.6270   -52.4560     2.7790     3.1040     5.1350    84.3990   -85.4940
 3253.0000     0.3090     2.4020     0.0510   -10.0970   176.5520     8.3440   -72.7370   -51.0850     2.6090     2.9380     4.7310    85.2140   -84.9590
 3253.5000     0.2880     2.3720     0.1370    -3.9740   197.7680     8.3350   -72.1890   -49.7150     2.4910     2.9380     3.9640    88.4050   -84.3710
 3254.0000     0.2670     2.3530     0.2070     2.1480   184.7350     8.3270   -71.0390   -48.3440     2.5620     2.9650     3.1320    92.3190   -83.7830
 3254.5000     0.2460     2.4180     0.1270     8.2710   159.3970     8.3190   -70.2460   -46.9730     2.6540     3.1240     2.8200    94.3870   -83.1960
 3255.0000     0.2250     2.4850     0.0570    12.9780   138.3420     8.3100   -69.8160   -45.6030     2.7460     3.2980     2.6560    92.1820   -82.6080
 3255.5000     0.2110     2.5170     0.0410    10.2000   135.3670     8.3190   -69.8940   -44.2320     2.8390     3.4730     3.4060    88.3520   -82.0200
 3256.0000     0.2170     2.5190     0.0620     7.4220   145.2060     8.3340   -70.1530   -42.8610     2.9380     3.6600     4.7290    82.9130   -81.4330
 3256.5000     0.2230     2.5130     0.0750     4.6440   145.5760     8.3490   -70.3870   -41.4910     3.2860     4.2790     6.1670    80.1300   -80.8450
 3257.0000     0.2210     2.5190     0.0790     3.4790   137.2170     8.3640   -70.6220   -40.1200     3.8530     4.9960     5.7170    80.9190   -80.2570
 3257.5000     0.2130     2.5280     0.0770     3.4790   130.5380     8.3790   -70.9030   -38.7490     4.6430     5.4120     5.3760    81.8250   -79.6700
 3258.0000     0.2080     2.5340     0.0570     3.4790   125.5680     8.3940   -71.1990   -37.3780     5.1500     5.8610     6.4640    80.9080   -79.0820
 3258.5000     0.2060     2.5400     0.0350     3.4790   120.7070     8.4110   -71.4990   -36.0080     5.6940     6.3090     7.7540    79.0330   -78.4950
 3259.0000     0.2040     2.5450     0.0140     3.4790   117.8190     8.4370   -71.7430   -34.6370     6.1870     6.7380     7.7540    78.6330   -77.9070
 3259.5000     0.2030     2.5400    -0.0080     3.4790   114.3630     8.4640   -71.7140   -33.2660     6.5780     7.0440     7.7540    78.0880   -77.3190
 3260.0000     0.2100     2.5270    -0.0180     3.4790   114.1200     8.4910   -71.8330   -31.8960     6.9290     7.3490     8.7030    77.3720   -76.7320
 3260.5000     0.2180     2.5130    -0.0120     3.4790   114.8580     8.5180   -71.9620   -30.5250     7.2460     7.6550     9.6590    76.5090   -76.1440
 3261.0000     0.2260     2.5160     0.0280     3.4790   117.0770     8.5330   -72.0910   -29.1540     7.5630     7.9600    10.3930    75.6430   -75.5560
 3261.5000     0.2340     2.5180     0.0670     2.8570   119.6820     8.5450   -72.1970   -27.7840     7.8970     8.3430    10.4880    75.7430   -74.9690
 3262.0000     0.2450     2.5100     0.0580     0.2250   122.6520     8.5560   -72.1500   -26.3420     7.9310     8.2620     9.7980    76.8990   -74.3810
 3262.5000     0.2370     2.5020     0.0410    -2.4070   125.2340     8.5650   -72.1040   -26.6200     7.9690     8.1550     9.2780    77.8210   -73.7930
 3263.0000     0.2190     2.5070     0.0220    -5.0380   124.0300     8.5690   -72.0600   -26.9130     7.8710     8.0500     8.7340    78.2350   -73.2060
 3263.5000     0.2020     2.5160     0.0100    -7.6700   121.7840     8.5730   -72.0150   -27.2060     7.7500     7.9460     8.6540    78.1230   -72.6180
 3264.0000     0.2050     2.5240     0.0160   -10.3010   120.9340     8.5770   -71.9190   -27.4990     7.6150     7.8420     8.8400    77.9730   -72.0300
 3264.5000     0.2140     2.5290     0.0230   -12.9330   123.2480     8.5800   -71.8160   -27.7910     7.4750     7.6980     8.9770    77.9360   -71.4430
 3265.0000     0.2230     2.5310     0.0270   -15.5650   128.0260     8.5840   -71.9940   -28.0840     7.1060     7.3470     8.8480    78.2350   -70.8550
 3265.5000     0.2310     2.5280     0.0230   -15.3530   132.7820     8.5880   -72.1920   -28.3770     6.7200     6.9960     8.7340    78.7150   -70.2670
 3266.0000     0.2390     2.5250     0.0310   -13.8140   134.2220     8.5920   -72.4270   -28.6700     6.1670     6.6440     8.1740    79.5410   -69.6800
 3266.5000     0.2420     2.5280     0.0500   -12.2760   132.7780     8.5950   -72.8020   -28.9630     6.1940     6.2810     7.5920    80.9400   -69.0920
 3267.0000     0.2390     2.5350     0.0710   -10.7370   130.2860     8.5990   -72.7430   -29.2560     6.2240     6.3520     7.0100    81.8250   -68.5040
 3267.5000     0.2280     2.5420     0.0760    -9.1990   127.8000     8.6030   -72.4600   -29.5490     6.1670     6.4260     6.6970    81.9240   -67.9170
 3268.0000     0.2110     2.5480     0.0510    -7.6600   123.9070     8.6170   -72.1590   -29.8420     6.1070     6.5000     6.6360    81.1510   -67.3290
 3268.5000     0.2050     2.5530     0.0320    -6.1220   118.9600     8.6320   -72.0080   -30.1350     6.0000     6.5750     7.3640    78.9720   -66.7420
 3269.0000     0.2140     2.5490     0.0350    -4.5830   117.3470     8.6470   -72.0020   -30.4280     5.8940     6.5750     8.2420    76.7400   -66.1540
 3269.5000     0.2260     2.5310     0.0480    -3.0450   119.9080     8.6620   -72.0000   -30.7210     5.7880     6.5160     9.5710    76.6400   -65.5530
 3270.0000     0.2370     2.5180     0.0710    -1.5060   122.5040     8.6720   -72.1500   -31.0140     5.6800     6.2630     9.5710    78.4900   -65.5530
 3270.5000     0.2420     2.5060     0.0740     0.0320   123.7880     8.6830   -72.3370   -31.3070     5.5550     6.0300     7.5860    80.7370   -65.5530
 3271.0000     0.2470     2.4980     0.0600     1.5710   124.2020     8.6940   -72.5250   -31.6000     5.4290     5.7970     6.6640    82.9850   -65.5530
 3271.5000     0.2630     2.5010     0.0400     3.1090   124.5760     8.7040   -72.7130   -31.8930     5.2460     5.5650     6.0650    85.2330   -65.5530
 3272.0000     0.2610     2.5080     0.0300     1.2010   126.7020     8.7140   -72.8530   -32.1860     5.0240     5.3510     5.8380    85.9120   -65.5530
 3272.5000     0.2570     2.5140     0.0300    -1.7990   130.0330     8.7140   -72.9620   -32.4790     4.8010     5.2180     5.8380    86.2110   -65.5530
 3273.0000     0.2560     2.5150     0.0220    -4.7990   130.6420     8.6940   -73.1370   -32.7720     4.5790     5.0850     6.0120    85.8210   -65.5530
 3273.5000     0.2570     2.5120     0.0160    -7.7990   130.6140     8.6740   -73.3270   -33.0650     4.3550     4.9510     6.1880    85.1150   -65.5530
 3274.0000     0.2630     2.5110     0.0210   -10.7990   132.4290     8.6550   -73.5180   -33.3580     4.2510     4.7930     6.2240    85.5750   -65.5530
 3274.5000     0.2770     2.5200     0.0320   -13.7990   134.3180     8.6560   -73.7090   -33.6500     4.1470     4.6330     5.9180    86.9070   -65.5530
 3275.0000     0.2970     2.5300     0.0720   -16.7990   134.7600     8.6930   -73.8980   -33.9430     4.0420     4.4740     5.6050    88.2390   -65.5530
 3275.5000     0.3040     2.5380     0.1090   -19.7990   134.5840     8.7290   -74.0930   -34.2360     3.9380     4.3150     5.2920    88.8040   -65.5530
