~VERSION INFORMATION
 VERS.                2.0:   CWLS LOG ASCII STANDARD - VERSION 2.0
 WRAP.                 NO:   ONE LINE PER DEPTH STEP
~WELL INFORMATION
#MNEM.UNIT      DATA TYPE    INFORMATION
#----------   ------------   ------------------------------
 STRT.F          172.0000:   START DEPTH
 STOP.F         3376.0000:   STOP DEPTH
 STEP.F            0.5000:   STEP LENGTH
 NULL.          -999.2500:   NO VALUE
 COMP.    FENIX & SCISSON:   COMPANY
 WELL. FENIX NPR 3 "AX" #23-2:   WELL
 FLD .                NPR:   FIELD
 LOC .       S2 T38N R78W:   LOCATION
 CNTY.            NATRONA:   COUNTY
 STAT.            WYOMING:   STATE
 CTRY. UNITED STATES OF AMERICA:   COUNTRY
 SRVC.              WELEX:   SERVICE COMPANY
 DATE.        02-DEC-1980:   LOGDATE
 API .     49025108740000:   API NUMBER
~CURVE INFORMATION
#MNEM.UNIT       API CODE    CURVE DESCRIPTION
#----------   ------------   ------------------------------
 DEPT.F                  :   
 CALD.IN     45 280 60 00:   CALIPER FROM DENSITY LOG
 CORR.G/C3   45 356 01 00:   DENSITY CORRECTION
 GRD .GAPI   45 310 01 00:   GAMMA RAY FROM DENSITY LOG
 RHOB.G/C3   45 350 01 00:   BULK DENSITY
 TENR.LBS    07 635 01 00:   TENSION
 SPR .MV     07 010 01 00:   SPONTANEOUS POTENTIAL
 SGRD.OHMM   07 220 05 00:   SHALLOW GUARD
 ILD .OHMM   07 120 46 00:   INDUCTION LOG DEEP RESISTIVITY
 ILM .OHMM   07 120 44 00:   INDUCTION LOG MEDIUM RESISTIVITY
~PARAMETER INFORMATION
#MNEM.UNIT          VALUE    DESCRIPTION
#----------   ------------   ------------------------------
 EKB .F         5133.0000:   Kelly bushing
 EGL .F         5123.0000:   Ground level
 EDF .F            0.0000:   Drilling floor
 TD  .F         3375.0000:   Total depth
 DATE.        02-DEC-1980:   Date logged
 CLNT.            A2DTECH:   Client Code
 SL  . 3800' FSL & 827' FWL:   Surface Location
 PD  .                 GL:   Permanent Datum
 EPD .F              5123:   Elevation Permanent Datum
 LMF .                 KB:   Log Measured From
 DMF .                 KB:   Drilling Measured From
 DAPD.F                10:   Feet Above Permanent Datum
 DD  .F              3375:   Depth driller
 DL  .F              3373:   Depth logger
 BLI .F              3371:   Bottom log interval
 TLI .F               181:   Top log interval
 CS1 .IN            8.625:   Casing size
 CBD1.      8.625" @ 181':   Casing driller 1
 CBL1.F               181:   Casing logger 1
 BS1 .IN            7.875:   Bit size
 BSD1.F              3375:   Depth drilled with bit1
 DFT .           CHEM/GEL:   Type fluid in hole
 DFD .                8.8:   Density
 DFV .                 45:   Viscosity
 DFPH.                  9:   pH
 DFL .                 16:   Fluid loss
 MSS .           FLOWLINE:   Source of sample
 RMS .OHMM           1.25:   Rm
 MST .F                64:   Rm Meas. temp.
 RMF .OHMM           1.17:   Rmf
 MFST.F                64:   Rmf Meas. temp.
 RMC .OHMM            1.1:   Rmc
 MCST.F                64:   Rmc Meas. temp.
 MFSS.               MEAS:   Source Rmf.
 MCSS.               MEAS:   Source Rmc.
 RMB .OHMM            .67:   Rm. at BHT
 BHT .F               120:   BHT.
 TCS .HRS               2:   Time Circ. stopped
 MRT .F               120:   Maximum recorded temp.
 LUN .               1892:   Logging unit number
 LUL .             CASPER:   Logging unit location
 ENGI.  PFRIMMER/MONNAHAN:   Recorded By
 WITN.              FIVAS:   Witnessed by
 ORIG.           5" PRINT:   Origin of data
 UWI .     49025108740000:   Unique Well ID
 DICO. A2D TECHNOLOGIES, INC.:   Digitizing Company
~OTHER INFORMATION
~A   DEPT     CALD       CORR         GRD      RHOB       TENR        SPR       SGRD        ILD        ILM   
# ...
 1668.5000     9.4400     0.0230   126.8070     2.5110   629.4830   -18.6000     7.8890     7.0020     7.2650
 1669.0000     9.4380     0.0220   129.6830     2.5090   629.3120   -18.6010     7.9180     6.9870     7.2490
 1669.5000     9.4360     0.0220   131.9850     2.5060   629.1410   -18.5990     7.9700     6.9720     7.2340
 1670.0000     9.4340     0.0220   130.4010     2.5050   628.9690   -18.6000     8.0220     6.9570     7.2180
 1670.5000     9.4320     0.0210   128.8670     2.5140   628.7980   -18.6000     8.0750     6.9360     7.1970
 1671.0000     9.4290     0.0210   128.4000     2.5130   628.6260   -18.6000     8.1270     6.9450     7.2050
 1671.5000     9.4270     0.0210   126.6600     2.5090   628.4550   -18.5990     8.1850     6.9670     7.2290
 1672.0000     9.4250     0.0210   124.0620     2.5040   628.2830   -18.6040     8.3120     6.9900     7.2530
 1672.5000     9.4230     0.0200   121.4190     2.5080   628.1120   -18.5490     8.4560     7.0120     7.2760
 1673.0000     9.4200     0.0200   121.7080     2.5160   627.9400   -18.4200     8.5990     7.0340     7.2980
 1673.5000     9.4180     0.0200   122.5510     2.5240   627.7690   -18.2970     8.6500     7.0570     7.3210
 1674.0000     9.4160     0.0180   123.4170     2.5210   627.5970   -18.1730     8.5630     7.0790     7.3450
 1674.5000     9.4140     0.0170   124.1870     2.5180   627.4260   -18.0490     8.4590     7.1010     7.3680
 1675.0000     9.4120     0.0180   124.0610     2.5160   627.2540   -17.9250     8.3540     7.1230     7.3910
 1675.5000     9.4110     0.0190   123.9230     2.5130   627.0830   -17.8020     8.2500     7.1450     7.4130
 1676.0000     9.4110     0.0200   123.7890     2.5100   626.9120   -17.6750     8.1850     7.1670     7.4360
 1676.5000     9.4110     0.0210   123.6560     2.5080   626.7400   -17.5560     8.1850     7.1910     7.4610
 1677.0000     9.4110     0.0220   123.5230     2.5090   626.5690   -17.4320     8.1850     7.1830     7.4530
 1677.5000     9.4110     0.0220   123.3900     2.5110   626.3970   -17.5100     8.3630     7.1670     7.4360
 1678.0000     9.4110     0.0180   123.2560     2.5090   626.2260   -17.6630     8.6880     7.1520     7.4200
 1678.5000     9.4110     0.0150   123.1230     2.5020   626.0540   -17.8130     8.9750     7.1360     7.4040
 1679.0000     9.4110     0.0120   122.9900     2.4950   625.8830   -17.9590     8.6060     7.1200     7.3880
 1679.5000     9.4110     0.0120   122.8570     2.4880   625.7110   -18.1100     8.4630     7.1050     7.3710
 1680.0000     9.4110     0.0110   122.7240     2.4960   625.5400   -18.2580     8.3190     7.0890     7.3550
 1680.5000     9.4110     0.0120   122.5950     2.5050   625.3680   -18.4050     8.1850     7.0730     7.3390
 1681.0000     9.4110     0.0130   122.4190     2.5020   625.1970   -18.5590     8.2350     7.0580     7.3220
 1681.5000     9.4110     0.0140   122.2320     2.5050   625.0260   -18.5540     8.3370     7.0420     7.3060
 1682.0000     9.4110     0.0150   122.6860     2.5080   624.8540   -18.3830     8.2940     7.0260     7.2900
 1682.5000     9.4110     0.0160   123.3580     2.5120   624.6830   -18.2200     8.1100     7.0110     7.2740
 1683.0000     9.4110     0.0170   124.0370     2.5170   624.5110   -18.0550     7.8890     6.9950     7.2570
 1683.5000     9.4110     0.0180   124.5850     2.5230   624.3400   -17.8900     8.0890     6.9790     7.2410
 1684.0000     9.4110     0.0190   125.0980     2.5280   624.1680   -17.7230     8.3380     6.9640     7.2250
 1684.5000     9.4110     0.0200   126.0180     2.5170   623.9970   -17.5600     8.4920     6.9480     7.2080
 1685.0000     9.4110     0.0200   127.5910     2.5240   623.8250   -17.4080     8.3370     6.9350     7.1950
 1685.5000     9.4110     0.0190   129.0830     2.5310   623.6540   -17.4020     7.7450     6.9290     7.1890
 1686.0000     9.4110     0.0180   131.7300     2.5330   623.4820   -17.3990     7.8750     6.9240     7.1840
 1686.5000     9.4110     0.0170   133.2820     2.5230   623.3110   -17.4010     8.0360     6.9190     7.1780
 1687.0000     9.4110     0.0160   131.0140     2.5100   623.1390   -17.3990     7.6040     6.9140     7.1730
 1687.5000     9.4110     0.0150   128.9790     2.4970   622.9680   -17.4010     7.7490     6.9090     7.1680
 1688.0000     9.4110     0.0160   126.7280     2.4910   622.7970   -17.3980     8.1850     6.9040     7.1630
 1688.5000     9.4110     0.0190   124.4400     2.5020   622.6250   -17.4020     8.2030     6.8990     7.1580
 1689.0000     9.4110     0.0220   123.1470     2.5100   622.4540   -17.4100     8.2650     6.8940     7.1520
 1689.5000     9.4110     0.0220   122.2380     2.5160   622.2820   -17.5950     8.3370     6.8890     7.1470
 1690.0000     9.4110     0.0210   121.4830     2.5210   622.1110   -17.7910     8.1810     6.8830     7.1420
 1690.5000     9.4110     0.0210   124.1170     2.5260   621.9390   -17.9890     7.8890     6.8780     7.1370
 1691.0000     9.4110     0.0200   126.9320     2.5310   621.7680   -18.1930     8.0260     6.8730     7.1310
 1691.5000     9.4110     0.0190   129.7830     2.5290   621.5960   -18.3820     8.3510     6.8680     7.1260
 1692.0000     9.4110     0.0190   127.2670     2.5220   621.4250   -18.5780     8.8110     6.8630     7.1210
 1692.5000     9.4110     0.0180   123.0710     2.5170   621.2530   -18.4220     8.6500     6.8580     7.1160
 1693.0000     9.4110     0.0180   122.7420     2.5240   621.0820   -18.2400     8.4920     6.8530     7.1100
 1693.5000     9.4110     0.0200   122.6310     2.5340   620.9100   -18.0440     8.3370     6.8480     7.1050
 1694.0000     9.4110     0.0210   126.2530     2.5360   620.7390   -17.8600     8.2420     6.8430     7.1000
 1694.5000     9.4110     0.0230   126.9660     2.5290   620.5680   -17.6670     8.1590     6.8380     7.0950
 1695.0000     9.4110     0.0250   126.8080     2.5380   620.3960   -17.4800     8.0760     6.8330     7.0900
 1695.5000     9.4110     0.0260   126.5740     2.5450   620.2250   -17.2970     8.0360     6.8280     7.0840
 1696.0000     9.4110     0.0280   124.6580     2.5520   620.0530   -17.0820     8.0360     6.8230     7.0790
 1696.5000     9.4110     0.0280   122.6370     2.5510   619.8820   -17.1210     8.0360     6.8180     7.0740
 1697.0000     9.4110     0.0280   121.0020     2.5480   619.7100   -17.4530     8.0360     6.8130     7.0690
 1697.5000     9.4110     0.0280   120.5550     2.5440   619.5390   -17.7490     8.0360     6.8100     7.0650
 1698.0000     9.4110     0.0280   121.4200     2.5370   619.3670   -18.0550     8.0360     6.8300     7.0860
 1698.5000     9.4110     0.0280   122.2720     2.5340   619.1960   -18.3670     8.0360     6.8490     7.1060
 1699.0000     9.4140     0.0290   123.1360     2.5410   619.0240   -18.5740     8.0360     6.8690     7.1270
 1699.5000     9.4260     0.0290   124.0220     2.5470   618.8530   -18.4860     8.0750     6.8900     7.1480
 1700.0000     9.4380     0.0300   124.8770     2.5440   618.6820   -18.4020     8.1700     6.9100     7.1690
 1700.5000     9.4500     0.0300   123.4480     2.5390   618.5100   -18.3080     8.2640     6.9300     7.1900
 1701.0000     9.4610     0.0310   121.9850     2.5340   618.3390   -18.2180     8.3590     6.9500     7.2100
 1701.5000     9.4740     0.0320   120.5260     2.5320   618.1670   -18.1280     8.4920     6.9700     7.2310
 1702.0000     9.6130     0.0320   119.0660     2.5420   617.9960   -18.0370     8.3590     6.9900     7.2520
 1702.5000     9.8770     0.0330   119.8380     2.5520   617.8240   -17.9470     8.1320     7.0100     7.2730
 1703.0000     9.8670     0.0330   120.7740     2.5450   617.6530   -17.8560     7.8890     7.0300     7.2930
 1703.5000     9.8510     0.0340   121.7030     2.5390   617.4810   -17.7660     8.1520     7.0500     7.3140
 1704.0000     9.8360     0.0340   122.6270     2.5470   617.3100   -17.6750     8.3370     7.0700     7.3350
 1704.5000     9.8210     0.0350   123.5540     2.5570   617.1380   -17.5850     8.2410     7.0900     7.3560
