~VERSION INFORMATION
 VERS.                2.0:   CWLS LOG ASCII STANDARD - VERSION 2.0
 WRAP.                 NO:   ONE LINE PER DEPTH STEP
~WELL INFORMATION
#MNEM.UNIT      DATA TYPE    INFORMATION
#----------   ------------   ------------------------------
 STRT.F          600.0000:   START DEPTH
 STOP.F         3201.0000:   STOP DEPTH
 STEP.F            0.5000:   STEP LENGTH
 NULL.          -999.2500:   NO VALUE
 COMP.    FENIX & SCISSON:   COMPANY
 WELL. FENIX & SCISSON 38 "AX" #3-34:   WELL
 FLD .              NPR 3:   FIELD
 LOC .      S34 T39N R78W:   LOCATION
 CNTY.            NATRONA:   COUNTY
 STAT.            WYOMING:   STATE
 CTRY. UNITED STATES OF AMERICA:   COUNTRY
 SRVC.              WELEX:   SERVICE COMPANY
 DATE.        16-SEP-1980:   LOGDATE
 API .     49025108560000:   API NUMBER
~CURVE INFORMATION
#MNEM.UNIT       API CODE    CURVE DESCRIPTION
#----------   ------------   ------------------------------
 DEPT.F                  :   
 CORR.G/C3   45 356 01 00:   DENSITY CORRECTION
 GRD .GAPI   45 310 01 00:   GAMMA RAY FROM DENSITY LOG
 RHOB.G/C3   45 350 01 00:   BULK DENSITY
 TEND.LBS    45 635 01 00:   TENSION FORM DENSITY LOG
 CALD.IN     45 280 60 00:   CALIPER FROM DENSITY LOG
 SPR .MV     07 010 01 00:   SPONTANEOUS POTENTIAL FROM RES.
 ILD .OHMM   07 120 46 00:   DEEP INDUCTION RESISTIVITY
 ILM .OHMM   07 120 44 00:   INDUCTION LOG MEDIUM RESISTIVITY
 GURD.OHMM   07 220 05 00:   GUARD LOG RESISTIVITY
~PARAMETER INFORMATION
#MNEM.UNIT          VALUE    DESCRIPTION
#----------   ------------   ------------------------------
 EKB .F         5205.0000:   Kelly bushing
 EGL .F         5195.0000:   Ground level
 TD  .F         3202.0000:   Total depth
 CLNT.            A2DTECH:   Client Code
 SL  . 582' FSL & 1600' FWL:   Surface Location
 PD  .                 GL:   Permanent Datum
 EPD .F              5195:   Elevation Permanent Datum
 LMF .                 KB:   Log Measured From
 DMF .                 KB:   Drilling Measured From
 DAPD.F                10:   Feet Above Permanent Datum
 DATE.        16-SEP-1980:   Date Logged [DD-MMM-YYYY]
 DD  .F              3200:   Depth driller
 DL  .F              3203:   Depth logger
 BLI .F              3201:   Bottom log interval
 TLI .F               600:   Top log interval
 CS1 .IN            8.625:   Casing size
 CBD1.      8.625" @ 580':   Casing driller 1
 CBL1.F               600:   Casing logger 1
 BS1 .IN            7.875:   Bit size
 BSD1.F              3200:   Depth drilled with bit1
 DFT .          DISPERSED:   Type fluid in hole
 DFD .                8.8:   Density
 DFV .                 40:   Viscosity
 DFPH.                 11:   pH
 DFL .                  8:   Fluid loss
 MSS .           FLOWLINE:   Source of sample
 RMS .OHMM           1.33:   Rm
 MST .F                65:   Rm Meas. temp.
 RMF .OHMM           1.15:   Rmf
 MFST.F                65:   Rmf Meas. temp.
 MFSS.               MEAS:   Source Rmf.
 RMC .OHMM           1.50:   Rmc
 MCST.F                65:   Rmc Meas. temp.
 MCSS.               MEAS:   Source Rmc.
 RMB .OHMM            .75:   Rm. at BHT
 BHT .F               115:   BHT.
 TCS .HRS               8:   Time Circ. stopped
 MRT .F               115:   Maximum recorded temp.
 LUN .               1892:   Logging unit number
 LUL .             CASPER:   Logging unit location
 ENGI.    PERIMMER / REIN:   Recorded By
 WITN.              FIVAS:   Witnessed by
 ORIG.         2.5" PRINT:   Origin of data
 UWI .     49025108560000:   Unique Well ID
 DICO. A2D TECHNOLOGIES, INC.:   Digitizing Company
~OTHER INFORMATION
~A   DEPT       CORR       GRD        RHOB      TEND       CALD       SPR          ILD        ILM       GURD 
# ...
 2133.0000    -0.0301   132.3556     2.3731   481.9277     8.5153   -27.2982     6.1505     6.9992     8.7753
 2133.5000    -0.0301   132.8804     2.3615   481.9277     8.6646   -26.7120     6.3194     7.0922     8.7702
 2134.0000    -0.0272   130.5735     2.3599   481.9277     8.6341   -26.7289     6.4936     7.1865     8.6445
 2134.5000    -0.0272   127.2867     2.3614   481.9277     8.6233   -26.7455     6.5883     7.3835     8.6394
 2135.0000    -0.0231   125.4432     2.3644   481.9277     8.5734   -26.7620     6.8563     7.3781     8.6341
 2135.5000    -0.0213   123.0908     2.3719   481.9277     8.5595   -26.7786     6.9483     7.3730     8.6287
 2136.0000    -0.0153   121.5856     2.3857   481.9277     8.6323   -27.0988     6.9439     7.3679     8.7445
 2136.5000    -0.0063   121.8235     2.3996   481.9277     8.6466   -27.4155     7.0368     7.3619     8.7978
 2137.0000     0.0027   123.3727     2.4053   481.9277     8.4817   -27.4311     7.0324     7.3571     9.1022
 2137.5000     0.0117   123.3663     2.4120   481.9277     8.5112   -27.7485     7.0288     7.3523     9.2244
 2138.0000     0.0209   122.4590     2.4243   481.9277     8.5425   -27.8295     7.1231     7.3476     9.7435
 2138.5000     0.0272   121.5517     2.4470   481.9277     8.6349   -28.0828     7.1192     7.3425    10.1522
 2139.0000     0.0326   122.4728     2.4500   481.9277     8.6974   -28.4006     7.1152     7.3650    10.2865
 2139.5000     0.0368   122.2186     2.4499   481.9277     8.7191   -28.7215     7.0719     7.4762    10.0636
 2140.0000     0.0386   119.9397     2.4484   481.9277     8.6447   -28.7370     7.0096     7.5330     9.4811
 2140.5000     0.0385   117.5878     2.4499   481.9277     8.5813   -28.7526     7.0051     7.6328     8.8681
 2141.0000     0.0385   115.6862     2.4534   481.9277     8.5080   -28.7681     7.0014     7.6270     8.2202
 2141.5000     0.0384   113.7846     2.4559   494.9092     8.5076   -28.4825     6.8066     7.5172     8.2154
 2142.0000     0.0354   116.0981     2.4512   512.0482     8.5670   -28.5000     6.7039     7.2005     8.6783
 2142.5000     0.0320   115.6412     2.4372   481.9277     8.6864   -28.2124     6.6135     6.9862     9.1673
 2143.0000     0.0256   113.8330     2.4303   481.9277     8.5915   -28.0773     6.6098     6.8086     8.6462
 2143.5000     0.0232   112.4752     2.4333   481.9277     8.5058   -27.9473     6.6061     6.8471     8.4256
 2144.0000     0.0335   112.5106     2.4393   481.9277     8.4754   -27.6627     6.6018     6.8940     8.4204
 2144.5000     0.0399   113.4514     2.4438   481.9277     8.4336   -27.0768     6.5983     6.9847     8.6691
 2145.0000     0.0411   114.3919     2.4406   481.9277     8.4147   -26.4907     6.5949     7.0779     9.3945
 2145.5000     0.0381   114.0682     2.4327   481.9277     8.5040   -26.5075     6.6834     7.4758     8.6403
 2146.0000     0.0320   110.8438     2.4229   481.9277     8.6832   -26.5241     6.7836     7.8000     8.2792
 2146.5000     0.0288   104.7758     2.4134   481.9277     8.6229   -26.6681     6.9597     7.8914     8.8835
 2147.0000     0.0224   106.5712     2.4046   481.9277     8.5626   -26.8584     6.9554     7.4866     8.9910
 2147.5000     0.0198   112.4206     2.4136   481.9277     8.5322   -27.1787     6.8559     7.1018     8.2642
 2148.0000     0.0167   114.2160     2.4076   481.9277     8.5018   -27.1942     6.5727     6.6679     8.0337
 2148.5000     0.0167   114.1993     2.4000   481.9277     8.5013   -27.8122     6.4789     6.5719     8.7275
 2149.0000     0.0197   113.3018     2.3955   481.9277     8.5009   -28.1515     6.2986     6.4773     9.3478
 2149.5000     0.0196   113.2950     2.3940   481.9277     8.5423   -28.5087     6.2087     6.4730     9.0871
 2150.0000     0.0196   113.8887     2.3960   481.9277     8.5749   -28.8654     6.2197     6.5740     8.3576
 2150.5000     0.0195   116.1240     2.4012   481.9277     8.4995   -29.0828     6.4026     6.9188     8.0125
 2151.0000     0.0227   118.0586     2.4117   481.9277     8.4092   -29.1026     6.5908     7.4505     8.3231
 2151.5000     0.0260   122.7263     2.4142   481.9277     8.3789   -29.1181     6.8791     7.9600     9.2663
 2152.0000     0.0284   124.9722     2.4090   481.9277     8.5281   -29.1337     7.2099     8.5086     9.9879
 2152.5000     0.0314   123.1639     2.4074   481.9277     8.7073   -29.1492     7.6166     8.8638    10.6895
 2153.0000     0.0314   124.0584     2.4104   481.9277     8.6437   -29.1657     7.9356     9.4932    11.1364
 2153.5000     0.0313   126.3299     2.4149   481.9277     8.5504   -28.8791     8.0518     9.9014    11.4425
 2154.0000     0.0313   127.2703     2.4132   481.9277     8.4964   -28.8976     8.2885    10.1919    11.7570
 2154.5000     0.0312   127.7604     2.4071   481.9277     8.4960   -28.7647     8.4914    10.4394    11.9140
 2155.0000     0.0312   130.2625     2.4044   481.9277     8.5409   -28.6295     8.6622    10.5764    12.1226
 2155.5000     0.0278   133.4842     2.4059   481.9277     8.6447   -28.6479     8.9635    10.5678    12.4777
 2156.0000     0.0214   127.7437     2.4066   481.9277     8.6743   -28.0611     9.3389    10.8575    13.0225
 2156.5000     0.0180   117.2535     2.4118   481.9277     8.6139   -27.4672     9.4642    11.0018    12.9124
 2157.0000     0.0146   117.2470     2.4118   481.9277     8.5835   -27.1886     9.5912    10.9946    12.0414
 2157.5000     0.0112   114.0875     2.4058   481.9277     8.5531   -27.2063     9.7388    10.9656    11.5446
 2158.0000     0.0038   110.0270     2.3952   481.9277     8.5228   -27.3475     9.8504    10.7477    11.5635
 2158.5000     0.0007   109.5698     2.3755   481.9277     8.5659   -27.5407     9.8442    10.4666    12.5302
 2159.0000    -0.0053   110.1005     2.3671   481.9277     8.6614   -28.1622     9.8387    10.3733    11.9023
 2159.5000    -0.0054   111.4918     2.3591   512.0482     8.7310   -28.1777     9.8324    10.3650    10.8953
 2160.0000    -0.0050   112.2535     2.3639   512.0482     8.5030   -28.4945     9.8273    10.3583    11.0391
 2160.5000     0.0013   112.6959     2.3764   512.0482     8.4306   -28.5105     9.8222    10.3515    12.3254
 2161.0000     0.0087   113.1384     2.3807   512.0482     8.4302   -28.5853     9.8170    10.4891    13.2014
 2161.5000     0.0170   113.1320     2.3756   512.0482     8.3699   -28.8449     9.8115    10.4816    14.3370
 2162.0000     0.0185   110.4228     2.3786   512.0482     8.3659   -28.8614     9.7620    10.4274    13.5116
 2162.5000     0.0154   103.2092     2.3921   512.0482     8.6696   -28.8813     9.5689    10.2580    12.9961
 2163.0000     0.0154   105.0230     2.4015   512.0482     8.4797   -28.5934     9.5266    10.1727    12.8093
 2163.5000     0.0153   106.4047     2.4205   512.0482     8.4280   -28.6112     9.5217    10.0263    12.7116
 2164.0000     0.0185   108.4508     2.4282   495.0489     8.4275   -28.6267     9.3858    10.0198    10.9843
 2164.5000     0.0283   110.6869     2.4236   481.9277     8.5572   -28.6431     9.3809    10.0133    10.8269
 2165.0000     0.0371   111.9294     2.4252   481.9277     8.4536   -28.5892     9.3758    10.0227    12.0885
 2165.5000     0.0405   113.0788     2.4386   481.9277     8.3962   -28.3722     9.3706    10.1398    12.7696
 2166.0000     0.0438   113.9718     2.4476   481.9277     8.3958   -27.9418     9.3654    10.1319    12.7334
 2166.5000     0.0422   113.9654     2.4356   481.9277     8.4852   -27.2062     9.3602    10.1972    12.3556
 2167.0000     0.0301   113.5085     2.4115   481.9277     8.5446   -26.9206     9.3542    10.2590    11.0596
 2167.5000     0.0210   111.7003     2.4008   481.9277     8.6041   -26.6340     9.3493    10.2512    10.5583
 2168.0000     0.0149   108.0903     2.3947   481.9277     8.4790   -26.6506     9.3444    10.2445    10.4850
 2168.5000     0.0116   111.5180     2.3958   481.9277     8.4235   -26.6672     9.3395    10.2377    11.8700
 2169.0000     0.0088   114.9503     2.4000   481.9277     8.4231   -26.9849     9.3343    10.2306    13.6253
