~VERSION INFORMATION
 VERS.                2.0:   CWLS LOG ASCII STANDARD - VERSION 2.0
 WRAP.                 NO:   ONE LINE PER DEPTH STEP
~WELL INFORMATION
#MNEM.UNIT      DATA TYPE    INFORMATION
#----------   ------------   ------------------------------
 STRT.F          200.5000:   START DEPTH
 STOP.F         3164.0000:   STOP DEPTH
 STEP.F            0.5000:   STEP LENGTH
 NULL.          -999.2500:   NO VALUE
 COMP. FENIX & SCISSON U.S NAVY:   COMPANY
 WELL. FENIX & SCISSON "A" #83-4:   WELL
 FLD .              NPR-3:   FIELD
 LOC .       S4 T38N R78W:   LOCATION
 CNTY.            NATRONA:   COUNTY
 STAT.            WYOMING:   STATE
 CTRY. UNITED STATES OF AMERICA:   COUNTRY
 SRVC.       SCHLUMBERGER:   SERVICE COMPANY
 DATE.        25-MAY-1977:   LOGDATE
 API .     49025103660000:   API NUMBER
~CURVE INFORMATION
#MNEM.UNIT       API CODE    CURVE DESCRIPTION
#----------   ------------   ------------------------------
 DEPT.F                  :   
 CALD.IN     45 280 60 00:   CALIPER FROM DENSITY LOG
 GRD .GAPI   45 310 01 00:   GAMMA RAY FROM DENSITY LOG
 RHOB.G/C3   45 350 01 00:   BULK DENSITY
 CORR.G/C3   45 356 01 00:   DENSITY CORRECTION
 SPR .MV     07 010 01 00:   SPONTANEOUS POTENTIAL
 SFLU.OHMM   07 220 01 00:   SPHERICALLY FOCUSED LOG UNAVERAGED RESISTIVITY
 ILD .OHMM   07 120 46 00:   DEEP INDUCTION RESISTIVITY
 ILM .OHMM   07 120 44 00:   INDUCTION LOG MEDIUM RESISTIVITY
~PARAMETER INFORMATION
#MNEM.UNIT          VALUE    DESCRIPTION
#----------   ------------   ------------------------------
 EKB .F         5163.0000:   Kelly bushing
 EGL .F         5149.0000:   Ground level
 EDF .F            0.0000:   Drilling floor
 EPD .F            0.0000:   Permanent datum
 TD  .F         3173.0000:   Total depth
 DATE.        25-MAY-1977:   Date logged
 CLNT.            A2DTECH:   Client Code
 SL  . 1650' FNL & 330 ' FEL:   Surface Location
 PD  .                 GL:   Permanent Datum
 DAPD.F                14:   Feet Above Permanent Datum
 DD  .F              3173:   Depth driller
 DL  .F              3157:   Depth logger
 BLI .F              3165:   Bottom log interval
 TLI .F               200:   Top log interval
 CS1 .IN            8.625:   Casing size
 CBD1.      8.625" @ 204':   Casing driller 1
 CBL1.F               220:   Casing logger 1
 BS1 .IN            7.875:   Bit size
 BSD1.F              3173:   Depth drilled with bit1
 DFT .            KCL MUD:   Type fluid in hole
 DFD .                8.8:   Density
 DFV .                 37:   Viscosity
 DFPH.                7.5:   pH
 DFL .                4.4:   Fluid loss
 MSS .           FLOWLINE:   Source of sample
 RMS .OHMM            .39:   Rm
 MST .F                79:   Rm Meas. temp.
 RMF .OHMM            .31:   Rmf
 MFST.F                79:   Rmf Meas. temp.
 RMC .OHMM            .63:   Rmc
 MCST.F                79:   Rmc Meas. temp.
 MFSS.           FANN KIT:   Source Rmf.
 MCSS.           FANN KIT:   Source Rmc.
 RMB .OHMM            .27:   Rm. at BHT
 BHT .F               112:   BHT.
 TCS .HRS             2.5:   Time Circ. stopped
 MRT .F               112:   Maximum recorded temp.
 LUN .               8611:   Logging unit number
 LUL .             CASPER:   Logging unit location
 ENGI.            C. DOAK:   Recorded By
 WITN.      B. HARRINGTON:   Witnessed by
 ORIG.       2.5"5" PRINT:   Origin of data
 UWI .     49025103660000:   Unique Well ID
 DICO. A2D TECHNOLOGIES, INC.:   Digitizing Company
~OTHER INFORMATION
~A   DEPT     CALD        GRD         RHOB     CORR        SPR       SFLU        ILD        ILM   
# ...
 1172.5000     8.5400   114.2813     2.5098     0.0255   -36.7225    12.5179     9.8562     7.6494
 1173.0000     8.5400   114.2813     2.5000     0.0255   -36.7263    12.0685     9.6779     7.6483
 1173.5000     8.5400   114.2813     2.4902     0.0216   -36.7288    12.0673     9.5033     7.6475
 1174.0000     8.5400   115.8438     2.4863     0.0216   -36.7326    11.8478     9.1639     7.5092
 1174.5000     8.5400   116.6250     2.4981     0.0176   -36.7351    11.8465     8.8372     7.1129
 1175.0000     8.5791   116.6250     2.5040     0.0176   -36.7388    11.6311     8.8354     7.1118
 1175.5000     8.5400   117.4062     2.5079     0.0216   -36.7414    11.8434     8.8349     6.9835
 1176.0000     8.5791   118.1875     2.5138     0.0216   -36.7452    11.6280     8.6751     6.8572
 1176.5000     8.5791   120.5312     2.5059     0.0216   -36.7477    11.6268     8.6742     6.9818
 1177.0000     8.5400   120.5312     2.4961     0.0177   -36.7514    11.6250     8.5173     6.8555
 1177.5000     8.5791   118.9688     2.4863     0.0176   -36.7540    11.6238     8.2136     6.8548
 1178.0000     8.6181   117.4062     2.4844     0.0098   -36.7577    11.4124     8.5155     6.8538
 1178.5000     8.6181   117.4062     2.4765     0.0098   -36.7602    11.2054     8.0642     6.8531
 1179.0000     8.6181   117.4062     2.4745     0.0098   -36.7640    11.2036     8.0630     6.7291
 1179.5000     8.6572   117.4062     2.4687     0.0020   -36.7665    11.4082     8.0621     6.7285
 1180.0000     8.6181   117.4062     2.4667     0.0020   -36.7703    11.4064     8.0609     6.8503
 1180.5000     8.6572   114.2812     2.4706    -0.0019   -36.7740    11.4052     8.0601     6.7268
 1181.0000     8.6962   113.5000     2.4706    -0.0019   -36.7766    11.6129     8.0589     6.7258
 1181.5000     8.6962   112.7187     2.4745     0.0020   -36.7803    11.6111     8.0581     6.7251
 1182.0000     8.7744   112.7187     2.4783     0.0020   -36.7828    11.4005     7.9123     6.7241
 1182.5000     8.6572   114.2812     2.4822     0.0138   -36.7866    11.1932     7.9115     6.7234
 1183.0000     8.6962   115.8437     2.4942     0.0138   -36.7891    10.9902     7.9103     6.7224
 1183.5000     8.6962   116.6250     2.4942     0.0216   -36.7929    11.3957     7.9095     6.7218
 1184.0000     8.6572   117.4062     2.4981     0.0216   -36.7954    11.1891     7.9083     6.7207
 1184.5000     8.6181   116.6250     2.5020     0.0256   -36.7991    10.9856     7.9075     6.7201
 1185.0000     8.6572   116.6250     2.5098     0.0256   -36.8017    11.3916     8.1978     6.8418
 1185.5000     8.6181   116.6250     2.5059     0.0256   -36.8055    11.3898     8.1966     6.7184
 1186.0000     8.6572   117.4063     2.5059     0.0256   -36.8080    11.3886     8.1957     6.8401
 1186.5000     8.6572   116.6250     2.4981     0.0177   -36.8117    11.5959     8.1945     6.8394
 1187.0000     8.6572   116.6250     2.4961     0.0177   -36.8143    11.3857     8.1936     6.8384
 1187.5000     8.5791   115.8438     2.4883     0.0137   -36.8180    11.3839     8.8071     7.0894
 1188.0000     8.6181   115.8438     2.4883     0.0137   -36.8205    11.5917     8.8066     6.9616
 1188.5000     8.6181   115.0625     2.4883     0.0137   -36.8243    12.0194     8.8053     6.9605
 1189.0000     8.6181   116.6250     2.4883     0.0137   -36.8268    12.0182     8.8044     7.0869
 1189.5000     8.6181   117.4063     2.4883     0.0020   -36.8306    11.5869     8.8030     7.0859
 1190.0000     8.5791   117.4063     2.4883     0.0138   -36.8331    11.1716     8.8021     7.0852
 1190.5000     8.5791   117.4063     2.5059     0.0138   -36.8368    12.0131     8.8008     7.0841
 1191.0000     8.5791   117.4063     2.4942     0.0177   -36.8393    12.0119     8.7999     7.0834
 1191.5000     8.5791   115.8438     2.4883     0.0138   -36.8431    12.2305     8.7986     7.0823
 1192.0000     8.5791   113.5000     2.4902     0.0216   -36.8456    12.2292     8.4845     7.3427
 1192.5000     8.5400   112.7188     2.4981     0.0216   -36.8494    11.3691     8.3315     6.9536
 1193.0000     8.5400   112.7188     2.4981     0.0256   -36.8519    10.9617     8.3306     6.8282
 1193.5000     8.5400   113.5000     2.4981     0.0295   -36.8556    11.1606     8.3294     6.8271
 1194.0000     8.5400   113.5000     2.4981     0.0256   -36.8581    11.7861     8.3285     6.8265
 1194.5000     8.5400   111.9375     2.4981     0.0256   -36.8619    11.5718     8.3273     6.8254
 1195.0000     8.5400   111.9375     2.4961     0.0216   -36.8644    11.5706     8.3264     6.8248
 1195.5000     8.5400   111.9375     2.5020     0.0216   -36.8682    11.5688     8.1758     6.8237
 1196.0000     8.5400   111.9375     2.5020     0.0256   -36.8707    11.5676     8.1750     6.8231
 1196.5000     8.5791   111.9375     2.4942     0.0216   -36.8744    11.5657     8.1742     6.8220
 1197.0000     8.5791   112.7188     2.4844     0.0177   -36.8770    11.5645     8.1730     6.8214
 1197.5000     8.6181   111.9375     2.4765     0.0176   -36.8807    11.5627     8.1717     6.8203
 1198.0000     8.5400   111.9375     2.4687     0.0146   -36.1105    11.5615     8.1709     6.8197
 1198.5000     8.5400   112.7188     2.4569     0.0137   -36.8870    11.1467     8.1696     6.8186
 1199.0000     8.5791   112.7188     2.4569     0.0098   -36.8895    11.1455     8.1688     6.8180
 1199.5000     8.5791   111.9375     2.4569     0.0020   -36.8932    11.3484     8.1676     6.8169
 1200.0000     8.6181   111.9375     2.4608     0.0098   -37.2834    11.3472     8.1668     6.8163
 1200.5000     8.6181   112.5903     2.4781     0.0098   -36.9764    11.1811     8.1660     6.8152
 1201.0000     8.6188   113.5156     2.4785     0.0098   -36.8981    11.1412     8.1657     6.8154
 1201.5000     8.6583   112.5219     2.4824     0.0138   -36.8990    10.9397     8.1652     6.6927
 1202.0000     8.6587   114.0938     2.4824     0.0177   -36.8996    10.9392     8.1648     6.6924
 1202.5000     8.6981   115.6625     2.4824     0.0178   -36.9004    10.9385     8.1643     6.6919
 1203.0000     8.6986   116.4531     2.4824     0.0178   -36.9010    10.9381     8.1639     6.6916
 1203.5000     8.6989   113.5531     2.4825     0.0179   -37.2895    10.9374     8.0170     6.6912
 1204.0000     8.6994   112.7813     2.4805     0.0218   -36.9025    10.9370     8.0166     6.6909
 1204.5000     8.7387   113.5687     2.4766     0.0218   -37.2910    10.9363     8.0161     6.6904
 1205.0000     8.7783   114.3594     2.4688     0.0179   -36.9039    10.5451     8.0158     6.6900
 1205.5000     8.7786   116.7094     2.4668     0.0179   -36.9048    10.5444     8.0153     6.6898
 1206.0000     8.7791   116.7188     2.4668     0.0179   -36.9054    10.5440     7.8712     6.5694
 1206.5000     8.7794   117.5062     2.4609     0.0140   -37.2940    10.3533     7.3210     6.4512
 1207.0000     8.8580   118.2969     2.4708     0.0141   -36.9069    10.5429     7.3207     6.2215
 1207.5000     8.8583   119.0844     2.4767     0.0141   -37.2954    10.3522     7.3202     6.2211
 1208.0000     8.8978   118.3125     2.4884     0.0102   -36.9083    10.3517     7.3199     6.2208
 1208.5000     8.8981   117.5375     2.4963     0.0220   -36.9092    10.3511     7.3194     6.2204
 1209.0000     8.8986   116.7656     2.5022     0.0220   -36.9098    10.3507     7.3191     6.2201
 1209.5000     8.8989   115.2094     2.5061     0.0259   -36.9106    10.1634     7.3186     6.1081
 1210.0000     8.9384   114.4375     2.5179     0.0299   -36.9112    10.1630     7.3183     6.1079
 1210.5000     8.9388   114.4437     2.5257     0.0299   -36.9121    10.1623     7.3178     6.1074
 1211.0000     8.9392   114.4531     2.5277     0.0338   -36.9127    10.1619     7.3175     6.1072
 1211.5000     9.0177   113.6781     2.5218     0.0339   -36.9136    10.1613     7.3170     6.1068
 1212.0000     8.9791   112.9063     2.5101     0.0377   -36.9141    10.1609     7.3167     6.1065
 1212.5000     8.9794   113.6937     2.5022     0.0377   -36.9150    10.3468     7.3162     6.2176
