~VERSION INFORMATION
 VERS.                2.0:   CWLS LOG ASCII STANDARD - VERSION 2.0
 WRAP.                 NO:   ONE LINE PER DEPTH STEP
~WELL INFORMATION
#MNEM.UNIT      DATA TYPE    INFORMATION
#----------   ------------   ------------------------------
 STRT.F          218.0000:   START DEPTH
 STOP.F         3062.0000:   STOP DEPTH
 STEP.F            0.5000:   STEP LENGTH
 NULL.          -999.2500:   NO VALUE
 COMP.    FEXIN & SCISSON:   COMPANY
 WELL. FEXIN 32 "A" #3-34:   WELL
 FLD .              N P R:   FIELD
 LOC .      S34 T39N R78W:   LOCATION
 CNTY.            NATRONA:   COUNTY
 STAT.            WYOMING:   STATE
 CTRY. UNITED STATES OF AMERICA:   COUNTRY
 SRVC.              WELEX:   SERVICE COMPANY
 DATE.        18-JUL-1977:   LOGDATE
 API .     49025103960000:   API NUMBER
~CURVE INFORMATION
#MNEM.UNIT       API CODE    CURVE DESCRIPTION
#----------   ------------   ------------------------------
 DEPT.F                  :   
 CALD.IN     45 280 60 00:   CALIPER FROM DENSITY LOG
 RHOB.G/C3   45 350 01 00:   BULK DENSITY
 GRD .GAPI   45 310 01 00:   GAMMA RAY FROM DENSITY LOG
 CORR.G/C3   45 356 01 00:   DENSITY CORRECTION
 SPR .MV     07 010 01 00:   SPONTANEOUS POTENTIAL
 SGRD.OHMM   07 220 05 00:   SHALLOW SHORT GUARD RESISTIVITY
 ILM .OHMM   07 120 44 00:   INDUCTION LOG MEDIUM RESISTIVITY
 ILD .OHMM   07 120 46 00:   DEEP INDUCTION RESISTIVITY
~PARAMETER INFORMATION
#MNEM.UNIT          VALUE    DESCRIPTION
#----------   ------------   ------------------------------
 EKB .F         5080.0000:   Kelly bushing
 EGL .F         5070.0000:   Ground level
 TD  .F         3070.0000:   Total depth
 DATE.        18-JUL-1977:   Date logged
 CLNT.            A2DTECH:   Client Code
 SL  . 900' FNL & 1650'FWL:   Surface Location
 PD  .                 GL:   Permanent Datum
 DD  .F              3070:   Depth driller
 DL  .F              3063:   Depth logger
 BLI .F              3061:   Bottom log interval
 CS1 .IN            8.625:   Casing size
 CBD1.      8.625" @ 212':   Casing driller 1
 CBL1.F               222:   Casing logger 1
 BS1 .IN            7.875:   Bit size
 DFT .           CEHM-GEL:   Type fluid in hole
 DFD .                8.8:   Density
 DFV .                 42:   Viscosity
 DFPH.                7.5:   pH
 DFL .                  8:   Fluid loss
 MSS .           FLOWLINE:   Source of sample
 RMS .OHMM            .89:   Rm
 MST .F                94:   Rm Meas. temp.
 RMF .OHMM            .54:   Rmf
 MFST.F                94:   Rmf Meas. temp.
 RMC .OHMM           1.24:   Rmc
 MCST.F                94:   Rmc Meas. temp.
 MFSS.               FANN:   Source Rmf.
 RMB .OHMM            .67:   Rm. at BHT
 BHT .F               122:   BHT.
 TCS .HRS               4:   Time Circ. stopped
 MRT .F               122:   Maximum recorded temp.
 LUN .               8611:   Logging unit number
 LUL .             CASPER:   Logging unit location
 ENGI.          C.A. DOAK:   Recorded By
 WITN.         PETTINGILL:   Witnessed by
 ORIG.           5" PRINT:   Origin of data
 UWI .     49025103960000:   Unique Well ID
 DICO. A2D TECHNOLOGIES, INC.:   Digitizing Company
 DAPD.                 12:   Feet Above Permanent Datum
 BSD1.F              3950:   Depth drilled with bit1
 MCSS.                KIT:   Source Rmc.
 EPD .F              5070:   Elevation Permanent Datum
 LMF .                 KB:   Log Measured From
 DMF .                 KB:   Drilling Measured From
 TLI .F               200:   Top log interval
~OTHER INFORMATION
~A   DEPT     CALD       RHOB        GRD       CORR        SPR       SGRD        ILM        ILD   
# ...
 1716.5000     8.3160     2.5440   106.7160     0.0220   -69.2090    39.2190    30.2660    27.7070
 1717.0000     8.3160     2.5430   105.9010     0.0190   -69.2300    40.0900    30.5150    27.8270
 1717.5000     8.3170     2.5380   107.4380     0.0150   -69.2500    40.5790    30.7840    27.9460
 1718.0000     8.3180     2.5330   110.0650     0.0110   -69.2700    40.5790    31.0640    28.0660
 1718.5000     8.3180     2.5280   112.6930     0.0080   -69.2900    40.5790    31.3440    28.1850
 1719.0000     8.3190     2.5230   115.3110     0.0060   -69.3090    41.2410    31.6250    28.3050
 1719.5000     8.3190     2.5170   117.9140     0.0040   -69.3290    42.0220    31.9050    28.4250
 1720.0000     8.3200     2.5180   119.3530     0.0050   -69.3490    43.8570    32.1860    28.5440
 1720.5000     8.3200     2.5280   117.1710     0.0050   -69.3690    45.6370    32.4660    28.6640
 1721.0000     8.3210     2.5310   115.4240     0.0060   -69.3890    45.7250    32.5600    28.7830
 1721.5000     8.3210     2.5280   113.6800     0.0070   -69.4090    45.8130    32.5260    28.9660
 1722.0000     8.3220     2.5240   112.6370     0.0080   -69.4290    45.9290    32.4020    28.9260
 1722.5000     8.3230     2.5290   112.6750     0.0090   -69.4490    45.0730    32.2780    28.8430
 1723.0000     8.3230     2.5330   112.5210     0.0100   -69.4690    43.2820    32.1540    28.7670
 1723.5000     8.3240     2.5320   113.2590     0.0110   -69.4890    41.4920    31.8200    28.1890
 1724.0000     8.3240     2.5280   113.9790     0.0120   -69.5090    40.5790    31.2120    27.6560
 1724.5000     8.3250     2.5340   114.6970     0.0130   -69.5290    40.6570    30.6050    27.1220
 1725.0000     8.3250     2.5390   114.5430     0.0150   -69.5490    40.8140    29.9980    26.5890
 1725.5000     8.3260     2.5430   112.1790     0.0170   -69.5690    40.9710    29.3900    26.0560
 1726.0000     8.3260     2.5410   109.8330     0.0190   -69.5880    41.1290    28.7830    25.5220
 1726.5000     8.3270     2.5390   107.4980     0.0200   -69.5940    41.2860    28.1760    24.9890
 1727.0000     8.3270     2.5410   104.8380     0.0200   -69.5440    41.4250    27.5680    24.4550
 1727.5000     8.3280     2.5470   106.5250     0.0190   -69.4950    40.1450    26.9610    23.9220
 1728.0000     8.3280     2.5530   109.4410     0.0190   -69.4450    32.4580    26.1260    23.3880
 1728.5000     8.3290     2.5510   112.3750     0.0190   -69.3960    22.4560    26.9090    23.0820
 1729.0000     8.3300     2.5470   113.3940     0.0190   -69.3470    26.1260    27.9890    23.6960
 1729.5000     8.3300     2.5440   110.2090     0.0190   -69.2970    38.5320    29.0690    24.7020
 1730.0000     8.3310     2.5550   109.3030     0.0180   -69.2480    51.2740    30.1490    25.7690
 1730.5000     8.3310     2.5540   111.8020     0.0180   -69.1990    49.1600    31.2290    26.8010
 1731.0000     8.3320     2.5520   113.8140     0.0180   -69.1490    47.5360    32.3100    27.9000
 1731.5000     8.3320     2.5500   113.8130     0.0180   -69.1000    47.8300    33.4680    28.9980
 1732.0000     8.3330     2.5570   112.7660     0.0170   -69.0510    47.2050    34.1660    30.0960
 1732.5000     8.3330     2.5590   111.7170     0.0170   -69.0020    44.9910    34.4970    31.1950
 1733.0000     8.3340     2.5480   110.7690     0.0170   -68.9520    45.3010    34.6940    31.8950
 1733.5000     8.3340     2.5380   111.8760     0.0170   -68.9030    47.0250    34.7910    31.8790
 1734.0000     8.3350     2.5270   113.3640     0.0160   -68.8540    48.8630    34.8870    31.8370
 1734.5000     8.3350     2.5160   114.8360     0.0160   -68.8040    48.7910    34.9840    31.7950
 1735.0000     8.3360     2.5060   116.3140     0.0160   -68.7550    48.6660    35.0810    31.7530
 1735.5000     8.3370     2.4950   117.7990     0.0140   -68.7060    48.5400    35.1770    31.7100
 1736.0000     8.3370     2.4850   119.2660     0.0100   -68.6560    48.4150    35.2740    31.6680
 1736.5000     8.3390     2.4810   118.6120     0.0050   -68.5940    48.2900    35.3700    31.6260
 1737.0000     8.3410     2.4960   116.4670     0.0010   -68.4460    48.1650    35.4670    31.5840
 1737.5000     8.3430     2.5230   114.3460     0.0000   -68.2980    48.0390    35.5640    31.5420
 1738.0000     8.3450     2.5510   113.0510     0.0100   -68.1510    47.9140    35.6600    31.5000
 1738.5000     8.3470     2.5780   116.2020     0.0200   -68.0030    47.2150    35.7570    31.4570
 1739.0000     8.3490     2.5940   119.5630     0.0300   -67.8560    46.1430    35.8520    31.4150
 1739.5000     8.3520     2.5880   120.1050     0.0330   -67.7080    45.3010    35.9790    31.3730
 1740.0000     8.3540     2.5810   117.9420     0.0330   -67.5610    45.4600    36.1350    31.3310
 1740.5000     8.3560     2.5740   115.6230     0.0270   -67.4130    45.5910    36.3300    31.2890
 1741.0000     8.3550     2.5670   113.3100     0.0220   -67.2660    47.3270    36.0950    31.2460
 1741.5000     8.3520     2.5600   111.7720     0.0170   -67.1210    49.5630    35.6880    31.2040
 1742.0000     8.3490     2.5520   113.1070     0.0110   -67.0960    51.2740    35.2810    31.1620
 1742.5000     8.3450     2.5470   114.8180     0.0080   -67.2650    49.2570    34.8750    31.1190
 1743.0000     8.3420     2.5470   116.5430     0.0080   -67.4180    47.3110    34.4680    31.0780
 1743.5000     8.3390     2.5460   118.2780     0.0110   -67.3010    45.3650    34.0610    31.0350
 1744.0000     8.3360     2.5490   120.0390     0.0140   -67.1750    44.4920    33.6550    30.7800
 1744.5000     8.3320     2.5530   121.6920     0.0180   -67.0500    44.0700    33.2480    30.4870
 1745.0000     8.3290     2.5550   119.4020     0.0220   -66.9260    43.6480    32.8410    30.1940
 1745.5000     8.3260     2.5450   116.2350     0.0220   -66.8010    43.2270    32.6170    29.9010
 1746.0000     8.3220     2.5300   113.3540     0.0220   -66.6770    42.8050    32.4220    29.6080
 1746.5000     8.3190     2.5140   113.2140     0.0200   -66.5520    42.5810    32.2260    29.3440
 1747.0000     8.3180     2.5080   114.7120     0.0150   -66.4360    44.0450    32.0310    29.0850
 1747.5000     8.3180     2.5120   115.4210     0.0100   -66.3950    45.3010    31.8360    28.8250
 1748.0000     8.3180     2.5160   112.1540     0.0130   -66.3570    45.3010    31.6410    28.5650
 1748.5000     8.3180     2.5150   108.7930     0.0140   -66.3180    42.4000    31.4460    28.3050
 1749.0000     8.3180     2.5090   107.7550     0.0120   -66.2800    39.3130    31.2510    28.0460
 1749.5000     8.3180     2.5040   109.0650     0.0100   -66.2420    39.8720    31.0550    27.7860
 1750.0000     8.3180     2.5150   110.8000     0.0120   -66.2040    40.6170    30.8600    27.4820
 1750.5000     8.3180     2.5300   112.5450     0.0180   -66.1650    41.1410    30.6650    27.0730
 1751.0000     8.3180     2.5250   114.2950     0.0240   -66.1270    40.5340    30.3450    26.6650
 1751.5000     8.3180     2.5190   116.0900     0.0220   -66.0890    39.6570    29.9700    26.2560
 1752.0000     8.3200     2.5150   115.5010     0.0200   -66.0510    38.7800    29.7740    26.1260
 1752.5000     8.3260     2.5210   114.1720     0.0220   -66.0120    37.8810    29.5890    26.1260
 1753.0000     8.3310     2.5270   112.8380     0.0250   -65.9740    38.4060    29.3140    26.1260
 1753.5000     8.3370     2.5340   111.5120     0.0270   -65.9360    40.0250    29.1280    26.1260
 1754.0000     8.3420     2.5400   112.6030     0.0320   -65.8980    41.4250    29.0450    26.1260
 1754.5000     8.3480     2.5450   113.8800     0.0290   -65.8590    39.0240    28.9660    26.1260
 1755.0000     8.3530     2.5350   115.1530     0.0260   -65.8210    34.9840    29.1060    26.1260
 1755.5000     8.3590     2.5210   116.4190     0.0280   -65.7830    31.8950    29.1660    26.5010
 1756.0000     8.3640     2.5240   117.6920     0.0310   -65.7450    45.9290    30.5220    27.0890
 1756.5000     8.3700     2.5240   116.3250     0.0320   -65.7060    46.8870    31.6760    27.6770
