~VERSION INFORMATION
 VERS.                2.0:   CWLS LOG ASCII STANDARD - VERSION 2.0
 WRAP.                 NO:   ONE LINE PER DEPTH STEP
~WELL INFORMATION
#MNEM.UNIT      DATA TYPE    INFORMATION
#----------   ------------   ------------------------------
 STRT.F            0.0000:   START DEPTH
 STOP.F         3205.0000:   STOP DEPTH
 STEP.F            0.5000:   STEP LENGTH
 NULL.          -999.2500:   NO VALUE
 COMP. LAWRENCE-ALLISON AND ASSOCIATES:   COMPANY
 WELL. LAWRENCE "X" #64-28:   WELL
 FLD .          N.P.R. #3:   FIELD
 LOC .      S28 T39N R78W:   LOCATION
 CNTY.            NATRONA:   COUNTY
 STAT.            WYOMING:   STATE
 CTRY. UNITED STATES OF AMERICA:   COUNTRY
 SRVC.      DRESSER ATLAS:   SERVICE COMPANY
 DATE.        25-MAY-1986:   LOGDATE
 API .     49025110730000:   API NUMBER
~CURVE INFORMATION
#MNEM.UNIT       API CODE    CURVE DESCRIPTION
#----------   ------------   ------------------------------
 DEPT.F                  :   
 GRR .GAPI   07 310 01 00:   GAMMA RAY FROM RESISTIVITY
 SPR .MV     07 010 01 00:   SPONTANEOUS POTENTIAL
 RILD.OHMM   07 120 46 00:   DEEP INDUCTION RESISTIVITY
 RILM.OHMM   07 120 44 00:   INDUCTION LOG MEDIUM RESISTIVITY
 RSFL.OHMM   07 221 01 00:   AMPPLIFIED SHALLOW FOCUSED LOG RESISTIVITY
 TENR.LBS    07 635 01 00:   TENSION FROM RESISTIVITY
 CNC .DEC    42 890 03 00:   NEUTRON POROSITY SANDSTONE
 CALD.IN     45 280 60 00:   CALIPER FROM DENSITY LOG
 DEN .G/C3   45 350 01 00:   BULK DENSITY
 CORR.G/C3   45 356 01 00:   DENSITY CORRECTION
 TEND.LBS    45 635 01 00:   TENSION FROM DENSITY LOG
~PARAMETER INFORMATION
#MNEM.UNIT          VALUE    DESCRIPTION
#----------   ------------   ------------------------------
 EKB .F         5070.0000:   Kelly bushing
 EGL .F         5058.0000:   Ground level
 TD  .F         3205.0000:   Total depth
 DATE.        25-MAY-1986:   Date logged
 CLNT.            A2DTECH:   Client Code
 SL  . 2248' FNL & 1636' FEL:   Surface Location
 PD  .                 GL:   Permanent Datum
 EPD .F              5058:   Elevation Permanent Datum
 LMF .                 KB:   Log Measured From
 DMF .                 KB:   Drilling Measured From
 DAPD.F                12:   Feet Above Permanent Datum
 DD  .F              3205:   Depth driller
 DL  .F              3203:   Depth logger
 BLI .F              3201:   Bottom log interval
 CS1 .IN            8.625:   Casing size
 CBD1.      8.625" @ 476':   Casing driller 1
 CBL1.F               478:   Casing logger 1
 BS1 .IN            7.875:   Bit size
 BSD1.F              3205:   Depth drilled with bit1
 DFT .        POLYMER-KCL:   Type fluid in hole
 DFD .                  9:   Density
 DFV .                 37:   Viscosity
 DFPH.                8.5:   pH
 DFL .                 10:   Fluid loss
 MSS .           FLOWLINE:   Source of sample
 RMS .OHMM           0.31:   Rm
 MST .F                69:   Rm Meas. temp.
 RMF .OHMM           0.25:   Rmf
 MFST.F                69:   Rmf Meas. temp.
 RMC .OHMM           0.39:   Rmc
 MCST.F                69:   Rmc Meas. temp.
 MFSS.               MEAS:   Source Rmf.
 MCSS.               CALC:   Source Rmc.
 RMB .OHMM           0.19:   Rm. at BHT
 BHT .F               115:   BHT.
 TCS .HRS               4:   Time Circ. stopped
 MRT .F               115:   Maximum recorded temp.
 LUN .            HL-6274:   Logging unit number
 LUL .           GILLETTE:   Logging unit location
 ENGI.             RAUTIO:   Recorded By
 WITN.             STRONG:   Witnessed by
 ORIG.           5" PRINT:   Origin of data
 UWI .     49025110730000:   Unique Well ID
 DICO. A2D TECHNOLOGIES, INC.:   Digitizing Company
~OTHER INFORMATION
~A    DEPT     GRR        SPR       RILD       RILM       RSFL       TENR        CNC       CALD        DEN       CORR       TEND   
# ...
 2623.0000    86.6110   -42.3390     8.7690     8.0140    10.3030    31.5480     0.2350    10.4070     2.5370     0.0520   -56.1320
 2623.5000    88.8750   -43.0470     8.5370     7.6940     9.5430    29.6810     0.2410    10.4260     2.5290     0.0550   -53.4270
 2624.0000    88.7320   -43.6270     7.8600     7.6100     9.6430    27.8150     0.2410    10.4300     2.5270     0.0600   -56.6180
 2624.5000    89.5550   -44.2990     7.3100     7.5260     9.7470    25.9480     0.2440    10.4040     2.5250     0.0640   -59.6180
 2625.0000    89.9670   -44.8410     7.1770     7.4420     9.7870    24.4510     0.2510    10.4070     2.5220     0.0690   -62.6190
 2625.5000    88.8350   -45.4810     7.3440     7.3580     9.7200    31.6970     0.2530    10.4160     2.5190     0.0720   -65.6190
 2626.0000    88.2960   -45.9800     7.6200     7.2750     9.6000    37.7450     0.2500    10.4260     2.5230     0.0730   -68.6200
 2626.5000    89.1240   -46.0720     7.7240     7.1770     9.4530    43.7920     0.2430    10.4360     2.5250     0.0730   -71.6200
 2627.0000    89.3840   -46.1310     7.7240     7.2210     9.2830    49.8400     0.2460    10.4210     2.5220     0.0650   -74.8420
 2627.5000    89.5470   -46.1910     7.7240     7.2740     9.4200    54.3910     0.2520    10.3940     2.5160     0.0510   -78.4850
 2628.0000    88.9510   -46.0900     7.7240     7.3280     9.5830    40.4190     0.2550    10.3670     2.5080     0.0360   -82.1280
 2628.5000    86.1290   -45.9980     7.7240     7.3770     9.7450    29.2190     0.2550    10.3390     2.5000     0.0280   -80.7260
 2629.0000    85.0310   -45.9150     7.6660     7.3230     9.9080    18.0200     0.2540    10.3120     2.4940     0.0320   -75.6250
 2629.5000    86.0360   -45.8230     7.6110     7.2620     9.8100    17.6740     0.2610    10.2990     2.4940     0.0360   -70.5240
 2630.0000    89.5000   -45.8480     7.5250     7.2000     9.2170    22.3620     0.2660    10.3410     2.5000     0.0460   -65.4230
 2630.5000    92.3710   -45.9400     7.4070     7.1380     8.9480    27.0510     0.2580    10.3880     2.5090     0.0570   -60.3230
 2631.0000    90.8010   -46.0310     7.2890     7.0770     8.9100    31.7390     0.2500    10.3760     2.5200     0.0700   -55.2220
 2631.5000    90.9780   -46.1240     7.1710     7.0150     8.8660    36.4270     0.2450    10.3370     2.5310     0.0840   -56.7340
 2632.0000    91.1840   -46.1920     7.0460     6.9530     9.2260    41.1150     0.2430    10.3010     2.5310     0.0850   -61.8350
 2632.5000    88.6270   -46.2220     7.0170     6.8910     9.6310    45.8040     0.2340    10.3480     2.5280     0.0670   -66.9350
 2633.0000    87.7780   -46.2440     6.9870     6.8300     9.6310    50.4920     0.2300    10.3710     2.5250     0.0490   -72.0360
 2633.5000    88.4250   -46.2720     6.9560     6.7680     9.1630    54.3910     0.2320    10.3530     2.5230     0.0430   -72.1690
 2634.0000    90.6250   -46.2880     6.9250     6.7580     8.6760    45.0940     0.2360    10.3350     2.5230     0.0560   -70.1290
 2634.5000    93.1090   -46.3220     6.8950     6.8320     8.0880    37.1360     0.2410    10.3190     2.5270     0.0690   -68.0890
 2635.0000    92.9430   -46.3370     6.8640     6.9070     8.0880    29.1780     0.2450    10.3180     2.5320     0.0740   -66.0480
 2635.5000    92.1610   -46.3650     6.8340     6.9810     8.3430    25.8620     0.2500    10.2900     2.5280     0.0780   -64.0080
 2636.0000    92.1180   -46.3970     6.8030     7.0020     8.5990    29.3380     0.2530    10.2420     2.5190     0.0830   -61.9680
 2636.5000    92.4330   -46.1910     6.7990     7.0270     8.8540    32.8140     0.2410    10.2690     2.5160     0.0690   -59.9270
 2637.0000    93.0330   -46.0040     6.8150     7.0460     8.9040    36.2890     0.2280    10.2970     2.5260     0.0470   -57.8870
 2637.5000    92.9070   -46.1650     6.8320     7.0960     8.7940    39.7650     0.2220    10.2380     2.5480     0.0200   -55.8470
 2638.0000    92.3010   -46.3450     6.8490     7.1370     8.6330    43.2410     0.2340    10.2500     2.5520     0.0050   -53.8060
 2638.5000    92.0020   -46.4250     6.8990     7.1780     8.6170    40.6960     0.2460    10.2560     2.5330     0.0070   -56.8180
 2639.0000    91.1930   -46.5090     6.9670     7.2190     8.7700    35.0960     0.2500    10.2430     2.5070     0.0230   -60.9820
 2639.5000    90.5900   -46.5660     7.0350     7.2600     8.9230    29.4970     0.2410    10.1930     2.4970     0.0390   -65.1460
 2640.0000    90.5480   -46.6410     7.1030     7.3000     9.0310    23.8970     0.2250    10.1550     2.4960     0.0490   -69.3100
 2640.5000    88.2270   -46.7030     7.1770     7.3410     9.4470    18.2970     0.2170    10.1480     2.4950     0.0590   -73.4740
 2641.0000    85.7290   -46.7750     7.1100     7.3770     9.4830    15.1100     0.2250    10.1390     2.4950     0.0630   -77.6370
 2641.5000    88.3950   -46.9700     7.0460     7.2530     9.1960    17.1260     0.2300    10.1500     2.4980     0.0450   -81.8010
 2642.0000    93.0030   -47.2320     6.9140     7.1420     8.9480    19.1420     0.2280    10.1640     2.5040     0.0310   -85.9650
 2642.5000    94.5250   -47.4880     6.7970     7.0310     8.8780    21.1580     0.2310    10.1780     2.5120     0.0400   -90.1290
 2643.0000    94.6480   -47.7460     6.6810     6.9270     8.7850    23.1740     0.2390    10.1920     2.5160     0.0590   -92.8820
 2643.5000    93.9140   -48.0080     6.5520     6.7750     8.5470    22.5410     0.2470    10.1980     2.5120     0.0640   -86.2290
 2644.0000    92.7620   -48.2610     6.4030     6.6230     8.2350    17.3270     0.2480    10.1890     2.5060     0.0430   -79.5760
 2644.5000    93.5770   -48.5240     6.2540     6.4710     7.9220    12.1140     0.2460    10.1570     2.5100     0.0290   -72.9230
 2645.0000    94.7700   -48.7820     6.1050     6.3190     7.7380     6.9000     0.2430    10.1250     2.5120     0.0280   -66.2690
 2645.5000    96.1020   -49.0340     5.9550     6.1380     7.6400     1.6860     0.2410    10.1300     2.5130     0.0240   -66.5950
 2646.0000    97.7630   -49.3080     5.8090     5.9970     7.5840    -3.5270     0.2460    10.1380     2.5110     0.0070   -71.8720
 2646.5000    97.8920   -49.4710     5.6420     5.8230     7.6450    -0.9980     0.2550    10.1380     2.5110     0.0050   -77.1480
 2647.0000    97.3890   -49.6170     5.4790     5.6490     7.6960     6.2020     0.2600    10.1500     2.5100     0.0100   -82.4250
 2647.5000    96.3160   -49.9250     5.3160     5.4750     7.5840    13.4020     0.2570    10.1650     2.5050     0.0250   -87.7020
 2648.0000    96.6560   -50.2420     5.1520     5.3010     7.3100    20.6020     0.2490    10.1770     2.4990     0.0220   -92.9780
 2648.5000   100.3290   -50.4940     4.9890     5.1270     6.6030    24.4510     0.2520    10.1430     2.4940     0.0110   -91.4580
 2649.0000   103.8430   -50.6410     4.8260     4.9530     6.1170    15.3260     0.2630    10.1380     2.4950     0.0000   -88.7730
 2649.5000   105.0980   -50.6790     4.6620     4.7790     5.9860     8.1270     0.2750    10.1380     2.4990    -0.0070   -86.0890
 2650.0000   103.7910   -50.7310     4.4990     4.6050     6.0270     8.9010     0.2730    10.1380     2.4960    -0.0170   -83.6690
 2650.5000   102.1480   -50.7820     4.2890     4.4500     5.9300    17.8100     0.2680    10.1400     2.4910    -0.0180   -73.1800
 2651.0000   103.4530   -50.8270     4.3150     4.4500     5.7560    26.7190     0.2650    10.1480     2.4990     0.0230   -63.6350
 2651.5000   106.8760   -50.8790     4.3510     4.4980     5.7560    34.4310     0.2700    10.1580     2.5100     0.0640   -53.4270
 2652.0000   109.2830   -50.9270     4.3870     4.5510     5.8740    27.6920     0.2730    10.1390     2.5210     0.0830   -56.8120
 2652.5000   108.4850   -50.9750     4.4230     4.6030     5.9780    21.7510     0.2690    10.1450     2.5300     0.0710   -60.4480
 2653.0000   106.3410   -51.0250     4.4590     4.6560     6.0810    14.4710     0.2690    10.1500     2.5360     0.0480   -64.0840
