~VERSION INFORMATION
 VERS.                2.0:   CWLS LOG ASCII STANDARD - VERSION 2.0
 WRAP.                 NO:   ONE LINE PER DEPTH STEP
~WELL INFORMATION
#MNEM.UNIT      DATA TYPE    INFORMATION
#----------   ------------   ------------------------------
 STRT.F            0.0000:   START DEPTH
 STOP.F         5576.0000:   STOP DEPTH
 STEP.F            0.5000:   STEP LENGTH
 NULL.          -999.2500:   NO VALUE
 COMP.      FLUCOR DANIEL:   COMPANY
 WELL.  FLUCOR "X" #76-10:   WELL
 FLD .          N.P.R. #3:   FIELD
 LOC .      S10 T38N R78W:   LOCATION
 CNTY.            NATRONA:   COUNTY
 STAT.            WYOMING:   STATE
 CTRY. UNITED STATES OF AMERICA:   COUNTRY
 SRVC. ATLAS WIRELINE SERVICES:   SERVICE COMPANY
 DATE.        16-MAR-1995:   LOGDATE
 API .     49025226860000:   API NUMBER
~CURVE INFORMATION
#MNEM.UNIT       API CODE    CURVE DESCRIPTION
#----------   ------------   ------------------------------
 DEPT.F                  :   
 CNC .DEC    42 890 01 00:   NEUTRON POROSITY LIMESTONE
 CALD.IN     45 280 60 00:   CALIPER FROM DENSITY LOG
 ZDEN.G/C3   45 350 01 00:   BULK DENSITY
 ZCOR.G/C3   45 356 01 00:   DENSITY CORRECTION
 RILD.OHMM   07 120 46 00:   INDUCTION LOG DEEP RESISTIVITY
 RILM.OHMM   07 120 44 00:   INDUCTION LOG MEDIUM RESISTIVITY
 RS  .OHMM   11 220 10 00:   RESISTIVITY SHALLOW
 RD  .OHMM   11 220 09 00:   RESISTIVITY DEEP
 GRR .GAPI   07 310 01 00:   GAMMA RAY
 TENR.LBS    07 635 01 00:   TENSION FROM RESISTIVITY
~PARAMETER INFORMATION
#MNEM.UNIT          VALUE    DESCRIPTION
#----------   ------------   ------------------------------
 EKB .F         5191.0000:   Kelly bushing
 EGL .F         5101.0000:   Ground level
 EDF .F         5190.0000:   Drilling floor
 TD  .F         5582.0000:   Total depth
 CLNT.            A2DTECH:   Client Code
 SL  . 1896' FSL & 832' FEL:   Surface Location
 PD  .                 GL:   Permanent Datum
 EPD .F              5181:   Elevation Permanent Datum
 LMF .                 KB:   Log Measured From
 DMF .                 KB:   Drilling Measured From
 DAPD.F                10:   Feet Above Permanent Datum
 DATE.        16-MAR-1995:   Date Logged [DD-MMM-YYYY]
 DD  .F              5582:   Depth driller
 DL  .F              5578:   Depth logger
 BLI .F              5566:   Bottom log interval
 TLI .F               518:   Top log interval
 CS1 .IN            8.625:   Casing size
 CBD1.      8.625" @ 519':   Casing driller 1
 CBL1.F               518:   Casing logger 1
 BS1 .IN             8.75:   Bit size
 BSD1.F              5582:   Depth drilled with bit1
 DFT .               LSND:   Type fluid in hole
 DFD .               10.1:   Density
 DFV .                 52:   Viscosity
 DFPH.                9.5:   pH
 DFL .                7.2:   Fluid loss
 MSS .           FLOWLINE:   Source of sample
 RMS .OHMM          0.536:   Rm
 MST .F                70:   Rm Meas. temp.
 RMF .OHMM          0.415:   Rmf
 MFST.F                70:   Rmf Meas. temp.
 MFSS.               MEAS:   Source Rmf.
 RMC .OHMM          0.646:   Rmc
 MCST.F                70:   Rmc Meas. temp.
 MCSS.               MEAS:   Source Rmc.
 RMB .OHMM          0.228:   Rm. at BHT
 BHT .F               165:   BHT.
 TCS .HRS             6.5:   Time Circ. stopped
 MRT .F               165:   Maximum recorded temp.
 LUN .            HL-6530:   Logging unit number
 LUL .             CASPER:   Logging unit location
 ENGI.      PAT RASMUSSEN:   Recorded By
 WITN.        GARY STRONG:   Witnessed by
 ORIG.           5" PRINT:   Origin of data
 UWI .     49025226860000:   Unique Well ID
 DICO. A2D TECHNOLOGIES, INC.:   Digitizing Company
~OTHER INFORMATION
~A  DEPTH      CNC       CALD       ZDEN       ZCOR       RILD       RILM         RS         RD        GRR       TENR
# ...
 5159.0000     0.0584     9.8016     2.8916     0.0011  -999.2500  -999.2500    25.5627    33.1086    42.3151   -55.3308
 5159.5000     0.0430     9.8008     2.9253    -0.0126  -999.2500  -999.2500    36.4394    39.9397    34.1568   -47.3632
 5160.0000     0.0330     9.8202     2.9207    -0.0263  -999.2500  -999.2500    52.6254    79.5084    20.4839   -30.9421
 5160.5000     0.0351     9.8445     2.8806    -0.0324  -999.2500  -999.2500   119.6549   166.1763    11.6902   -16.4805
 5161.0000     0.0477     9.8608     2.8270    -0.0325  -999.2500  -999.2500   116.3408   154.9787    11.3828   -16.1218
 5161.5000     0.0669     9.8883     2.7574    -0.0326  -999.2500  -999.2500    77.6947   102.8818    17.4362   -15.7627
 5162.0000     0.0893     9.9177     2.6573    -0.0282  -999.2500  -999.2500    29.3900    28.9723    29.3852   -15.4041
 5162.5000     0.1086     9.9166     2.6426    -0.0072  -999.2500  -999.2500    16.1196    16.0361    51.9686   -15.0376
 5163.0000     0.1322     9.9158     2.6531     0.0184  -999.2500  -999.2500    14.0223    13.3802    68.0234   -14.5965
 5163.5000     0.1332     9.9298     2.6923     0.0304  -999.2500  -999.2500    13.0765    12.6534    80.1388   -23.5420
 5164.0000     0.1148     9.9290     2.7497     0.0269  -999.2500  -999.2500    13.6047    15.5861    78.9209   -36.5250
 5164.5000     0.0811     9.9281     2.8161    -0.0121  -999.2500  -999.2500    23.4430    23.0057    66.1879   -36.0903
 5165.0000     0.0457     9.9273     2.8825    -0.0410  -999.2500  -999.2500    35.0853    41.2597    44.9685   -40.8123
 5165.5000     0.0354     9.9416     2.8629    -0.0516  -999.2500  -999.2500    69.8401    76.1531    30.4172   -42.8772
 5166.0000     0.0303     9.9405     2.8606    -0.0381  -999.2500  -999.2500   120.6392   153.5787    15.5630   -42.4287
 5166.5000     0.0276     9.9397     2.8749    -0.0216  -999.2500  -999.2500   152.1408   158.9910    16.1632   -42.0697
 5167.0000     0.0221     9.9388     2.9295    -0.0111  -999.2500  -999.2500   144.8622   127.2298    21.9150   -41.7106
 5167.5000     0.0161     9.9377     2.9647    -0.0097  -999.2500  -999.2500   153.1124   132.6264    21.8346   -48.8707
 5168.0000     0.0119     9.9368     2.9344    -0.0174  -999.2500  -999.2500   242.2658   193.0479    12.5080   -55.9407
 5168.5000     0.0113     9.9361     2.8830    -0.0190  -999.2500  -999.2500   425.4638   470.2042     8.5628   -55.5820
 5169.0000     0.0149     9.9352     2.8702    -0.0086  -999.2500  -999.2500   475.4616   480.0493     7.0419   -55.2230
 5169.5000     0.0186     9.9342     2.8777    -0.0041  -999.2500  -999.2500   326.4607   331.9388     8.8543   -39.8267
 5170.0000     0.0200     9.9332     2.9055    -0.0027  -999.2500  -999.2500   255.8449   235.5804    11.2727    28.2015
 5170.5000     0.0149     9.9323     2.9244    -0.0089  -999.2500  -999.2500   241.9163   247.7292    12.4791    90.6247
 5171.0000     0.0113     9.9315     2.9282    -0.0241  -999.2500  -999.2500   306.3868   432.0993    11.8658   104.1072
 5171.5000     0.0094     9.9306     2.9183    -0.0423  -999.2500  -999.2500   484.7880   496.5019     9.4357    81.9099
 5172.0000     0.0088     9.9297     2.8805    -0.0516  -999.2500  -999.2500   445.8451   403.5942     9.1269    52.2832
 5172.5000     0.0134     9.9287     2.8759    -0.0330  -999.2500  -999.2500   105.3914    58.2391    10.0302    22.5670
 5173.0000     0.0197     9.9278     2.8940    -0.0139  -999.2500  -999.2500    38.2351    32.9151    12.8703    22.9257
 5173.5000     0.0221     9.9270     2.9144    -0.0065  -999.2500  -999.2500    30.5965    23.8966    20.9262    23.3745
 5174.0000     0.0209     9.9261     2.9287    -0.0036  -999.2500  -999.2500    30.3764    23.0752    21.5279    23.7332
 5174.5000     0.0188     9.9250     2.9332    -0.0037  -999.2500  -999.2500    41.6741    57.3864    18.7934    24.0923
 5175.0000     0.0176     9.9242     2.9264    -0.0144  -999.2500  -999.2500    87.3966    96.0037    11.8179    24.4510
 5175.5000     0.0191     9.9233     2.8901    -0.0205  -999.2500  -999.2500   198.5527   296.2297     9.3879    24.8119
 5176.0000     0.0258     9.9224     2.8643    -0.0146  -999.2500  -999.2500   444.8515   449.5851     9.3807    25.2585
 5176.5000     0.0345     9.9395     2.8469    -0.0237  -999.2500  -999.2500   307.3807   280.0702    10.5870    33.1363
 5177.0000     0.0460     9.9510     2.8182    -0.0330  -999.2500  -999.2500   114.5077   118.1841    12.3994    33.4585
 5177.5000     0.0537     9.9500     2.7910    -0.0194  -999.2500  -999.2500    54.3823    58.1188    15.4239    33.8541
 5178.0000     0.0868     9.9491     2.7464     0.0167  -999.2500  -999.2500    36.8264    29.3872    20.8726    34.2127
 5178.5000     0.1026     9.9480     2.7675     0.0257  -999.2500  -999.2500    22.9179    17.3159    33.7213    34.5718
 5179.0000     0.1107     9.9472     2.8037     0.0211  -999.2500  -999.2500    20.2354    16.3753    49.9505    27.4435
 5179.5000     0.0989     9.9463     2.8784     0.0089  -999.2500  -999.2500    23.9044    18.4274    50.8552    27.8605
 5180.0000     0.0754     9.9455     2.9585    -0.0033  -999.2500  -999.2500    34.3134    29.3626    42.3632    28.2196
 5180.5000     0.0315     9.9444     2.9713    -0.0019  -999.2500  -999.2500    53.9168    75.6589    28.4180    28.5783
 5181.0000     0.0113     9.9436     2.9637    -0.0035  -999.2500  -999.2500   128.5953   164.7581    16.5145    28.9472
 5181.5000     0.0058     9.9427     2.9145    -0.0218  -999.2500  -999.2500   364.9919   430.2090     5.6777    21.7772
 5182.0000     0.0049     9.9418     2.9024    -0.0325  -999.2500  -999.2500   829.2103   782.3709     3.5521    22.2260
 5182.5000     0.0046     9.9407     2.9001    -0.0356  -999.2500  -999.2500   864.3300  1613.7158     3.8493    22.5847
 5183.0000     0.0049     9.9399     2.9031    -0.0402  -999.2500  -999.2500   794.8430  1524.9316     4.1466    22.9438
 5183.5000     0.0064     9.9390     2.9076    -0.0509  -999.2500  -999.2500   691.4238  1272.3744     4.1393    12.9686
 5184.0000     0.0101     9.9382     2.8887    -0.0676  -999.2500  -999.2500   530.6728   749.7598     4.4772     1.1277
 5184.5000     0.0258     9.9221     2.8342    -0.0707  -999.2500  -999.2500   246.8235   208.4229     5.6414    -6.0546
 5185.0000     0.0427     9.9059     2.8085    -0.0542  -999.2500  -999.2500   115.2771    80.9025     8.6659   -20.7335
 5185.5000     0.0597     9.9051     2.7949    -0.0528  -999.2500  -999.2500    56.4477    44.7795    15.3268   -12.7659
 5186.0000     0.0865     9.9042     2.7816    -0.0560  -999.2500  -999.2500    36.6624    33.6610    23.8059     2.6315
 5186.5000     0.1047     9.9033     2.7555    -0.0500  -999.2500  -999.2500    28.5329    28.8786    28.3753    10.5980
 5187.0000     0.1177     9.8871     2.7155    -0.0411  -999.2500  -999.2500    21.3280    24.0946    34.3989    10.9567
 5187.5000     0.1346     9.8863     2.6943    -0.0261  -999.2500  -999.2500    16.5745    21.2546    43.4840    11.3157
 5188.0000     0.1509     9.8854     2.6701    -0.0141  -999.2500  -999.2500    15.6732    19.8224    61.0540     4.0658
 5188.5000     0.1525     9.8694     2.6662    -0.0127  -999.2500  -999.2500    16.2236    19.8185    65.5936    -3.0041
 5189.0000     0.1488     9.8835     2.6602    -0.0173  -999.2500  -999.2500    17.7794    20.2499    67.7090   -17.6831
 5189.5000     0.1449     9.8919     2.6511    -0.0235  -999.2500  -999.2500    20.1163    21.5343    69.3097   -17.2342
 5190.0000     0.1416     9.8971     2.6405    -0.0251  -999.2500  -999.2500    21.8619    22.4477    71.0293   -16.8755
 5190.5000     0.1404     9.8960     2.6367    -0.0237  -999.2500  -999.2500    22.4728    22.1332    72.2357   -16.5165
 5191.0000     0.1490     9.9189     2.6397    -0.0238  -999.2500  -999.2500    21.8454    20.9004    74.0481    -1.1202
 5191.5000     0.1609     9.9246     2.6444    -0.0224  -999.2500  -999.2500    20.3754    19.7931    75.8604    -0.7520
 5192.0000     0.1664     9.9236     2.6494    -0.0210  -999.2500  -999.2500    19.8110    19.2461    76.7637    -7.9209
