~VERSION INFORMATION
 VERS.                2.0:   CWLS LOG ASCII STANDARD - VERSION 2.0
 WRAP.                 NO:   ONE LINE PER DEPTH STEP
~WELL INFORMATION
#MNEM.UNIT      DATA TYPE    INFORMATION
#----------   ------------   ------------------------------
 STRT.F           42.0000:   START DEPTH
 STOP.F         4542.0000:   STOP DEPTH
 STEP.F            0.5000:   STEP LENGTH
 NULL.          -999.2500:   NO VALUE
 COMP. LAWRENCE ALLISON & ASSOC.:   COMPANY
 WELL. ALLISON NPR 3 #86-27:   WELL
 FLD .                NPR:   FIELD
 LOC .      S27 T39N R78W:   LOCATION
 CNTY.            NATRONA:   COUNTY
 STAT.            WYOMING:   STATE
 CTRY. UNITED STATES OF AMERICA:   COUNTRY
 SRVC.      DRESSER ATLAS:   SERVICE COMPANY
 DATE.        20-MAR-1985:   LOGDATE
 API .     49025110190000:   API NUMBER
~CURVE INFORMATION
#MNEM.UNIT       API CODE    CURVE DESCRIPTION
#----------   ------------   ------------------------------
 DEPT.F                  :   
 CALD.IN     45 280 60 00:   CALIPER FROM DENSITY LOG
 TEND.LBS    45 635 01 00:   TENSION FROM DENSITY LOG
 CORR.G/C3   45 356 01 00:   DENSITY CORRECTION
 RHOB.G/C3   45 350 01 00:   BULK DENSITY
 CNC .DEC    42 890 03 00:   NEUTRON PORISITY SANDSTONE
 TENR.LBS    07 635 01 00:   TENSION FROM RESISTIVITY
 GRR .GAPI   07 310 01 00:   GAMMA RAY FROM RESISTIVITY
 SFL .OHMM   07 220 01 00:   SHALLOW FOCUSED LOG RESISTIVITY
 ILD .OHMM   07 120 46 00:   DEEP INDUCTION RESISTIVITY
 ILM .OHMM   07 120 44 00:   INDUCTION LOG MEDIUM RESISTIVITY
 TENS.LBS    60 635 01 00:   TENSION FROM SONIC LOG
 DT  .US/F   60 520 00 00:   DELTA TIME
 CALS.IN     60 280 50 00:   CALIPER FROM SONIC LOG
 GRS .GAPI   60 310 01 00:   GAMMA RAY FROM SONIC LOG
~PARAMETER INFORMATION
#MNEM.UNIT          VALUE    DESCRIPTION
#----------   ------------   ------------------------------
 EKB .F         5095.0000:   Kelly bushing
 EGL .F         5083.0000:   Ground level
 EDF .F            0.0000:   Drilling floor
 TD  .F         4545.0000:   Total depth
 DATE.        20-MAR-1985:   Date logged
 CLNT.            A2DTECH:   Client Code
 SL  . 292' FEL & 1975' FWL:   Surface Location
 PD  .                 GL:   Permanent Datum
 EPD .F              5083:   Elevation Permanent Datum
 LMF .                 KB:   Log Measured From
 DMF .                 KB:   Drilling Measured From
 DAPD.F                12:   Feet Above Permanent Datum
 DD  .F              4545:   Depth driller
 DL  .F              4533:   Depth logger
 BLI .F              4534:   Bottom log interval
 TLI .F              1045:   Top log interval
 CS1 .IN            8.625:   Casing size
 CBD1.     8.625" @ 1033':   Casing driller 1
 CBL1.F              1045:   Casing logger 1
 BS1 .IN            7.875:   Bit size
 BSD1.F              4545:   Depth drilled with bit1
 DFT .    GEL/KCL/STA/FLO:   Type fluid in hole
 DFD .                9.1:   Density
 DFV .                 30:   Viscosity
 DFPH.                  8:   pH
 DFL .                 12:   Fluid loss
 MSS .           MUD/TANK:   Source of sample
 RMS .OHMM            .46:   Rm
 MST .F                74:   Rm Meas. temp.
 RMF .OHMM            .37:   Rmf
 MFST.F                72:   Rmf Meas. temp.
 RMC .OHMM            .58:   Rmc
 MCST.F                74:   Rmc Meas. temp.
 MFSS.               MEAS:   Source Rmf.
 MCSS.               CALC:   Source Rmc.
 RMB .OHMM            .25:   Rm. at BHT
 BHT .F               138:   BHT.
 TCS .HRS             4.5:   Time Circ. stopped
 MRT .F               138:   Maximum recorded temp.
 LUN .            HL-6274:   Logging unit number
 LUL .           GILLETTE:   Logging unit location
 ENGI.             RAUTIO:   Recorded By
 WITN.             STRONG:   Witnessed by
 ORIG.           5" PRINT:   Origin of data
 UWI .     49025110190000:   Unique Well ID
 DICO. A2D TECHNOLOGIES, INC.:   Digitizing Company
~OTHER INFORMATION
~A   DEPT     CALD       TEND       CORR       RHOB        CNC       TENR        GRR        SFL        ILD        ILM       TENS         DT        CALS        GRS  
# ...
 3962.0000     8.4700   -47.3390    -0.0630     2.3260     0.2990     6.3820   106.4040     4.6840     4.5770     5.5490  -999.2500  -999.2500  -999.2500  -999.2500
 3962.5000     8.4700   -20.4590    -0.0440     2.3240     0.2890    16.4020   107.9050     4.7700     4.5970     5.1000  -999.2500  -999.2500  -999.2500  -999.2500
 3963.0000     8.4700   -20.4590    -0.0330     2.3250     0.2730    26.4210   108.1170     4.9450     4.5680     4.8000  -999.2500  -999.2500  -999.2500  -999.2500
 3963.5000     8.4700   -20.4590    -0.0340     2.3270     0.2570    38.2700   104.2350     5.0900     4.4480     4.5010  -999.2500  -999.2500  -999.2500  -999.2500
 3964.0000     8.4700   -20.4590    -0.0340     2.3370     0.2470    38.2700    98.9780     5.2320     4.1440     4.2010  -999.2500  -999.2500  -999.2500  -999.2500
 3964.5000     8.4700   -20.4590    -0.0260     2.3400     0.2530    38.2700    99.6510     5.8970     3.8400     3.9020  -999.2500  -999.2500  -999.2500  -999.2500
 3965.0000     8.4790   -20.4590     0.0030     2.3370     0.2670    38.2700   105.2890     6.7790     3.5480     3.6150  -999.2500  -999.2500  -999.2500  -999.2500
 3965.5000     8.4910   -20.4590     0.0150     2.2640     0.2630    31.8290   125.1800     5.9560     3.7340     3.3570  -999.2500  -999.2500  -999.2500  -999.2500
 3966.0000     8.5050   -20.4590     0.0340     2.2030     0.2270    21.8090   137.1160     4.7410     3.9120     3.3570  -999.2500  -999.2500  -999.2500  -999.2500
 3966.5000     8.5020   -20.4590     0.0450     2.1250     0.2300    18.3900   127.6120     3.1170     4.1140     3.3870  -999.2500  -999.2500  -999.2500  -999.2500
 3967.0000     8.4840   -20.4590     0.0130     2.1540     0.2370    18.3900   108.2940     2.9490     4.1450     3.5050  -999.2500  -999.2500  -999.2500  -999.2500
 3967.5000     8.4700   -20.4590    -0.0270     2.2640     0.2530    18.3900    88.5850     4.8470     4.1800     3.6220  -999.2500  -999.2500  -999.2500  -999.2500
 3968.0000     8.4700   -20.4590    -0.0510     2.3740     0.2630    18.3900    78.7780     7.1480     4.2160     3.8020  -999.2500  -999.2500  -999.2500  -999.2500
 3968.5000     8.4700   -20.4590    -0.0500     2.4160     0.2650    18.3900    85.6930     8.1780     4.2510     4.0480  -999.2500  -999.2500  -999.2500  -999.2500
 3969.0000     8.4700   -20.4590    -0.0390     2.4240     0.2680    18.3900    94.8600     6.6690     4.3750     4.2950  -999.2500  -999.2500  -999.2500  -999.2500
 3969.5000     8.4700   -20.4590    -0.0080     2.4260     0.2720    18.3900   105.9560     4.4300     4.5880     4.5420  -999.2500  -999.2500  -999.2500  -999.2500
 3970.0000     8.4700   -20.4590     0.0140     2.4180     0.2780    18.3900   103.9440     4.5830     4.8000     4.7890  -999.2500  -999.2500  -999.2500  -999.2500
 3970.5000     8.4700   -20.4590     0.0570     2.3900     0.2840    18.3900   100.4230     4.8800     5.0080     5.0360  -999.2500  -999.2500  -999.2500  -999.2500
 3971.0000     8.4700   -20.4590     0.1110     2.3710     0.2830    18.3900    95.3100     5.1370     5.2130     5.2830  -999.2500  -999.2500  -999.2500  -999.2500
 3971.5000     8.4700   -21.1730     0.1660     2.3150     0.2760    18.3900    89.6220     6.0080     5.4190     5.5300  -999.2500  -999.2500  -999.2500  -999.2500
 3972.0000     8.4700   -22.1400     0.1710     2.2990     0.2700    18.3900    87.2200     6.7760     5.6250     5.7390  -999.2500  -999.2500  -999.2500  -999.2500
 3972.5000     8.4700   -23.1080     0.1630     2.3370     0.2640    18.3900    86.5300     7.5740     5.8300     5.8440  -999.2500  -999.2500  -999.2500  -999.2500
 3973.0000     8.4700   -24.0750     0.0510     2.3410     0.2630    18.3900    87.4520     8.0060     6.0360     5.9350  -999.2500  -999.2500  -999.2500  -999.2500
 3973.5000     8.4700   -25.0420    -0.0180     2.3500     0.2670    18.3900    92.6910     7.8030     6.2420     5.6520  -999.2500  -999.2500  -999.2500  -999.2500
 3974.0000     8.4700   -26.0100    -0.0200     2.3810     0.2730    18.3900    99.1490     7.0080     6.4470     5.3300  -999.2500  -999.2500  -999.2500  -999.2500
 3974.5000     8.4700   -26.9770     0.0080     2.3740     0.2740    18.3900   105.2750     6.0300     6.6550     5.2320  -999.2500  -999.2500  -999.2500  -999.2500
 3975.0000     8.4700   -27.9440     0.0440     2.3450     0.2650    18.3900   105.2080     5.4300     6.6550     5.4630  -999.2500  -999.2500  -999.2500  -999.2500
 3975.5000     8.4700   -28.9110     0.0780     2.3440     0.2490    18.3900    97.1280     5.6340     5.5310     5.8460  -999.2500  -999.2500  -999.2500  -999.2500
 3976.0000     8.4700   -29.8790     0.0460     2.3640     0.2370    18.3900    87.3980     7.4090     4.8560     5.0600  -999.2500  -999.2500  -999.2500  -999.2500
 3976.5000     8.4700   -30.8460     0.0140     2.4250     0.2610    18.3900    78.1820    13.6890     4.1860     4.2810  -999.2500  -999.2500  -999.2500  -999.2500
 3977.0000     8.4690   -31.8130    -0.0110     2.4110     0.2900    18.3900    84.6410    13.0190     3.5160     3.5010  -999.2500  -999.2500  -999.2500  -999.2500
 3977.5000     8.4700   -32.7810     0.0210     2.3660     0.3170    18.3900   101.6950     9.7580     2.8460     2.7210  -999.2500  -999.2500  -999.2500  -999.2500
 3978.0000     8.4740   -33.7480     0.1060     2.3200     0.3250    18.3900   130.7710     6.0480     2.0750     1.8230  -999.2500  -999.2500  -999.2500  -999.2500
 3978.5000     8.5200   -34.7150     0.1910     2.2190     0.3130    18.3900   147.3170     2.5440     1.9630     1.7670  -999.2500  -999.2500  -999.2500  -999.2500
 3979.0000     8.5760   -35.6820     0.2080     2.1450     0.3040    18.3900   156.5840     2.0750     1.9780     1.7990  -999.2500  -999.2500  -999.2500  -999.2500
 3979.5000     8.6160   -36.6500     0.1610     2.1920     0.3010    18.3900   161.1460     1.9630     2.0320     1.9600  -999.2500  -999.2500  -999.2500  -999.2500
 3980.0000     8.6590   -37.6170     0.1160     2.2550     0.2980    18.3900   138.3180     2.0370     2.0860     2.2700  -999.2500  -999.2500  -999.2500  -999.2500
 3980.5000     8.4070   -38.5840     0.0720     2.3180     0.2880    18.3900   112.1040     4.1760     2.2300     2.9710  -999.2500  -999.2500  -999.2500  -999.2500
 3981.0000     8.3960   -39.5520     0.0250     2.3830     0.2760    18.3900    92.1210     6.6050     2.4710     3.6730  -999.2500  -999.2500  -999.2500  -999.2500
 3981.5000     8.3870   -40.4190     0.0070     2.4160     0.2710    18.3900    85.3780     8.7820     3.2080     4.3740  -999.2500  -999.2500  -999.2500  -999.2500
 3982.0000     8.3970   -20.4590     0.0010     2.4270     0.2760    18.3900    77.3760    10.4340     4.4430     5.1370  -999.2500  -999.2500  -999.2500  -999.2500
 3982.5000     8.3950   -20.4590     0.0030     2.4390     0.2750    18.3900    73.8140    10.7640     5.5310     5.7180  -999.2500  -999.2500  -999.2500  -999.2500
 3983.0000     8.3980   -22.2780     0.0010     2.4440     0.2760    18.3900    74.5530    10.6050     6.5000     6.3540  -999.2500  -999.2500  -999.2500  -999.2500
 3983.5000     8.3990   -27.8660     0.0120     2.4360     0.2800    18.3900    78.0460    10.1830     7.0340     6.9050  -999.2500  -999.2500  -999.2500  -999.2500
 3984.0000     8.4010   -33.4550     0.0350     2.4090     0.2810    18.3900    83.6250     8.8050     6.9180     5.8460  -999.2500  -999.2500  -999.2500  -999.2500
 3984.5000     8.4030   -39.0440     0.0570     2.3770     0.2710    18.3900    90.8860     7.5910     6.5780     5.7450  -999.2500  -999.2500  -999.2500  -999.2500
 3985.0000     8.4040   -39.6760     0.0700     2.3450     0.2750    18.3900    95.3420     6.3760     6.2390     5.6340  -999.2500  -999.2500  -999.2500  -999.2500
 3985.5000     8.4060   -38.6890     0.0350     2.3330     0.2830    18.3900    92.7910     5.8080     5.9560     5.6340  -999.2500  -999.2500  -999.2500  -999.2500
 3986.0000     8.4070   -37.7030     0.0000     2.3360     0.3010    18.3900    88.8450     5.7390     5.8460     5.6340  -999.2500  -999.2500  -999.2500  -999.2500
