~VERSION INFORMATION
 VERS.                2.0:   CWLS LOG ASCII STANDARD - VERSION 2.0
 WRAP.                 NO:   ONE LINE PER DEPTH STEP
~WELL INFORMATION
#MNEM.UNIT      DATA TYPE    INFORMATION
#----------   ------------   ------------------------------
 STRT.F          200.0000:   START DEPTH
 STOP.F         3248.0000:   STOP DEPTH
 STEP.F            0.5000:   STEP LENGTH
 NULL.          -999.2500:   NO VALUE
 COMP.    FENIX & SCISSON:   COMPANY
 WELL.   FENIX "AX" #28-3:   WELL
 FLD .              NPR-3:   FIELD
 LOC .       S3 T38N R78W:   LOCATION
 CNTY.            NATRONA:   COUNTY
 STAT.            WYOMING:   STATE
 CTRY. UNITED STATES OF AMERICA:   COUNTRY
 SRVC.              WELEX:   SERVICE COMPANY
 DATE.        30-JUN-1977:   LOGDATE
 API .     49025104200000:   API NUMBER
~CURVE INFORMATION
#MNEM.UNIT       API CODE    CURVE DESCRIPTION
#----------   ------------   ------------------------------
 DEPT.F                  :   
 CALD.IN     45 280 60 00:   CALIPER FROM DENSITY LOG
 GRD .GAPI   45 310 01 00:   GAMMA RAY FROM DENSITY LOG
 RHOB.G/C3   45 350 01 00:   BULK DENSITY
 CORR.G/C3   45 356 01 00:   DENSITY CORRECTION
 SPR .MV     07 010 01 00:   SPONTANEOUS POTENTIAL
 ILD .OHMM   07 120 46 00:   DEEP INDUCTION RESISTIVITY
 ILM .OHMM   07 120 44 00:   INDUCTION LOG MEDIUM RESISTIVITY
 SGRD.OHMM   07 220 05 00:   SHALLOW SHORT GUARD RESISTIVITY
~PARAMETER INFORMATION
#MNEM.UNIT          VALUE    DESCRIPTION
#----------   ------------   ------------------------------
 EKB .F         4969.0000:   Kelly bushing
 EGL .F         4959.0000:   Ground level
 TD  .F         3250.0000:   Total depth
 CLNT.            A2DTECH:   Client Code
 SL  . 500' FSL & 800' FWL:   Surface Location
 PD  .                 GL:   Permanent Datum
 EPD .F              4959:   Elevation Permanent Datum
 LMF .                 KB:   Log Measured From
 DMF .                 KB:   Drilling Measured From
 DAPD.F                10:   Feet Above Permanent Datum
 DATE.        30-JUN-1977:   Date Logged [DD-MMM-YYYY]
 DD  .F              3250:   Depth driller
 DL  .F              3250:   Depth logger
 BLI .F              3248:   Bottom log interval
 TLI .F               200:   Top log interval
 CS1 .IN            8.625:   Casing size
 CBD1.      8.625" @ 217':   Casing driller 1
 CBL1.F               225:   Casing logger 1
 BS1 .IN            7.875:   Bit size
 BSD1.F              3250:   Depth drilled with bit1
 DFT .                KCL:   Type fluid in hole
 DFD .                8.9:   Density
 RMS .OHMM           1.76:   Rm
 MST .F                63:   Rm Meas. temp.
 TCS .HRS             2.5:   Time Circ. stopped
 MRT .F                68:   Maximum recorded temp.
 LUN .               8611:   Logging unit number
 ENGI.         G. BENTSEN:   Recorded By
 WITN.         PETTINGILL:   Witnessed by
 ORIG.         2.5" PRINT:   Origin of data
 UWI .     49025104200000:   Unique Well ID
 DICO. A2D TECHNOLOGIES, INC.:   Digitizing Company
 DFV .                 30:   Viscosity
 DFPH.                  7:   pH
 DFL .                 10:   Fluid loss
 MSS .                PIT:   Source of sample
 RMF .OHMM           1.09:   Rmf
 MFST.F                68:   Rmf Meas. temp.
 MFSS.               MEAS:   Source Rmf.
 RMC .OHMM           2.01:   Rmc
 MCST.F                68:   Rmc Meas. temp.
 MCSS.               MEAS:   Source Rmc.
 RMB .OHMM           1.01:   Rm. at BHT
 BHT .F               118:   BHT.
 LUL .             CASPER:   Logging unit location
~OTHER INFORMATION
~A   DEPT       CALD       GRD        RHOB      CORR       SPR        ILD        ILM       SGRD   
  200.0000     8.5437    63.0522     1.9755    -0.2016  -999.2500  -999.2500  -999.2500  -999.2500
  200.5000     8.5425    63.9603     1.9908    -0.2022  -999.2500  -999.2500  -999.2500  -999.2500
  201.0000     8.5414    65.2972     1.9954    -0.2039  -999.2500  -999.2500  -999.2500  -999.2500
  201.5000     8.5403    66.2189     1.9939    -0.2048  -999.2500  -999.2500  -999.2500  -999.2500
  202.0000     8.5391    66.9859     1.9877    -0.2048  -999.2500  -999.2500  -999.2500  -999.2500
  202.5000     8.5380    66.3529     1.9816    -0.2033  -999.2500  -999.2500  -999.2500  -999.2500
  203.0000     8.5076    66.5103     1.9785    -0.2034  -999.2500  -999.2500  -999.2500  -999.2500
  203.5000     8.5064    67.4051     1.9801    -0.2034  -999.2500  -999.2500  -999.2500  -999.2500
  204.0000     8.5346    68.2999     1.9864    -0.2034  -999.2500  -999.2500  -999.2500  -999.2500
  204.5000     8.5041    68.8934     1.9940    -0.2035  -999.2500  -999.2500  -999.2500  -999.2500
  205.0000     8.5029    67.9810     1.9953    -0.2035  -999.2500  -999.2500  -999.2500  -999.2500
  205.5000     8.5018    66.1649     1.9840    -0.2035  -999.2500  -999.2500  -999.2500  -999.2500
  206.0000     8.5006    64.9512     1.9603    -0.2082  -999.2500  -999.2500  -999.2500  -999.2500
  206.5000     8.5287    64.0388     1.9509    -0.2113  -999.2500  -999.2500  -999.2500  -999.2500
  207.0000     8.5275    63.4276     1.9535    -0.2129  -999.2500  -999.2500  -999.2500  -999.2500
  207.5000     8.5261    62.2139     1.9583    -0.2151  -999.2500  -999.2500  -999.2500  -999.2500
  208.0000     8.5249    63.7269     1.9668    -0.2176  -999.2500  -999.2500  -999.2500  -999.2500
  208.5000     8.5238    64.9362     1.9707    -0.2207  -999.2500  -999.2500  -999.2500  -999.2500
  209.0000     8.5227    65.5006     1.9562    -0.2222  -999.2500  -999.2500  -999.2500  -999.2500
  209.5000     8.5215    64.6616     1.9340    -0.2223  -999.2500  -999.2500  -999.2500  -999.2500
  210.0000     8.5204    61.8876     1.9233    -0.2223  -999.2500  -999.2500  -999.2500  -999.2500
  210.5000     8.5193    58.7284     1.9171    -0.2224  -999.2500  -999.2500  -999.2500  -999.2500
  211.0000     8.5181    54.7360     1.9187    -0.2224  -999.2500  -999.2500  -999.2500  -999.2500
  211.5000     8.5170    51.5361     1.9324    -0.2222  -999.2500  -999.2500  -999.2500  -999.2500
  212.0000     8.5158    51.8394     1.9508    -0.2191  -999.2500  -999.2500  -999.2500  -999.2500
  212.5000     8.5146    52.9242     1.9646    -0.2179  -999.2500  -999.2500  -999.2500  -999.2500
  213.0000     8.5134    53.3795     1.9569    -0.2184  -999.2500  -999.2500  -999.2500  -999.2500
  213.5000     8.5123    53.3705     1.9662    -0.2195  -999.2500  -999.2500  -999.2500  -999.2500
  214.0000     8.5111    53.0584     1.9899    -0.2167  -999.2500  -999.2500  -999.2500  -999.2500
  214.5000     8.5099    52.7484     2.0005    -0.2120  -999.2500  -999.2500  -999.2500  -999.2500
  215.0000     8.5088    52.4384     2.0013    -0.2050  -999.2500  -999.2500  -999.2500  -999.2500
  215.5000     8.5368    52.1283     2.0013    -0.1964  -999.2500  -999.2500  -999.2500  -999.2500
  216.0000     8.5355    51.8183     2.0120    -0.1919  -999.2500  -999.2500  -999.2500  -999.2500
  216.5000     8.5343    52.1114     2.0365    -0.1889  -999.2500  -999.2500  -999.2500  -999.2500
  217.0000     8.5332    52.7042     2.0625    -0.1813  -999.2500  -999.2500  -999.2500  -999.2500
  217.5000     8.5321    52.9966     2.0931    -0.1736  -999.2500  -999.2500  -999.2500  -999.2500
  218.0000     8.5017    53.5902     2.1115    -0.1629  -999.2500  -999.2500  -999.2500  -999.2500
  218.5000     8.5006    54.1837     2.1284    -0.1506  -999.2500  -999.2500  -999.2500  -999.2500
  219.0000     8.4994    55.4056     2.1467    -0.1383  -999.2500  -999.2500  -999.2500  -999.2500
  219.5000     8.4690    56.6552     2.1666    -0.1183  -999.2500  -999.2500  -999.2500  -999.2500
  220.0000     8.4347    58.1526     2.2172    -0.0861  -999.2500  -999.2500  -999.2500  -999.2500
  220.5000     8.3732    59.6230     2.2867    -0.0560  -999.2500  -999.2500  -999.2500  -999.2500
  221.0000     8.3410    60.5984     2.3326    -0.0152  -999.2500  -999.2500  -999.2500  -999.2500
  221.5000     8.2796    62.2033     2.4131     0.0194  -999.2500  -999.2500  -999.2500  -999.2500
  222.0000     8.2474    63.7410     2.3099     0.0578  -999.2500  -999.2500  -999.2500  -999.2500
  222.5000     8.2281    65.2786     2.3151     0.0599  -999.2500  -999.2500  -999.2500  -999.2500
  223.0000     8.2269    66.9960     2.3718     0.0506  -999.2500  -999.2500  -999.2500  -999.2500
  223.5000     8.2550    68.5201     2.3954     0.0506  -999.2500  -999.2500  -999.2500  -999.2500
  224.0000     8.2830    69.2932     2.3929     0.0506  -999.2500  -999.2500  -999.2500  -999.2500
  224.5000     8.3111    70.3635     2.3779     0.0490  -999.2500  -999.2500  -999.2500  -999.2500
  225.0000     8.3683    71.1094     2.3794     0.0474    -0.6883     4.9104     1.4057    12.6328
  225.5000     8.4549    71.8283     2.3958     0.0474    -2.0581     5.3349     1.9015    17.3914
  226.0000     8.7461    73.0227     2.4452     0.0458    -3.2322     5.6423     2.9912    24.9549
  226.5000     9.0082    73.3150     2.4514     0.0427    -3.5221     5.9675     4.1587    13.3928
  227.0000     9.1240    74.2098     2.4544     0.0381    -4.1055     6.3114     5.8617     5.9067
  227.5000     9.1211    74.8034     2.4728     0.0334    -4.6897     6.7804     8.7284     3.2329
  228.0000     9.0596    75.3976     2.4973     0.0288    -4.9788     7.3739    12.3028     1.3477
  228.5000     8.9583    76.5929     2.5187     0.0226    -4.9730     7.9971    13.3600     2.7914
  229.0000     8.6601    77.4877     2.5248     0.0210    -4.6722     8.5475    13.7330     6.0211
  229.5000     8.3985    79.2861     2.5248     0.0210    -4.0764     8.9129    13.3457    10.0317
  230.0000     8.3168    82.0883     2.5187     0.0209    -3.4806     9.2940    11.2593    10.1774
  230.5000     8.2678    86.8926     2.5140     0.0209    -2.8848     9.5168    10.1394    10.3252
  231.0000     8.2667    88.7078     2.5142     0.0193    -2.2890     9.6980    10.0185    10.3981
  231.5000     8.2655    90.4960     2.5156     0.0193    -1.3943     9.8388    10.0194    10.5434
  232.0000     8.2936    90.9889     2.5122     0.0177    -0.7906    10.0617    10.1588    10.4020
  232.5000     8.3216    90.9011     2.5068     0.0173    -1.1308    10.0642    10.1597    10.4037
  233.0000     8.3203    90.1847     2.4983     0.0161    -3.5556     9.9362    10.3010    10.2636
  233.5000     8.3485    88.7339     2.4941     0.0161    -5.8348     8.7168    10.2533    10.1256
  234.0000     8.3473    86.2610     2.4996     0.0161    -7.0167     7.7517    10.1092    10.1275
  234.5000     8.3754    84.7867     2.5108     0.0182    -8.1986     7.4927     9.9671    10.2690
  235.0000     8.3743    83.8604     2.5194     0.0198    -8.4372     7.3494     9.8888    10.2707
  235.5000     8.4024    82.6330     2.5257     0.0206    -5.4416     7.3513    10.0263    10.2724
  236.0000     8.4043    81.4056     2.5308     0.0205    -3.2606     7.4548    10.0272    10.4160
  236.5000     8.4293    81.2664     2.5216     0.0190    -2.2242     7.5597    10.0280    10.7072
  237.0000     8.4281    82.1612     2.5186     0.0189    -2.3992     7.6661    10.1677    11.0105
  237.5000     8.4269    83.0559     2.5201     0.0189    -6.7354     7.7741    10.1685    11.3145
  238.0000     8.4257    83.6506     2.5201     0.0189   -10.4671     7.8835    10.0306    11.3164
  238.5000     8.4246    83.6407     2.5186     0.0188   -10.1652     8.1050     9.8947    11.3183
  239.0000     8.4234    83.0294     2.5155     0.0172   -10.2812     8.1070     9.8957    11.3203
  239.5000     8.4222    82.4182     2.5124     0.0172   -10.4484     8.1091     9.8965    11.6707
  240.0000     8.4208    81.5057     2.5093     0.0172   -11.2881     8.1111     9.8973    11.9621
