~VERSION INFORMATION
 VERS.                2.0:   CWLS LOG ASCII STANDARD - VERSION 2.0
 WRAP.                 NO:   ONE LINE PER DEPTH STEP
~WELL INFORMATION
#MNEM.UNIT      DATA TYPE    INFORMATION
#----------   ------------   ------------------------------
 STRT.F           16.0000:   START DEPTH
 STOP.F         2834.0000:   STOP DEPTH
 STEP.F            0.5000:   STEP LENGTH
 NULL.          -999.2500:   NO VALUE
 COMP.    FENIX & SCISSON:   COMPANY
 WELL. FENIX NPR 3 "AX" #14-21:   WELL
 FLD .              N P R:   FIELD
 LOC .      S21 T39N R78W:   LOCATION
 CNTY.            NATRONA:   COUNTY
 STAT.            WYOMING:   STATE
 CTRY. UNITED STATES OF AMERICA:   COUNTRY
 SRVC.           BIRDWELL:   SERVICE COMPANY
 DATE.        26-JUL-1978:   LOGDATE
 API .     49025106740000:   API NUMBER
~CURVE INFORMATION
#MNEM.UNIT       API CODE    CURVE DESCRIPTION
#----------   ------------   ------------------------------
 DEPT.F                  :   
 GRD .GAPI   45 310 01 00:   GAMMA RAY FROM DENSITY LOG
 CALD.IN     45 280 60 00:   CALIPER FROM DENSITY LOG
 RHOB.G/C3   45 350 01 00:   BULK DENSITY
 CORR.G/C3   45 356 01 00:   DENSITY CORRECTION
 SPR .MV     05 010 01 00:   SPONTANEOUS POTENTIAL
 ILD .OHMM   05 120 46 00:   DEEP INDUCTION RESISTIVITY
 SN  .OHMM   05 040 00 00:   SHORT NORMAL
~PARAMETER INFORMATION
#MNEM.UNIT          VALUE    DESCRIPTION
#----------   ------------   ------------------------------
 EKB .F         4998.0000:   Kelly bushing
 EGL .F         4988.0000:   Ground level
 EDF .F            0.0000:   Drilling floor
 EPD .F            0.0000:   Permanent datum
 TD  .F         2850.0000:   Total depth
 DATE.        26-JUL-1978:   Date logged
 CLNT.            A2DTECH:   Client Code
 SL  . 2640' FNL & 500' FWL:   Surface Location
 PD  .                 GL:   Permanent Datum
 DD  .F              2850:   Depth driller
 DL  .F              2838:   Depth logger
 BLI .F              2832:   Bottom log interval
 CS1 .IN            8.625:   Casing size
 CBD1.      8.625" @ 208':   Casing driller 1
 BS1 .IN            7.875:   Bit size
 DFT .            MUD/GEL:   Type fluid in hole
 DFD .                9.4:   Density
 DFV .                 37:   Viscosity
 DFPH.                 11:   pH
 TCS .HRS               4:   Time Circ. stopped
 LUN .               2958:   Logging unit number
 LUL .               CASP:   Logging unit location
 ENGI.             MILLER:   Recorded By
 WITN.           MCGINLEY:   Witnessed by
 ORIG.           5" PRINT:   Origin of data
 UWI .     49025106740000:   Unique Well ID
 DICO. A2D TECHNOLOGIES, INC.:   Digitizing Company
 DAPD.                 12:   Feet Above Permanent Datum
 BSD1.               3950:   Depth drilled with bit1
 MCSS.               CALC:   Source Rmc.
 TLI .F               230:   Top log interval
~OTHER INFORMATION
~A   DEPT       GRD      CALD       RHOB       CORR        SPR        ILD         SN   
# ...
  380.0000    92.0160     9.6400     2.3530     0.3290   -39.5740    11.1570    10.4020
  380.5000    91.2040     9.6420     2.3530     0.3280   -39.5490    11.0850    10.2630
  381.0000    90.9470     9.6450     2.3460     0.3270   -39.5230    11.0530    10.0880
  381.5000    90.9410     9.6540     2.3470     0.3270   -39.4980    11.0530    10.1320
  382.0000    90.9400     9.6610     2.3500     0.3250   -39.4730    11.0530    10.1900
  382.5000    90.8160     9.6390     2.3480     0.3240   -39.4480    11.0530    10.2480
  383.0000    89.5740     9.6180     2.3450     0.3230   -39.4220    11.0530    10.3070
  383.5000    88.3330     9.6150     2.3410     0.3220   -39.3970    11.0530    10.3650
  384.0000    86.8210     9.6280     2.3220     0.3230   -39.3720    10.9890    10.4230
  384.5000    85.3790     9.6330     2.2960     0.3240   -39.3460    10.8150    10.4810
  385.0000    84.2690     9.6370     2.2900     0.3300   -39.3220    10.6420    10.5390
  385.5000    83.7630     9.6420     2.2720     0.3410   -39.3060    10.4690    10.5980
  386.0000    83.5290     9.6460     2.2590     0.3460   -39.2460    10.2960    10.6560
  386.5000    82.8990     9.6500     2.2640     0.3460   -38.6000    10.1230    10.4640
  387.0000    81.7810     9.6530     2.2740     0.3430   -38.3800     9.9500    10.2690
  387.5000    83.1350     9.6570     2.2970     0.3370   -38.1550     9.7760    10.0740
  388.0000    86.3230     9.6600     2.3210     0.3340   -38.1320     9.6380     9.9970
  388.5000    89.4990     9.6630     2.3230     0.3330   -38.1900     9.7270     9.9970
  389.0000    91.3010     9.6670     2.3230     0.3330   -38.2510     9.5830     9.9970
  389.5000    92.7370     9.6700     2.3250     0.3330   -38.3120     9.5280     9.9970
  390.0000    93.2860     9.6730     2.3280     0.3330   -38.3730     9.4740     9.9970
  390.5000    93.3650     9.6770     2.3420     0.3330   -38.4330     9.3550     9.9970
  391.0000    92.1680     9.6800     2.3500     0.3330   -38.4940     9.2210     9.6380
  391.5000    90.3090     9.6840     2.3440     0.3330   -38.5550     9.0880     9.5260
  392.0000    89.1860     9.6970     2.3380     0.3340   -38.6160     8.9600     9.4060
  392.5000    89.1760     9.7400     2.3340     0.3340   -38.6760     8.7680     9.1570
  393.0000    90.0570     9.7820     2.3390     0.3350   -38.7370     8.5390     8.9090
  393.5000    90.7820     9.8100     2.3430     0.3350   -38.7970     8.3110     8.6610
  394.0000    90.8440     9.8230     2.3430     0.3350   -38.8640     8.0820     8.4120
  394.5000    90.9600     9.8360     2.3510     0.3350   -38.6810     7.9570     8.1780
  395.0000    93.2210     9.8500     2.3610     0.3350   -38.3960     7.9740     8.2270
  395.5000    95.7560     9.8650     2.3580     0.3350   -38.1080     8.0110     8.2730
  396.0000    96.9290     9.8790     2.3510     0.3340   -37.8200     8.0480     8.3190
  396.5000    95.4700     9.8940     2.3500     0.3340   -37.5310     8.0850     8.3650
  397.0000    94.2170     9.9080     2.3530     0.3340   -37.6600     8.1220     8.4120
  397.5000    94.0760     9.9200     2.3550     0.3340   -37.8910     8.1590     8.4580
  398.0000    92.0810     9.9030     2.3580     0.3340   -38.1230     8.2530     8.6320
  398.5000    90.7410     9.9160     2.3590     0.3340   -38.2880     8.3290     9.0420
  399.0000    90.9400     9.9330     2.3570     0.3340   -38.1640     8.3290     9.0270
  399.5000    91.3100     9.9490     2.3410     0.3340   -37.6850     8.3290     9.0050
  400.0000    91.6820     9.9600     2.3390     0.3340   -37.2160     8.3290     8.9830
  400.5000    92.0680     9.9550     2.3330     0.3340   -36.7330     8.4180     8.9600
  401.0000    92.6950     9.9510     2.3330     0.3340   -36.6770     8.7120     9.0380
  401.5000    94.0630     9.9470     2.3290     0.3350   -36.6440     8.9600     9.1500
  402.0000    95.4280     9.9430     2.3160     0.3360   -36.6090     8.9600     9.2930
  402.5000    96.0810     9.9310     2.3140     0.3370   -36.5730     8.9600     9.2670
  403.0000    96.1180     9.8890     2.3210     0.3370   -36.5430     9.0420     9.2320
  403.5000    96.1770     9.8590     2.3270     0.3370   -36.6480     9.1310     9.2080
  404.0000    96.2630     9.8520     2.3270     0.3370   -37.1070     9.2270     9.5800
  404.5000    94.9570     9.8470     2.3270     0.3370   -37.3670     9.3230     9.9970
  405.0000    92.4180     9.8420     2.3260     0.3370   -37.4840     9.4200     9.9800
  405.5000    89.2120     9.8400     2.3270     0.3360   -37.6000     9.5510     9.9500
  406.0000    88.6770     9.8390     2.3290     0.3360   -37.7000     9.6380     9.9060
  406.5000    91.2240     9.8370     2.3320     0.3360   -37.6970     9.6120     9.9080
  407.0000    94.2520     9.8350     2.3310     0.3370   -37.6970     9.5830     9.9110
  407.5000    97.9730     9.8330     2.3280     0.3380   -37.6970     9.5550     9.9140
  408.0000    98.9050     9.8310     2.3240     0.3390   -37.6960     9.5270     9.9170
  408.5000    96.4740     9.8290     2.3280     0.3390   -37.6490     9.4990     9.9210
  409.0000    93.9920     9.8270     2.3320     0.3380   -37.6000     9.4700     9.9240
  409.5000    91.7990     9.8250     2.3330     0.3330   -37.5520     9.4520     9.9270
  410.0000    91.1500     9.8230     2.3580     0.3290   -37.5040     9.4370     9.9300
  410.5000    91.5260     9.8210     2.3680     0.3270   -37.4560     9.4220     9.9340
  411.0000    92.1360     9.8190     2.3700     0.3270   -37.4070     9.4060     9.9370
  411.5000    91.9630     9.8170     2.3700     0.3270   -37.3590     9.3910     9.9400
  412.0000    91.2930     9.8150     2.3650     0.3270   -37.3150     9.3760     9.9430
  412.5000    91.4600     9.8130     2.3550     0.3270   -37.1830     9.3610     9.9470
  413.0000    93.6100     9.8110     2.3530     0.3280   -37.0430     9.3450     9.9500
  413.5000    95.8720     9.8090     2.3480     0.3300   -36.9010     9.3300     9.9530
  414.0000    95.8610     9.8070     2.3420     0.3340   -36.7590     9.3150     9.9560
  414.5000    95.8440     9.8050     2.3430     0.3350   -36.6180     9.3000     9.9590
  415.0000    95.2230     9.8040     2.3430     0.3350   -36.4770     9.2840     9.9630
  415.5000    94.5400     9.8060     2.3370     0.3360   -36.3380     9.2690     9.9660
  416.0000    93.8460     9.8070     2.3350     0.3360   -36.5500     9.2540     9.9690
  416.5000    93.6490     9.8090     2.3270     0.3360   -37.0170     9.2390     9.9720
  417.0000    93.5850     9.8110     2.3150     0.3380   -37.4860     9.2230     9.9760
  417.5000    93.5250     9.8120     2.2990     0.3430   -37.9730     9.2080     9.9790
  418.0000    93.6970     9.8140     2.2860     0.3450   -37.8670     9.1930     9.9820
  418.5000    93.9940     9.8150     2.2910     0.3420   -37.5690     9.1780     9.9850
  419.0000    94.7170     9.8170     2.3090     0.3370   -37.4330     9.1620     9.9890
  419.5000    94.7530     9.8190     2.3310     0.3360   -38.4450     9.1470     9.9920
  420.0000    94.8210     9.8200     2.3350     0.3350   -38.4550     9.1320     9.9970
  420.5000    94.9710     9.8220     2.3230     0.3340   -38.1650     9.1170     9.9930
  421.0000    95.4320     9.8230     2.3180     0.3340   -37.9870     9.1010     9.9850
  421.5000    95.8170     9.8250     2.3220     0.3340   -37.8440     9.0860     9.9770
  422.0000    94.9450     9.8270     2.3250     0.3340   -37.6940     9.0710     9.9690
  422.5000    93.6740     9.8280     2.3170     0.3340   -37.3180     9.0560     9.9610
  423.0000    93.9640     9.8300     2.3080     0.3340   -36.9020     9.0400     9.9530
  423.5000    94.6730     9.8310     2.3040     0.3340   -36.0800     9.0250     9.9450
  424.0000    94.7470     9.8330     2.3010     0.3360   -35.2370     9.0100     9.9370
  424.5000    94.0570     9.8350     2.2940     0.3390   -34.5250     8.9950     9.9290
  425.0000    92.7640     9.8360     2.2900     0.3410   -34.5460     8.9790     9.9210
