~VERSION INFORMATION
 VERS.                2.0:   CWLS LOG ASCII STANDARD - VERSION 2.0
 WRAP.                 NO:   ONE LINE PER DEPTH STEP
~WELL INFORMATION
#MNEM.UNIT      DATA TYPE    INFORMATION
#----------   ------------   ------------------------------
 STRT.F           50.0000:   START DEPTH
 STOP.F         2832.5000:   STOP DEPTH
 STEP.F            0.5000:   STEP LENGTH
 NULL.          -999.2500:   NO VALUE
 COMP.    FENIX & SCISSON:   COMPANY
 WELL. FENIX NPR 3 "AX" #87-20:   WELL
 FLD .              N P R:   FIELD
 LOC .      S20 T39N R78W:   LOCATION
 CNTY.            NATRONA:   COUNTY
 STAT.            WYOMING:   STATE
 CTRY. UNITED STATES OF AMERICA:   COUNTRY
 SRVC.           BIRDWELL:   SERVICE COMPANY
 DATE.        01-AUG-1978:   LOGDATE
 API .     49025106780000:   API NUMBER
~CURVE INFORMATION
#MNEM.UNIT       API CODE    CURVE DESCRIPTION
#----------   ------------   ------------------------------
 DEPT.F                  :   
 CALD.IN     45 280 60 00:   CALIPER FROM DENSITY LOG
 CORR.G/C3   45 356 01 00:   DENSITY CORRECTION
 GRD .GAPI   45 310 01 00:   GAMMA RAY FROM DENSITY LOG
 RHOB.G/C3   45 350 01 00:   BULK DENSITY
 SPR .MV     05 010 01 00:   SPONTANEOUS POTENTIAL
 ILD .OHMM   05 120 46 00:   DEEP INDUCTION RESISTIVITY
 SN  .OHMM   05 040 00 00:   SHORT NORMAL
~PARAMETER INFORMATION
#MNEM.UNIT          VALUE    DESCRIPTION
#----------   ------------   ------------------------------
 EKB .F         5007.0000:   Kelly bushing
 EGL .F         4997.0000:   Ground level
 EDF .F            0.0000:   Drilling floor
 EPD .F            0.0000:   Permanent datum
 TD  .F         2832.0000:   Total depth
 DATE.        01-AUG-1978:   Date logged
 CLNT.            A2DTECH:   Client Code
 SL  . 940' FSL & 200' FEL:   Surface Location
 PD  .                 GL:   Permanent Datum
 DD  .F              2825:   Depth driller
 DL  .F              2832:   Depth logger
 BLI .F              2826:   Bottom log interval
 CS1 .IN            8.625:   Casing size
 CBD1.      8.625" @ 140':   Casing driller 1
 CBL1.F               240:   Casing logger 1
 BS1 .IN            7.875:   Bit size
 DFT .            KCL/GEL:   Type fluid in hole
 DFD .                  9:   Density
 DFV .                 34:   Viscosity
 DFL .                  8:   Fluid loss
 MSS .           FLOWLINE:   Source of sample
 RMS .OHMM            1.5:   Rm
 MST .F                70:   Rm Meas. temp.
 RMF .OHMM            .70:   Rmf
 MFST.F                72:   Rmf Meas. temp.
 RMC .OHMM            2.2:   Rmc
 MCST.F                75:   Rmc Meas. temp.
 MFSS.               MEAS:   Source Rmf.
 TCS .HRS               6:   Time Circ. stopped
 LUN .               3007:   Logging unit number
 LUL .               CASP:   Logging unit location
 ENGI.            POINTER:   Recorded By
 WITN.              AMEND:   Witnessed by
 ORIG.           5" PRINT:   Origin of data
 UWI .     49025106780000:   Unique Well ID
 DICO. A2D TECHNOLOGIES, INC.:   Digitizing Company
 DAPD.                 10:   Feet Above Permanent Datum
 BSD1.F              2825:   Depth drilled with bit1
 LMF .                 KB:   Log Measured From
 DMF .                 KB:   Drilling Measured From
 TLI .F               140:   Top log interval
~OTHER INFORMATION
~A   DEPT     CALD       CORR         GRD      RHOB        SPR        ILD         SN   
# ...
  687.0000     9.7450     0.1330   100.4380     2.5670   -24.8510     9.5830     8.7930
  687.5000     9.7470     0.1360   100.7570     2.5620   -24.8510     9.3650     8.7880
  688.0000     9.7560     0.1390   102.4210     2.5630   -24.8620     9.1080     8.7830
  688.5000     9.7650     0.1430   103.8530     2.5680   -24.9180     9.1140     8.7810
  689.0000     9.7730     0.1490   104.7690     2.5590   -24.9780     9.1230     8.7810
  689.5000     9.7830     0.1510   103.0480     2.5570   -25.0970     9.1320     8.7810
  690.0000     9.7850     0.1520   101.0690     2.5670   -23.3220     9.1410     8.7810
  690.5000     9.7850     0.1470   100.9780     2.5850   -23.9670     9.1500     8.7810
  691.0000     9.7850     0.1420   102.4170     2.5800   -24.6070     9.1590     8.7810
  691.5000     9.7850     0.1420   103.1420     2.5740   -24.2290     9.1680     8.7810
  692.0000     9.7850     0.1420   100.6990     2.5710   -23.8360     9.1770     8.7810
  692.5000     9.7850     0.1420   100.4080     2.5700   -23.6950     9.1860     8.7810
  693.0000     9.7850     0.1420   100.4170     2.5720   -23.7790     9.1950     8.7810
  693.5000     9.7850     0.1350   100.4100     2.5860   -23.8620     9.2040     8.7810
  694.0000     9.7850     0.1230   100.0520     2.5820   -23.9470     9.2130     8.7810
  694.5000     9.7850     0.1180    99.3940     2.5760   -24.0340     9.2220     8.7810
  695.0000     9.7580     0.1170   101.1350     2.5730   -24.0590     9.2310     8.7810
  695.5000     9.7200     0.1170   102.3180     2.5770   -24.0600     9.2400     8.7810
  696.0000     9.6820     0.1160    99.8020     2.5860   -24.0830     9.2490     8.7810
  696.5000     9.6860     0.1150   101.5170     2.5840   -24.1710     9.2580     8.7810
  697.0000     9.7220     0.1150   102.4810     2.5740   -24.2530     9.2670     8.7810
  697.5000     9.7570     0.1180   104.0560     2.5720   -24.3070     9.2760     8.7810
  698.0000     9.7850     0.1200   105.3910     2.5730   -24.3690     9.2870     8.7810
  698.5000     9.7790     0.1200   104.2440     2.5710   -24.4340     9.2990     8.7810
  699.0000     9.7650     0.1200   102.7170     2.5680   -24.4660     9.3100     8.7810
  699.5000     9.7520     0.1200   104.8910     2.5680   -24.5160     9.3220     8.7810
  700.0000     9.7450     0.1200   106.1500     2.5690   -24.5650     9.3330     8.8120
  700.5000     9.7500     0.1190   105.8040     2.5710   -24.6140     9.3440     8.8480
  701.0000     9.7540     0.1180   104.6250     2.5740   -24.6450     9.3560     8.8830
  701.5000     9.7590     0.1180   104.9330     2.5730   -24.2330     9.3670     8.9190
  702.0000     9.7630     0.1180   107.2080     2.5660   -23.8460     9.3780     8.9540
  702.5000     9.7600     0.1180   103.4480     2.5570   -23.7370     9.3900     8.9900
  703.0000     9.7360     0.1180   100.1700     2.5640   -23.6100     9.4010     9.0260
  703.5000     9.7120     0.1130    99.8730     2.5730   -23.4820     9.4120     9.0610
  704.0000     9.6880     0.1040    96.4680     2.5740   -23.3600     9.4240     9.0970
  704.5000     9.6660     0.0880    92.3930     2.5630   -23.3720     9.4350     9.2000
  705.0000     9.6930     0.0820    88.4470     2.5320   -23.7890     9.4470     9.3900
  705.5000     9.7470     0.1140    87.4330     2.4890   -24.0650     9.6640     9.5790
  706.0000     9.8000     0.1730    86.7980     2.5470   -24.0590     9.9000     9.7690
  706.5000     9.7980     0.1750    87.5230     2.6220   -24.0600    10.1360     9.9580
  707.0000     9.5620     0.1150    88.5950     2.6150   -24.1600    10.3710    10.0920
  707.5000     9.5670     0.0980    88.6120     2.5930   -24.4220    10.6070    10.1440
  708.0000     9.5670     0.0970    88.4260     2.5750   -24.2590    10.7850    10.1950
  708.5000     9.5670     0.0970   100.0710     2.5750   -24.0300    10.8920    10.2460
  709.0000     9.5670     0.0970    99.0040     2.5820   -23.8580    10.9990    10.2970
  709.5000     9.5670     0.0970    98.3230     2.5860   -23.9230    11.1060    10.3520
  710.0000     9.5680     0.0990   101.0230     2.5700   -24.0450    11.2120    10.3410
  710.5000     9.5750     0.1020   100.0610     2.5600   -24.1660    11.3190    10.3300
  711.0000     9.5810     0.1040   100.1170     2.5540   -24.2870    11.4260    10.3190
  711.5000     9.5880     0.1090   100.3240     2.5460   -24.4100    11.5330    10.3070
  712.0000     9.5940     0.1310   102.5450     2.5400   -24.4650    11.5530    10.2960
  712.5000     9.6010     0.1430   105.0570     2.5710   -24.5170    11.5530    10.2840
  713.0000     9.6080     0.1490   105.1410     2.5710   -24.5680    11.5530    10.2670
  713.5000     9.6140     0.1510   103.4890     2.5770   -24.6180    11.5150    10.2590
  714.0000     9.6210     0.1530   105.3320     2.5850   -24.6260    11.3850    10.1460
  714.5000     9.6270     0.1550   106.2990     2.5860   -24.5210    11.2540     9.9840
  715.0000     9.6600     0.1560   108.1080     2.5710   -24.4200    11.1230     9.8220
  715.5000     9.6960     0.1560   109.2580     2.5670   -24.3190    10.9920     9.6600
  716.0000     9.7330     0.1570   110.6440     2.5690   -24.2840    10.8620     9.4980
  716.5000     9.7690     0.1580   113.2950     2.5560   -24.3550    10.6790     9.3350
  717.0000     9.8050     0.1590   108.6570     2.5540   -24.4250    10.4830     9.2600
  717.5000     9.8240     0.1600    98.0470     2.5540   -24.4940    10.2880     9.2360
  718.0000     9.8240     0.1590   100.9840     2.5550   -24.5640    10.0930     9.2110
  718.5000     9.8240     0.1590   105.4110     2.5670   -24.6360    10.0240     9.1870
  719.0000     9.8240     0.1580   105.9440     2.5810   -24.6370     9.9700     9.1620
  719.5000     9.8240     0.1570   106.4960     2.5860   -24.6070     9.9170     9.1370
  720.0000     9.8440     0.1490   102.0830     2.5900   -24.5760     9.8630     9.1130
  720.5000     9.9000     0.1330   103.1910     2.6130   -24.5450     9.7990     9.0880
  721.0000     9.9340     0.1190   103.2010     2.6010   -24.5150     9.8060     9.0630
  721.5000     9.8810     0.1060   102.6220     2.5990   -24.4840     9.8140     9.0390
  722.0000     9.8300     0.0930   102.6970     2.5860   -24.4560     9.8220     9.0140
  722.5000     9.8090     0.0790    87.5970     2.5810   -24.4550     9.8300     8.9890
  723.0000     9.8040     0.0770    87.1690     2.5580   -24.4560     9.8380     8.9650
  723.5000     9.8040     0.0780    86.9670     2.5340   -24.4550     9.8450     8.9400
  724.0000     9.8040     0.0790    87.6730     2.5250   -24.4380     9.8530     8.9160
  724.5000     9.8040     0.0890    88.3040     2.5250   -24.3770     9.8610     8.8910
  725.0000     9.8040     0.1040    89.7910     2.5280   -24.3200     9.8690     8.8660
  725.5000     9.8040     0.1080    92.0770     2.5410   -24.2620     9.8770     8.8530
  726.0000     9.8050     0.1070    89.3090     2.5640   -24.2030     9.8890     8.8420
  726.5000     9.8010     0.1030    87.7870     2.5860   -24.1470     9.8590     8.8320
  727.0000     9.7240     0.0950    90.8360     2.5910   -24.0900     9.7950     8.8210
  727.5000     9.6890     0.0690    92.2780     2.5800   -24.2860     9.7290     8.8110
  728.0000     9.7230     0.0580    91.8890     2.5410   -24.7470     9.6640     8.8000
  728.5000     9.7570     0.0580    95.7880     2.5300   -24.8490     9.6050     8.7900
  729.0000     9.7850     0.0830    97.1050     2.5270   -24.7270     9.5570     8.7810
  729.5000     9.7830     0.0950    97.5040     2.5310   -23.9590     9.5100     8.7930
  730.0000     9.7800     0.1100    95.3700     2.5540   -23.7170     9.4620     8.8250
  730.5000     9.7780     0.1240    91.8060     2.5630   -23.9710     9.4140     8.8570
  731.0000     9.7760     0.1250    91.5230     2.5690   -24.2250     9.3670     8.8890
  731.5000     9.7730     0.1220    91.4220     2.5790   -24.4460     9.3190     8.9210
  732.0000     9.7710     0.1110    98.7270     2.5680   -24.2900     9.2760     8.9530
