~VERSION INFORMATION
 VERS.                2.0:   CWLS LOG ASCII STANDARD - VERSION 2.0
 WRAP.                 NO:   ONE LINE PER DEPTH STEP
~WELL INFORMATION
#MNEM.UNIT      DATA TYPE    INFORMATION
#----------   ------------   ------------------------------
 STRT.F            9.5000:   START DEPTH
 STOP.F         3154.0000:   STOP DEPTH
 STEP.F            0.5000:   STEP LENGTH
 NULL.          -999.2500:   NO VALUE
 COMP. LAWRENCE ALISON AND ASSOCIATES:   COMPANY
 WELL. LAWRENCE "X" #86-3:   WELL
 FLD .          N.P.R. #3:   FIELD
 LOC .       S3 T38N R78W:   LOCATION
 CNTY.            NATRONA:   COUNTY
 STAT.            WYOMING:   STATE
 CTRY. UNITED STATES OF AMERICA:   COUNTRY
 SRVC.       DRESSER ALAS:   SERVICE COMPANY
 DATE.        13-JUN-1986:   LOGDATE
 API .     49025110920000:   API NUMBER
~CURVE INFORMATION
#MNEM.UNIT       API CODE    CURVE DESCRIPTION
#----------   ------------   ------------------------------
 DEPT.F                  :   
 CALD.IN     45 280 60 00:   CALIPER FROM DENSITY LOG
 RHOB.G/C3   45 350 01 00:   BULK DENSITY
 CORR.G/C3   45 356 01 00:   DENSITY CORRECTION
 CNC .DEC    42 890 03 00:   NEUTRON PORISITY LIMESTONE
 SPR .MV     07 010 01 00:   SPONTANEOUS POTENTIAL
 GRR .GAPI   07 310 01 00:   GAMMA RAY FROM RESISTIVITY
 RFOC.OHMM   07 220 04 00:   RESISTIVITY FOCUSED LOG RES.
 ILD .OHMM   07 120 46 00:   DEEP INDUCTION RESISTIVITY
 ILM .OHMM   07 120 44 00:   INDUCTION LOG MEDIUM RESISTIVITY
 TENR.LBS    07 635 01 00:   TENSION FROM RESISTIVITY
~PARAMETER INFORMATION
#MNEM.UNIT          VALUE    DESCRIPTION
#----------   ------------   ------------------------------
 EKB .F         5153.0000:   Kelly bushing
 EGL .F         5142.0000:   Ground level
 EDF .F         5151.0000:   Drilling floor
 TD  .F         3151.0000:   Total depth
 DATE.        13-JUN-1986:   Date logged
 CLNT.            A2DTECH:   Client Code
 SL  . 1450' FSL & 144' FEL:   Surface Location
 PD  .                 GL:   Permanent Datum
 EPD .F              5142:   Elevation Permanent Datum
 LMF .                 KB:   Log Measured From
 DMF .                 KB:   Drilling Measured From
 DAPD.F                11:   Feet Above Permanent Datum
 DD  .F              3151:   Depth driller
 DL  .F              3151:   Depth logger
 BLI .F              3146:   Bottom log interval
 TLI .F                11:   Top log interval
 CS1 .IN            8.625:   Casing size
 CBD1.      8.625" @ 584':   Casing driller 1
 CBL1.F               592:   Casing logger 1
 BS1 .IN            7.875:   Bit size
 BSD1.F              3151:   Depth drilled with bit1
 DFT .            KCL-GEL:   Type fluid in hole
 DFD .                8.8:   Density
 DFV .                 35:   Viscosity
 DFPH.                8.5:   pH
 DFL .               15.5:   Fluid loss
 MSS .           FLOWLINE:   Source of sample
 RMS .OHMM           0.49:   Rm
 MST .F                80:   Rm Meas. temp.
 RMF .OHMM           0.38:   Rmf
 MFST.F                80:   Rmf Meas. temp.
 RMC .OHMM           0.61:   Rmc
 MCST.F                80:   Rmc Meas. temp.
 MFSS.               MEAS:   Source Rmf.
 MCSS.               CALC:   Source Rmc.
 RMB .OHMM           0.37:   Rm. at BHT
 BHT .F               112:   BHT.
 TCS .HRS            0.37:   Time Circ. stopped
 MRT .F               112:   Maximum recorded temp.
 LUN .            HL-6274:   Logging unit number
 LUL .           GILLETTE:   Logging unit location
 WITN.             STRONG:   Witnessed by
 ORIG.           5" PRINT:   Origin of data
 UWI .     49025110920000:   Unique Well ID
 DICO. A2D TECHNOLOGIES, INC.:   Digitizing Company
~OTHER INFORMATION
~A    DEPT    CALD       RHOB       CORR        CNC        SPR        GRR       RFOC        ILD        ILM       TENR   
# ...
 2086.5000  -999.2500  -999.2500  -999.2500  -999.2500   -93.5288   114.6309    10.7459     9.6474     8.6312   -82.6018
 2087.0000  -999.2500  -999.2500  -999.2500  -999.2500   -93.5300   114.2228    10.8442     9.5573     8.6295   -82.4520
 2087.5000  -999.2500  -999.2500  -999.2500  -999.2500   -93.3298   111.8011    11.0454     9.4674     8.6281   -82.2723
 2088.0000  -999.2500  -999.2500  -999.2500  -999.2500   -93.3310   110.1849    10.9417     9.3784     8.6267   -82.1226
 2088.5000  -999.2500  -999.2500  -999.2500  -999.2500   -93.3322   109.3743    10.5415     9.2902     8.6253   -81.9728
 2089.0000  -999.2500  -999.2500  -999.2500  -999.2500   -93.5348   107.7583    10.4425     9.4628     8.6238   -81.8231
 2089.5000  -999.2500  -999.2500  -999.2500  -999.2500   -93.7386   103.7264    10.5377     9.7281     8.6224  -101.7725
 2090.0000  -999.2500  -999.2500  -999.2500  -999.2500   -93.7398    99.2891    11.0361     9.9088     8.7011  -101.7127
 2090.5000  -999.2500  -999.2500  -999.2500  -999.2500   -93.7403    98.8845    11.2408     9.9635     9.0291   -81.3738
 2091.0000  -999.2500  -999.2500  -999.2500  -999.2500   -93.7424   101.2954    11.5561    10.0185     9.1110   -81.2241
 2091.5000  -999.2500  -999.2500  -999.2500  -999.2500   -93.7436   106.3272    11.7705    10.0739     9.1101   -81.0743
 2092.0000  -999.2500  -999.2500  -999.2500  -999.2500   -93.7447   124.8389    12.1006    10.1823     8.9410   -80.9245
 2092.5000  -999.2500  -999.2500  -999.2500  -999.2500   -93.9472   129.8641    11.6580    10.1810     8.8569   -80.7748
 2093.0000  -999.2500  -999.2500  -999.2500  -999.2500   -93.7471   133.2854    11.4420    10.1800     8.8558   -80.6251
 2093.5000  -999.2500  -999.2500  -999.2500  -999.2500   -93.7482   124.6189    11.0235    10.1058     8.7722   -80.4753
 2094.0000  -999.2500  -999.2500  -999.2500  -999.2500   -93.7494   116.7649    10.6203    10.0321     8.7708   -80.2956
 2094.5000  -999.2500  -999.2500  -999.2500  -999.2500   -93.7504   118.1645    10.8174     9.9590     8.8514   -80.1458
 2095.0000  -999.2500  -999.2500  -999.2500  -999.2500   -93.7518   122.0040    11.0181     9.8864     8.8500   -69.9159
 2095.5000  -999.2500  -999.2500  -999.2500  -999.2500   -93.7529   126.4079    11.3271     9.7990     8.8482   -79.8462
 2096.0000  -999.2500  -999.2500  -999.2500  -999.2500   -93.3306   122.5779    11.5373     9.7973     8.8470   -79.6964
 2096.5000  -999.2500  -999.2500  -999.2500  -999.2500   -93.5331   120.1573    11.5350     9.5273     8.3658   -79.5467
 2097.0000  -999.2500  -999.2500  -999.2500  -999.2500   -93.9385   119.3468    11.5332     9.1782     8.0597   -79.3969
 2097.5000  -999.2500  -999.2500  -999.2500  -999.2500   -94.1422   120.1462    10.8065     8.9249     7.8368   -89.3275
 2098.0000  -999.2500  -999.2500  -999.2500  -999.2500   -94.5476   121.3481    10.3151     8.9231     7.8360   -58.9365
 2098.5000  -999.2500  -999.2500  -999.2500  -999.2500   -94.5497   120.1351     9.3131     9.1008     7.6901   -78.9476
 2099.0000  -999.2500  -999.2500  -999.2500  -999.2500   -94.5518   117.3114     8.8897     8.9196     7.6888   -78.7978
 2099.5000  -999.2500  -999.2500  -999.2500  -999.2500   -94.1507   113.6840     9.3965     8.7546     7.7595   -78.6480
 2100.0000  -999.2500  -999.2500  -999.2500  -999.2500   -93.5622   110.0549    10.2132     8.7532     7.9771   -78.4683
 2100.5000  -999.2500  -999.2500  -999.2500  -999.2500   -93.3640    98.2976    10.5002     9.0616     8.2774   -78.3156
 2101.0000  -999.2500  -999.2500  -999.2500  -999.2500   -92.9675    94.3426    10.8943     9.1658     8.5097   -78.0708
 2101.5000  -999.2500  -999.2500  -999.2500  -999.2500   -92.5720    93.1254    11.0962     9.5985     8.6676   -77.8720
 2102.0000  -999.2500  -999.2500  -999.2500  -999.2500   -92.5750    92.7131    11.0942     9.6874     8.7468   -47.4314
 2102.5000  -999.2500  -999.2500  -999.2500  -999.2500   -92.5799    97.5322    11.5101     9.9599     8.7452   -77.4744
 2103.0000  -999.2500  -999.2500  -999.2500  -999.2500   -93.1885   101.1441    11.4027     9.8642     8.7433   -77.2756
 2103.5000  -999.2500  -999.2500  -999.2500  -999.2500   -93.1915   107.1705    11.0877     9.8631     8.6612   -97.2379
 2104.0000  -999.2500  -999.2500  -999.2500  -999.2500   -93.8011   111.1848    10.5826     9.8621     8.5793   -86.9585
 2104.5000  -999.2500  -999.2500  -999.2500  -999.2500   -94.0082   118.0160    10.1957     9.8595     8.5777   -86.7597
 2105.0000  -999.2500  -999.2500  -999.2500  -999.2500   -94.4156   124.0424    10.3854     9.8574     8.5762   -76.4802
 2105.5000  -999.2500  -999.2500  -999.2500  -999.2500   -94.4206   130.6701    10.7756     9.6749     8.5749   -76.2815
 2106.0000  -999.2500  -999.2500  -999.2500  -999.2500   -94.4255   127.6443    10.6742     9.5838     8.4932   -55.9214
 2106.5000  -999.2500  -999.2500  -999.2500  -999.2500   -93.8271   119.5840    10.6722     9.4061     8.4926   -75.8838
 2107.0000  -999.2500  -999.2500  -999.2500  -999.2500   -93.2313   115.1474    10.6703     9.2310     8.4125   -75.6849
 2107.5000  -999.2500  -999.2500  -999.2500  -999.2500   -93.4203   114.3326    10.7677     9.0592     8.4110   -85.5269
 2108.0000  -999.2500  -999.2500  -999.2500  -999.2500   -93.0391   114.7251    10.6664     9.0575     8.2544  -105.4894
 2108.5000  -999.2500  -999.2500  -999.2500  -999.2500   -93.0440   115.5200    10.1812     8.8071     7.8786   -75.0487
 2109.0000  -999.2500  -999.2500  -999.2500  -999.2500   -93.0490   113.9004    10.0853     8.4845     7.4495   -84.9305
 2109.5000  -999.2500  -999.2500  -999.2500  -999.2500   -93.0539   110.6711    10.0835     8.3269     7.3119   -84.7317
 2110.0000  -999.2500  -999.2500  -999.2500  -999.2500   -93.6633   107.6447     9.1035     7.9474     7.2427   -74.4522
 2110.5000  -999.2500  -999.2500  -999.2500  -999.2500   -93.6662   108.0392     8.1432     7.8719     7.3089   -74.2534
 2111.0000  -999.2500  -999.2500  -999.2500  -999.2500   -93.8724   117.8849     8.0665     7.9448     7.5841   -74.0546
 2111.5000  -999.2500  -999.2500  -999.2500  -999.2500   -93.8774   121.4968     8.4485     8.3208     7.9430   -73.8558
 2112.0000  -999.2500  -999.2500  -999.2500  -999.2500   -93.8833   121.4868     9.8893     8.6343     8.2421   -93.7386
 2112.5000  -999.2500  -999.2500  -999.2500  -999.2500   -93.8863   121.4769    11.3627     9.1266     8.5523   -83.5387
 2113.0000  -999.2500  -999.2500  -999.2500  -999.2500   -93.2896   119.2553    11.6811     9.3827     8.7110   -83.3399
 2113.5000  -999.2500  -999.2500  -999.2500  -999.2500   -93.4969   117.6377    11.6790     9.6460     8.8727   -73.0604
 2114.0000  -999.2500  -999.2500  -999.2500  -999.2500   -93.0995   115.8132    11.3564    10.0091     8.8711   -72.8617
 2114.5000  -999.2500  -999.2500  -999.2500  -999.2500   -92.7020   105.3404    10.8399    10.2899     8.8694   -82.7037
 2115.0000  -999.2500  -999.2500  -999.2500  -999.2500   -92.7070    99.2902    10.7378    10.2633     8.8675   -82.5048
 2115.5000  -999.2500  -999.2500  -999.2500  -999.2500   -92.3085   100.0911    10.7359     9.8985     8.6226   -72.2254
 2116.0000  -999.2500  -999.2500  -999.2500  -999.2500   -92.3144   102.8981    10.4394     9.6330     8.3842   -72.0266
 2116.5000  -999.2500  -999.2500  -999.2500  -999.2500   -92.5206   110.9326     9.9645     9.1242     8.0768   -71.8278
 2117.0000  -999.2500  -999.2500  -999.2500  -999.2500   -93.3292   110.1178     9.4231     9.2824     8.1507   -71.6289
 2117.5000  -999.2500  -999.2500  -999.2500  -999.2500   -93.9378   111.7136     9.4214     9.2807     8.4575   -71.4301
 2118.0000  -999.2500  -999.2500  -999.2500  -999.2500   -94.1429   110.0979     9.5081     9.2787     8.5348   -71.2313
 2118.5000  -999.2500  -999.2500  -999.2500  -999.2500   -94.1511   109.2852    10.6251     9.2773     8.5333   -71.0324
 2119.0000  -999.2500  -999.2500  -999.2500  -999.2500   -93.3512   106.4563    11.0242     9.2756     8.5317   -80.9142
 2119.5000  -999.2500  -999.2500  -999.2500  -999.2500   -92.7525   106.8488    11.3324     9.2739     8.2952   -70.6348
