~VERSION INFORMATION
 VERS.                2.0:   CWLS LOG ASCII STANDARD - VERSION 2.0
 WRAP.                 NO:   ONE LINE PER DEPTH STEP
~WELL INFORMATION
#MNEM.UNIT      DATA TYPE    INFORMATION
#----------   ------------   ------------------------------
 STRT.F          540.0000:   START DEPTH
 STOP.F         4100.0000:   STOP DEPTH
 STEP.F            0.5000:   STEP LENGTH
 NULL.          -999.2500:   NO VALUE
 COMP. LAWRENCE ALISON & ASSOC.,WEST:   COMPANY
 WELL. LAWRENCE "X" #15-11:   WELL
 FLD .              N P R:   FIELD
 LOC .      S11 T38N R78W:   LOCATION
 CNTY.            NATRONA:   COUNTY
 STAT.            WYOMING:   STATE
 CTRY. UNITED STATES OF AMERICA:   COUNTRY
 SRVC.      DRESSER ATLAS:   SERVICE COMPANY
 DATE.        18-MAY-1985:   LOGDATE
 API .     49025110220000:   API NUMBER
~CURVE INFORMATION
#MNEM.UNIT       API CODE    CURVE DESCRIPTION
#----------   ------------   ------------------------------
 DEPT.F                  :   
 NPHI.DEC    42 890 03 00:   NEUTRON POROSITY SANDSTONE
 RHOB.G/C3   45 350 01 00:   BULK DENSITY
 CORR.G/C3   45 356 01 00:   DENSITY CORRECTION
 TEND.LBS    45 635 01 00:   TENSION FROM DENSITY LOG
 GRD .GAPI   45 310 01 00:   GAMMA RAY FROM DENSITY LOG
 CALD.IN     45 280 60 00:   CALIPER FROM DENSITY LOG
 SPR .MV     07 010 01 00:   SPONTANEOUS POTENTIAL
 RILD.OHMM   07 120 46 00:   DEEP INDUCTION RESISTIVITY
 RILM.OHMM   07 120 44 00:   INDUCTION LOG MEDIUM RESISTIVITY
 RFOC.OHMM   07 220 04 00:   RESISTIVITY FOCUSED LOG RES.
 TENR.LBS    07 635 01 00:   TENSION FROM RESISTIVITY
~PARAMETER INFORMATION
#MNEM.UNIT          VALUE    DESCRIPTION
#----------   ------------   ------------------------------
 EKB .F         5201.0000:   Kelly bushing
 EGL .F         5189.0000:   Ground level
 EDF .F         5200.0000:   Drilling floor
 TD  .F         4095.0000:   Total depth
 DATE.        18-MAY-1985:   Date logged
 CLNT.            A2DTECH:   Client Code
 SL  . 2203' FSL & 377' FWL:   Surface Location
 PD  .                 GL:   Permanent Datum
 EPD .F              5189:   Elevation Permanent Datum
 LMF .                 KB:   Log Measured From
 DMF .                 KB:   Drilling Measured From
 DAPD.F                12:   Feet Above Permanent Datum
 DD  .F              4095:   Depth driller
 DL  .F              4093:   Depth logger
 BLI .F              4091:   Bottom log interval
 TLI .F                 0:   Top log interval
 CS1 .IN            8.625:   Casing size
 CBD1.      8.625" @ 565':   Casing driller 1
 CBL1.F               565:   Casing logger 1
 BS1 .IN            7.875:   Bit size
 BSD1.F              4095:   Depth drilled with bit1
 DFT .            GEL KCL:   Type fluid in hole
 DFD .                9.2:   Density
 DFV .                 40:   Viscosity
 DFPH.                8.0:   pH
 DFL .                9.0:   Fluid loss
 MSS .            MUDTANK:   Source of sample
 RMS .OHMM            .57:   Rm
 MST .F                69:   Rm Meas. temp.
 RMF .OHMM            .49:   Rmf
 MFST.F                69:   Rmf Meas. temp.
 RMC .OHMM            .71:   Rmc
 MCST.F                69:   Rmc Meas. temp.
 MFSS.               MEAS:   Source Rmf.
 MCSS.               CALC:   Source Rmc.
 RMB .OHMM            .30:   Rm. at BHT
 BHT .F               139:   BHT.
 TCS .HRS               4:   Time Circ. stopped
 MRT .F               139:   Maximum recorded temp.
 LUN .            HL 6302:   Logging unit number
 LUL .               CODY:   Logging unit location
 ENGI.              GETTY:   Recorded By
 WITN.              FIVAS:   Witnessed by
 ORIG.           5" PRINT:   Origin of data
 UWI .     49025110220000:   Unique Well ID
 DICO. A2D TECHNOLOGIES, INC.:   Digitizing Company
~OTHER INFORMATION
~A   DEPT     NPHI       RHOB       CORR        TEND        GRD      CALD        SPR       RILD       RILM       RFOC       TENR   
# ...
  814.5000     0.4170     2.5370     0.0360   -48.6280    97.9470    12.0060    -2.0870     5.8460     5.3220     5.8010   -27.1210
  815.0000     0.4280     2.5320     0.0380   -49.5610    98.6470    12.0060    -2.0870     5.8390     5.3170     5.7970   -28.0220
  815.5000     0.4150     2.5260     0.0390   -50.4930    99.6170    12.0060    -2.0870     5.8330     5.3120     5.7930   -28.9230
  816.0000     0.3900     2.5220     0.0440   -51.4260    99.7010    12.0060    -2.0870     5.8460     5.3070     5.7890   -29.8240
  816.5000     0.3650     2.5230     0.0650   -52.3580    98.1120    12.0060    -2.0870     5.8580     5.3030     5.7850   -30.7250
  817.0000     0.3580     2.5230     0.0790   -53.2910    96.1580    12.0060    -2.0870     5.8700     5.2980     5.7800   -31.6260
  817.5000     0.3590     2.5170     0.0470   -54.2230    94.8650    12.0060    -2.0870     5.8820     5.2930     5.7840   -32.5270
  818.0000     0.3600     2.5100     0.0240   -55.1550    96.0590    11.9920    -2.0870     5.8940     5.2880     5.7940   -33.4280
  818.5000     0.3620     2.5040     0.0200   -56.0880    98.0670    11.9740    -2.0870     5.9070     5.2830     5.8030   -34.3290
  819.0000     0.3680     2.5060     0.0280   -57.0200    96.9760    11.9560    -2.0880     5.9190     5.2790     5.8130   -35.2300
  819.5000     0.3890     2.5180     0.0520   -57.9530    95.7120    11.9370    -2.0880     5.9310     5.2760     5.8230   -36.1320
  820.0000     0.4120     2.5300     0.0670   -58.8850    94.9310    11.9190    -2.0870     5.9460     5.2740     5.8320   -37.0330
  820.5000     0.4200     2.5370     0.0450   -59.8180    95.2070    11.9010    -2.0030     5.9710     5.3670     5.8420   -37.9340
  821.0000     0.3930     2.5340     0.0210   -60.7500    95.4650    11.8820    -1.3850     5.9950     5.4400     5.8510   -38.8350
  821.5000     0.3670     2.5300     0.0060   -61.6820    95.6240    11.8670    -0.7600     6.0190     5.5130     5.8610   -39.7360
  822.0000     0.3820     2.5360     0.0140   -62.6150    94.5360    11.8760    -0.1250     6.0430     5.5860     5.8710   -40.6370
  822.5000     0.4080     2.5470     0.0330   -63.5470    93.4320    11.8860    -0.0850     6.0680     5.6590     5.8800   -41.5380
  823.0000     0.3970     2.5580     0.0690   -64.4800    94.0620    11.8970    -0.0780     6.0920     5.7320     5.8860   -42.4390
  823.5000     0.3740     2.5600     0.0930   -65.4120    94.8250    11.9070    -0.0690     6.1160     5.8040     5.8830   -43.3400
  824.0000     0.3660     2.5560     0.0970   -66.3450    94.0510    11.9170    -0.0580     6.1410     5.8370     5.8810   -44.2410
  824.5000     0.3750     2.5520     0.0900   -67.2770    93.1310    11.9250    -0.0480     6.1650     5.8450     5.8790   -45.1420
  825.0000     0.3850     2.5470     0.0880   -68.2090    94.1610    11.9180    -0.0370     6.1890     5.8520     5.8770   -46.0430
  825.5000     0.3880     2.5450     0.0970   -69.1420    95.3760    11.9100    -0.0260     6.2140     5.8600     5.8750   -46.9440
  826.0000     0.3830     2.5450     0.1050   -70.0740    96.5900    11.9030    -0.0160     6.2380     5.8670     5.8730   -47.8450
  826.5000     0.3710     2.5440     0.0870   -71.0070    98.9040    11.8950    -0.0050     6.2620     5.8750     5.8710   -48.7460
  827.0000     0.3590     2.5430     0.0650   -71.9390   101.4070    11.8870     0.0050     6.2860     5.8830     5.8690   -49.6470
  827.5000     0.3570     2.5430     0.0660   -72.8720   100.2550    11.8870     0.0160     6.3110     5.8900     5.8670   -50.5480
  828.0000     0.3680     2.5440     0.0680   -73.8040    98.8870    11.8890     0.0260     6.3350     5.8980     5.8640   -51.4490
  828.5000     0.4050     2.5390     0.0480   -74.7360    98.1630    11.8900     0.0370     6.3590     5.9050     5.8620   -52.3500
  829.0000     0.3890     2.5350     0.0250   -75.6690    98.1780    11.8910     0.0470     6.3840     5.9130     5.8600   -53.2510
  829.5000     0.3720     2.5300     0.0050   -75.8710    97.2340    11.8920     0.0580     6.4080     5.9210     5.8580   -54.1520
  830.0000     0.3650     2.5250     0.0170   -75.8710    95.8650    11.8930     0.0680     6.4320     5.9280     5.8560   -55.0530
  830.5000     0.3580     2.5210     0.0300   -75.8710    94.5630    11.8940     0.0790     6.4490     5.9360     5.8540   -55.9540
  831.0000     0.3500     2.5170     0.0380   -75.8710    94.0230    11.8950     0.0890     6.4480     5.9430     5.8520   -56.7390
  831.5000     0.3350     2.5180     0.0390   -75.8710    95.0620    11.8960     0.1000     6.4480     5.9510     5.8500   -56.7390
  832.0000     0.3240     2.5190     0.0170   -75.8710    96.0370    11.8980     0.0700     6.4480     5.9590     5.8480   -56.7390
  832.5000     0.3390     2.5200     0.0070   -75.8710    95.8630    11.8990     0.0350     6.4480     5.9660     5.8460   -56.7390
  833.0000     0.3560     2.5210     0.0060   -75.8710    94.4020    11.9000     0.0010     6.4480     5.9740     5.8440   -56.7390
  833.5000     0.3960     2.5180     0.0120   -75.8710    92.7690    11.9010    -0.0340     6.4480     5.9810     5.8410   -56.7390
  834.0000     0.4330     2.5160     0.0410   -75.8710    92.1270    11.9020    -0.0690     6.4480     5.9890     5.8390   -56.7390
  834.5000     0.4080     2.5140     0.0580   -75.8710    94.1200    11.9030    -0.1040     6.4480     5.9940     5.8380   -56.7390
  835.0000     0.3610     2.5140     0.0630   -75.8710    96.3050    11.9040    -0.1380     6.6000     5.9940     5.8340   -56.7390
  835.5000     0.3360     2.5120     0.0660   -75.8710    96.4950    11.9060    -0.1730     6.9270     6.3850     5.8290   -56.7390
  836.0000     0.3400     2.5100     0.0690   -75.8710    93.8720    11.9100    -0.2080     7.2540     6.7470     5.7790   -56.7390
  836.5000     0.3440     2.5120     0.0420   -75.8710    90.4440    11.9280    -0.2430     7.5810     7.1090     6.6430   -56.7390
  837.0000     0.2990     2.5120     0.0150   -75.8710    89.2520    11.9460    -0.2770     7.9080     7.4700     7.2300   -56.7390
  837.5000     0.2760     2.5110    -0.0120   -75.8710    88.1430    11.9640    -0.3120     8.2350     7.8320     7.6700   -56.7390
  838.0000     0.2610     2.5100    -0.0150   -75.8710    87.0190    11.9820    -0.3470     8.5620     8.1940     7.6220   -56.7390
  838.5000     0.2770     2.5150    -0.0100   -75.8710    85.9640    12.0000    -0.3820     8.8890     8.2740     7.5840   -56.7390
  839.0000     0.3090     2.5210    -0.0050   -75.8710    86.8780    12.0180    -0.4160     9.2060     8.3100     7.5460   -56.7390
  839.5000     0.3060     2.5230     0.0000   -75.3720    87.8810    12.0240    -0.4510     9.2920     8.3460     7.5080   -56.7390
  840.0000     0.3000     2.5140     0.0040   -74.7020    88.8790    12.0210    -0.4860     9.4300     8.3820     7.4620   -56.7390
  840.5000     0.2870     2.5050     0.0090   -74.0320    89.8680    12.0170    -0.5210     9.5670     8.4560     7.5550   -56.7390
  841.0000     0.2820     2.5080     0.0140   -73.3620    90.6860    12.0140    -0.5550     9.7040     8.5840     7.6670   -56.7390
  841.5000     0.2890     2.5100     0.0110   -72.6910    89.3720    12.0110    -0.5900     9.8410     8.7110     7.7790   -56.7390
  842.0000     0.3070     2.5050    -0.0140   -72.0210    87.9990    12.0070    -0.6250     9.9790     8.8390     7.8920   -56.7390
  842.5000     0.3010     2.5000    -0.0240   -71.3510    87.5940    12.0040    -0.6590    10.1160     8.9670     8.0040   -56.7390
  843.0000     0.2970     2.5030    -0.0180   -70.6810    88.1170    12.0010    -0.6980    10.2530     9.1220     8.0520   -56.7390
  843.5000     0.2910     2.5090     0.0050   -70.0100    88.6450    11.9970    -0.8480    10.3660     9.0820     8.0830   -56.7390
  844.0000     0.2860     2.5160     0.0150   -69.3400    87.9370    11.9940    -1.0080    10.2640     9.0310     8.1130   -56.7390
  844.5000     0.2860     2.5170    -0.0140   -68.6700    87.0690    11.9900    -1.1680    10.1330     8.9800     8.1440   -56.7390
