~VERSION INFORMATION
 VERS.                2.0:   CWLS LOG ASCII STANDARD - VERSION 2.0
 WRAP.                 NO:   ONE LINE PER DEPTH STEP
~WELL INFORMATION
#MNEM.UNIT      DATA TYPE    INFORMATION
#----------   ------------   ------------------------------
 STRT.F          204.0000:   START DEPTH
 STOP.F         3104.0000:   STOP DEPTH
 STEP.F            0.5000:   STEP LENGTH
 NULL.          -999.2500:   NO VALUE
 COMP.    FENIX & SCISSON:   COMPANY
 WELL. FENIX NPR 83 "AX" #3-10:   WELL
 FLD .                NPR:   FIELD
 LOC .      S10 T38N R78W:   LOCATION
 CNTY.            NATRONA:   COUNTY
 STAT.            WYOMING:   STATE
 CTRY. UNITED STATES OF AMERICA:   COUNTRY
 SRVC.              WELEX:   SERVICE COMPANY
 DATE.        14-JUL-1977:   LOGDATE
 API .     49025103980000:   API NUMBER
~CURVE INFORMATION
#MNEM.UNIT       API CODE    CURVE DESCRIPTION
#----------   ------------   ------------------------------
 DEPT.F                  :   
 ILD .OHMM   07 120 46 00:   DEEP INDUCTION RESISTIVITY
 GURD.OHMM   07 220 05 00:   GUARD LOG RESISTIVITY
 ILM .OHMM   07 120 44 00:   INDUCTION LOG MEDIUM RESISTIVITY
 SPR .MV     07 010 01 00:   SPONTANEOUS POTENTIAL
 CALD.IN     45 280 60 00:   CALIPER FROM DENSITY LOG
 GRD .GAPI   45 310 01 00:   GAMMA RAY FROM DENSITY LOG
 RHOB.G/C3   45 350 01 00:   BULK DENSITY
 CORR.G/C3   45 356 01 00:   DENSITY CORRECTION
 NPHI.DEC    42 890 03 00:   NEUTRON POROSITY SANDSTONE
~PARAMETER INFORMATION
#MNEM.UNIT          VALUE    DESCRIPTION
#----------   ------------   ------------------------------
 EKB .F         5176.0000:   Kelly bushing
 EGL .F         5166.0000:   Ground level
 TD  .F         3105.0000:   Total depth
 DATE.        14-JUL-1977:   Date logged
 CLNT.            A2DTECH:   Client Code
 SL  . 1650' FNL & 100' FEL:   Surface Location
 PD  .                 GL:   Permanent Datum
 DD  .F              3094:   Depth driller
 DL  .F              3105:   Depth logger
 BLI .F              3103:   Bottom log interval
 CS1 .IN            8.625:   Casing size
 CBD1.      8.625" @ 218':   Casing driller 1
 CBL1.F               220:   Casing logger 1
 BS1 .IN            7.875:   Bit size
 DFT .            KCL/GEL:   Type fluid in hole
 DFD .                9.4:   Density
 DFV .                 36:   Viscosity
 DFPH.                  8:   pH
 DFL .                 12:   Fluid loss
 MSS .           FLOWLINE:   Source of sample
 RMS .OHMM           1.54:   Rm
 MST .F               100:   Rm Meas. temp.
 RMF .OHMM            1.5:   Rmf
 MFST.F               100:   Rmf Meas. temp.
 RMC .OHMM           3.47:   Rmc
 MCST.F               100:   Rmc Meas. temp.
 MFSS.               FANN:   Source Rmf.
 RMB .OHMM           1.36:   Rm. at BHT
 BHT .F               113:   BHT.
 TCS .HRS             2.5:   Time Circ. stopped
 MRT .F               113:   Maximum recorded temp.
 LUN .               8766:   Logging unit number
 LUL .             CASPER:   Logging unit location
 ENGI. G. BENTSEN/T. JOYNER:   Recorded By
 WITN.      B. HARRINGTON:   Witnessed by
 ORIG.           5" PRINT:   Origin of data
 UWI .     49025103980000:   Unique Well ID
 DICO. A2D TECHNOLOGIES, INC.:   Digitizing Company
 DAPD.F                10:   Feet Above Permanent Datum
 BSD1.F              3094:   Depth drilled with bit1
 MCSS.                KIT:   Source Rmc.
 TLI .F               210:   Top log interval
 EPD .F              5166:   Elevation Permanent Datum
 LMF .                 KB:   Log Measured From
 DMF .                 KB:   Drilling Measured From
~OTHER INFORMATION
~A   DEPT      ILD       GURD        ILM        SPR       CALD        GRD       RHOB       CORR       NPHI   
# ...
 1335.5000     6.4290     7.1990     6.1210   -62.6290    10.4420   116.4110     2.5300     0.0450     0.4010
 1336.0000     6.4950     7.2110     6.1110   -62.6360    10.4410   115.4670     2.5210     0.0410     0.4000
 1336.5000     6.5610     7.2230     6.1020   -62.6440    10.4410   114.5060     2.5120     0.0370     0.3970
 1337.0000     6.6010     7.2350     6.0930   -62.6510    10.4410   113.5480     2.5030     0.0340     0.3930
 1337.5000     6.5310     7.2490     6.0830   -62.6590    10.4410   112.6100     2.4950     0.0300     0.3900
 1338.0000     6.4620     7.2940     6.0740   -62.6660    10.4410   112.2630     2.4860     0.0260     0.3870
 1338.5000     6.4200     7.3390     6.1000   -62.6730    10.4410   113.2590     2.4770     0.0240     0.3880
 1339.0000     6.5650     7.3840     6.1250   -62.6590    10.4410   114.2300     2.4790     0.0240     0.3870
 1339.5000     6.6870     7.4290     6.1510   -62.6440    10.4410   115.2580     2.4810     0.0240     0.3860
 1340.0000     6.7860     7.4750     6.1760   -62.6290    10.4410   114.9440     2.4830     0.0250     0.3850
 1340.5000     6.7070     7.5120     6.2020   -62.6140    10.4230   114.1810     2.4970     0.0280     0.3840
 1341.0000     6.6060     7.4800     6.2270   -62.5990    10.4030   113.4060     2.5040     0.0320     0.3830
 1341.5000     6.5050     7.4480     6.2530   -62.5840    10.3840   112.6330     2.5100     0.0350     0.3830
 1342.0000     6.3610     7.4150     6.2790   -62.5690    10.3650   111.8650     2.5140     0.0350     0.3840
 1342.5000     6.4260     7.3740     6.3040   -62.5540    10.3450   111.0820     2.5100     0.0340     0.3860
 1343.0000     6.5100     7.4370     6.3300   -62.5390    10.3260   111.3230     2.5060     0.0330     0.3880
 1343.5000     6.5950     7.5500     6.3550   -62.5240    10.3060   112.2040     2.5120     0.0320     0.3880
 1344.0000     6.6800     7.6630     6.3810   -62.5090    10.3090   113.0830     2.5180     0.0310     0.3890
 1344.5000     6.7860     7.7750     6.4060   -62.4950    10.3170   111.9460     2.5230     0.0300     0.3910
 1345.0000     6.7650     7.8880     6.4320   -62.4800    10.3240   110.6340     2.5240     0.0320     0.3930
 1345.5000     6.7360     7.9400     6.4580   -62.4650    10.3320   109.3430     2.5260     0.0330     0.3940
 1346.0000     6.7070     7.8620     6.4800   -62.4500    10.3400   108.8080     2.5230     0.0340     0.3940
 1346.5000     6.6780     7.7930     6.3970   -62.4350    10.3470   110.2120     2.5200     0.0360     0.3920
 1347.0000     6.6490     7.7240     6.3090   -62.4200    10.3550   111.5830     2.5330     0.0380     0.3880
 1347.5000     6.6200     7.6560     6.2210   -62.4050    10.3620   112.9610     2.5490     0.0400     0.3840
 1348.0000     6.6010     7.5870     6.1320   -62.3900    10.3700   114.3330     2.5600     0.0430     0.3840
 1348.5000     6.7810     7.5120     6.0180   -62.3750    10.3770   115.3450     2.5520     0.0440     0.3810
 1349.0000     6.9190     7.6130     6.0450   -62.3600    10.3680   114.0470     2.5440     0.0420     0.3780
 1349.5000     7.0310     7.7550     6.0820   -62.3450    10.3310   112.7490     2.5360     0.0400     0.3730
 1350.0000     6.9310     7.8980     6.1200   -62.3310    10.2940   113.0180     2.5280     0.0380     0.3700
 1350.5000     6.8300     7.9400     6.1570   -62.3160    10.2570   113.9760     2.5210     0.0350     0.3700
 1351.0000     6.7300     7.9620     6.1950   -62.3010    10.2200   114.9530     2.5200     0.0370     0.3700
 1351.5000     6.6300     7.9870     6.2320   -62.2860    10.2070   115.9450     2.5220     0.0390     0.3700
 1352.0000     6.5300     8.0120     6.2690   -62.2710    10.2180   115.9780     2.5230     0.0390     0.3700
 1352.5000     6.4200     8.0370     6.3030   -62.2560    10.2310   115.5410     2.5150     0.0380     0.3700
 1353.0000     6.4270     8.0610     6.3030   -62.2410    10.2430   115.0930     2.5070     0.0360     0.3690
 1353.5000     6.4370     8.0880     6.3030   -62.2260    10.2550   114.6450     2.5000     0.0350     0.3680
 1354.0000     6.4460     8.0950     6.3030   -62.2110    10.2680   114.1990     2.4920     0.0330     0.3670
 1354.5000     6.4560     8.1100     6.3030   -62.1960    10.2800   113.7520     2.4870     0.0330     0.3680
 1355.0000     6.4660     8.1240     6.3030   -62.1820    10.2920   113.3060     2.4890     0.0340     0.3710
 1355.5000     6.4750     8.1380     6.3030   -62.1670    10.3050   112.8590     2.4910     0.0350     0.3740
 1356.0000     6.4850     8.1530     6.3030   -62.1520    10.3170   112.4150     2.4910     0.0360     0.3780
 1356.5000     6.4950     8.1670     6.3030   -62.1370    10.3240   111.9520     2.4780     0.0370     0.3830
 1357.0000     6.5040     8.1810     6.3030   -62.1220    10.3230   111.2490     2.4800     0.0370     0.3860
 1357.5000     6.5140     8.1950     6.3030   -62.1070    10.3110   110.7350     2.4830     0.0380     0.3870
 1358.0000     6.5230     8.2100     6.3030   -62.0920    10.2960   110.2370     2.4860     0.0360     0.3860
 1358.5000     6.5340     8.2240     6.3030   -62.0990    10.2820   109.6490     2.4890     0.0340     0.3850
 1359.0000     6.5890     8.2390     6.3030   -62.2390    10.2680   110.8860     2.4920     0.0330     0.3840
 1359.5000     6.7370     8.2070     6.3030   -62.3810    10.2530   112.4000     2.4920     0.0310     0.3820
 1360.0000     6.8850     8.1630     6.3030   -62.4750    10.2270   113.9030     2.4960     0.0330     0.3800
 1360.5000     7.0330     8.1180     6.3030   -62.4680    10.2040   112.5190     2.5010     0.0340     0.3790
 1361.0000     7.1800     8.0740     6.3030   -62.4640    10.2050   111.1720     2.5050     0.0360     0.3760
 1361.5000     7.3070     8.0300     6.3030   -62.4590    10.2020   112.0800     2.4990     0.0320     0.3740
 1362.0000     7.2830     7.9860     6.3030   -62.4540    10.1970   113.8130     2.4850     0.0250     0.3720
 1362.5000     7.2580     7.9400     6.3030   -62.4490    10.1930   111.7700     2.4710     0.0210     0.3710
 1363.0000     7.2330     7.8910     6.3030   -62.4440    10.1890   109.5980     2.4590     0.0190     0.3700
 1363.5000     7.2080     7.8390     6.3030   -62.4390    10.1850   111.6040     2.4590     0.0170     0.3690
 1364.0000     7.1830     7.7870     6.3030   -62.4340    10.1810   113.9430     2.4700     0.0190     0.3690
 1364.5000     7.1580     7.7230     6.3030   -62.4290    10.1770   114.9180     2.4820     0.0240     0.3710
 1365.0000     7.1330     7.7430     6.3030   -62.4240    10.1730   113.2130     2.4850     0.0240     0.3730
 1365.5000     7.1070     7.7980     6.3030   -62.4190    10.1680   111.9120     2.4830     0.0230     0.3740
 1366.0000     7.1430     7.8540     6.3030   -62.4140    10.1640   113.3740     2.4740     0.0230     0.3740
 1366.5000     7.1910     7.9090     6.3030   -62.4090    10.1600   115.4000     2.4870     0.0270     0.3750
 1367.0000     7.2390     7.9650     6.3030   -62.4040    10.1560   117.0780     2.4980     0.0310     0.3790
 1367.5000     7.2870     8.0200     6.3030   -62.3990    10.1520   116.2070     2.5080     0.0350     0.3810
 1368.0000     7.3350     8.0760     6.3030   -62.3940    10.1480   116.3070     2.5170     0.0390     0.3830
 1368.5000     7.3740     8.1040     6.3030   -62.3890    10.1440   118.1550     2.5130     0.0360     0.3850
 1369.0000     7.3510     8.1250     6.3030   -62.3840    10.1390   119.6070     2.5090     0.0330     0.3860
 1369.5000     7.2160     8.1460     6.3030   -62.3790    10.1350   117.7750     2.5050     0.0300     0.3880
 1370.0000     7.0810     8.1630     6.3020   -62.3740    10.1310   116.0030     2.5010     0.0270     0.3900
 1370.5000     6.9460     7.8880     6.2940   -62.3690    10.1280   114.2030     2.4980     0.0240     0.3920
 1371.0000     6.8110     7.6550     6.2850   -62.3640    10.1340   112.4390     2.4900     0.0250     0.3900
 1371.5000     6.6760     7.5120     6.2760   -62.3590    10.1390   113.1430     2.4810     0.0310     0.3890
