~VERSION INFORMATION
 VERS.                2.0:   CWLS LOG ASCII STANDARD - VERSION 2.0
 WRAP.                 NO:   ONE LINE PER DEPTH STEP
~WELL INFORMATION
#MNEM.UNIT      DATA TYPE    INFORMATION
#----------   ------------   ------------------------------
 STRT.F          330.0000:   START DEPTH
 STOP.F         2880.0000:   STOP DEPTH
 STEP.F            0.5000:   STEP LENGTH
 NULL.          -999.2500:   NO VALUE
 COMP.   TESORO PETROLEUM:   COMPANY
 WELL. TESORO NPR "AX" #3-21:   WELL
 FLD .        TEAPOT DOME:   FIELD
 LOC .      S21 T39N R78W:   LOCATION
 CNTY.            NATRONA:   COUNTY
 STAT.            WYOMING:   STATE
 CTRY. UNITED STATES OF AMERICA:   COUNTRY
 SRVC.       SCHLUMBERGER:   SERVICE COMPANY
 DATE.        17-AUG-1972:   LOGDATE
 API .     49025102150000:   API NUMBER
~CURVE INFORMATION
#MNEM.UNIT       API CODE    CURVE DESCRIPTION
#----------   ------------   ------------------------------
 DEPT.F                  :   
 GRD .GAPI   45 310 01 00:   GAMMA RAY FROM DENSITY LOG
 CALD.IN     45 280 60 00:   CALIPER FROM DENSITY LOG
 CORR.G/C3   45 356 01 00:   DENSITY CORRECTION
 RHOB.G/C3   45 350 01 00:   BULK DENSITY
 SPR .MV     05 010 01 00:   SPONTANEOUS POTENTIAL FROM RES.
 ILD .OHMM   05 120 46 00:   INDUCTION LOG DEEP
 ASN .OHMM   05 041 16 00:   AMPLIFIED SHORT NORMAL 16"
~PARAMETER INFORMATION
#MNEM.UNIT          VALUE    DESCRIPTION
#----------   ------------   ------------------------------
 EKB .F         4985.0000:   Kelly bushing
 EGL .F         4975.0000:   Ground level
 EDF .F            0.0000:   Drilling floor
 EPD .F         4975.0000:   Permanent datum
 TD  .F         2880.0000:   Total depth
 CLNT.            A2DTECH:   Client Code
 DATE.        17-AUG-1972:   Date Logged [DD-MMM-YYYY]
 DD  .F              2875:   Depth driller
 DL  .F              2880:   Depth logger
 BLI .F              2879:   Bottom log interval
 TLI .F               330:   Top log interval
 CS1 .              10.75:   Casing size
 CBD1.       10.75" @ 327:   Casing driller 1
 CBL1.IN              330:   Casing logger 1
 BS1 .IN                9:   Bit size
 BSD1.F              2875:   Depth drilled with bit1
 DFT .           CHEM-GEL:   Type fluid in hole
 DFD .                9.3:   Density
 DFV .                 61:   Viscosity
 DFPH.                9.0:   pH
 DFL .                 66:   Fluid loss
 MSS .           FLOWLINE:   Source of sample
 RMS .OHMM           1.86:   Rm
 MST .F                76:   Rm Meas. temp.
 RMF .OHMM           1.58:   Rmf
 MFST.F                76:   Rmf Meas. temp.
 MFSS.               MEAS:   Source Rmf.
 RMB .OHMM           1.25:   Rm. at BHT
 BHT .F               113:   BHT.
 TCS .HRS               3:   Time Circ. stopped
 MRT .F               113:   Maximum recorded temp.
 LUN .               7037:   Logging unit number
 LUL .               CSPR:   Logging unit location
 ENGI.              GOLAS:   Recorded By
 WITN.                MAY:   Witnessed by
 ORIG.      1" 2.5" PRINT:   Origin of data
 UWI .     49025102150000:   Unique Well ID
 DICO. A2D TECHNOLOGIES, INC.:   Digitizing Company
~OTHER INFORMATION
~A   DEPT      GRD       CALD       CORR       RHOB        SPR          ILD        ASN 
# ...
 2741.5000   130.4595     9.1970     0.0081     2.4981   -13.3363     2.9265     4.8082
 2742.0000   139.6994     9.2278     0.0097     2.4952   -13.3439     2.6090     4.2418
 2742.5000   148.9394     9.2585     0.0066     2.4758   -13.3515     2.2917     3.9282
 2743.0000   171.2486     9.2892     0.0313     2.4354   -13.0495     2.2037     3.6136
 2743.5000   178.4772     9.3508     0.0684     2.4205   -13.0573     2.2006     3.4679
 2744.0000   182.1961     9.4123     0.0777     2.4311   -12.7551     2.1976     3.5390
 2744.5000   160.2525     9.5356     0.0797     2.4027   -12.7631     2.3482     3.8431
 2745.0000   147.6304     9.7207     0.0407     2.3848   -12.7709     2.4994     4.5727
 2745.5000   120.4482     9.7607    -0.0025     2.3759   -12.4683     3.2680     5.6126
 2746.0000   113.2064     9.2883     0.0052     2.4328   -12.4767     4.1909     6.3909
 2746.5000   115.7198     9.0412     0.0207     2.5257   -12.1740     4.9595     7.0546
 2747.0000   120.1045     9.0102     0.0176     2.5363   -12.1827     5.4194     7.2046
 2747.5000   123.1864     9.0409     0.0238     2.5229   -12.1904     5.7250     7.2352
 2748.0000   122.2725     9.0716     0.0285     2.5409   -12.1982     6.0306     7.2359
 2748.5000   121.8185     8.9480     0.0177     2.5268   -12.2059     6.0276     7.2665
 2749.0000   122.7524     8.7935     0.0069     2.5132   -12.0805     6.0246     7.2374
 2749.5000   125.0693     8.5464     0.0038     2.5111   -11.9118     6.0215     7.2381
 2750.0000   126.9246     8.7932     0.0085     2.5232   -11.9195     6.0185     7.1792
 2750.5000   126.0107     8.9175     0.0178     2.5032   -11.9272     5.8555     7.2098
 2751.0000   122.3276     9.0408     0.0456     2.5347   -11.9350     5.7037     7.3299
 2751.5000   119.1060     9.1029     0.0502     2.5516   -11.9442     5.7006     7.5097
 2752.0000   122.8074     9.1321     0.0271     2.5494   -11.9518     5.6976     7.6000
 2752.5000   125.1243     9.1320     0.0101     2.5298   -11.9594     5.6944     7.6605
 2753.0000   124.2104     9.1318     0.0040     2.5245   -12.2766     5.7254     7.6910
 2753.5000   124.2196     9.1316     0.0009     2.5209   -12.2843     5.8430     7.6619
 2754.0000   128.8441     9.1315     0.0040     2.5144   -12.2919     5.8849     7.6627
 2754.5000   132.0840     9.1313    -0.0006     2.4885   -12.6091     5.9912     7.6634
 2755.0000   132.5548     9.1003    -0.0005     2.4768   -12.9263     6.0442     7.6940
 2755.5000   130.7178     9.1002     0.0087     2.4855   -12.9339     6.2011     7.7247
 2756.0000   128.4193     9.1000     0.0228     2.5045   -12.9415     6.2901     7.7978
 2756.5000   127.0438     9.0999     0.0289     2.5189   -12.9491     6.2870     7.9497
 2757.0000   125.6684     9.0997     0.0336     2.5272   -12.9567     6.2839     8.0800
 2757.5000   126.6006     9.0687     0.0366     2.5310   -12.9644     6.2809     8.2535
 2758.0000   128.9175     9.0685     0.0195     2.5356   -12.9721     6.2778     8.3355
 2758.5000   128.0036     9.0684     0.0181     2.5386   -12.6699     6.1198     8.3969
 2759.0000   126.1666     9.0682     0.0212     2.5400   -12.6780     5.9624     8.4164
 2759.5000   128.0219     9.0372     0.0103     2.5338   -12.6346     5.8051     8.4042
 2760.0000   136.3388     9.0371     0.0190     2.5261   -12.3831     5.4934     8.3741
 2760.5000   137.3206     9.0369     0.0259     2.5336   -12.3190     5.3361     8.3142
 2761.0000   135.8956     9.0368     0.0082     2.5277   -12.0062     5.1787     7.9487
 2761.5000   134.0586     9.0248     0.0044     2.4978   -11.6935     4.8670     7.3605
 2762.0000   132.6832     8.9624     0.0164     2.5129   -11.4848     4.8640     6.8585
 2762.5000   130.8462     8.9874     0.0245     2.5234   -11.8034     4.7067     6.6009
 2763.0000   133.1808     9.0494     0.0207     2.5160   -11.9380     4.7036     6.5418
 2763.5000   134.5568     9.1116     0.0164     2.5071   -12.1285     4.7006     6.5725
 2764.0000   131.7225     9.1284     0.0134     2.5011   -12.4458     4.6976     6.6031
 2764.5000   127.5788     9.1591     0.0161     2.5072   -12.1440     4.6944     6.6337
 2765.0000   125.8151     9.1280     0.0070     2.5013   -12.1517     4.7067     6.5449
 2765.5000   127.3563     9.1279    -0.0001     2.4789   -12.1594     4.8428     6.6351
 2766.0000   131.0399     9.1277     0.0127     2.5134   -11.8590     4.9941     6.6657
 2766.5000   132.3041     9.1276     0.0139     2.5150   -12.0120     5.1775     6.9053
 2767.0000   128.8616     9.1274     0.0046     2.5135   -12.3123     5.3344     7.4732
 2767.5000   125.7382     9.1273     0.0031     2.5151   -12.3123     5.6893     8.0709
 2768.0000   123.5624     9.1271     0.0031     2.5152   -12.3254     6.1112     8.4781
 2768.5000   125.6401     9.1270     0.0133     2.5302   -12.6126     6.5767     8.8973
 2769.0000   127.2730     9.1268     0.0155     2.5437   -12.6126     6.8879     9.3165
 2769.5000   125.0935     9.1267     0.0035     2.5258   -12.3123     7.0448     9.4769
 2770.0000   122.0312     9.0957    -0.0027     2.5094   -12.3123     7.1296     9.4906
 2770.5000   120.2800     9.0955    -0.0022     2.5020   -12.3123     7.1265     9.5221
 2771.0000   118.7941     9.0953     0.0087     2.4976   -12.3123     7.0401     9.5388
 2771.5000   118.0881     9.0952     0.0172     2.5246   -12.3123     6.9660     9.5097
 2772.0000   120.4116     9.0950     0.0070     2.5352   -12.3123     6.9624     9.5104
 2772.5000   124.1381     9.0949     0.0080     2.5382   -12.0120     6.9593     9.4515
 2773.0000   126.8849     9.0947     0.0296     2.5413   -12.0120     6.9563     9.4224
 2773.5000   125.2400     9.0946     0.0327     2.5369   -11.7117     6.9533     9.4233
 2774.0000   123.5324     9.0944     0.0209     2.5145   -11.7117     7.1050     9.4538
 2774.5000   123.9787     9.0943     0.0135     2.5100   -11.4114     7.1015     9.6635
 2775.0000   124.1523     9.0941     0.0058     2.5086   -11.4114     7.0985     9.8910
 2775.5000   121.8368     9.0940    -0.0023     2.5087   -11.7117     7.0955    10.0009
 2776.0000   119.8524     9.0938     0.0006     2.5119   -11.7117     7.0925     9.9423
 2776.5000   119.1029     9.0937     0.0165     2.5225   -11.7117     7.2438     9.8156
 2777.0000   119.7540     9.1244     0.0377     2.5500   -11.7117     7.3950     9.8164
 2777.5000   120.8771     9.1242     0.0274     2.5646   -11.7117     7.7030     9.8172
 2778.0000   122.7448     9.1241     0.0061     2.5556   -12.0120     8.1688     9.8179
 2778.5000   123.8245     9.1239     0.0074     2.5211   -12.3123     8.9842     9.8642
 2779.0000   119.5769     9.1238     0.0171     2.5065   -12.3123    10.9349    10.4177
 2779.5000   113.7940     9.1236     0.0271     2.4888   -12.9129    13.4201    11.1790
 2780.0000   105.2622     9.0926     0.0188     2.4749   -14.1141    15.0616    12.1795
 2780.5000    92.3366     9.0924     0.0259     2.4698   -16.5165    16.1251    15.8043
 2781.0000    80.4362     9.0913     0.0659     2.4734   -20.4204    17.0226    19.4910
 2781.5000    76.4958     9.0288     0.0957     2.4840   -23.1231    17.2443    20.8679
 2782.0000    76.5418     8.9665     0.0863     2.4388   -24.3243    17.1872    21.0179
 2782.5000    78.6309     8.9066     0.0412     2.4010   -24.6246    16.8699    20.2374
 2783.0000    80.7508     8.9034     0.0239     2.4248   -24.6246    16.3333    18.8765
 2783.5000    83.0307     8.8755     0.0371     2.4389   -24.3243    15.3359    16.9904
 2784.0000    78.0250     8.9062     0.0841     2.4767   -24.0240    13.9919    15.3494
 2784.5000    71.9047     8.9106     0.1262     2.4900   -24.6246    13.0493    15.0515
 2785.0000    70.3403     8.9418     0.1421     2.4938   -26.4264    12.5926    15.0523
 2785.5000    69.8861     8.9731     0.1143     2.4502   -28.8288    12.2803    15.6501
 2786.0000    72.6663     9.0044     0.0862     2.4323   -30.6306    11.9686    16.6956
 2786.5000    78.6755     9.0423     0.0901     2.4159   -32.1321    11.9656    16.9948
