~VERSION INFORMATION
 VERS.                2.0:   CWLS LOG ASCII STANDARD - VERSION 2.0
 WRAP.                 NO:   ONE LINE PER DEPTH STEP
~WELL INFORMATION
#MNEM.UNIT      DATA TYPE    INFORMATION
#----------   ------------   ------------------------------
 STRT.F           14.0000:   START DEPTH
 STOP.F         3246.0000:   STOP DEPTH
 STEP.F            0.5000:   STEP LENGTH
 NULL.          -999.2500:   NO VALUE
 COMP.   LAWRENCE ALLISON:   COMPANY
 WELL. LAWRENCE "34X" #11:   WELL
 FLD .             N.P.R.:   FIELD
 LOC .      S34 T38N R78W:   LOCATION
 CNTY.            NATRONA:   COUNTY
 STAT.            WYOMING:   STATE
 CTRY. UNITED STATES OF AMERICA:   COUNTRY
 SRVC.      DRESSER ATLAS:   SERVICE COMPANY
 DATE.        02-MAY-1985:   LOGDATE
 API .     49025110530001:   API NUMBER
~CURVE INFORMATION
#MNEM.UNIT       API CODE    CURVE DESCRIPTION
#----------   ------------   ------------------------------
 DEPT.F                  :   
 CNC .DEC    42 890 03 00:   NEUTRON POROSITY
 CALD.IN     45 280 60 00:   CALIPER FROM DENSITY LOG
 CORR.G/C3   45 356 01 00:   DENSITY CORRECTION
 RHOB.G/C3   45 350 01 00:   BULK DENSITY
 GRR .GAPI   07 310 01 00:   GAMMA RAY FROM RESISTIVITY
 SPR .MV     07 010 01 00:   SPONTANEOUS POTENTIAL FROM RES.
 TENR.LBS    06 635 01 00:   TENSION FROM RESISTIVITY
 RILD.OHMM   07 120 46 00:   DEEP INDUCTION RESISTIVITY
 RILM.OHMM   07 120 44 00:   INDUCTION LOG MEDIUM RESISTIVITY
 RFOC.OHMM   07 220 04 00:   RESISTIVITY FOCUSED LOG RES.
~PARAMETER INFORMATION
#MNEM.UNIT          VALUE    DESCRIPTION
#----------   ------------   ------------------------------
 EKB .F         5099.0000:   Kelly bushing
 TD  .F         3239.0000:   Total depth
 CLNT.            A2DTECH:   Client Code
 PD  .                 GL:   Permanent Datum
 EPD .F              5087:   Elevation Permanent Datum
 LMF .                 KB:   Log Measured From
 DMF .                 KB:   Drilling Measured From
 DAPD.F                12:   Feet Above Permanent Datum
 DATE.        02-MAY-1985:   Date Logged [DD-MMM-YYYY]
 DD  .F              3239:   Depth driller
 DL  .F              3242:   Depth logger
 BLI .F              3294:   Bottom log interval
 CS1 .IN            8.625:   Casing size
 CBD1.      8.625" @ 487':   Casing driller 1
 CBL1.F               487:   Casing logger 1
 BS1 .IN            7.875:   Bit size
 BSD1.F              3239:   Depth drilled with bit1
 DFT .            KCL GEL:   Type fluid in hole
 DFD .                9.1:   Density
 DFV .                 35:   Viscosity
 DFPH.                  8:   pH
 DFL .                9.8:   Fluid loss
 MSS .           FLOWLINE:   Source of sample
 RMS .OHMM           0.27:   Rm
 MST .F                68:   Rm Meas. temp.
 RMF .OHMM           0.20:   Rmf
 MFST.F                68:   Rmf Meas. temp.
 MFSS.               MEAS:   Source Rmf.
 RMC .OHMM           0.34:   Rmc
 MCST.F                68:   Rmc Meas. temp.
 MCSS.               CALC:   Source Rmc.
 RMB .OHMM           0.15:   Rm. at BHT
 BHT .F               126:   BHT.
 TCS .HRS               3:   Time Circ. stopped
 MRT .F               126:   Maximum recorded temp.
 LUN .               6274:   Logging unit number
 LUL .               GLTE:   Logging unit location
 ENGI.       MACK/EDWARDS:   Recorded By
 WITN.             STRONG:   Witnessed by
 ORIG.           5" PRINT:   Origin of data
 UWI .     49025110260000:   Unique Well ID
 DICO. A2D TECHNOLOGIES, INC.:   Digitizing Company
~OTHER INFORMATION
~A   DEPT      CNC       CALD       CORR       RHOB        GRR        SPR       TENR       RILD       RILM       RFOC   
# ...
  483.0000  -999.2500  -999.2500  -999.2500  -999.2500    45.2708  -999.2500  -999.2500  -999.2500  -999.2500  -999.2500
  483.5000  -999.2500  -999.2500  -999.2500  -999.2500    44.8543  -999.2500  -999.2500  -999.2500  -999.2500  -999.2500
  484.0000  -999.2500  -999.2500  -999.2500  -999.2500    43.9283  -999.2500  -999.2500  -999.2500  -999.2500  -999.2500
  484.5000  -999.2500  -999.2500  -999.2500  -999.2500    43.5742  -999.2500  -999.2500  -999.2500  -999.2500  -999.2500
  485.0000  -999.2500  -999.2500  -999.2500  -999.2500    46.0811  -999.2500  -999.2500  -999.2500  -999.2500  -999.2500
  485.5000  -999.2500  -999.2500  -999.2500  -999.2500    51.2704  -999.2500  -999.2500  -999.2500  -999.2500  -999.2500
  486.0000  -999.2500  -999.2500  -999.2500  -999.2500    60.2714  -999.2500  -999.2500  -999.2500  -999.2500  -999.2500
  486.5000  -999.2500  -999.2500  -999.2500  -999.2500    60.5583  -999.2500  -999.2500  -999.2500  -999.2500  -999.2500
  487.0000  -999.2500  -999.2500  -999.2500  -999.2500    60.1120   -76.2943   -16.2632     1.4676     1.4545     1.4730
  487.5000  -999.2500  -999.2500  -999.2500  -999.2500    59.6600   -78.6643   -17.6029     1.5169     1.3953     1.4545
  488.0000  -999.2500  -999.2500  -999.2500  -999.2500    58.6154   -80.1412   -18.6965     1.7090     1.6047     1.5936
  488.5000  -999.2500  -999.2500  -999.2500  -999.2500    58.4154   -81.0192   -19.7902     1.9288     1.8071     1.8196
  489.0000  -999.2500  -999.2500  -999.2500  -999.2500    59.3528   -81.4482   -20.8838     2.4583     2.0924     2.1323
  489.5000  -999.2500  -999.2500  -999.2500  -999.2500    60.7305   -81.4280   -21.9775     3.0098     2.6692     2.6877
  490.0000  -999.2500  -999.2500  -999.2500  -999.2500    62.3324   -81.4072   -23.0711     3.4382     3.6233     3.3810
  490.5000  -999.2500  -999.2500  -999.2500  -999.2500    64.2175   -81.5324   -24.2058     4.2685     4.5265     4.3424
  491.0000  -999.2500  -999.2500  -999.2500  -999.2500    66.4411   -81.6670   -25.5318     4.8424     4.9240     4.9239
  491.5000  -999.2500  -999.2500  -999.2500  -999.2500    66.9220   -82.3903   -26.6254     5.5706     5.5067     5.0678
  492.0000  -999.2500  -999.2500  -999.2500  -999.2500    67.1786   -82.9689   -19.8813     6.0401     5.9557     5.2562
  492.5000  -999.2500  -999.2500  -999.2500  -999.2500    68.3320   -83.5476   -21.2484     6.7838     6.5634     5.4448
  493.0000  -999.2500  -999.2500  -999.2500  -999.2500    67.4664   -83.9900   -22.3420     7.1802     6.6145     5.6039
  493.5000  -999.2500  -999.2500  -999.2500  -999.2500    67.5015   -84.7049   -23.4493     7.8135     6.0961     5.7280
  494.0000  -999.2500  -999.2500  -999.2500  -999.2500    68.0179   -84.8344   -24.8027     8.2700     5.9759     5.8547
  494.5000  -999.2500  -999.2500  -999.2500  -999.2500    68.6939   -84.8092   -25.8963     8.5137     6.0259     5.9430
  495.0000  -999.2500  -999.2500  -999.2500  -999.2500    68.9424   -84.7891   -26.9900     8.7040     6.1169     6.0328
  495.5000  -999.2500  -999.2500  -999.2500  -999.2500    68.0860   -84.9192   -28.0836     8.2477     6.2108     6.0832
  496.0000  -999.2500  -999.2500  -999.2500  -999.2500    69.0153   -85.0559   -29.1772     7.9218     6.2178     6.1323
  496.5000  -999.2500  -999.2500  -999.2500  -999.2500    69.7203   -85.3224   -30.2709     7.8228     6.2249     6.1819
  497.0000  -999.2500  -999.2500  -999.2500  -999.2500    69.9776   -85.6016   -23.8002     7.7226     6.2319     6.2319
  497.5000  -999.2500  -999.2500  -999.2500  -999.2500    69.7932   -85.8809   -25.1672     7.6814     6.2390     6.2823
  498.0000  -999.2500  -999.2500  -999.2500  -999.2500    69.8256   -86.3098   -26.2609     7.6366     6.2469     6.2894
  498.5000  -999.2500  -999.2500  -999.2500  -999.2500    70.0822   -86.5891   -27.3545     7.5432     6.3420     6.2100
  499.0000  -999.2500  -999.2500  -999.2500  -999.2500    71.0115   -86.8683   -13.3195     7.5008     6.3492     6.1759
  499.5000  -999.2500  -999.2500  -999.2500  -999.2500    73.0618   -87.1425   -14.4132     7.4586     6.3564     6.1828
  500.0000  -999.2500  -999.2500  -999.2500  -999.2500    73.7668   -87.8709     7.1861     7.3170     6.2743     6.1898
  500.5000  -999.2500  -999.2500  -999.2500  -999.2500    71.7137   -88.4495    13.6567     7.2735     6.2399     6.1968
  501.0000  -999.2500  -999.2500  -999.2500  -999.2500    70.2523   -88.8785    12.0420     7.1849     6.2039     6.2039
  501.5000  -999.2500  -999.2500  -999.2500  -999.2500    69.1636   -89.6068     4.8315     7.1446     6.1255     6.2111
  502.0000  -999.2500  -999.2500  -999.2500  -999.2500    69.6444   -90.4849    -2.3791     7.1562     6.0901     6.0919
  502.5000  -999.2500  -999.2500  -999.2500  -999.2500    72.8158   -91.2325     1.6268     7.2154     6.0550     6.0150
  503.0000  -999.2500  -999.2500  -999.2500  -999.2500    75.0903   -91.6422     0.2598     7.2751     6.1057     6.0218
  503.5000  -999.2500  -999.2500  -999.2500  -999.2500    75.5718   -92.5152    -8.3982     7.3863     6.0687     6.0286
  504.0000  -999.2500  -999.2500  -999.2500  -999.2500    75.1632   -93.2436   -17.0561     7.5514     6.1620     6.1195
  504.5000  -999.2500  -999.2500  -999.2500  -999.2500    74.2987   -93.6725   -18.2808     7.7245     6.2120     6.2598
  505.0000  -999.2500  -999.2500  -999.2500  -999.2500    71.4163   -94.1015   -34.4176     7.8408     6.3073     6.3952
  505.5000  -999.2500  -999.2500  -999.2500  -999.2500    70.7761   -94.3942   -43.3033     7.9057     6.3582     6.4469
  506.0000  -999.2500  -999.2500  -999.2500  -999.2500    70.8085   -94.9543   -29.2684     7.9711     6.3198     6.4542
  506.5000  -999.2500  -999.2500  -999.2500  -999.2500    71.2893   -95.2336   -22.5243     8.0370     6.2399     6.2851
  507.0000  -999.2500  -999.2500  -999.2500  -999.2500    72.0284   -95.9619    -8.4893     7.9918     6.1204     6.1629
  507.5000  -999.2500  -999.2500  -999.2500  -999.2500    72.9317   -96.5406    -2.2693     7.9461     6.0814     6.0824
  508.0000  -999.2500  -999.2500  -999.2500  -999.2500    73.4125   -96.9695    -3.4039     7.8502     6.0499     5.9273
  508.5000  -999.2500  -999.2500  -999.2500  -999.2500    73.6691   -97.2488    -4.7528     7.6986     6.0585     5.8105
  509.0000  -999.2500  -999.2500  -999.2500  -999.2500    73.9257   -97.2236    -5.8464     7.4953     6.0653     5.7770
  509.5000  -999.2500  -999.2500  -999.2500  -999.2500    74.4065   -97.2034    -6.9400     7.2997     6.1144     5.7851
  510.0000  -999.2500  -999.2500  -999.2500  -999.2500    75.1116   -97.0359    -8.0336     7.1092     6.1638     5.6725
  510.5000  -999.2500  -999.2500  -999.2500  -999.2500    70.6677   -97.0134    -9.1273     6.7364     6.1709     5.5221
  511.0000  -999.2500  -999.2500  -999.2500  -999.2500    68.2338   -96.9933   -10.2209     6.3225     6.0928     4.9865
  511.5000  -999.2500  -999.2500  -999.2500  -999.2500    67.5854   -97.1247   -11.3464     5.8811     6.0577     4.7233
  512.0000  -999.2500  -999.2500  -999.2500  -999.2500    69.8681   -97.8461   -12.6815     5.4562     5.9812     4.6315
  512.5000  -999.2500  -999.2500  -999.2500  -999.2500    70.3849   -98.8739   -13.7752     5.2407     5.9466     4.5730
  513.0000  -999.2500  -999.2500  -999.2500  -999.2500    69.7086   -99.6022   -14.8688     4.9988     5.9140     4.5782
  513.5000  -999.2500  -999.2500  -999.2500  -999.2500    68.6199  -100.0362   -15.9625     4.7352     5.8393     4.5833
  514.0000  -999.2500  -999.2500  -999.2500  -999.2500    70.4542   -99.8613   -17.0561     4.8112     5.8476     4.7320
  514.5000  -999.2500  -999.2500  -999.2500  -999.2500    72.9529   -99.6915   -10.5854     5.2333     5.8122     5.0275
  515.0000  -999.2500  -999.2500  -999.2500  -999.2500    71.1916   -99.6707   -11.7247     5.6949     5.8204     5.2830
  515.5000  -999.2500  -999.2500  -999.2500  -999.2500    70.1029   -99.4964     2.0825     6.0696     5.8270     5.5901
  516.0000  -999.2500  -999.2500  -999.2500  -999.2500    69.4619   -99.3266     8.8265     6.5593     5.9559     5.9149
