~VERSION INFORMATION
 VERS.                2.0:   CWLS LOG ASCII STANDARD - VERSION 2.0
 WRAP.                 NO:   ONE LINE PER DEPTH STEP
~WELL INFORMATION
#MNEM.UNIT      DATA TYPE    INFORMATION
#----------   ------------   ------------------------------
 STRT.F           14.0000:   START DEPTH
 STOP.F         3030.0000:   STOP DEPTH
 STEP.F            0.5000:   STEP LENGTH
 NULL.          -999.2500:   NO VALUE
 COMP. LAWRENCE ALLISON & ASSOC. WEST:   COMPANY
 WELL. LAWRENCE "X" #37-28:   WELL
 FLD .          N.P.R. #3:   FIELD
 LOC .      S28 T39N R78W:   LOCATION
 CNTY.            NATRONA:   COUNTY
 STAT.            WYOMING:   STATE
 CTRY. UNITED STATES OF AMERICA:   COUNTRY
 SRVC.      DRESSER ATLAS:   SERVICE COMPANY
 DATE.        22-SEP-1986:   LOGDATE
 API .     49025111090000:   API NUMBER
~CURVE INFORMATION
#MNEM.UNIT       API CODE    CURVE DESCRIPTION
#----------   ------------   ------------------------------
 DEPT.F                  :   
 GRR .GAPI   07 310 01 00:   GAMMA RAY FROM RESISTIVITY
 SPR .MV     07 010 01 00:   SPONTANEOUS POTENTIAL
 TENR.LBS    07 635 01 00:   TENSION FROM RESISTIVITY
 RILD.OHMM   07 120 46 00:   DEEP INDUCTION RESISTIVITY
 RILM.OHMM   07 120 44 00:   INDUCTION LOG MEDIUM RESISTIVITY
 RFOC.OHMM   07 220 04 00:   RESISTIVITY FOCUSED LOG RES.
 CNC .DEC    42 890 03 00:   NEUTRON PORISITY SANDSTONE
 RHOB.G/C3   45 350 01 00:   BULK DENSITY
 CORR.G/C3   45 356 01 00:   DENSITY CORRECTION
 TEND.LBS    45 635 01 00:   TENSION FROM DENSITY LOG
 CALD.IN     45 280 60 00:   CALIPER FROM DENSITY LOG
~PARAMETER INFORMATION
#MNEM.UNIT          VALUE    DESCRIPTION
#----------   ------------   ------------------------------
 EKB .F         5124.0000:   Kelly bushing
 EGL .F         5113.0000:   Ground level
 EDF .F         5123.0000:   Drilling floor
 TD  .F         3026.0000:   Total depth
 DATE.        22-SEP-1986:   Date logged
 CLNT.            A2DTECH:   Client Code
 SL  . 1097' FSL & 1722' FWL:   Surface Location
 PD  .                 GL:   Permanent Datum
 EPD .F              5113:   Elevation Permanent Datum
 LMF .                 KB:   Log Measured From
 DMF .                 KB:   Drilling Measured From
 DAPD.F                11:   Feet Above Permanent Datum
 DD  .F              3026:   Depth driller
 DL  .F              3023:   Depth logger
 BLI .F              3020:   Bottom log interval
 CS1 .IN            8.625:   Casing size
 CBD1.      8.625" @ 517':   Casing driller 1
 CBL1.F               518:   Casing logger 1
 BS1 .IN            7.875:   Bit size
 BSD1.F              3026:   Depth drilled with bit1
 DFT .            KCL-GEL:   Type fluid in hole
 DFD .                8.6:   Density
 DFV .                 41:   Viscosity
 DFPH.                9.5:   pH
 DFL .                6.8:   Fluid loss
 MSS .           FLOWLINE:   Source of sample
 RMS .OHMM           0.37:   Rm
 MST .F                58:   Rm Meas. temp.
 RMF .OHMM           0.33:   Rmf
 MFST.F                63:   Rmf Meas. temp.
 RMC .OHMM           0.59:   Rmc
 MCST.F                58:   Rmc Meas. temp.
 MFSS.               MEAS:   Source Rmf.
 MCSS.               CALC:   Source Rmc.
 RMB .OHMM           0.16:   Rm. at BHT
 BHT .F               131:   BHT.
 TCS .HRS               3:   Time Circ. stopped
 MRT .F               131:   Maximum recorded temp.
 LUN .            HL 6426:   Logging unit number
 LUL .                 RS:   Logging unit location
 ENGI.               RALL:   Recorded By
 WITN.             STRONG:   Witnessed by
 ORIG.           5" PRINT:   Origin of data
 UWI .     49025111090000:   Unique Well ID
 DICO. A2D TECHNOLOGIES, INC.:   Digitizing Company
~OTHER INFORMATION
~A   DEPT      GRR        SPR       TENR       RILD       RILM       RFOC        CNC       RHOB       CORR       TEND       CALD   
# ...
  685.0000    88.7550   -21.5500   -56.9670     9.1250     8.9460     8.7750  -999.2500  -999.2500  -999.2500  -999.2500  -999.2500
  685.5000    93.4840   -21.3100   -55.9770     9.4940     9.2730     8.9390  -999.2500  -999.2500  -999.2500  -999.2500  -999.2500
  686.0000    93.1740   -21.3280   -54.9880     9.8970     9.4430     8.8420  -999.2500  -999.2500  -999.2500  -999.2500  -999.2500
  686.5000    89.9130   -21.2850   -53.9990    10.0250     9.6260     8.7530  -999.2500  -999.2500  -999.2500  -999.2500  -999.2500
  687.0000    88.6180   -21.3510   -53.0090    10.1760     9.7030     8.7380  -999.2500  -999.2500  -999.2500  -999.2500  -999.2500
  687.5000    90.4040   -21.6750   -52.0200    10.2730     9.8080     8.8720  -999.2500  -999.2500  -999.2500  -999.2500  -999.2500
  688.0000    91.3510   -21.6000   -51.0300    10.3780     9.8970     9.0050  -999.2500  -999.2500  -999.2500  -999.2500  -999.2500
  688.5000    90.9270   -21.3700   -50.0410    10.4820     9.7630     9.1390  -999.2500  -999.2500  -999.2500  -999.2500  -999.2500
  689.0000    90.2340   -21.2660   -49.0520    10.5860     9.8180     9.2730  -999.2500  -999.2500  -999.2500  -999.2500  -999.2500
  689.5000    85.7940   -21.0790   -48.0620    10.6900     9.9940     9.4060  -999.2500  -999.2500  -999.2500  -999.2500  -999.2500
  690.0000    81.5710   -20.9300   -47.0730    10.7940    10.1700     9.5370  -999.2500  -999.2500  -999.2500  -999.2500  -999.2500
  690.5000    80.7830   -20.7820   -46.0830    10.8990    10.2410     9.5880  -999.2500  -999.2500  -999.2500  -999.2500  -999.2500
  691.0000    82.0880   -20.6050   -45.0940    11.0030    10.1730     9.6390  -999.2500  -999.2500  -999.2500  -999.2500  -999.2500
  691.5000    88.4320   -20.4730   -43.9700    11.0080    10.1050     9.6890  -999.2500  -999.2500  -999.2500  -999.2500  -999.2500
  692.0000    95.7080   -20.2900   -45.8560    10.8950    10.0370     9.6190  -999.2500  -999.2500  -999.2500  -999.2500  -999.2500
  692.5000    97.9150   -20.1130   -48.0400    10.7820     9.9890     9.4150  -999.2500  -999.2500  -999.2500  -999.2500  -999.2500
  693.0000    96.2330   -20.0920   -50.2240    10.6580    10.0820     9.1910  -999.2500  -999.2500  -999.2500  -999.2500  -999.2500
  693.5000    94.0190   -20.1270   -52.4080    10.4540     9.9080     9.1440  -999.2500  -999.2500  -999.2500  -999.2500  -999.2500
  694.0000    93.4610   -20.1360   -54.5920    10.2300     9.7750     9.0930  -999.2500  -999.2500  -999.2500  -999.2500  -999.2500
  694.5000    94.6010   -20.1630   -56.7750    10.0820     9.6410     9.0420  -999.2500  -999.2500  -999.2500  -999.2500  -999.2500
  695.0000    96.8490   -20.1800   -58.9590     9.9680     9.5070     8.9910  -999.2500  -999.2500  -999.2500  -999.2500  -999.2500
  695.5000    97.3750   -20.1990   -61.1430     9.9110     9.4490     8.9390  -999.2500  -999.2500  -999.2500  -999.2500  -999.2500
  696.0000    95.8470   -20.2240   -63.3270     9.8530     9.4490     8.6140  -999.2500  -999.2500  -999.2500  -999.2500  -999.2500
  696.5000    94.9500   -20.2360   -65.5100     9.7950     9.4490     8.7360  -999.2500  -999.2500  -999.2500  -999.2500  -999.2500
  697.0000    95.3330   -20.2650   -67.6940     9.7370     9.4490     8.8560  -999.2500  -999.2500  -999.2500  -999.2500  -999.2500
  697.5000    94.4590   -20.2750   -69.8780     9.6980     9.3710     8.8040  -999.2500  -999.2500  -999.2500  -999.2500  -999.2500
  698.0000    89.5330   -20.3070   -72.0620     9.6690     9.2750     8.7610  -999.2500  -999.2500  -999.2500  -999.2500  -999.2500
  698.5000    85.0040   -20.4460   -74.1210     9.6400     9.1790     8.7170  -999.2500  -999.2500  -999.2500  -999.2500  -999.2500
  699.0000    84.5800   -20.6180   -74.1210     9.6110     9.0830     8.6830  -999.2500  -999.2500  -999.2500  -999.2500  -999.2500
  699.5000    86.2360   -20.7920   -74.1210     9.5830     8.9870     8.6580  -999.2500  -999.2500  -999.2500  -999.2500  -999.2500
  700.0000    86.5180   -20.9040   -74.1210     9.5540     8.9220     8.6330  -999.2500  -999.2500  -999.2500  -999.2500  -999.2500
  700.5000    85.1710   -20.8800   -74.1210     9.5250     8.8870     8.6090  -999.2500  -999.2500  -999.2500  -999.2500  -999.2500
  701.0000    87.8240   -20.8450   -74.1210     9.4960     8.8560     8.5840  -999.2500  -999.2500  -999.2500  -999.2500  -999.2500
  701.5000    91.8750   -20.8270   -74.1210     9.4680     8.9530     8.5600  -999.2500  -999.2500  -999.2500  -999.2500  -999.2500
  702.0000    92.0280   -20.7970   -74.1210     9.4720     9.0380     8.5350  -999.2500  -999.2500  -999.2500  -999.2500  -999.2500
  702.5000    91.5470   -20.7740   -84.1710     9.5360     9.1230     8.6180  -999.2500  -999.2500  -999.2500  -999.2500  -999.2500
  703.0000    91.2260   -20.7450   -81.6380     9.5990     9.1910     8.7040  -999.2500  -999.2500  -999.2500  -999.2500  -999.2500
  703.5000    90.3620   -20.7240   -79.0800     9.6620     9.3020     8.7890  -999.2500  -999.2500  -999.2500  -999.2500  -999.2500
  704.0000    89.9890   -20.6210   -76.5230     9.7260     9.3940     8.8750  -999.2500  -999.2500  -999.2500  -999.2500  -999.2500
  704.5000    90.4210   -20.4310   -74.1210     9.7890     9.4860     8.9390  -999.2500  -999.2500  -999.2500  -999.2500  -999.2500
  705.0000    91.1650   -20.2390   -72.7170     9.8520     9.5790     8.8910  -999.2500  -999.2500  -999.2500  -999.2500  -999.2500
  705.5000    90.4640   -20.0390   -71.0930     9.8970     9.6030     8.8540  -999.2500  -999.2500  -999.2500  -999.2500  -999.2500
  706.0000    89.9410   -19.8640   -69.4690     9.8440     9.5570     8.8160  -999.2500  -999.2500  -999.2500  -999.2500  -999.2500
  706.5000    91.9950   -19.6440   -67.8450     9.8040     9.5110     8.7780  -999.2500  -999.2500  -999.2500  -999.2500  -999.2500
  707.0000    94.4610   -19.5140   -66.2210     9.7630     9.4640     8.7400  -999.2500  -999.2500  -999.2500  -999.2500  -999.2500
  707.5000    96.0740   -19.6880   -64.5970     9.7230     9.4180     8.6940  -999.2500  -999.2500  -999.2500  -999.2500  -999.2500
  708.0000    96.4060   -19.9060   -62.9730     9.6820     9.3620     8.7300  -999.2500  -999.2500  -999.2500  -999.2500  -999.2500
  708.5000    94.5400   -20.0620   -61.3490     9.6410     9.3860     8.7760  -999.2500  -999.2500  -999.2500  -999.2500  -999.2500
  709.0000    92.4470   -20.2650   -59.7250     9.6010     9.4150     8.8210  -999.2500  -999.2500  -999.2500  -999.2500  -999.2500
  709.5000    90.9940   -20.4370   -58.1010     9.5600     9.4490     8.8560  -999.2500  -999.2500  -999.2500  -999.2500  -999.2500
  710.0000    91.2290   -20.5050   -56.4770     9.5190     9.2930     8.7900  -999.2500  -999.2500  -999.2500  -999.2500  -999.2500
  710.5000    93.8550   -20.5070   -54.8530     9.4790     9.1070     8.7360  -999.2500  -999.2500  -999.2500  -999.2500  -999.2500
  711.0000    94.7730   -20.5760   -54.0200     9.4380     8.9390     8.6830  -999.2500  -999.2500  -999.2500  -999.2500  -999.2500
  711.5000    92.9430   -20.7350   -54.0200     9.3980     8.8400     8.6140  -999.2500  -999.2500  -999.2500  -999.2500  -999.2500
  712.0000    91.7950   -20.8820   -54.0200     9.3620     8.9130     8.6460  -999.2500  -999.2500  -999.2500  -999.2500  -999.2500
  712.5000    93.3920   -21.0360   -54.0200     9.4280     8.9860     8.6900  -999.2500  -999.2500  -999.2500  -999.2500  -999.2500
  713.0000    95.3690   -21.1910   -54.0200     9.4870     9.0590     8.7340  -999.2500  -999.2500  -999.2500  -999.2500  -999.2500
  713.5000    94.8680   -21.3070   -54.0200     9.5450     9.1320     8.7780  -999.2500  -999.2500  -999.2500  -999.2500  -999.2500
  714.0000    93.8110   -21.5240   -54.0200     9.6030     9.1910     8.8220  -999.2500  -999.2500  -999.2500  -999.2500  -999.2500
  714.5000    93.9680   -21.7080   -54.0200     9.6170     9.0550     8.8560  -999.2500  -999.2500  -999.2500  -999.2500  -999.2500
  715.0000    95.0740   -21.6530   -54.0200     9.6030     8.9420     8.8560  -999.2500  -999.2500  -999.2500  -999.2500  -999.2500
