~VERSION INFORMATION
 VERS.                2.0:   CWLS LOG ASCII STANDARD - VERSION 2.0
 WRAP.                 NO:   ONE LINE PER DEPTH STEP
~WELL INFORMATION
#MNEM.UNIT      DATA TYPE    INFORMATION
#----------   ------------   ------------------------------
 STRT.F          176.0000:   START DEPTH
 STOP.F         3442.0000:   STOP DEPTH
 STEP.F            0.5000:   STEP LENGTH
 NULL.          -999.2500:   NO VALUE
 COMP.  FENIX AND SCISSON:   COMPANY
 WELL.  FENIX "AX" #65-15:   WELL
 FLD . NAVAL PETROLEUM RESERVE #3:   FIELD
 LOC .      S15 T38N R78W:   LOCATION
 CNTY.            NATRONA:   COUNTY
 STAT.            WYOMING:   STATE
 CTRY. UNITED STATES OF AMERICA:   COUNTRY
 SRVC.       SCHLUMBERGER:   SERVICE COMPANY
 DATE.        09-APR-1981:   LOGDATE
 API .     49025108710000:   API NUMBER
~CURVE INFORMATION
#MNEM.UNIT       API CODE    CURVE DESCRIPTION
#----------   ------------   ------------------------------
 DEPT.F                  :   
 TENR.LBS    07 635 01 00:   TENSION
 SPR .MV     07 010 01 00:   SPONTANEOUS POTENTIAL
 ILD .OHMM   07 120 46 00:   INDUCTION LOG DEEP RESISTIVITY
 ILM .OHMM   07 120 44 00:   INDUCTION LOG MEDIUM RESISTIVITY
 SFL .OHMM   07 220 01 00:   SHALLOW FOCUSED LOG RESISTIVITY
 TEND.LBS    45 635 01 00:   TENSION FROM DENSITY LOG
 CALD.IN     45 280 60 00:   CALIPER FROM DENSITY LOG
 GRD .GAPI   45 310 01 00:   GAMMA RAY FROM DENSITY LOG
 RHOB.G/C3   45 350 01 00:   BULK DENSITY
 CORR.G/C3   45 356 01 00:   DENSITY CORRECTION
~PARAMETER INFORMATION
#MNEM.UNIT          VALUE    DESCRIPTION
#----------   ------------   ------------------------------
 EKB .F         5287.0000:   Kelly bushing
 EGL .F         5277.0000:   Ground level
 EDF .F            0.0000:   Drilling floor
 TD  .F         5476.0000:   Total depth
 DATE.        09-APR-1981:   Date logged
 CLNT.            A2DTECH:   Client Code
 SL  . 1945' FSL & 1161' FEL:   Surface Location
 PD  .                 GL:   Permanent Datum
 EPD .F              5277:   Elevation Permanent Datum
 LMF .                 KB:   Log Measured From
 DMF .                 KB:   Drilling Measured From
 DAPD.F                10:   Feet Above Permanent Datum
 DD  .F              5476:   Depth driller
 DL  .F              5436:   Depth logger
 BLI .F              5430:   Bottom log interval
 TLI .F               190:   Top log interval
 CS1 .IN            8.625:   Casing size
 CBD1.      8.625" @ 190':   Casing driller 1
 CBL1.F               190:   Casing logger 1
 BS1 .IN            7.875:   Bit size
 BSD1.F              5476:   Depth drilled with bit1
 DFT .           CHEM GEL:   Type fluid in hole
 DFD .                9.1:   Density
 DFV .                 42:   Viscosity
 DFPH.                9.5:   pH
 DFL .                  8:   Fluid loss
 MSS .            MUDTANK:   Source of sample
 RMS .OHMM           1.62:   Rm
 MST .F                71:   Rm Meas. temp.
 RMF .OHMM           1.45:   Rmf
 MFST.F                71:   Rmf Meas. temp.
 MFSS.               MEAS:   Source Rmf.
 RMB .OHMM           1.02:   Rm. at BHT
 BHT .F               116:   BHT.
 TCS .HRS            1600:   Time Circ. stopped
 TLAB.HRS            1830:   Time logger at bottom
 MRT .F               116:   Maximum recorded temp.
 LUN .               8035:   Logging unit number
 LUL .               CSPR:   Logging unit location
 ENGI.            BEATTIE:   Recorded By
 WITN.              EIVAS:   Witnessed by
 ORIG.           5" PRINT:   Origin of data
 UWI .     49025108710000:   Unique Well ID
 DICO. A2D TECHNOLOGIES, INC.:   Digitizing Company
~OTHER INFORMATION
~A   DEPT     TENR        SPR        ILD        ILM        SFL       TEND       CALD         GRD      RHOB       CORR   
# ...
  611.5000   338.3700   -16.1650     6.2290     6.2070     6.3760   340.8450     8.5640   119.6590     2.4730     0.0180
  612.0000   338.4390   -16.1810     5.9560     6.0540     6.3240   340.1960     8.5650   120.4000     2.4730     0.0230
  612.5000   338.5070   -16.1970     5.6830     5.7870     6.2710   339.5470     8.5670   119.6950     2.4640     0.0200
  613.0000   338.5760   -16.2130     5.4090     5.5200     6.2180   338.8980     8.5690   119.3710     2.4520     0.0140
  613.5000   338.6450   -16.2290     5.1360     5.2530     6.0110   338.2490     8.5700   119.8560     2.4400     0.0090
  614.0000   338.7130   -16.2450     4.8070     4.9860     5.4750   337.6000     8.5710   121.5720     2.4270     0.0050
  614.5000   338.7820   -16.2610     4.8400     4.7050     4.9380   336.9510     8.5740   124.1470     2.4170     0.0340
  615.0000   338.8500   -16.2750     4.9050     4.7940     4.4020   336.3020     8.6360   124.3650     2.4010     0.0520
  615.5000   338.9190   -16.2600     4.9710     4.9530     3.8510   335.6530     8.9320   122.2520     2.3830     0.0610
  616.0000   338.9870   -16.2180     5.0360     5.1130     3.8510   335.0040     9.1010   119.7200     2.3650     0.0290
  616.5000   339.0560   -16.1770     5.1010     5.2730     5.0370   334.3310     8.8940   118.4910     2.3590     0.0060
  617.0000   339.1250   -16.1350     5.2130     5.4330     6.0390   336.8060     8.6150   119.9130     2.4050     0.0060
  617.5000   339.1930   -16.0940     5.5040     5.5930     7.0220   343.5130     8.4910   120.9730     2.4530     0.0100
  618.0000   339.2620   -16.0520     5.7950     5.7530     7.1510   350.2200     8.5160   120.8780     2.4740     0.0140
  618.5000   339.3300   -16.0120     6.0870     5.9130     7.1060   354.2910     8.5140   117.6000     2.4740     0.0180
  619.0000   339.3990   -15.9680     6.3780     6.0730     7.0530   345.1820     8.5160   114.9060     2.4750     0.0220
  619.5000   339.4670   -15.9300     6.6490     6.2330     6.9990   336.0370     8.5170   114.1000     2.4750     0.0260
  620.0000   339.5360   -15.8890     6.7850     6.4110     6.9450   334.3310     8.5210   115.1970     2.4860     0.0300
  620.5000   339.6040   -15.9790     6.8360     6.7710     6.8960   335.0020     8.5250   118.7690     2.4960     0.0330
  621.0000   339.6730   -16.0880     6.8870     6.7600     7.0800   335.6590     8.5290   120.6900     2.4930     0.0220
  621.5000   339.7420   -16.2010     6.9370     6.7220     7.2500   336.3170     8.5330   120.5370     2.4820     0.0110
  622.0000   339.8100   -16.3100     6.9880     6.6830     7.4190   336.9740     8.5370   120.2020     2.4700     0.0050
  622.5000   339.8790   -16.4210     7.0380     6.6450     7.5880   337.6320     8.5400   120.0030     2.4680     0.0080
  623.0000   339.9470   -16.5300     7.0890     6.6070     7.8330   338.2890     8.5440   120.7530     2.4710     0.0150
  623.5000   340.0160   -16.6390     7.1430     6.5690     7.7470   338.9470     8.5480   121.1280     2.4750     0.0150
  624.0000   340.0840   -16.6720     7.1270     6.5310     7.5920   339.6040     8.5520   119.6250     2.4790     0.0140
  624.5000   340.1530   -16.6350     7.0940     6.4920     7.4370   340.2620     8.5560   117.6850     2.4770     0.0090
  625.0000   340.2220   -16.5680     7.0620     6.4540     7.2830   340.9190     8.5600   117.5760     2.4740     0.0040
  625.5000   340.2900   -16.5070     7.0300     6.4160     7.2830   341.5770     8.5640   120.6390     2.4760     0.0090
  626.0000   340.3590   -16.4450     6.9970     6.3780     7.2830   342.2340     8.5670   123.4620     2.4790     0.0150
  626.5000   340.4270   -16.3830     6.9650     6.3400     7.2830   342.8920     8.5710   124.9270     2.4820     0.0190
  627.0000   340.4960   -16.3210     6.9330     6.3010     7.2830   343.5500     8.5740   123.8790     2.4800     0.0150
  627.5000   340.5640   -16.2590     6.8970     6.2630     7.2830   344.2070     8.5740   123.5170     2.4770     0.0130
  628.0000   340.6330   -16.1960     6.9110     6.2250     7.2830   344.8650     8.5740   123.5440     2.4770     0.0110
  628.5000   340.7020   -16.1340     6.9280     6.1820     7.2830   345.5220     8.5740   125.1210     2.4800     0.0120
  629.0000   340.7700   -16.0730     6.9440     6.4180     7.2830   346.1800     8.5740   128.2420     2.4830     0.0140
  629.5000   340.8390   -16.0100     6.9600     6.4320     7.2830   346.8370     8.5740   131.7670     2.4850     0.0130
  630.0000   340.9070   -15.9500     6.9760     6.4450     7.2830   347.4950     8.5740   133.4260     2.4880     0.0090
  630.5000   340.9760   -15.8860     6.9930     6.4590     7.2830   348.1520     8.5740   129.6640     2.4860     0.0040
  631.0000   341.0440   -15.8840     7.0130     6.4720     7.2830   348.8100     8.5740   125.0380     2.4820     0.0040
  631.5000   341.1130   -15.8800     6.9660     6.4860     7.2830   349.4670     8.5740   122.3950     2.4780     0.0060
  632.0000   341.1810   -15.8820     6.8960     6.4990     7.2850   350.1250     8.5710   123.0680     2.4800     0.0120
  632.5000   341.2500   -15.8080     6.5290     6.5130     7.2810   350.7820     8.5680   123.8240     2.4850     0.0150
  633.0000   341.3190   -15.7050     6.4510     6.5260     7.2830   351.4400     8.5640   124.3830     2.4860     0.0140
  633.5000   341.3870   -15.6100     6.3710     6.1600     7.2830   352.0970     8.5610   124.1360     2.4780     0.0260
  634.0000   341.4560   -15.4990     6.2910     5.6960     7.1330   352.7550     8.5560   123.9250     2.4490     0.0530
  634.5000   341.5240   -15.4910     6.2110     5.2310     6.4300   353.4120     8.5580   122.4990     2.3910     0.0730
  635.0000   341.5930   -15.4910     6.1320     5.0240     5.7270   354.0700     8.6920   121.2500     2.2980     0.0610
  635.5000   341.6610   -15.4680     6.0520     4.9670     5.0600   354.2910     8.6940   120.6540     2.2430     0.0210
  636.0000   341.7300   -15.4100     5.9610     4.9100     5.4680   354.2910     8.6170   122.5990     2.2500    -0.0100
  636.5000   341.7990   -15.3550     5.6150     4.8800     6.0880   354.2910     8.5370   125.4820     2.4230    -0.0120
  637.0000   341.8670   -15.3000     5.2140     4.8220     6.7080   354.2910     8.4980   128.4040     2.4150     0.0020
  637.5000   341.9360   -15.2450     4.8140     4.6180     7.0220   354.2910     8.5150   128.3500     2.4400     0.0420
  638.0000   342.0040   -15.1900     4.5370     4.4140     6.4420   354.2910     8.5330   126.8270     2.3290     0.0910
  638.5000   342.0730   -15.1350     4.5370     4.2110     5.3730   354.2910     8.6350   122.3810     2.2260     0.1260
  639.0000   342.1410   -15.0800     4.5630     3.9940     4.3030   354.2910     9.2830   115.6360     2.0920     0.0690
  639.5000   342.2100   -15.0240     4.5980     3.9940     3.3910   354.2910    10.1560   110.9770     2.0010     0.0210
  640.0000   342.2790   -14.9690     4.6340     4.1930     3.3910   354.2910    10.0990   112.7570     2.0630    -0.0220
  640.5000   342.3470   -14.9140     4.6690     4.4580     5.0340   354.2910     8.7360   120.9990     2.2290    -0.0110
  641.0000   342.4160   -14.8600     4.7050     4.7220     6.7710   354.2910     8.4960   126.0580     2.4250     0.0040
  641.5000   342.4840   -14.8040     5.1650     4.9870     7.0220   354.2910     8.5150   127.8360     2.4720     0.0130
  642.0000   342.5530   -14.7470     5.6320     5.2520     6.9590   354.2910     8.5050   124.7360     2.4720     0.0130
  642.5000   342.6210   -14.7290     6.1820     5.5160     6.8020   354.2910     8.4980   120.8380     2.4750     0.0140
  643.0000   342.6900   -14.8280     6.4110     5.7810     6.6490   354.2910     8.5000   116.8350     2.4800     0.0140
  643.5000   342.7580   -14.9250     6.4110     6.0460     6.6930   354.2910     8.5080   113.9430     2.4770     0.0110
  644.0000   342.8270   -15.0270     6.4110     6.2960     6.8740   354.2910     8.5160   111.7730     2.4680     0.0050
  644.5000   342.8960   -15.0980     5.9790     6.2960     7.0560   354.2910     8.5250   111.5680     2.4590    -0.0020
