~VERSION INFORMATION
 VERS.                2.0:   CWLS LOG ASCII STANDARD - VERSION 2.0
 WRAP.                 NO:   ONE LINE PER DEPTH STEP
~WELL INFORMATION
#MNEM.UNIT      DATA TYPE    INFORMATION
#----------   ------------   ------------------------------
 STRT.F          748.0000:   START DEPTH
 STOP.F         2734.0000:   STOP DEPTH
 STEP.F            0.5000:   STEP LENGTH
 NULL.          -999.2500:   NO VALUE
 COMP.    FENIX & SCISSON:   COMPANY
 WELL. FENIX NPR 3 "SHX" #84-4:   WELL
 FLD .             TEAPOT:   FIELD
 LOC .       S4 T38N R78W:   LOCATION
 CNTY.            NATRONA:   COUNTY
 STAT.            WYOMING:   STATE
 CTRY. UNITED STATES OF AMERICA:   COUNTRY
 SRVC.              WELEX:   SERVICE COMPANY
 DATE.        08-MAY-1980:   LOGDATE
 API .     49025108050000:   API NUMBER
~CURVE INFORMATION
#MNEM.UNIT       API CODE    CURVE DESCRIPTION
#----------   ------------   ------------------------------
 DEPT.F                  :   
 CALD.IN     45 280 60 00:   CALIPER FROM DENSITY LOG
 GRD .GAPI   45 310 01 00:   GAMMA RAY FROM DENSITY LOG
 RHOB.G/C3   45 350 01 00:   BULK DENSITY
 CORR.G/C3   45 356 01 00:   DENSITY CORRECTION
~PARAMETER INFORMATION
#MNEM.UNIT          VALUE    DESCRIPTION
#----------   ------------   ------------------------------
 EKB .F         5244.0000:   Kelly bushing
 EGL .F         5234.0000:   Ground level
 EDF .F            0.0000:   Drilling floor
 TD  .F         2733.0000:   Total depth
 DATE.        08-MAY-1980:   Date logged
 CLNT.            A2DTECH:   Client Code
 SL  . 7461' FNL & 383' FEL:   Surface Location
 PD  .                 GL:   Permanent Datum
 EPD .F              5234:   Elevation Permanent Datum
 LMF .                 KB:   Log Measured From
 DMF .                 KB:   Drilling Measured From
 DAPD.F                10:   Feet Above Permanent Datum
 DD  .F              2700:   Depth driller
 DL  .F              2733:   Depth logger
 BLI .F              2731:   Bottom log interval
 TLI .F               752:   Top log interval
 CS1 .IN            9.625:   Casing size
 CBD1.      9.625" @ 260':   Casing driller 1
 BS1 .IN              8.5:   Bit size
 BSD1.F              2700:   Depth drilled with bit1
 DFT .                AIR:   Type fluid in hole
 MRT .F               118:   Maximum recorded temp.
 LUN .                  2:   Logging unit number
 ENGI.           TORTILLE:   Recorded By
 WITN.              AMEND:   Witnessed by
 ORIG.           5" PRINT:   Origin of data
 UWI .     49025108050000:   Unique Well ID
 DICO. A2D TECHNOLOGIES, INC.:   Digitizing Company
~OTHER INFORMATION
~A   DEPT       CALD       GRD        RHOB       CORR 
# ...
 1624.0000     8.9800    86.1820     2.4730     0.0380
 1624.5000     8.9800    86.2440     2.4680     0.0420
 1625.0000     8.9800    86.3230     2.4680     0.0450
 1625.5000     8.9800    86.4110     2.4710     0.0450
 1626.0000     8.9800    86.4890     2.4630     0.0400
 1626.5000     8.9800    86.5730     2.4500     0.0340
 1627.0000     8.9800    86.6550     2.4520     0.0330
 1627.5000     8.9800    86.7370     2.4600     0.0350
 1628.0000     8.9800    86.8190     2.4720     0.0420
 1628.5000     8.9800    86.9010     2.4830     0.0490
 1629.0000     8.9800    86.9830     2.4940     0.0560
 1629.5000     8.9800    87.0640     2.5030     0.0630
 1630.0000     8.9800    87.1490     2.5150     0.0700
 1630.5000     8.9800    87.2260     2.4910     0.0680
 1631.0000     8.9800    87.2950     2.4860     0.0610
 1631.5000     8.9800    87.0770     2.4900     0.0640
 1632.0000     8.9800    86.7690     2.4860     0.0670
 1632.5000     8.9800    86.4690     2.4760     0.0690
 1633.0000     8.9800    86.1550     2.4740     0.0550
 1633.5000     8.9800    85.8710     2.4590     0.0410
 1634.0000     8.9800    85.5370     2.4480     0.0260
 1634.5000     8.9800    85.8120     2.4450     0.0250
 1635.0000     8.9800    86.1810     2.4490     0.0280
 1635.5000     8.9800    86.5770     2.4560     0.0330
 1636.0000     8.9800    86.7260     2.4620     0.0370
 1636.5000     8.9790    86.7860     2.4680     0.0420
 1637.0000     8.9770    86.8550     2.4700     0.0460
 1637.5000     8.9750    86.9260     2.4730     0.0480
 1638.0000     8.9730    86.9920     2.4760     0.0500
 1638.5000     8.9720    87.0640     2.4790     0.0520
 1639.0000     8.9700    87.1320     2.4810     0.0540
 1639.5000     8.9680    87.1940     2.4940     0.0560
 1640.0000     8.9670    87.2900     2.5080     0.0620
 1640.5000     8.9650    87.0970     2.5240     0.0770
 1641.0000     8.9630    86.6690     2.5340     0.0890
 1641.5000     8.9620    86.2750     2.5250     0.0880
 1642.0000     8.9600    85.8770     2.5160     0.0810
 1642.5000     8.9580    85.4770     2.5070     0.0730
 1643.0000     8.9570    85.0740     2.5010     0.0680
 1643.5000     8.9550    84.6790     2.5050     0.0740
 1644.0000     8.9530    84.3190     2.5080     0.0800
 1644.5000     8.9520    84.3090     2.5050     0.0750
 1645.0000     8.9500    84.3170     2.5040     0.0700
 1645.5000     8.9480    84.3390     2.5100     0.0640
 1646.0000     8.9460    84.3520     2.5070     0.0610
 1646.5000     8.9450    84.3690     2.5040     0.0610
 1647.0000     8.9430    84.3850     2.5010     0.0600
 1647.5000     8.9410    84.4010     2.4970     0.0590
 1648.0000     8.9400    84.4170     2.5010     0.0590
 1648.5000     8.9410    84.4330     2.5000     0.0580
 1649.0000     8.9420    84.4500     2.4950     0.0570
 1649.5000     8.9440    84.4660     2.4990     0.0570
 1650.0000     8.9450    84.4820     2.5080     0.0640
 1650.5000     8.9460    84.4980     2.5160     0.0770
 1651.0000     8.9470    84.5140     2.5240     0.0770
 1651.5000     8.9480    84.5300     2.5230     0.0740
 1652.0000     8.9490    84.5460     2.5120     0.0660
 1652.5000     8.9500    84.5630     2.5030     0.0570
 1653.0000     8.9510    84.5790     2.5080     0.0620
 1653.5000     8.9530    84.5950     2.5200     0.0790
 1654.0000     8.9540    84.6110     2.5110     0.0890
 1654.5000     8.9550    84.6270     2.5030     0.0680
 1655.0000     8.9560    84.6430     2.5000     0.0700
 1655.5000     8.9570    84.6590     2.5010     0.0690
 1656.0000     8.9580    84.6760     2.4900     0.0650
 1656.5000     8.9590    84.6920     2.4780     0.0500
 1657.0000     8.9600    84.7080     2.4680     0.0360
 1657.5000     8.9610    84.7240     2.4780     0.0380
 1658.0000     8.9630    84.7400     2.4910     0.0550
 1658.5000     8.9640    84.7560     2.5040     0.0730
 1659.0000     8.9650    84.7720     2.5100     0.0770
 1659.5000     8.9660    84.7880     2.4990     0.0670
 1660.0000     8.9670    84.8050     2.4900     0.0460
 1660.5000     8.9680    84.8210     2.4860     0.0440
 1661.0000     8.9690    84.8360     2.5050     0.0570
 1661.5000     8.9700    84.8560     2.5160     0.0660
 1662.0000     8.9720    84.8660     2.5040     0.0650
 1662.5000     8.9730    84.8890     2.5200     0.0650
 1663.0000     8.9740    84.9260     2.5210     0.0660
 1663.5000     8.9750    85.2850     2.5170     0.0540
 1664.0000     8.9760    85.6150     2.4770     0.0340
 1664.5000     8.9770    85.9760     2.4750     0.0290
 1665.0000     8.9780    86.3040     2.4810     0.0360
 1665.5000     8.9800    86.6710     2.4890     0.0430
 1666.0000     8.9790    86.6970     2.4960     0.0510
 1666.5000     8.9780    86.7040     2.5030     0.0590
 1667.0000     8.9760    86.6960     2.5100     0.0660
 1667.5000     8.9750    86.7000     2.5170     0.0740
 1668.0000     8.9730    86.7010     2.5240     0.0810
 1668.5000     8.9710    86.6930     2.5280     0.0810
 1669.0000     8.9700    86.7090     2.5280     0.0810
 1669.5000     8.9680    86.6910     2.5290     0.0810
 1670.0000     8.9670    86.6470     2.5000     0.0730
 1670.5000     8.9650    85.8410     2.4880     0.0640
 1671.0000     8.9640    85.0450     2.4770     0.0550
 1671.5000     8.9620    84.2260     2.4720     0.0460
 1672.0000     8.9610    83.3980     2.4800     0.0420
 1672.5000     8.9590    83.0540     2.4840     0.0460
 1673.0000     8.9570    83.0380     2.4780     0.0490
 1673.5000     8.9560    82.9930     2.4790     0.0530
 1674.0000     8.9540    82.9480     2.4940     0.0660
 1674.5000     8.9530    82.9100     2.5100     0.0820
 1675.0000     8.9510    82.8660     2.5190     0.0970
 1675.5000     8.9500    82.8250     2.5190     0.0960
 1676.0000     8.9480    82.7840     2.5040     0.0740
 1676.5000     8.9470    82.7420     2.5070     0.0740
 1677.0000     8.9450    82.7010     2.5100     0.0790
 1677.5000     8.9430    82.6580     2.5140     0.0850
 1678.0000     8.9420    82.6200     2.5130     0.0830
 1678.5000     8.9400    82.5730     2.5110     0.0770
 1679.0000     8.9410    82.5370     2.5100     0.0710
 1679.5000     8.9430    82.5240     2.5080     0.0650
 1680.0000     8.9450    82.7970     2.5080     0.0600
 1680.5000     8.9470    83.0340     2.5070     0.0650
 1681.0000     8.9490    83.2910     2.5150     0.0720
 1681.5000     8.9510    83.5360     2.5220     0.0780
 1682.0000     8.9530    83.7870     2.5270     0.0850
 1682.5000     8.9550    84.0330     2.5300     0.0920
 1683.0000     8.9560    84.2920     2.5340     0.0980
 1683.5000     8.9580    84.4960     2.5380     0.1050
 1684.0000     8.9600    84.7160     2.5410     0.1050
 1684.5000     8.9620    84.9230     2.5450     0.1050
 1685.0000     8.9640    85.1350     2.5410     0.0950
 1685.5000     8.9660    85.3810     2.5290     0.0870
 1686.0000     8.9680    85.3490     2.5210     0.0780
 1686.5000     8.9700    84.7960     2.5190     0.0690
 1687.0000     8.9720    84.2840     2.5080     0.0600
 1687.5000     8.9730    83.7520     2.4980     0.0510
 1688.0000     8.9750    83.2210     2.4900     0.0440
 1688.5000     8.9770    82.7100     2.4970     0.0540
 1689.0000     8.9790    82.1450     2.5080     0.0760
 1689.5000     8.9800    81.8530     2.5230     0.0820
 1690.0000     8.9790    81.5410     2.5160     0.0770
 1690.5000     8.9780    81.2120     2.5020     0.0690
 1691.0000     8.9770    80.8720     2.4980     0.0620
 1691.5000     8.9760    80.5500     2.4970     0.0540
 1692.0000     8.9750    80.2060     2.4860     0.0470
 1692.5000     8.9740    79.8890     2.4760     0.0400
 1693.0000     8.9730    79.5320     2.4700     0.0370
 1693.5000     8.9720    79.5760     2.4750     0.0380
 1694.0000     8.9710    79.6540     2.4810     0.0410
 1694.5000     8.9700    79.7480     2.4830     0.0440
 1695.0000     8.9690    79.8280     2.4760     0.0420
 1695.5000     8.9680    79.9150     2.4640     0.0370
 1696.0000     8.9670    80.0000     2.4550     0.0320
 1696.5000     8.9660    80.0850     2.4600     0.0290
