~VERSION INFORMATION
 VERS.                2.0:   CWLS LOG ASCII STANDARD - VERSION 2.0
 WRAP.                 NO:   ONE LINE PER DEPTH STEP
~WELL INFORMATION
#MNEM.UNIT      DATA TYPE    INFORMATION
#----------   ------------   ------------------------------
 STRT.F            0.0000:   START DEPTH
 STOP.F         3205.0000:   STOP DEPTH
 STEP.F            0.5000:   STEP LENGTH
 NULL.          -999.2500:   NO VALUE
 COMP. LAWRENCE-ALLISON AND ASSOCIATES:   COMPANY
 WELL. LAWRENCE "X" #64-28:   WELL
 FLD .          N.P.R. #3:   FIELD
 LOC .      S28 T39N R78W:   LOCATION
 CNTY.            NATRONA:   COUNTY
 STAT.            WYOMING:   STATE
 CTRY. UNITED STATES OF AMERICA:   COUNTRY
 SRVC.      DRESSER ATLAS:   SERVICE COMPANY
 DATE.        25-MAY-1986:   LOGDATE
 API .     49025110730000:   API NUMBER
~CURVE INFORMATION
#MNEM.UNIT       API CODE    CURVE DESCRIPTION
#----------   ------------   ------------------------------
 DEPT.F                  :   
 GRR .GAPI   07 310 01 00:   GAMMA RAY FROM RESISTIVITY
 SPR .MV     07 010 01 00:   SPONTANEOUS POTENTIAL
 RILD.OHMM   07 120 46 00:   DEEP INDUCTION RESISTIVITY
 RILM.OHMM   07 120 44 00:   INDUCTION LOG MEDIUM RESISTIVITY
 RSFL.OHMM   07 221 01 00:   AMPPLIFIED SHALLOW FOCUSED LOG RESISTIVITY
 TENR.LBS    07 635 01 00:   TENSION FROM RESISTIVITY
 CNC .DEC    42 890 03 00:   NEUTRON POROSITY SANDSTONE
 CALD.IN     45 280 60 00:   CALIPER FROM DENSITY LOG
 DEN .G/C3   45 350 01 00:   BULK DENSITY
 CORR.G/C3   45 356 01 00:   DENSITY CORRECTION
 TEND.LBS    45 635 01 00:   TENSION FROM DENSITY LOG
~PARAMETER INFORMATION
#MNEM.UNIT          VALUE    DESCRIPTION
#----------   ------------   ------------------------------
 EKB .F         5070.0000:   Kelly bushing
 EGL .F         5058.0000:   Ground level
 TD  .F         3205.0000:   Total depth
 DATE.        25-MAY-1986:   Date logged
 CLNT.            A2DTECH:   Client Code
 SL  . 2248' FNL & 1636' FEL:   Surface Location
 PD  .                 GL:   Permanent Datum
 EPD .F              5058:   Elevation Permanent Datum
 LMF .                 KB:   Log Measured From
 DMF .                 KB:   Drilling Measured From
 DAPD.F                12:   Feet Above Permanent Datum
 DD  .F              3205:   Depth driller
 DL  .F              3203:   Depth logger
 BLI .F              3201:   Bottom log interval
 CS1 .IN            8.625:   Casing size
 CBD1.      8.625" @ 476':   Casing driller 1
 CBL1.F               478:   Casing logger 1
 BS1 .IN            7.875:   Bit size
 BSD1.F              3205:   Depth drilled with bit1
 DFT .        POLYMER-KCL:   Type fluid in hole
 DFD .                  9:   Density
 DFV .                 37:   Viscosity
 DFPH.                8.5:   pH
 DFL .                 10:   Fluid loss
 MSS .           FLOWLINE:   Source of sample
 RMS .OHMM           0.31:   Rm
 MST .F                69:   Rm Meas. temp.
 RMF .OHMM           0.25:   Rmf
 MFST.F                69:   Rmf Meas. temp.
 RMC .OHMM           0.39:   Rmc
 MCST.F                69:   Rmc Meas. temp.
 MFSS.               MEAS:   Source Rmf.
 MCSS.               CALC:   Source Rmc.
 RMB .OHMM           0.19:   Rm. at BHT
 BHT .F               115:   BHT.
 TCS .HRS               4:   Time Circ. stopped
 MRT .F               115:   Maximum recorded temp.
 LUN .            HL-6274:   Logging unit number
 LUL .           GILLETTE:   Logging unit location
 ENGI.             RAUTIO:   Recorded By
 WITN.             STRONG:   Witnessed by
 ORIG.           5" PRINT:   Origin of data
 UWI .     49025110730000:   Unique Well ID
 DICO. A2D TECHNOLOGIES, INC.:   Digitizing Company
~OTHER INFORMATION
~A    DEPT     GRR        SPR       RILD       RILM       RSFL       TENR        CNC       CALD        DEN       CORR       TEND   
# ...
 2104.5000    87.7970   -49.1700     6.1950     6.5880     7.3350    13.6950  -999.2500  -999.2500  -999.2500  -999.2500  -999.2500
 2105.0000    86.9920   -48.9760     6.1490     6.7000     7.8980    10.8210  -999.2500  -999.2500  -999.2500  -999.2500  -999.2500
 2105.5000    88.3480   -48.8190     6.1020     6.7920     8.4680     7.9470  -999.2500  -999.2500  -999.2500  -999.2500  -999.2500
 2106.0000    89.1530   -48.6690     5.9860     6.2610     8.3040     4.4910  -999.2500  -999.2500  -999.2500  -999.2500  -999.2500
 2106.5000    87.4030   -48.5840     5.8240     5.9910     7.7600     8.7140  -999.2500  -999.2500  -999.2500  -999.2500  -999.2500
 2107.0000    85.2880   -48.6110     5.6620     5.8090     7.2160    14.0090  -999.2500  -999.2500  -999.2500  -999.2500  -999.2500
 2107.5000    87.8420   -48.5860     5.3960     5.5970     6.7920    19.3030  -999.2500  -999.2500  -999.2500  -999.2500  -999.2500
 2108.0000    95.5660   -48.6060     5.0660     5.3360     6.3900    24.4510  -999.2500  -999.2500  -999.2500  -999.2500  -999.2500
 2108.5000   103.9160   -48.7740     4.8780     5.0760     6.0600     2.2950  -999.2500  -999.2500  -999.2500  -999.2500  -999.2500
 2109.0000   107.2610   -48.9260     4.7890     4.8780     5.7300    -1.7080  -999.2500  -999.2500  -999.2500  -999.2500  -999.2500
 2109.5000   106.1640   -49.0680     4.7890     4.9230     5.4640     4.2090  -999.2500  -999.2500  -999.2500  -999.2500  -999.2500
 2110.0000   104.4380   -49.1970     4.7890     5.1420     5.2500    10.1270  -999.2500  -999.2500  -999.2500  -999.2500  -999.2500
 2110.5000   102.0220   -49.1640     4.8400     5.4080     5.6830    14.4710  -999.2500  -999.2500  -999.2500  -999.2500  -999.2500
 2111.0000    99.4080   -49.1120     4.8810     5.5150     6.6150    10.2260  -999.2500  -999.2500  -999.2500  -999.2500  -999.2500
 2111.5000    96.2730   -49.0860     4.9210     5.4440     7.6540     6.8730  -999.2500  -999.2500  -999.2500  -999.2500  -999.2500
 2112.0000    93.5250   -49.0190     4.9620     5.3730     7.6540     4.4910  -999.2500  -999.2500  -999.2500  -999.2500  -999.2500
 2112.5000    94.4990   -49.0180     5.0150     5.3020     6.8220     6.5180  -999.2500  -999.2500  -999.2500  -999.2500  -999.2500
 2113.0000    97.0570   -48.9730     5.0150     5.2320     6.1770     8.0900  -999.2500  -999.2500  -999.2500  -999.2500  -999.2500
 2113.5000   101.7470   -49.0260     4.9400     5.1610     5.8400     9.6620  -999.2500  -999.2500  -999.2500  -999.2500  -999.2500
 2114.0000   108.6710   -49.3920     4.8840     5.0900     5.8630    11.2340  -999.2500  -999.2500  -999.2500  -999.2500  -999.2500
 2114.5000   108.8730   -49.8070     4.8270     5.0150     6.0520    12.8060  -999.2500  -999.2500  -999.2500  -999.2500  -999.2500
 2115.0000   105.1270   -50.1400     4.7890     5.1860     6.3100    14.4710  -999.2500  -999.2500  -999.2500  -999.2500  -999.2500
 2115.5000   106.2690   -50.2130     4.9830     5.3710     6.1740     9.7410  -999.2500  -999.2500  -999.2500  -999.2500  -999.2500
 2116.0000   108.8160   -49.8540     5.1530     5.5990     5.8630     4.7110  -999.2500  -999.2500  -999.2500  -999.2500  -999.2500
 2116.5000   107.1560   -49.4290     5.3240     5.6260     6.1980    -0.3190  -999.2500  -999.2500  -999.2500  -999.2500  -999.2500
 2117.0000   102.3470   -49.0990     5.3520     5.6610     6.9780    -5.4890  -999.2500  -999.2500  -999.2500  -999.2500  -999.2500
 2117.5000   100.8940   -48.7830     5.2720     5.7030     7.7580     2.8510  -999.2500  -999.2500  -999.2500  -999.2500  -999.2500
 2118.0000   104.1720   -48.5770     5.1920     5.5410     8.0880    13.6300  -999.2500  -999.2500  -999.2500  -999.2500  -999.2500
 2118.5000   107.3890   -48.1810     5.1120     5.3340     7.2770    24.4510  -999.2500  -999.2500  -999.2500  -999.2500  -999.2500
 2119.0000   107.4860   -47.8340     5.0320     5.1910     6.4570    17.2940  -999.2500  -999.2500  -999.2500  -999.2500  -999.2500
 2119.5000   100.0770   -48.2570     4.9690     5.0920     5.8790    10.1080  -999.2500  -999.2500  -999.2500  -999.2500  -999.2500
 2120.0000    89.9880   -48.8250     4.8610     4.9940     5.7030     4.4910  -999.2500  -999.2500  -999.2500  -999.2500  -999.2500
 2120.5000    87.9880   -49.0380     4.7720     4.8780     5.5480    10.9410  -999.2500  -999.2500  -999.2500  -999.2500  -999.2500
 2121.0000    90.0730   -49.3150     4.6840     4.9070     5.7030    16.2360  -999.2500  -999.2500  -999.2500  -999.2500  -999.2500
 2121.5000    88.7490   -49.5810     4.6160     4.9420     6.0220    21.5310  -999.2500  -999.2500  -999.2500  -999.2500  -999.2500
 2122.0000    86.5240   -49.7130     4.6560     4.9690     6.2520    19.2460  -999.2500  -999.2500  -999.2500  -999.2500  -999.2500
 2122.5000    88.7390   -49.7930     4.6890     4.9690     6.3100     7.6390  -999.2500  -999.2500  -999.2500  -999.2500  -999.2500
 2123.0000    93.8160   -49.9730     4.7210     4.9690     6.1180    -5.4890  -999.2500  -999.2500  -999.2500  -999.2500  -999.2500
 2123.5000    95.1500   -50.1720     4.7530     4.9500     6.0760    -1.8460  -999.2500  -999.2500  -999.2500  -999.2500  -999.2500
 2124.0000    94.8530   -50.0400     4.7890     4.9100     6.0330     2.3450  -999.2500  -999.2500  -999.2500  -999.2500  -999.2500
 2124.5000    96.0670   -49.7600     4.7440     4.8710     5.9900     6.5370  -999.2500  -999.2500  -999.2500  -999.2500  -999.2500
 2125.0000    96.2780   -49.5500     4.6920     4.8310     5.9470    10.7290  -999.2500  -999.2500  -999.2500  -999.2500  -999.2500
 2125.5000    99.0840   -49.3350     4.6400     4.7920     5.9170    14.9200  -999.2500  -999.2500  -999.2500  -999.2500  -999.2500
 2126.0000   103.4030   -49.1810     4.5740     4.7520     5.8630    19.1120  -999.2500  -999.2500  -999.2500  -999.2500  -999.2500
 2126.5000   108.0520   -49.0410     4.5670     4.7020     5.9350    24.4510  -999.2500  -999.2500  -999.2500  -999.2500  -999.2500
 2127.0000   114.8710   -48.8730     4.5560     4.7380     6.0140    22.5290  -999.2500  -999.2500  -999.2500  -999.2500  -999.2500
 2127.5000   119.2890   -48.8590     4.5450     4.7870     6.0820    19.8810  -999.2500  -999.2500  -999.2500  -999.2500  -999.2500
 2128.0000   124.8590   -48.9730     4.5320     4.8360     5.9960    17.2340  -999.2500  -999.2500  -999.2500  -999.2500  -999.2500
 2128.5000   130.6620   -49.0910     4.4790     4.8780     5.9170    14.4710  -999.2500  -999.2500  -999.2500  -999.2500  -999.2500
 2129.0000   133.2460   -49.2350     4.4080     4.7960     5.9170    15.8330  -999.2500  -999.2500  -999.2500  -999.2500  -999.2500
 2129.5000   138.3730   -49.3200     4.3370     4.7240     5.9170    17.6290  -999.2500  -999.2500  -999.2500  -999.2500  -999.2500
 2130.0000   146.5500   -49.4940     4.2500     4.6530     5.8780    19.4250  -999.2500  -999.2500  -999.2500  -999.2500  -999.2500
 2130.5000   154.6170   -49.5680     4.2380     4.5820     5.8100    21.2220  -999.2500  -999.2500  -999.2500  -999.2500  -999.2500
 2131.0000   152.8340   -48.9370     4.2230     4.5100     5.7560    23.0180  -999.2500  -999.2500  -999.2500  -999.2500  -999.2500
 2131.5000   141.8150   -48.1240     4.2110     4.4390     5.4180    24.4510  -999.2500  -999.2500  -999.2500  -999.2500  -999.2500
 2132.0000   129.0600   -47.9220     4.2560     4.3690     5.2020    19.4110  -999.2500  -999.2500  -999.2500  -999.2500  -999.2500
 2132.5000   120.7410   -48.0980     4.2930     4.5760     5.3750    15.2200  -999.2500  -999.2500  -999.2500  -999.2500  -999.2500
 2133.0000   121.9810   -48.3430     4.3290     4.7820     5.4620    11.0280  -999.2500  -999.2500  -999.2500  -999.2500  -999.2500
 2133.5000   123.8850   -48.6160     4.4090     4.9870     5.3970     6.8360  -999.2500  -999.2500  -999.2500  -999.2500  -999.2500
 2134.0000   125.0240   -48.8550     4.5320     5.2260     5.7000     6.6010  -999.2500  -999.2500  -999.2500  -999.2500  -999.2500
 2134.5000   125.6900   -49.1550     4.8010     5.4850     6.1590    11.3920  -999.2500  -999.2500  -999.2500  -999.2500  -999.2500
