~VERSION INFORMATION
 VERS.                2.0:   CWLS LOG ASCII STANDARD - VERSION 2.0
 WRAP.                 NO:   ONE LINE PER DEPTH STEP
~WELL INFORMATION
#MNEM.UNIT      DATA TYPE    INFORMATION
#----------   ------------   ------------------------------
 STRT.F          176.0000:   START DEPTH
 STOP.F         3400.0000:   STOP DEPTH
 STEP.F            0.5000:   STEP LENGTH
 NULL.          -999.2500:   NO VALUE
 COMP.    PENIX & SCISSON:   COMPANY
 WELL. FENIX NPR 3 "AX" #64-4:   WELL
 FLD .                NPR:   FIELD
 LOC .       S4 T38N R78W:   LOCATION
 CNTY.            NATRONA:   COUNTY
 STAT.            WYOMING:   STATE
 CTRY. UNITED STATES OF AMERICA:   COUNTRY
 SRVC.       SCHLUMBERGER:   SERVICE COMPANY
 DATE.        25-JAN-1981:   LOGDATE
 API .     49025108640000:   API NUMBER
~CURVE INFORMATION
#MNEM.UNIT       API CODE    CURVE DESCRIPTION
#----------   ------------   ------------------------------
 DEPT.F                  :   
 SPR .MV     07 010 01 00:   SPONTANEOUS POTENTIAL
 RFOC.OHMM   07 220 01 00:   RESISTIVITY FOCUSED LOG RES.
 ILD .OHMM   07 120 46 00:   DEEP INDUCTION RESISTIVITY
 TENR.LBS    07 635 01 00:   TENSION
 ILM .OHMM   07 120 44 00:   INDUCTION LOG MEDIUM RESISTIVITY
 GRD .GAPI   45 310 01 00:   GAMMA RAY FROM DENSITY LOG
 CALD.IN     45 280 60 00:   CALIPER FROM DENSITY LOG
 RHOB.G/C3   45 350 01 00:   BULK DENSITY
 TEND.LBS    45 635 01 00:   TENSION FROM DENSITY LOG
 CORR.G/C3   45 356 01 00:   DENSITY CORRECTION
~PARAMETER INFORMATION
#MNEM.UNIT          VALUE    DESCRIPTION
#----------   ------------   ------------------------------
 EKB .F         5257.0000:   Kelly bushing
 EGL .F         5247.0000:   Ground level
 EDF .F            0.0000:   Drilling floor
 TD  .F         3388.0000:   Total depth
 DATE.        25-JAN-1981:   Date logged
 CLNT.            A2DTECH:   Client Code
 SL  . 2289' FNL & 1495' FEL:   Surface Location
 PD  .                 GL:   Permanent Datum
 EPD .F              5247:   Elevation Permanent Datum
 LMF .                 KB:   Log Measured From
 DMF .                 KB:   Drilling Measured From
 DAPD.F                10:   Feet Above Permanent Datum
 DD  .F              3388:   Depth driller
 DL  .F              3386:   Depth logger
 BLI .F              3380:   Bottom log interval
 TLI .F               192:   Top log interval
 CS1 .IN            8.625:   Casing size
 CBD1.      8.625" @ 191':   Casing driller 1
 CBL1.F               192:   Casing logger 1
 BS1 .IN            7.875:   Bit size
 BSD1.F              3388:   Depth drilled with bit1
 DFT .                FGM:   Type fluid in hole
 DFD .                8.7:   Density
 DFV .                 32:   Viscosity
 DFPH.                9.5:   pH
 DFL .                 18:   Fluid loss
 MSS .           FLOWLINE:   Source of sample
 RMS .OHMM           1.60:   Rm
 MST .F                60:   Rm Meas. temp.
 RMF .OHMM           1.33:   Rmf
 MFST.F                60:   Rmf Meas. temp.
 MFSS.               MEAS:   Source Rmf.
 RMB .OHMM            .83:   Rm. at BHT
 BHT .F               115:   BHT.
 TCS .HRS            1700:   Time Circ. stopped
 TLAB.HRS            2200:   Time logger at bottom
 MRT .F               115:   Maximum recorded temp.
 LUN .               8039:   Logging unit number
 LUL .               CSPR:   Logging unit location
 ENGI.           C. PFARR:   Recorded By
 WITN.           L. FIVAS:   Witnessed by
 ORIG.           5" PRINT:   Origin of data
 UWI .     49025108640000:   Unique Well ID
 DICO. A2D TECHNOLOGIES, INC.:   Digitizing Company
~OTHER INFORMATION
~A   DEPT      SPR       RFOC        ILD       TENR        ILM         GRD      CALD         RHOB      TEND      CORR   
# ...
 2722.0000   -14.1730     4.1580     3.3610  1017.9640     3.3720   130.2070     9.7100     2.5460  1202.1331     0.0830
 2722.5000   -14.0330     3.3810     3.2350  1017.9640     3.2430   135.6110     9.7100     2.5430  1202.5510     0.0940
 2723.0000   -13.8920     3.2590     3.0830  1017.9640     3.1410   138.7990     9.7100     2.5370  1202.9690     0.0850
 2723.5000   -13.7520     3.3050     3.1740  1017.9640     3.3310   139.5100     9.7110     2.5300  1203.3870     0.0650
 2724.0000   -13.6100     3.4440     3.2870  1017.9640     3.4890   138.3610     9.7100     2.5240  1203.8051     0.0430
 2724.5000   -13.4720     4.2110     3.4010  1017.9640     3.6470   135.1360     9.7110     2.5180  1204.2230     0.0310
 2725.0000   -13.3280     4.9780     3.5140  1017.9640     3.8060   130.8340     9.7140     2.5120  1204.6410     0.0220
 2725.5000   -13.1810     5.0700     3.6280  1017.9640     3.9640   128.2180     9.7610     2.5260  1205.0590     0.0510
 2726.0000   -12.9070     5.0700     3.7410  1017.9640     4.1230   127.5980     9.7990     2.5580  1205.4771     0.0770
 2726.5000   -12.6270     4.2960     3.8540  1017.9640     4.2810   126.1420     9.8410     2.5880  1205.8950     0.1060
 2727.0000   -12.3450     4.3260     3.9680  1017.9640     4.4390   124.3770     9.8830     2.5890  1206.3130     0.1340
 2727.5000   -12.0680     4.3760     4.0810  1017.9640     4.5980   122.7180     9.9210     2.5830  1206.7310     0.1630
 2728.0000   -11.7640     5.2370     4.2170  1017.9640     4.7560   120.9070     9.9680     2.5560  1207.1479     0.1810
 2728.5000   -11.6190     6.0980     4.2170  1017.9640     4.9780   119.3030     9.9650     2.5380  1207.5660     0.1710
 2729.0000   -11.6890     6.4870     4.2170  1017.9640     4.8440   117.4050     9.8740     2.4890  1207.9840     0.1320
 2729.5000   -11.7340     6.5620     4.2170  1017.9640     4.6220   117.8240     9.7250     2.4960  1208.4020     0.0890
 2730.0000   -11.7830     5.8750     4.0470  1017.9640     4.4000   120.1470     9.5920     2.5110  1208.8199     0.0770
 2730.5000   -11.8350     5.0640     3.8900  1017.9640     4.1770   123.6760     9.4560     2.5130  1209.2380     0.0890
 2731.0000   -11.8840     3.8460     3.7340  1017.9640     3.9550   126.8000     9.3050     2.4920  1209.6560     0.0960
 2731.5000   -11.9350     3.3190     3.5780  1017.9640     3.7330   130.3160     9.2610     2.4750  1210.0740     0.1040
 2732.0000   -11.9850     3.6130     3.4220  1017.9640     3.5100   130.7920     9.3630     2.4680  1210.4919     0.0820
 2732.5000   -12.0350     4.1030     3.2660  1017.9640     3.2880   128.7660     9.4510     2.5050  1210.9100     0.0600
 2733.0000   -12.0850     4.8870     3.1410  1017.9640     3.1990   125.4650     9.5390     2.5210  1211.3280     0.0430
 2733.5000   -12.1350     4.6910     3.1410  1017.9640     3.1990   125.0720     9.6260     2.5300  1211.7460     0.0580
 2734.0000   -12.1850     4.2010     3.1410  1017.9640     3.1990   130.4550     9.6220     2.5300  1212.1639     0.0760
 2734.5000   -12.2350     3.7110     3.1410  1017.9640     3.1990   137.6010     9.6160     2.5250  1212.5820     0.0720
 2735.0000   -12.2850     3.3190     3.1410  1017.9640     3.1990   141.2060     9.6060     2.5210  1213.0000     0.0510
 2735.5000   -12.3350     3.5230     3.1410  1017.9640     3.1990   140.1560     9.5990     2.5180  1213.4180     0.0420
 2736.0000   -12.3850     3.6920     3.1410  1017.9640     3.1990   136.2830     9.5900     2.5160  1213.8361     0.0360
 2736.5000   -12.4350     3.8610     3.2660  1017.9640     3.3910   131.1700     9.5820     2.5140  1214.2540     0.0330
 2737.0000   -12.4850     4.0650     3.4230  1017.9640     3.5510   123.1000     9.5740     2.5110  1214.6720     0.0310
 2737.5000   -12.5350     4.0160     3.5800  1017.9640     3.7110   121.4160     9.5660     2.5110  1215.0900     0.0270
 2738.0000   -12.5850     3.9540     3.7370  1018.5750     3.8710   121.0670     9.5580     2.5120  1215.5081     0.0250
 2738.5000   -12.6350     3.9180     3.8940  1019.5930     4.0300   119.5370     9.5500     2.5150  1215.9260     0.0230
 2739.0000   -12.6860     4.7560     4.0510  1020.6120     4.1900   115.8950     9.5420     2.5420  1216.3440     0.0330
 2739.5000   -12.7340     5.5940     4.2080  1021.6300     4.3500   112.2740     9.5330     2.5690  1216.7620     0.0430
 2740.0000   -12.7910     6.9350     4.3650  1022.6490     4.5100   110.7550     9.5250     2.5780  1217.1801     0.0520
 2740.5000   -12.7950     6.9030     4.5220  1023.6670     4.6700   113.8660     9.5170     2.5790  1217.5980     0.0510
 2741.0000   -12.7960     6.8080     4.7100  1024.6851     4.7980   117.6690     9.5090     2.5800  1218.0160     0.0500
 2741.5000   -12.7950     6.3040     4.6790  1025.7040     4.7500   121.3040     9.5010     2.5610  1218.4340     0.0510
 2742.0000   -12.7950     5.6740     4.6400  1026.7220     4.7110   125.6320     9.4930     2.5330  1218.8521     0.0520
 2742.5000   -12.7950     5.0440     4.6020  1027.7400     4.6710   127.0060     9.4850     2.5170  1219.2700     0.0540
 2743.0000   -12.7950     4.5400     4.5400  1028.7590     4.6240   126.0380     9.4760     2.5250  1219.6880     0.0630
 2743.5000   -12.7950     5.2980     4.5610  1029.7770     4.6680   119.1480     9.4680     2.5460  1220.1060     0.0710
 2744.0000   -12.7950     5.9300     4.6160  1030.7960     4.7240   115.1310     9.4600     2.5650  1220.5240     0.0790
 2744.5000   -12.7950     6.6840     4.6700  1031.8140     4.7790   116.0810     9.4520     2.5800  1220.9420     0.0720
 2745.0000   -12.7950     6.3250     4.7240  1032.8320     4.8340   117.1070     9.4440     2.5730  1221.3600     0.0600
 2745.5000   -12.7950     5.9910     4.7780  1033.8510     4.8890   116.7370     9.4360     2.5620  1221.7780     0.0480
 2746.0000   -12.7960     5.7680     4.8330  1034.8690     4.9780   115.1450     9.4320     2.5490  1222.1960     0.0350
 2746.5000   -12.7910     6.1020     4.8870  1035.8870     4.9460   113.4230     9.4330     2.5440  1222.6140     0.0350
 2747.0000   -12.8370     6.3250     4.8080  1036.9060     4.8650   113.0580     9.4330     2.5480  1223.0320     0.0360
 2747.5000   -12.9210     6.3250     4.7290  1037.9240     4.7850   115.0100     9.4330     2.5560  1223.4500     0.0420
 2748.0000   -12.9980     6.3250     4.6500  1038.9430     4.7040   118.5430     9.4330     2.5680  1223.8669     0.0510
 2748.5000   -13.0750     5.7860     4.5400  1039.9611     4.6240   122.2510     9.4330     2.5800  1224.2850     0.0600
 2749.0000   -13.1540     5.1140     4.6160  1040.9790     4.7540   122.9570     9.4330     2.5810  1224.7030     0.0670
 2749.5000   -13.2310     4.7100     4.7440  1041.9980     4.8840   121.5570     9.4330     2.5790  1225.1210     0.0620
 2750.0000   -13.3090     4.7100     4.8720  1043.0160     5.0140   121.3340     9.4330     2.5840  1225.5389     0.0550
 2750.5000   -13.3870     6.0190     4.9990  1044.0341     5.1440   123.1920     9.4330     2.5880  1225.9570     0.0480
 2751.0000   -13.4650     7.3290     5.1270  1045.0530     5.2740   124.9230     9.4330     2.5810  1226.3750     0.0410
 2751.5000   -13.5430     7.3290     5.2540  1046.0710     5.4040   125.4280     9.4330     2.5750  1226.7930     0.0340
 2752.0000   -13.6210     7.0090     5.3820  1047.0890     5.5340   124.3090     9.4330     2.5670  1227.2111     0.0320
 2752.5000   -13.6990     6.5620     5.5100  1048.1080     5.6640   123.2100     9.4330     2.5680  1227.6290     0.0290
 2753.0000   -13.7760     6.6770     5.6630  1049.1260     5.7680   121.8400     9.4330     2.5710  1228.0470     0.0270
 2753.5000   -13.8530     6.8690     5.6630  1050.1450     5.7680   118.7530     9.4330     2.5730  1228.4650     0.0270
 2754.0000   -13.9370     7.0600     5.6630  1051.1630     5.7680   114.1900     9.4330     2.5850  1228.8831     0.0330
 2754.5000   -13.9700     7.3290     5.6910  1052.1810     5.8110   110.1510     9.4330     2.5980  1229.3010     0.0450
 2755.0000   -13.9400     7.2620     5.7270  1053.2000     5.8470   109.2130     9.4330     2.6130  1229.7190     0.0570
