~VERSION INFORMATION
 VERS.                2.0:   CWLS LOG ASCII STANDARD - VERSION 2.0
 WRAP.                 NO:   ONE LINE PER DEPTH STEP
~WELL INFORMATION
#MNEM.UNIT      DATA TYPE    INFORMATION
#----------   ------------   ------------------------------
 STRT.F           32.0000:   START DEPTH
 STOP.F         2998.0000:   STOP DEPTH
 STEP.F            0.5000:   STEP LENGTH
 NULL.          -999.2500:   NO VALUE
 COMP.   TESORO PETROLEUM:   COMPANY
 WELL. TESORO N.P.R. #3-34:   WELL
 FLD .        TEAPOT DOME:   FIELD
 LOC .      S34 T39N R78W:   LOCATION
 CNTY.            NATRONA:   COUNTY
 STAT.            WYOMING:   STATE
 CTRY. UNITED STATES OF AMERICA:   COUNTRY
 SRVC.       SCHLUMBERGER:   SERVICE COMPANY
 DATE.        08-AUG-1969:   LOGDATE
 API .     49025100250000:   API NUMBER
~CURVE INFORMATION
#MNEM.UNIT       API CODE    CURVE DESCRIPTION
#----------   ------------   ------------------------------
 DEPT.F                  :   
 SPR .MV     05 010 01 00:   SPONTANEOUS POTENTIAL FROM RES.
 ASN .OHMM   05 040 16 00:   AMPLIFIED SHORT NORMAL 16"
 ILD .OHMM   05 120 46 00:   INDUCTION LOG DEEP
 CORR.G/C3   45 356 01 00:   DENSITY CORRECTION
 GRD .GAPI   45 310 01 00:   GAMMA RAY FROM DENSITY LOG
 CALD.IN     45 280 60 00:   CALIPER FROM DENSITY LOG
 RHOB.G/C3   45 350 01 00:   BULK DENSITY
~PARAMETER INFORMATION
#MNEM.UNIT          VALUE    DESCRIPTION
#----------   ------------   ------------------------------
 EKB .F         5185.0000:   Kelly bushing
 EGL .F         5172.0000:   Ground level
 TD  .F         2999.0000:   Total depth
 CLNT.            A2DTECH:   Client Code
 SL  . 465' FWL & 1075' FSL':   Surface Location
 DATE.        08-AUG-1969:   Date Logged [DD-MMM-YYYY]
 DD  .F              2998:   Depth driller
 DL  .F              2999:   Depth logger
 BLI .F              2998:   Bottom log interval
 TLI .F               615:   Top log interval
 CS1 .              10.75:   Casing size
 CBD1.      10.75" @ 615':   Casing driller 1
 CBL1.IN              615:   Casing logger 1
 BS1 .IN                9:   Bit size
 BSD1.F              2998:   Depth drilled with bit1
 DFT .      FRESH GEL MUD:   Type fluid in hole
 DFD .                9.6:   Density
 DFV .                 55:   Viscosity
 DFPH.                9.5:   pH
 DFL .                7.0:   Fluid loss
 MSS .           FLOWLINE:   Source of sample
 RMS .OHMM           0.75:   Rm
 MST .F                87:   Rm Meas. temp.
 RMF .OHMM           1.09:   Rmf
 MFST.F                87:   Rmf Meas. temp.
 MFSS.               MEAS:   Source Rmf.
 RMB .OHMM           0.59:   Rm. at BHT
 BHT .F               111:   BHT.
 TCS .HRS               3:   Time Circ. stopped
 MRT .F               111:   Maximum recorded temp.
 LUN .               4507:   Logging unit number
 LUL .               CSPR:   Logging unit location
 ENGI.            ED MIXA:   Recorded By
 WITN.                MAY:   Witnessed by
 ORIG.   1" 2.5" 5" PRINT:   Origin of data
 UWI .     49025100250000:   Unique Well ID
 DICO. A2D TECHNOLOGIES, INC.:   Digitizing Company
~OTHER INFORMATION
~A   DEPT      SPR        ASN        ILD       CORR        GRD       CALD       RHOB   
# ...
 1670.0000   -32.3666     7.4624     7.0162     0.0731    89.6450     9.3884     2.6159
 1670.5000   -32.2150     7.4776     7.0205     0.0687    92.0266     9.3928     2.6218
 1671.0000   -31.9180     7.5223     7.0240     0.0593    95.0000     9.4172     2.6041
 1671.5000   -31.6229     7.5524     7.0275     0.0475    96.7899     9.4162     2.5451
 1672.0000   -31.3279     7.5379     7.0310     0.0424    97.3964     9.4153     2.5510
 1672.5000   -31.1763     7.4940     7.0353     0.0498    93.8609     9.4144     2.5511
 1673.0000   -31.1662     7.5536     7.0388     0.0557    90.9172     9.4441     2.5509
 1673.5000   -31.0146     7.5837     7.0423     0.0561    90.3402     9.4431     2.5790
 1674.0000   -30.8630     7.5546     7.0458     0.0494    89.7633     9.4493     2.5804
 1674.5000   -30.7115     7.4959     7.0501     0.0380    89.1864     9.4720     2.5450
 1675.0000   -30.5579     7.4520     7.1275     0.0325    88.6095     9.4633     2.5376
 1675.5000   -30.5498     7.4673     7.1310     0.0364    88.0325     9.4701     2.5538
 1676.0000   -31.1155     7.5859     7.1344     0.0457    86.2722     9.4386     2.5612
 1676.5000   -31.5379     7.6454     7.2127     0.0575    83.9201     9.4376     2.5657
 1677.0000   -31.6732     7.7200     7.2900     0.0746    83.3432     9.4061     2.5701
 1677.5000   -31.8086     7.8236     7.2935     0.0383    83.3580     9.3963     2.5774
 1678.0000   -31.9440     7.9126     7.2970     0.0210    84.5562     9.3737     2.5742
 1678.5000   -31.6469     7.9869     7.3013     0.0166    86.3462     9.3633     2.5618
 1679.0000   -31.2063     7.9718     7.3048     0.0219    88.1361     9.3316     2.5254
 1679.5000   -31.1982     7.8844     7.3083     0.0409    88.7426     9.3098     2.5154
 1680.0000   -31.4771     7.8258     7.3118     0.0596    88.7574     9.3089     2.5191
 1680.5000   -31.4690     7.7671     7.1676     0.0740    88.7722     9.3080     2.5502
 1681.0000   -31.6044     7.7226     7.0972     0.0864    89.9704     9.3378     2.5909
 1681.5000   -31.8812     7.6942     7.1016     0.0950    90.5769     9.3367     2.6007
 1682.0000   -31.8731     7.6946     7.1050     0.0948    90.5917     9.3358     2.6260
 1682.5000   -31.7215     7.6950     7.1086     0.0866    88.8314     9.3349     2.6123
 1683.0000   -31.2810     7.6954     7.1129     0.0765    83.5207     9.3339     2.5964
 1683.5000   -30.8424     7.6811     7.1164     0.0608    81.7604     9.3330     2.5937
 1684.0000   -30.4039     7.6373     7.1199     0.0457    85.9172     9.3321     2.5643
 1684.5000   -30.1089     7.6228     7.1233     0.0424    88.2988     9.3312     2.5624
 1685.0000   -30.2442     7.6391     7.2016     0.0453    88.3136     9.3303     2.5668
 1685.5000   -30.3776     7.7125     7.2050     0.0492    85.9615     9.3599     2.5565
 1686.0000   -30.3695     7.8163     7.2824     0.0532    86.5680     9.3590     2.5698
 1686.5000   -30.5051     7.8906     7.3597     0.0571    88.3580     9.3581     2.5854
 1687.0000   -30.4964     7.9660     7.4379     0.0619    88.9645     9.3572     2.5970
 1687.5000   -30.6321     8.0392     7.4414     0.0687    85.4290     9.3563     2.6046
 1688.0000   -30.7675     8.0692     7.5188     0.0737    81.8935     9.3554     2.6172
 1688.5000   -30.9010     8.1139     7.5223     0.0789    80.1331     9.3545     2.6316
 1689.0000   -30.8924     8.1453     7.5997     0.0629    78.3728     9.3535     2.6124
 1689.5000   -31.0273     8.1887     7.6040     0.0406    77.2041     9.3526     2.6272
 1690.0000   -31.0173     8.2187     7.6074     0.0303    77.2189     9.3517     2.5938
 1690.5000   -31.1547     8.2486     7.6109     0.0283    77.8254     9.3813     2.5490
 1691.0000   -31.2901     8.2638     7.6145     0.0302    81.3905     9.3804     2.5700
 1691.5000   -31.2786     8.2347     7.6188     0.0351    83.7722     9.3795     2.5809
 1692.0000   -31.2698     8.1761     7.5475     0.0397    84.9704     9.3786     2.5762
 1692.5000   -31.2624     8.1174     7.4772     0.0478    84.9852     9.3777     2.5786
 1693.0000   -31.2536     8.0405     7.4815     0.0567    85.0025     9.3768     2.5920
 1693.5000   -31.2442     7.9559     7.4112     0.0641    86.7924     9.3758     2.5975
 1694.0000   -31.2361     7.8971     7.4155     0.0687    87.3989     9.3749     2.5754
 1694.5000   -31.2280     7.8681     7.4190     0.0687    88.5971     9.3740     2.5846
 1695.0000   -31.2192     7.8538     7.4225     0.0678    89.7954     9.3731     2.5811
 1695.5000   -31.0674     7.8543     7.4268     0.0624    90.9936     9.3722     2.5514
 1696.0000   -30.9140     7.8695     7.5042     0.0523    89.8249     9.3711     2.5488
 1696.5000   -30.7624     7.8699     7.5077     0.0408    86.2895     9.3702     2.5651
 1697.0000   -30.7543     7.8703     7.4372     0.0385    88.6711     9.3387     2.5709
 1697.5000   -30.7341     7.8560     7.4409     0.0399    91.6445     9.3377     2.5650
 1698.0000   -30.5926     7.8565     7.4451     0.0455    90.4758     9.3063     2.5786
 1698.5000   -30.5845     7.8569     7.4486     0.0538    88.1238     9.3053     2.5923
 1699.0000   -30.5764     7.8574     7.4521     0.0616    84.5883     9.3044     2.6077
 1699.5000   -30.5681     7.8578     7.4557     0.0658    81.0528     9.3039     2.5995
 1700.0000   -30.4165     7.8582     7.4600     0.0648    79.8816     9.3035     2.5944
 1700.5000   -30.7002     7.8586     7.4634     0.0622    79.7239     9.3032     2.5900
 1701.0000   -30.6973     7.8443     7.4669     0.0579    84.0872     9.3028     2.5840
 1701.5000   -30.6940     7.8152     7.4705     0.0520    87.6669     9.3024     2.5602
 1702.0000   -30.6913     7.7860     7.4748     0.0453    89.4714     9.3021     2.5530
 1702.5000   -30.6885     7.7423     7.4774     0.0483    91.2759     9.3017     2.5605
 1703.0000   -30.6858     7.7131     7.4721     0.0548    91.3052     9.3013     2.5679
 1703.5000   -30.5390     7.6840     7.4695     0.0595    91.9263     9.3010     2.5736
 1704.0000   -30.3928     7.6993     7.4713     0.0573    92.5473     9.3006     2.5623
 1704.5000   -30.2466     7.7440     7.4727     0.0468    93.7601     9.3003     2.5412
 1705.0000   -30.2437     7.7889     7.4744     0.0394    94.3811     9.2999     2.5565
 1705.5000   -30.0972     7.7893     7.5497     0.0335    95.0022     9.2995     2.5481
 1706.0000   -30.0947     7.8783     7.5511     0.0302    94.4398     9.2992     2.5441
 1706.5000   -30.0916     7.9697     7.6263     0.0292    89.7354     9.2988     2.5577
 1707.0000   -30.0889     8.0584     7.7755     0.0336    85.0311     9.2985     2.5690
 1707.5000   -30.0861     8.1471     7.8511     0.0390    82.6935     9.2898     2.5898
 1708.0000   -30.0832     8.2618     7.9263     0.0465    82.1302     9.2673     2.5788
 1708.5000   -30.0801     8.3655     7.9277     0.0548    83.1804     9.2670     2.5779
 1709.0000   -30.0773     8.4248     7.9291     0.0623    82.5688     9.2767     2.5965
 1709.5000   -30.2181     8.3956     7.9309     0.0673    81.9572     9.2970     2.6095
 1710.0000   -30.2147     8.3220     7.9323     0.0706    81.9572     9.3078     2.6075
 1710.5000   -30.3561     8.3223     7.9337     0.0674    81.9572     9.3270     2.5817
 1711.0000   -30.4967     8.3226     7.9351     0.0610    82.6116     9.3266     2.5793
 1711.5000   -30.4933     8.3229     7.9365     0.0545    83.2888     9.3263     2.5734
 1712.0000   -30.4906     8.3232     7.9382     0.0497    85.6920     9.3566     2.5903
 1712.5000   -30.6316     8.3678     7.9396     0.0544    87.5384     9.3563     2.5977
 1713.0000   -30.6284     8.3829     7.9410     0.0634    88.0734     9.3560     2.6135
 1713.5000   -30.6250     8.3979     7.9424     0.0699    87.9745     9.3251     2.5994
 1714.0000   -30.6225     8.4132     7.9442     0.0617    87.4618     9.3247     2.5719
 1714.5000   -30.6198     8.4281     7.9456     0.0292    87.8253     9.3244     2.5792
 1715.0000   -30.6164     8.4136     7.9470     0.0328    90.9178     9.3241     2.5538
