~VERSION INFORMATION
 VERS.                2.0:   CWLS LOG ASCII STANDARD - VERSION 2.0
 WRAP.                 NO:   ONE LINE PER DEPTH STEP
~WELL INFORMATION
#MNEM.UNIT      DATA TYPE    INFORMATION
#----------   ------------   ------------------------------
 STRT.F          540.0000:   START DEPTH
 STOP.F         4100.0000:   STOP DEPTH
 STEP.F            0.5000:   STEP LENGTH
 NULL.          -999.2500:   NO VALUE
 COMP. LAWRENCE ALISON & ASSOC.,WEST:   COMPANY
 WELL. LAWRENCE "X" #15-11:   WELL
 FLD .              N P R:   FIELD
 LOC .      S11 T38N R78W:   LOCATION
 CNTY.            NATRONA:   COUNTY
 STAT.            WYOMING:   STATE
 CTRY. UNITED STATES OF AMERICA:   COUNTRY
 SRVC.      DRESSER ATLAS:   SERVICE COMPANY
 DATE.        18-MAY-1985:   LOGDATE
 API .     49025110220000:   API NUMBER
~CURVE INFORMATION
#MNEM.UNIT       API CODE    CURVE DESCRIPTION
#----------   ------------   ------------------------------
 DEPT.F                  :   
 NPHI.DEC    42 890 03 00:   NEUTRON POROSITY SANDSTONE
 RHOB.G/C3   45 350 01 00:   BULK DENSITY
 CORR.G/C3   45 356 01 00:   DENSITY CORRECTION
 TEND.LBS    45 635 01 00:   TENSION FROM DENSITY LOG
 GRD .GAPI   45 310 01 00:   GAMMA RAY FROM DENSITY LOG
 CALD.IN     45 280 60 00:   CALIPER FROM DENSITY LOG
 SPR .MV     07 010 01 00:   SPONTANEOUS POTENTIAL
 RILD.OHMM   07 120 46 00:   DEEP INDUCTION RESISTIVITY
 RILM.OHMM   07 120 44 00:   INDUCTION LOG MEDIUM RESISTIVITY
 RFOC.OHMM   07 220 04 00:   RESISTIVITY FOCUSED LOG RES.
 TENR.LBS    07 635 01 00:   TENSION FROM RESISTIVITY
~PARAMETER INFORMATION
#MNEM.UNIT          VALUE    DESCRIPTION
#----------   ------------   ------------------------------
 EKB .F         5201.0000:   Kelly bushing
 EGL .F         5189.0000:   Ground level
 EDF .F         5200.0000:   Drilling floor
 TD  .F         4095.0000:   Total depth
 DATE.        18-MAY-1985:   Date logged
 CLNT.            A2DTECH:   Client Code
 SL  . 2203' FSL & 377' FWL:   Surface Location
 PD  .                 GL:   Permanent Datum
 EPD .F              5189:   Elevation Permanent Datum
 LMF .                 KB:   Log Measured From
 DMF .                 KB:   Drilling Measured From
 DAPD.F                12:   Feet Above Permanent Datum
 DD  .F              4095:   Depth driller
 DL  .F              4093:   Depth logger
 BLI .F              4091:   Bottom log interval
 TLI .F                 0:   Top log interval
 CS1 .IN            8.625:   Casing size
 CBD1.      8.625" @ 565':   Casing driller 1
 CBL1.F               565:   Casing logger 1
 BS1 .IN            7.875:   Bit size
 BSD1.F              4095:   Depth drilled with bit1
 DFT .            GEL KCL:   Type fluid in hole
 DFD .                9.2:   Density
 DFV .                 40:   Viscosity
 DFPH.                8.0:   pH
 DFL .                9.0:   Fluid loss
 MSS .            MUDTANK:   Source of sample
 RMS .OHMM            .57:   Rm
 MST .F                69:   Rm Meas. temp.
 RMF .OHMM            .49:   Rmf
 MFST.F                69:   Rmf Meas. temp.
 RMC .OHMM            .71:   Rmc
 MCST.F                69:   Rmc Meas. temp.
 MFSS.               MEAS:   Source Rmf.
 MCSS.               CALC:   Source Rmc.
 RMB .OHMM            .30:   Rm. at BHT
 BHT .F               139:   BHT.
 TCS .HRS               4:   Time Circ. stopped
 MRT .F               139:   Maximum recorded temp.
 LUN .            HL 6302:   Logging unit number
 LUL .               CODY:   Logging unit location
 ENGI.              GETTY:   Recorded By
 WITN.              FIVAS:   Witnessed by
 ORIG.           5" PRINT:   Origin of data
 UWI .     49025110220000:   Unique Well ID
 DICO. A2D TECHNOLOGIES, INC.:   Digitizing Company
~OTHER INFORMATION
~A   DEPT     NPHI       RHOB       CORR        TEND        GRD      CALD        SPR       RILD       RILM       RFOC       TENR   
# ...
 2187.0000     0.3270     2.5340     0.0290   -36.6760    90.5300    10.0950   -10.6900     8.0260     8.2890     8.1760   -14.8170
 2187.5000     0.3430     2.5320     0.0330   -36.3570    91.8180    10.0940   -10.6540     8.0460     8.3000     8.2510   -10.6950
 2188.0000     0.3320     2.5300     0.0380   -36.0700    94.5670    10.0940   -10.6450     8.0650     8.3110     8.4030    -7.1850
 2188.5000     0.3350     2.5280     0.0350   -37.8110    96.2500    10.0930   -10.6610     8.0850     8.3210     8.8190   -15.9750
 2189.0000     0.3390     2.5250     0.0280   -40.2990    95.8260    10.0920   -10.6770     8.1040     8.3630     9.2590   -25.2480
 2189.5000     0.3200     2.5240     0.0210   -42.7860    95.3430    10.0920   -10.6930     8.1240     8.4310     9.5880   -34.5210
 2190.0000     0.2960     2.5230     0.0150   -45.2740    98.0090    10.0910   -10.7100     8.1430     8.4990     9.3030   -34.1010
 2190.5000     0.2810     2.5220     0.0080   -43.2560   103.1060    10.0900   -10.7260     8.1630     8.5580     9.0440   -28.8950
 2191.0000     0.2750     2.5210     0.0020   -37.7280   106.7880    10.0900   -10.7420     8.1760     8.4980     8.7840   -23.6890
 2191.5000     0.2610     2.5230    -0.0050   -32.2000   105.5770    10.0890   -10.7580     8.1500     8.4340     8.5240   -18.4840
 2192.0000     0.2550     2.5260    -0.0050   -26.1190   101.2120    10.0880   -10.7750     8.1220     8.3710     8.2650   -20.7230
 2192.5000     0.2650     2.5210     0.0020   -28.6780    97.0330    10.0880   -10.7910     8.0950     8.3070     8.0800   -25.6690
 2193.0000     0.2760     2.5160     0.0080   -31.5210    93.3350    10.0870   -10.8070     8.0670     8.2440     7.8830   -30.6140
 2193.5000     0.2870     2.5100     0.0150   -34.3640    94.2700    10.0870   -10.8240     8.0400     8.1760     8.1590   -35.5600
 2194.0000     0.2940     2.5050     0.0220   -37.2070    96.0300    10.0860   -10.8400     8.0120     8.1760     8.6150   -40.5050
 2194.5000     0.2770     2.5020     0.0290   -40.0500    94.9640    10.0850   -10.8560     7.9850     8.1760     9.0720   -45.4510
 2195.0000     0.2680     2.5030     0.0360   -42.8930    91.6760    10.0850   -10.8720     7.9550     8.1760     9.3750   -46.4310
 2195.5000     0.2990     2.5050     0.0240   -46.0200    87.6820    10.0840   -10.8890     7.8210     8.1760     9.3420   -45.8810
 2196.0000     0.3240     2.5120     0.0110   -46.0200    83.6450    10.0830   -10.9050     7.6280     8.0130     9.0550   -45.3310
 2196.5000     0.3160     2.5180     0.0090   -46.0200    79.4960    10.0830   -10.9210     7.4350     7.7860     8.6010   -44.7800
 2197.0000     0.2860     2.5240     0.0070   -46.0200    78.4130    10.0820   -10.9380     7.2420     7.5590     8.1460   -44.2300
 2197.5000     0.2800     2.5280     0.0060   -46.0200    78.3970    10.0810   -10.9540     7.0490     7.3320     7.6910   -43.6800
 2198.0000     0.3010     2.5300     0.0130   -46.0200    79.6920    10.0810   -10.9700     6.8560     7.1050     7.1950   -43.1290
 2198.5000     0.3080     2.5320     0.0190   -46.0200    81.4370    10.0800   -10.9870     6.6630     6.8110     7.0650   -42.5790
 2199.0000     0.3010     2.5350     0.0310   -46.0200    83.1690    10.0790   -11.0030     6.5080     7.0250     6.9930   -42.0280
 2199.5000     0.2930     2.5370     0.0450   -46.0200    84.0750    10.0790   -11.0190     6.8850     7.1990     6.9370   -41.4780
 2200.0000     0.2840     2.5400     0.0360   -46.0200    82.6620    10.0780   -11.0370     7.1740     7.3740     7.5100   -40.9280
 2200.5000     0.2750     2.5400     0.0250   -46.0200    81.3180    10.0780   -11.1150     7.2610     7.5480     8.3270   -40.3770
 2201.0000     0.2580     2.5380     0.0180   -46.0200    79.9790    10.0770   -11.1900     7.1260     7.6700     9.5480   -39.8270
 2201.5000     0.2380     2.5360     0.0190   -46.0200    78.6320    10.0760   -11.2650     6.9660     7.4130     9.4180   -39.2760
 2202.0000     0.2320     2.5400     0.0210   -46.0200    77.2830    10.0760   -11.3390     6.6410     7.0490     9.0480   -38.7260
 2202.5000     0.2620     2.5440     0.0180   -46.0200    76.0830    10.0750   -11.4140     6.3160     6.6850     8.2620   -38.1760
 2203.0000     0.2860     2.5430     0.0120   -46.0200    76.5980    10.0740   -11.4890     5.9900     6.3200     7.4750   -37.6250
 2203.5000     0.3140     2.5270     0.0070   -46.0200    81.0830    10.0740   -11.5640     5.6650     5.9560     6.6880   -37.0750
 2204.0000     0.3110     2.5110     0.0080   -46.0200    88.0630    10.0740   -11.6280     5.5170     5.7270     5.9020   -36.7780
 2204.5000     0.3050     2.4950     0.0100   -46.0200    93.5070    10.0740   -11.5820     5.4790     5.6570     5.4710   -36.5810
 2205.0000     0.3100     2.4910    -0.0040   -46.0200    91.8430    10.0740   -11.5370     5.4400     5.5850     5.4710   -36.3850
 2205.5000     0.3180     2.5020    -0.0200   -46.0200    88.3710    10.0740   -11.4930     5.4220     5.7710     5.8060   -36.1890
 2206.0000     0.2980     2.5130    -0.0130   -46.0200    84.9650    10.0740   -11.4490     5.5900     5.9490     6.8490   -35.9920
 2206.5000     0.2720     2.5240    -0.0020   -46.0200    83.4230    10.0740   -11.4050     5.7540     6.1140     7.8910   -35.7960
 2207.0000     0.2550     2.5220     0.0090   -46.0200    85.8110    10.0740   -11.3610     5.9180     6.1920     8.1760   -35.6000
 2207.5000     0.2660     2.5200     0.0200   -46.0200    88.1520    10.0740   -11.3160     6.0830     6.2740     7.3180   -35.4040
 2208.0000     0.2860     2.5180     0.0290   -46.0200    89.4390    10.0740   -11.2720     6.2470     6.3900     6.6240   -35.2070
 2208.5000     0.2860     2.5180     0.0260   -46.0200    88.4410    10.0740   -11.2360     6.4110     6.4520     6.1490   -35.0110
 2209.0000     0.2860     2.5220     0.0290   -46.0200    88.7730    10.0740   -11.3080     6.5750     6.5360     6.1140   -34.8150
 2209.5000     0.2960     2.5260     0.0330   -46.0200    90.0160    10.0740   -11.3790     6.7500     6.6210     6.1050   -34.6190
 2210.0000     0.3060     2.5310     0.0360   -46.0200    91.2480    10.0740   -11.4490     6.7170     6.7050     6.2930   -34.4220
 2210.5000     0.3140     2.5350     0.0390   -46.0200    91.4630    10.0740   -11.5190     6.6880     6.7900     6.6830   -34.2260
 2211.0000     0.3180     2.5430     0.0410   -46.0200    91.6300    10.0740   -11.5880     6.9220     7.1460     7.0720   -34.0300
 2211.5000     0.3190     2.5520     0.0390   -46.0200    91.8060    10.0740   -11.6580     7.1710     7.5970     7.6130   -33.8340
 2212.0000     0.3100     2.5580     0.0370   -46.0200    91.7010    10.0740   -11.7280     7.4200     8.0470     8.4390   -33.6370
 2212.5000     0.2940     2.5530     0.0350   -46.0200    89.6780    10.0740   -11.7980     7.6680     8.2510     9.6360   -33.4410
 2213.0000     0.2660     2.5450     0.0340   -46.0200    85.5570    10.0740   -11.8670     7.9170     8.2510     9.5220   -33.2450
 2213.5000     0.2470     2.5390     0.0400   -46.0200    80.0800    10.0740   -11.9370     8.0280     8.2510     9.2940   -33.0490
 2214.0000     0.2300     2.5460     0.0440   -46.0200    76.2230    10.0740   -12.0130     8.0280     8.2510     8.7620   -32.8520
 2214.5000     0.2240     2.5540     0.0470   -46.1760    73.6680    10.0740   -11.8520     8.0280     8.2510     8.2300   -32.6560
 2215.0000     0.2300     2.5620     0.0410   -46.6510    73.1090    10.0740   -11.6060     8.0280     8.2460     8.1010   -32.4600
 2215.5000     0.2570     2.5610     0.0190   -47.1270    75.7780    10.0740   -11.3570     8.0280     8.2310     8.0720   -32.2640
 2216.0000     0.2900     2.5530    -0.0050   -47.6020    78.9270    10.0740   -11.1060     8.0280     8.2160     7.9550   -32.0670
 2216.5000     0.2840     2.5440    -0.0100   -48.0780    82.3100    10.0740   -10.8460     8.0280     8.2020     8.1700   -31.8710
 2217.0000     0.2740     2.5360    -0.0150   -48.5530    83.2600    10.0740   -10.8200     8.0280     8.1860     8.5500   -31.6750
