~VERSION INFORMATION
 VERS.                2.0:   CWLS LOG ASCII STANDARD - VERSION 2.0
 WRAP.                 NO:   ONE LINE PER DEPTH STEP
~WELL INFORMATION
#MNEM.UNIT      DATA TYPE    INFORMATION
#----------   ------------   ------------------------------
 STRT.F          190.0000:   START DEPTH
 STOP.F         3050.0000:   STOP DEPTH
 STEP.F            0.5000:   STEP LENGTH
 NULL.          -999.2500:   NO VALUE
 COMP.    FENIX & SCISSON:   COMPANY
 WELL. FENIX NPR 3 "AX" #86-29:   WELL
 FLD .      NPR - WILDCAT:   FIELD
 LOC .      S29 T39N R78W:   LOCATION
 CNTY.            NATRONA:   COUNTY
 STAT.            WYOMING:   STATE
 CTRY. UNITED STATES OF AMERICA:   COUNTRY
 SRVC.              WELEX:   SERVICE COMPANY
 DATE.        24-JUN-1977:   LOGDATE
 API .     49025103830000:   API NUMBER
~CURVE INFORMATION
#MNEM.UNIT       API CODE    CURVE DESCRIPTION
#----------   ------------   ------------------------------
 DEPT.F                  :   
 SPR .MV     07 010 01 00:   SPONTANEOUS POTENTIAL
 ILD .OHMM   07 120 46 00:   DEEP INDUCTION RESISTIVITY
 ILM .OHMM   07 120 44 00:   INDUCTION LOG MEDIUM RESISTIVITY
 SGRD.OHMM   07 220 05 00:   SHALLOW SHORT GUARD RESISTIVITY
 GRD .GAPI   45 310 01 00:   GAMMA RAY FROM DENSITY LOG
 CALD.IN     45 280 60 00:   CALIPER FROM DENSITY LOG
 RHOB.G/C3   45 350 01 00:   BULK DENSITY
 CORR.G/C3   45 356 01 00:   DENSITY CORRECTION
~PARAMETER INFORMATION
#MNEM.UNIT          VALUE    DESCRIPTION
#----------   ------------   ------------------------------
 EKB .F         5056.0000:   Kelly bushing
 EGL .F         5046.0000:   Ground level
 EDF .F            0.0000:   Drilling floor
 TD  .F         3051.0000:   Total depth
 DATE.        24-JUN-1977:   Date logged
 CLNT.            A2DTECH:   Client Code
 SL  . 1746' FSL & 534' FEL:   Surface Location
 PD  .                 GL:   Permanent Datum
 EPD .F              5046:   Elevation Permanent Datum
 LMF .                 KB:   Log Measured From
 DMF .                 KB:   Drilling Measured From
 DAPD.F                10:   Feet Above Permanent Datum
 DD  .F              3038:   Depth driller
 DL  .F              3051:   Depth logger
 BLI .F              3049:   Bottom log interval
 TLI .F               200:   Top log interval
 CS1 .IN            8.625:   Casing size
 CBD1.      8.625" @ 217':   Casing driller 1
 CBL1.F               213:   Casing logger 1
 BS1 .IN            7.875:   Bit size
 BSD1.F              3038:   Depth drilled with bit1
 DFT .            KCL/MUD:   Type fluid in hole
 DFD .                8.7:   Density
 DFV .                134:   Viscosity
 DFPH.                7.5:   pH
 DFL .                7.2:   Fluid loss
 MSS .           FLOWLINE:   Source of sample
 RMS .OHMM            .62:   Rm
 MST .F                82:   Rm Meas. temp.
 RMF .OHMM            .28:   Rmf
 MFST.F                82:   Rmf Meas. temp.
 RMC .OHMM            .78:   Rmc
 MCST.F                82:   Rmc Meas. temp.
 MFSS.               MEAS:   Source Rmf.
 MCSS.               MEAS:   Source Rmc.
 RMB .OHMM            .45:   Rm. at BHT
 BHT .F               111:   BHT.
 TCS .HRS               2:   Time Circ. stopped
 MRT .F               111:   Maximum recorded temp.
 LUN .               8766:   Logging unit number
 LUL .             CASPER:   Logging unit location
 ENGI.          D. LAWSON:   Recorded By
 WITN.      B. HARRINGTON:   Witnessed by
 ORIG.           5" PRINT:   Origin of data
 UWI .     49025103830000:   Unique Well ID
 DICO. A2D TECHNOLOGIES, INC.:   Digitizing Company
~OTHER INFORMATION
~A   DEPT      SPR        ILD        ILM       SGRD        GRD       CALD         RHOB      CORR  
# ...
 2255.5000   -61.2740     8.5310     8.8430    14.9160    73.1910     8.0960     2.5010     0.0150
 2256.0000   -61.4020     8.3430     9.0220    14.1450    72.6590     8.0960     2.4990     0.0130
 2256.5000   -61.5300     8.1540     9.2620    13.0010    71.9710     8.0960     2.4930     0.0120
 2257.0000   -61.6540     7.9650     9.1510    14.3290    70.9670     8.0960     2.4840     0.0100
 2257.5000   -61.6470     7.7770     8.9820    15.7380    69.9560     8.0960     2.4760     0.0080
 2258.0000   -61.0190     7.5880     8.8130    15.9050    68.9430     8.0960     2.4680     0.0050
 2258.5000   -60.3880     7.3990     8.6450    12.7300    67.9360     8.0960     2.4670     0.0030
 2259.0000   -60.1820     7.2110     8.4990    11.4640    66.9340     8.0960     2.4640     0.0020
 2259.5000   -60.7140     7.0220     8.2430    10.1980    66.4830     8.0960     2.4620     0.0030
 2260.0000   -61.3290     6.9540     8.0720     9.5290    66.8180     8.0990     2.4620     0.0060
 2260.5000   -61.7620     6.9080     9.5200     9.4330    67.0820     8.1050     2.4690     0.0090
 2261.0000   -61.7350     6.9510     9.7850    11.8890    65.9640     8.1110     2.4760     0.0120
 2261.5000   -61.7170     7.0270     9.6580    14.1180    64.8060     8.1170     2.4840     0.0160
 2262.0000   -61.6990     7.1040     9.4910    13.6300    63.6350     8.1240     2.4910     0.0190
 2262.5000   -61.6810     7.2070     9.3240    13.3630    63.8210     8.1300     2.4950     0.0220
 2263.0000   -61.6630     7.4150     9.1580    12.8900    64.8440     8.1360     2.4950     0.0250
 2263.5000   -61.6450     7.6240     9.0830    12.3010    65.8780     8.1420     2.4920     0.0230
 2264.0000   -61.6270     7.8330     9.0670    12.0820    66.9240     8.1480     2.4890     0.0200
 2264.5000   -61.6090     8.0410     9.0500    12.8790    67.5800     8.1540     2.4860     0.0170
 2265.0000   -61.5910     8.1960     9.0330    14.9310    68.3410     8.1550     2.4820     0.0140
 2265.5000   -61.5730     8.3410     9.0110    17.2720    69.1010     8.1560     2.4810     0.0120
 2266.0000   -61.5610     8.4860     9.0440    17.1150    69.8670     8.1560     2.4810     0.0100
 2266.5000   -61.5610     8.6310     9.0940    16.1430    70.3290     8.1560     2.4800     0.0110
 2267.0000   -61.5610     8.7770     9.1440    14.3080    70.7840     8.1560     2.4790     0.0120
 2267.5000   -61.5610     8.8590     9.2680    12.9310    71.2410     8.1560     2.4770     0.0120
 2268.0000   -61.5610     8.8830     9.5530    12.5330    71.6980     8.1550     2.4760     0.0130
 2268.5000   -61.5610     8.9070     9.8380    13.6660    72.1530     8.1550     2.4740     0.0140
 2269.0000   -61.5610     8.9300    10.3390    15.9920    72.6490     8.1520     2.4730     0.0140
 2269.5000   -61.5620     8.9540    10.3000    20.1840    74.1690     8.1450     2.4730     0.0150
 2270.0000   -61.5620     8.9780    10.1950    18.3150    76.5200     8.1380     2.4760     0.0160
 2270.5000   -61.6130     9.0110     9.9700    15.6930    79.0860     8.1320     2.4780     0.0160
 2271.0000   -61.7140     8.9400     9.6610    14.1180    81.6790     8.1250     2.4770     0.0150
 2271.5000   -61.8140     8.8190     9.3510    15.8830    83.9620     8.1180     2.4750     0.0140
 2272.0000   -61.9150     8.6860     9.0420    17.5920    86.2940     8.1180     2.4720     0.0130
 2272.5000   -62.0160     8.5530     8.8020    14.8760    88.5680     8.1200     2.4710     0.0130
 2273.0000   -62.1170     8.4200     8.6020    10.2440    90.8370     8.1220     2.4690     0.0140
 2273.5000   -62.1540     8.2470     8.4020    10.9350    93.1180     8.1240     2.4680     0.0160
 2274.0000   -62.1540     8.0550     8.2020    13.8620    95.2790     8.1260     2.4670     0.0170
 2274.5000   -62.1540     7.8620     8.0020    14.3950    97.4100     8.1280     2.4600     0.0180
 2275.0000   -62.1530     7.6690     7.7820    15.0430    99.4950     8.1300     2.4540     0.0190
 2275.5000   -62.0480     7.4770     7.7820    15.7600   101.0260     8.1320     2.4480     0.0200
 2276.0000   -61.8440     7.2840     7.7820    13.3630   101.9850     8.1340     2.4420     0.0160
 2276.5000   -61.6390     7.1710     7.7750    11.5990   103.0960     8.1360     2.4370     0.0130
 2277.0000   -61.4340     7.1000     7.7540    10.6270   104.1830     8.1380     2.4360     0.0110
 2277.5000   -61.2280     7.0810     7.7330    10.8100   105.6450     8.1400     2.4350     0.0130
 2278.0000   -61.0230     7.0560     7.7110    11.5850   107.0450     8.1420     2.4300     0.0160
 2278.5000   -60.8180     7.0360     8.5640    10.6490   108.0940     8.1440     2.4240     0.0140
 2279.0000   -60.6120     7.2150     9.4420     8.5290   108.2030     8.1460     2.4180     0.0090
 2279.5000   -60.4070     7.3650     9.9660    10.5400   108.4020     8.1480     2.4120     0.0040
 2280.0000   -60.2000     7.7890    10.0860    14.3270   108.6070     8.1500     2.4070    -0.0010
 2280.5000   -59.9900     8.2090    10.1310    18.1580   108.8270     8.1520     2.4000    -0.0060
 2281.0000   -60.0260     8.6290    10.1750    21.5210   109.4510     8.1540     2.3940    -0.0110
 2281.5000   -60.0790     9.0500    10.2440    19.1170   110.1410     8.1560     2.3880    -0.0160
 2282.0000   -60.1310     9.4700    10.1280    15.9050   110.8340     8.1490     2.3850    -0.0190
 2282.5000   -60.1830     9.6750     9.8760    16.7480   111.5260     8.1420     2.3870    -0.0190
 2283.0000   -60.2350     9.7750     9.6230    19.7410   112.2160     8.1350     2.3910    -0.0190
 2283.5000   -60.2860     9.6050     9.3470    21.5210   112.9110     8.1270     2.3930    -0.0180
 2284.0000   -60.3390     9.4040     8.9560    16.7540   113.6390     8.1200     2.3920    -0.0180
 2284.5000   -60.4180     8.9920     8.5240    11.6750   114.4150     8.1130     2.3900    -0.0210
 2285.0000   -60.5900     8.4980     8.0920    10.1510   112.8530     8.1050     2.3900    -0.0250
 2285.5000   -60.7580     8.0050     7.6600    13.8670   110.4280     8.0980     2.3950    -0.0270
 2286.0000   -60.9260     7.5110     7.2280    15.7600   108.0130     8.0930     2.4020    -0.0280
 2286.5000   -61.0940     7.0170     6.7960    12.3450   105.6030     8.0880     2.4160    -0.0220
 2287.0000   -61.2620     6.5470     6.3630     9.2590   103.4250     8.0840     2.4310    -0.0170
 2287.5000   -61.4290     6.0840     5.9310     6.3030   101.6150     8.0800     2.4470    -0.0120
 2288.0000   -61.5970     5.6210     5.4990     6.9740    99.8100     8.0920     2.4620    -0.0070
 2288.5000   -61.7660     5.3070     5.2240     8.1470    98.0140     8.1320     2.4750    -0.0020
 2289.0000   -61.9330     5.0860     5.1690     7.4600    96.2060     8.1710     2.4770     0.0020
 2289.5000   -61.9480     4.8650     5.1050     6.8450    95.1860     8.2100     2.4800     0.0060
 2290.0000   -61.9350     4.7480     5.1210     6.0660    94.6980     8.2490     2.4840     0.0090
 2290.5000   -61.9220     4.6150     5.1390     5.7510    94.2630     8.2730     2.4960     0.0130
 2291.0000   -61.9090     4.6280     5.1730     8.5290    94.1910     8.2540     2.5010     0.0170
 2291.5000   -61.8960     4.6550     5.2480     8.3170    94.1070     8.2350     2.5040     0.0200
 2292.0000   -61.8830     4.6820     5.3230     7.7850    94.0190     8.2590     2.5070     0.0240
 2292.5000   -61.8700     4.7300     5.3980     7.1560    93.9330     8.2860     2.5080     0.0260
 2293.0000   -61.8570     4.8220     5.4730     7.1000    93.6860     8.3120     2.5100     0.0240
 2293.5000   -61.8450     4.9140     5.6440     7.4330    93.3140     8.3130     2.5090     0.0210
 2294.0000   -61.8320     5.0070     5.8490     8.2970    92.9410     8.3130     2.5070     0.0190
 2294.5000   -61.8190     5.0990     6.0210     8.2550    92.5770     8.3130     2.5060     0.0160
 2295.0000   -61.8060     5.1910     6.0420     8.1470    92.5060     8.3130     2.5040     0.0140
 2295.5000   -61.7930     5.2830     6.0650     8.1960    93.1550     8.3130     2.5030     0.0110
