~VERSION INFORMATION
 VERS.                2.0:   CWLS LOG ASCII STANDARD - VERSION 2.0
 WRAP.                 NO:   ONE LINE PER DEPTH STEP
~WELL INFORMATION
#MNEM.UNIT      DATA TYPE    INFORMATION
#----------   ------------   ------------------------------
 STRT.F            4.0000:   START DEPTH
 STOP.F         3266.0000:   STOP DEPTH
 STEP.F            0.5000:   STEP LENGTH
 NULL.          -999.2500:   NO VALUE
 COMP. LAWRENCE ALLISON & ASSOSCIATES:   COMPANY
 WELL. LAWRENCE "X" #27-11:   WELL
 FLD .          N.P.R. #3:   FIELD
 LOC .      S11 T38N R78W:   LOCATION
 CNTY.            NATRONA:   COUNTY
 STAT.            WYOMING:   STATE
 CTRY. UNITED STATES OF AMERICA:   COUNTRY
 SRVC.      DRESSER ATLAS:   SERVICE COMPANY
 DATE.        22-AUG-1986:   LOGDATE
 API .     49025111070000:   API NUMBER
~CURVE INFORMATION
#MNEM.UNIT       API CODE    CURVE DESCRIPTION
#----------   ------------   ------------------------------
 DEPT.F                  :   
 SPR .MV     07 010 01 00:   SPONTANEOUS POTENTIAL
 TENR.LBS    06 635 01 00:   TENSION FROM RESISTIVITY
 GRR .GAPI   07 310 01 00:   GAMMA RAY FROM RESISTIVITY
 RILD.OHMM   07 120 46 00:   DEEP INDUCTION RESISTIVITY
 RILM.OHMM   07 120 44 00:   INDUCTION LOG MEDIUM RESISTIVITY
 RFOC.OHMM   07 220 04 00:   RESISTIVITY FOCUSED LOG RES.
 NPHI.DEC    42 890 03 00:   NEUTRON POROSITY SANDSTONE
 CALD.IN     45 280 60 00:   CALIPER FROM DENSITY LOG
 RHOB.G/C3   45 350 01 00:   BULK DENSITY
 CORR.G/C3   45 356 01 00:   DENSITY CORRECTION
 TEND.LBS    45 635 01 00:   TENSION FORM DENSITY LOG
~PARAMETER INFORMATION
#MNEM.UNIT          VALUE    DESCRIPTION
#----------   ------------   ------------------------------
 EKB .F         5206.0000:   Kelly bushing
 EGL .F         5194.0000:   Ground level
 EDF .F         5205.0000:   Drilling floor
 EPD .F         5194.0000:   Permanent datum
 TD  .F         3250.0000:   Total depth
 CLNT.            A2DTECH:   Client Code
 SL  . 1197' FSL & 1088' FWL:   Surface Location
 PD  .                 GL:   Permanent Datum
 DAPD.F                12:   Feet Above Permanent Datum
 DATE.        22-AUG-1986:   Date Logged [DD-MMM-YYYY]
 DD  .F              3250:   Depth driller
 DL  .F              3246:   Depth logger
 BLI .F              3243:   Bottom log interval
 TLI .F               683:   Top log interval
 CS1 .IN            8.625:   Casing size
 CBD1.      8.625" @ 672':   Casing driller 1
 CBL1.F               673:   Casing logger 1
 BS1 .IN            7.875:   Bit size
 BSD1.F              3250:   Depth drilled with bit1
 DFT .            KCL-GEL:   Type fluid in hole
 DFD .                8.9:   Density
 DFV .                 35:   Viscosity
 MSS .               TANK:   Source of sample
 RMS .OHMM           0.31:   Rm
 MST .F                70:   Rm Meas. temp.
 RMF .OHMM           0.29:   Rmf
 MFST.F                67:   Rmf Meas. temp.
 MFSS.               CALC:   Source Rmf.
 RMC .OHMM           0.46:   Rmc
 MCST.F                70:   Rmc Meas. temp.
 MCSS.               CALC:   Source Rmc.
 RMB .OHMM           0.16:   Rm. at BHT
 BHT .F               136:   BHT.
 TCS .HRS               4:   Time Circ. stopped
 MRT .F               136:   Maximum recorded temp.
 LUN .            HL-6426:   Logging unit number
 LUL .          RK. SPGS.:   Logging unit location
 ENGI.               RALL:   Recorded By
 WITN.             STRONG:   Witnessed by
 ORIG.           5" PRINT:   Origin of data
 UWI .     49025111070000:   Unique Well ID
 DICO. A2D TECHNOLOGIES, INC.:   Digitizing Company
~OTHER INFORMATION
~A    DEPT     SPR       TENR         GRR      RILD       RILM       RFOC       NPHI       CALD       RHOB       CORR       TEND   
# ...
  705.5000   -77.7080   -66.4041   105.8714     7.4607     7.5763     6.6155  -999.2500  -999.2500  -999.2500  -999.2500  -999.2500
  706.0000   -77.3223   -66.2430   105.0615     7.3053     7.5200     6.5716  -999.2500  -999.2500  -999.2500  -999.2500  -999.2500
  706.5000   -77.2243   -66.0820   105.0385     7.1035     7.3698     6.6205  -999.2500  -999.2500  -999.2500  -999.2500  -999.2500
  707.0000   -77.1366   -65.9209   107.9805     6.9555     7.2175     6.6228  -999.2500  -999.2500  -999.2500  -999.2500  -999.2500
  707.5000   -77.0484   -65.7598   111.0307     6.9066     7.1685     6.5788  -999.2500  -999.2500  -999.2500  -999.2500  -999.2500
  708.0000   -76.9627   -65.5987   110.6972     6.9061     7.2205     6.3986  -999.2500  -999.2500  -999.2500  -999.2500  -999.2500
  708.5000   -77.0757   -65.4376   109.5447     6.9057     7.2219     6.1742  -999.2500  -999.2500  -999.2500  -999.2500  -999.2500
  709.0000   -77.3984   -65.2765   110.4311     6.9052     7.2743     6.0971  -999.2500  -999.2500  -999.2500  -999.2500  -999.2500
  709.5000   -77.7191   -65.1154   110.1659     7.0019     7.3272     6.1426  -999.2500  -999.2500  -999.2500  -999.2500  -999.2500
  710.0000   -78.0415   -64.9544   108.8549     7.0571     7.3806     6.3636  -999.2500  -999.2500  -999.2500  -999.2500  -999.2500
  710.5000   -78.6528   -64.7933   106.9231     7.0995     7.3821     6.5467  -999.2500  -999.2500  -999.2500  -999.2500  -999.2500
  711.0000   -79.3615   -64.6322   104.6373     7.1488     7.3836     6.5949  -999.2500  -999.2500  -999.2500  -999.2500  -999.2500
  711.5000   -80.0726   -64.4711   100.9267     7.1985     7.3331     6.5972  -999.2500  -999.2500  -999.2500  -999.2500  -999.2500
  712.0000   -80.7818   -64.3100    99.5488     7.0980     7.2835     6.5533  -999.2500  -999.2500  -999.2500  -999.2500  -999.2500
  712.5000   -81.4222   -64.1489   100.5908     7.0481     7.2341     6.6022  -999.2500  -999.2500  -999.2500  -999.2500  -999.2500
  713.0000   -81.7343   -63.9879   103.7147     6.9985     7.2356     6.6044  -999.2500  -999.2500  -999.2500  -999.2500  -999.2500
  713.5000   -82.0544   -63.8268   103.2893     6.9492     7.1867     6.6066  -999.2500  -999.2500  -999.2500  -999.2500  -999.2500
  714.0000   -82.3471   -63.6657   103.4863     6.9487     7.1378     6.6553  -999.2500  -999.2500  -999.2500  -999.2500  -999.2500
  714.5000   -82.1997   -63.5046   105.0004     6.8999     6.9415     6.7515  -999.2500  -999.2500  -999.2500  -999.2500  -999.2500
  715.0000   -82.0358   -63.3435   107.5046     6.7092     6.5634     6.7538  -999.2500  -999.2500  -999.2500  -999.2500  -999.2500
  715.5000   -81.7012   -63.1824   107.6911     6.4333     6.1625     6.7566  -999.2500  -999.2500  -999.2500  -999.2500  -999.2500
  716.0000   -81.1519   -63.0213   106.3567     6.1676     5.8680     6.7111  -999.2500  -999.2500  -999.2500  -999.2500  -999.2500
  716.5000   -80.6058   -62.8603   104.5025     5.8328     5.9109     6.5285  -999.2500  -999.2500  -999.2500  -999.2500  -999.2500
  717.0000   -80.0581   -62.6992   106.2540     5.7918     5.9121     5.9207  -999.2500  -999.2500  -999.2500  -999.2500  -999.2500
  717.5000   -79.5107   -62.5381   110.5634     5.8321     5.9969     5.2579  -999.2500  -999.2500  -999.2500  -999.2500  -999.2500
  718.0000   -78.9629   -62.3770   112.7439     5.8317     6.0830     5.0432  -999.2500  -999.2500  -999.2500  -999.2500  -999.2500
  718.5000   -78.4151   -62.2159   112.3809     5.9133     6.1272     5.5331  -999.2500  -999.2500  -999.2500  -999.2500  -999.2500
  719.0000   -77.8729   -62.0548   110.1721     6.0806     6.3031     6.1837  -999.2500  -999.2500  -999.2500  -999.2500  -999.2500
  719.5000   -77.5151   -61.8937   109.8784     6.3948     6.5347     6.7282  -999.2500  -999.2500  -999.2500  -999.2500  -999.2500
  720.0000   -77.5204   -61.7327   109.2777     6.7515     7.0562     6.9703  -999.2500  -999.2500  -999.2500  -999.2500  -999.2500
  720.5000   -77.5193   -61.5716   107.9560     7.0895     7.4134     7.1708  -999.2500  -999.2500  -999.2500  -999.2500  -999.2500
  721.0000   -77.5230   -61.4105   107.4177     7.4966     7.6262     7.4289  -999.2500  -999.2500  -999.2500  -999.2500  -999.2500
  721.5000   -77.7090   -61.2494   108.0856     7.7087     7.7902     7.5892  -999.2500  -999.2500  -999.2500  -999.2500  -999.2500
  722.0000   -78.1787   -61.0883   110.8441     7.9822     7.9020     7.7530  -999.2500  -999.2500  -999.2500  -999.2500  -999.2500
  722.5000   -78.6443   -60.9272   114.6778     8.1507     8.0720     7.8656  -999.2500  -999.2500  -999.2500  -999.2500  -999.2500
  723.0000   -79.1109   -60.7661   118.5921     8.3227     8.2503     7.9793  -999.2500  -999.2500  -999.2500  -999.2500  -999.2500
  723.5000   -79.5773   -60.6051   118.7760     8.3807     8.3644     7.9820  -999.2500  -999.2500  -999.2500  -999.2500  -999.2500
  724.0000   -80.0436   -60.4440   115.4496     8.3800     8.4845     7.9283  -999.2500  -999.2500  -999.2500  -999.2500  -999.2500
  724.5000   -80.5129   -60.2829   110.7419     8.4383     8.5460     7.8762  -999.2500  -999.2500  -999.2500  -999.2500  -999.2500
  725.0000   -80.8997   -60.1218   108.5281     8.4376     8.6080     7.9343  -999.2500  -999.2500  -999.2500  -999.2500  -999.2500
  725.5000   -81.2106   -59.9607   108.2488     8.4962     8.7316     7.9929  -999.2500  -999.2500  -999.2500  -999.2500  -999.2500
  726.0000   -81.5212   -59.7996   107.7713     8.5552     8.7950     8.1090  -999.2500  -999.2500  -999.2500  -999.2500  -999.2500
  726.5000   -81.8362   -59.6385   104.2018     8.6146     8.8588     8.2261  -999.2500  -999.2500  -999.2500  -999.2500  -999.2500
  727.0000   -82.1368   -59.4775   102.3455     8.6139     8.8610     8.2867  -999.2500  -999.2500  -999.2500  -999.2500  -999.2500
  727.5000   -81.6797   -59.3164   103.9201     8.6133     8.8628     8.4065  -999.2500  -999.2500  -999.2500  -999.2500  -999.2500
  728.0000   -81.1497   -59.1553   106.4004     8.6127     8.8021     8.4684  -999.2500  -999.2500  -999.2500  -999.2500  -999.2500
  728.5000   -80.3243   -58.9942   105.0778     8.6121     8.8044     8.4713  -999.2500  -999.2500  -999.2500  -999.2500  -999.2500
  729.0000   -79.4693   -58.8331   103.9193     8.5516     8.6833     8.4749  -999.2500  -999.2500  -999.2500  -999.2500  -999.2500
  729.5000   -78.9426   -58.6720   106.3523     8.4322     8.5639     8.4186  -999.2500  -999.2500  -999.2500  -999.2500  -999.2500
  730.0000   -78.6166   -58.5108   108.9565     8.3729     8.3283     8.2463  -999.2500  -999.2500  -999.2500  -999.2500  -999.2500
  730.5000   -78.2941   -58.3499   108.9954     8.2562     8.1566     8.1343  -999.2500  -999.2500  -999.2500  -999.2500  -999.2500
  731.0000   -77.9733   -58.1888   107.7612     8.0843     8.1008     8.0239  -999.2500  -999.2500  -999.2500  -999.2500  -999.2500
  731.5000   -77.8081   -58.1483   107.3371     7.9161     7.9898     7.9706  -999.2500  -999.2500  -999.2500  -999.2500  -999.2500
  732.0000   -77.6755   -58.1483   108.7261     7.9141     7.9350     7.9176  -999.2500  -999.2500  -999.2500  -999.2500  -999.2500
  732.5000   -77.5102   -58.1483   110.2769     7.7907     7.8814     7.8650  -999.2500  -999.2500  -999.2500  -999.2500  -999.2500
  733.0000   -77.9474   -58.1483   108.4240     7.7396     7.8831     7.8128  -999.2500  -999.2500  -999.2500  -999.2500  -999.2500
  733.5000   -77.9208   -58.1483   101.7996     7.6884     7.8295     7.8161  -999.2500  -999.2500  -999.2500  -999.2500  -999.2500
  734.0000   -78.1102   -58.1483    99.9485     7.6373     7.8315     7.7635  -999.2500  -999.2500  -999.2500  -999.2500  -999.2500
  734.5000   -78.7435   -58.1483   102.0050     7.5879     7.8883     7.7119  -999.2500  -999.2500  -999.2500  -999.2500  -999.2500
  735.0000   -79.3689   -58.1483   102.6677     7.7480     7.9455     7.8240  -999.2500  -999.2500  -999.2500  -999.2500  -999.2500
  735.5000   -79.9945   -58.1483   101.1972     7.9117     8.0596     7.8311  -999.2500  -999.2500  -999.2500  -999.2500  -999.2500
