~VERSION INFORMATION
 VERS.                2.0:   CWLS LOG ASCII STANDARD - VERSION 2.0
 WRAP.                 NO:   ONE LINE PER DEPTH STEP
~WELL INFORMATION
#MNEM.UNIT      DATA TYPE    INFORMATION
#----------   ------------   ------------------------------
 STRT.F         2496.0000:   START DEPTH
 STOP.F         4120.0000:   STOP DEPTH
 STEP.F            0.5000:   STEP LENGTH
 NULL.          -999.2500:   NO VALUE
 COMP. LAWRENCE ALLISON AND ASSOCIATES:   COMPANY
 WELL. LAWRENCE "X" #85-10:   WELL
 FLD .              N P R:   FIELD
 LOC .      S10 T38N R78W:   LOCATION
 CNTY.            NATRONA:   COUNTY
 STAT.            WYOMING:   STATE
 CTRY. UNITED STATES OF AMERICA:   COUNTRY
 SRVC.      DRESSER ATLAS:   SERVICE COMPANY
 DATE.        20-JAN-1984:   LOGDATE
 API .     49025109580000:   API NUMBER
~CURVE INFORMATION
#MNEM.UNIT       API CODE    CURVE DESCRIPTION
#----------   ------------   ------------------------------
 DEPT.F                  :   
 SPR .MV     07 010 01 00:   SPONTANEOUS POTENTIAL
 TENR.LBS    07 635 01 00:   TENSION FROM RESISTIVITY
 ILD .OHMM   07 120 46 00:   DEEP INDUCTION RESISTIVITY
 ILM .OHMM   07 120 44 00:   INDUCTION LOG MEDIUM RESISTIVITY
 RFOC.OHMM   07 220 04 00:   RESISTIVITY FOCUSED LOG RES.
 GRD .GAPI   45 310 01 00:   GAMMA RAY FROM DENSITY LOG
 CALD.IN     45 280 60 00:   CALIPER FROM DENSITY LOG
 TEND.LBS    45 635 01 00:   TENSION FROM DENSITY LOG
 RHOB.G/C3   45 350 01 00:   BULK DENSITY
 CORR.G/C3   45 356 01 00:   DENSITY CORRECTION
 CN  .DEC    42 890 03 00:   NEUTRON POROSITY SANDSTONE
~PARAMETER INFORMATION
#MNEM.UNIT          VALUE    DESCRIPTION
#----------   ------------   ------------------------------
 EKB .F         5231.0000:   Kelly bushing
 EGL .F         5221.0000:   Ground level
 EDF .F            0.0000:   Drilling floor
 TD  .F         4115.0000:   Total depth
 DATE.        20-JAN-1984:   Date logged
 CLNT.            A2DTECH:   Client Code
 SL  . 2159' FSL & 292' FEL:   Surface Location
 PD  .                 GL:   Permanent Datum
 EPD .F              5221:   Elevation Permanent Datum
 LMF .                 KB:   Log Measured From
 DMF .                 KB:   Drilling Measured From
 DD  .F              4115:   Depth driller
 DL  .F              4111:   Depth logger
 BLI .F              4109:   Bottom log interval
 TLI .F              2496:   Top log interval
 CS1 .IN            8.625:   Casing size
 CBD1.       8.625 @ 537':   Casing driller 1
 BS1 .IN            7.875:   Bit size
 DFT .            GEL KCL:   Type fluid in hole
 DFD .                8.8:   Density
 DFV .                 40:   Viscosity
 DFPH.                  9:   pH
 DFL .                9.8:   Fluid loss
 MSS .           FLOWLINE:   Source of sample
 RMS .OHMM           0.61:   Rm
 MST .F                77:   Rm Meas. temp.
 RMF .OHMM           0.51:   Rmf
 MFST.F                69:   Rmf Meas. temp.
 RMC .OHMM           0.76:   Rmc
 MCST.F                77:   Rmc Meas. temp.
 MFSS.               MEAS:   Source Rmf.
 RMB .OHMM           0.38:   Rm. at BHT
 BHT .F               122:   BHT.
 TCS .HRS               4:   Time Circ. stopped
 MRT .F               122:   Maximum recorded temp.
 LUN .               6307:   Logging unit number
 LUL .               GLTE:   Logging unit location
 ENGI.            DEYOUNG:   Recorded By
 WITN.           R. SCOTT:   Witnessed by
 ORIG.           5" PRINT:   Origin of data
 UWI .     49025109580000:   Unique Well ID
 DICO. A2D TECHNOLOGIES, INC.:   Digitizing Company
 DAPD.                 10:   Feet Above Permanent Datum
 MCSS.               CALC:   Source Rmc.
~OTHER INFORMATION
~A  DEPT       SPR       TENR        ILD        ILM       RFOC        GRD       CALD       TEND       RHOB       CORR         CN   
 2496.0000   -53.7310  -999.2500  -999.2500  -999.2500  -999.2500  -999.2500  -999.2500  -999.2500  -999.2500  -999.2500  -999.2500
 2496.5000   -53.8710  -999.2500  -999.2500     6.8490  -999.2500   123.6410     8.6010  -999.2500     2.6040     0.1590     0.2430
 2497.0000   -54.0110   -18.4820     6.4740     6.8490     7.1970   124.9340     8.6010  -999.2500     2.6050     0.1750     0.2410
 2497.5000   -54.1520   -18.9160     6.5330     6.8490     7.1500   127.2110     8.6020   -21.9840     2.6060     0.1740     0.2400
 2498.0000   -54.2560   -19.3490     6.5930     6.8660     7.1030   129.4880     8.6080   -22.4040     2.6060     0.1680     0.2390
 2498.5000   -54.3960   -19.6740     6.6530     6.8490     7.0840   130.1840     8.6030   -22.8250     2.6030     0.1590     0.2370
 2499.0000   -54.5360   -20.1070     6.6970     6.8490     7.0200   128.3540     8.6030   -23.2450     2.5990     0.1500     0.2360
 2499.5000   -54.6760   -20.5410     6.7860     6.8490     6.9770   125.6580     8.6040   -23.5610     2.5940     0.1530     0.2300
 2500.0000   -54.8160   -20.9740     6.7560     6.8490     7.0720   122.8430     8.6040   -23.9810     2.5980     0.1600     0.2250
 2500.5000   -54.9560   -21.4080     6.6950     6.8490     7.1600   120.0300     8.6050   -24.4020     2.6040     0.1670     0.2200
 2501.0000   -55.0960   -21.8410     6.6340     6.8490     7.2470   117.2060     8.6050   -24.8220     2.6110     0.1740     0.2200
 2501.5000   -55.2360   -22.2740     6.5740     6.8490     7.3070   115.3860     8.6060   -25.2430     2.6180     0.1810     0.2260
 2502.0000   -55.3760   -22.7080     6.5130     6.8490     7.1470   116.5830     8.6060   -25.6630     2.6230     0.1580     0.2330
 2502.5000   -55.5150   -23.1410     6.4520     6.8490     7.0260   118.4500     8.6060   -26.0840     2.6180     0.1360     0.2400
 2503.0000   -55.5930   -23.5740     6.3910     6.8490     6.9050   120.3350     8.6070   -26.5040     2.6130     0.1370     0.2400
 2503.5000   -55.5180   -24.0080     6.3030     6.8490     6.8490   122.2000     8.6070   -26.9250     2.6080     0.1390     0.2400
 2504.0000   -55.4470   -24.4410     6.3140     6.8490     6.8490   125.9800     8.6080   -27.3450     2.6060     0.1300     0.2400
 2504.5000   -55.3770   -24.8740     6.3350     6.8490     6.8490   130.3630     8.6080   -27.7660     2.6100     0.1150     0.2400
 2505.0000   -55.3060   -25.3080     6.3570     6.8490     6.8490   129.0130     8.6090   -28.1860     2.6140     0.1420     0.2410
 2505.5000   -55.2350   -25.7410     6.3780     6.8560     6.8490   127.2860     8.6090   -28.6060     2.6180     0.1650     0.2450
 2506.0000   -55.1650   -25.9690     6.3990     6.8980     6.8490   125.5400     8.6100   -29.0270     2.6210     0.1670     0.2490
 2506.5000   -55.0940   -26.1260     6.4200     6.9400     6.8490   125.2050     8.6100   -29.4470     2.6210     0.1570     0.2540
 2507.0000   -55.0240   -26.2830     6.4420     6.9820     6.8490   125.2510     8.6110   -29.7190     2.6220     0.1490     0.2540
 2507.5000   -54.9530   -26.4400     6.4630     7.0230     6.8970   125.3090     8.6110   -29.7190     2.6220     0.1540     0.2450
 2508.0000   -54.8820   -26.5980     6.4920     7.0650     6.9780   125.3630     8.6120   -29.7190     2.6170     0.1590     0.2340
 2508.5000   -54.8130   -26.7550     6.5530     7.1070     7.1070   125.4220     8.6120   -29.7190     2.6120     0.1610     0.2330
 2509.0000   -54.8400   -26.9120     6.6150     7.1250     7.0860   124.8190     8.6130   -29.7190     2.6060     0.1620     0.2350
 2509.5000   -54.8710   -27.0690     6.6760     7.1420     7.0350   123.7410     8.6130   -29.7190     2.6050     0.1600     0.2370
 2510.0000   -54.9030   -27.2260     6.7370     7.1600     6.9830   122.6590     8.6130   -29.7190     2.6080     0.1370     0.2350
 2510.5000   -54.9340   -27.3840     6.7990     7.1770     6.9190   121.5720     8.6140   -29.7190     2.6120     0.1420     0.2320
 2511.0000   -54.9660   -27.5410     6.8600     7.1950     6.9900   120.4830     8.6140   -29.7190     2.6160     0.1490     0.2280
 2511.5000   -54.9980   -27.6980     6.9220     7.2120     7.1140   119.4050     8.6150   -29.7190     2.6160     0.1550     0.2250
 2512.0000   -55.0890   -27.8550     6.9830     7.2390     7.3070   118.4560     8.6150   -29.7190     2.6130     0.1420     0.2210
 2512.5000   -55.2180   -28.0120     7.0420     7.1950     7.2350   118.2650     8.6160   -29.7190     2.6100     0.1280     0.2210
 2513.0000   -55.3480   -28.1690     7.1450     7.0950     7.0740   118.0520     8.6160   -29.7190     2.6070     0.1360     0.2220
 2513.5000   -55.4790   -28.3270     7.2440     6.9950     6.9120   117.8370     8.6170   -29.7190     2.6040     0.1440     0.2230
 2514.0000   -55.6090   -28.4840     7.3420     6.8960     6.7510   117.6250     8.6170   -29.7190     2.6010     0.1520     0.2240
 2514.5000   -55.7390   -28.6410     7.4410     6.7960     6.5900   117.3780     8.6180   -29.7190     2.5990     0.1530     0.2250
 2515.0000   -55.8700   -28.7980     7.5120     6.6640     6.4290   119.3930     8.6180   -29.7190     2.5960     0.1470     0.2240
 2515.5000   -56.0000   -28.9550     7.1560     6.4500     6.2680   122.7000     8.6190   -29.7190     2.5940     0.1390     0.2260
 2516.0000   -56.1300   -29.1130     6.8780     6.2350     6.1070   126.0240     8.6190   -29.7190     2.5960     0.1290     0.2290
 2516.5000   -56.2620   -29.2700     6.6000     6.0210     5.9460   129.4200     8.6200   -29.7190     2.6030     0.1390     0.2190
 2517.0000   -56.3980   -29.4270     6.3220     5.8060     5.7850   130.7300     8.6200   -29.7190     2.6090     0.1590     0.2180
 2517.5000   -56.2280   -29.5840     6.0180     5.4870     5.5890   129.7160     8.6200   -29.7190     2.6120     0.1450     0.2170
 2518.0000   -56.0120   -29.7410     6.2610     5.6000     5.6770   128.3410     8.6020   -29.7190     2.6110     0.1220     0.2150
 2518.5000   -55.7930   -29.8770     6.6030     5.8200     5.8470   127.5460     8.5830   -29.7190     2.6100     0.1190     0.2130
 2519.0000   -55.5740   -29.9480     6.9440     6.0400     6.0170   127.1300     8.5650   -29.7190     2.6100     0.1150     0.2070
 2519.5000   -55.3550   -30.0180     7.2860     6.9060     8.1760   123.1830     8.5460   -29.7190     2.6140     0.1370     0.1880
 2520.0000   -55.1360   -30.0890     7.5120    12.7320    14.3390   112.0830     8.5280   -29.7190     2.6180     0.1740     0.1680
 2520.5000   -54.9180   -30.1600     6.9730    18.5580    20.5010    93.0490     8.5100   -29.7190     2.6490     0.1940     0.1490
 2521.0000   -54.7000   -30.2300     6.5600    24.7350    24.5070    74.0060     8.4910   -29.7190     2.6850     0.1720     0.1460
 2521.5000   -54.4700   -30.3010     6.1300    21.7340    24.7350    56.3910     8.4730   -29.7190     2.7220     0.1550     0.1490
 2522.0000   -54.5570   -30.3710     6.0580    16.0560    17.6520    56.3500     8.4610   -29.7190     2.7360     0.1440     0.1700
 2522.5000   -54.7670   -30.4420     6.0360    10.1310    11.5300    75.3680     8.4650   -29.7190     2.7050     0.1600     0.1910
 2523.0000   -54.9820   -30.5130     6.0150     6.3390     6.4180    96.9700     8.4690   -29.7190     2.6760     0.1760     0.2130
 2523.5000   -55.1960   -30.5830     5.9940     6.0740     6.0740   118.7160     8.4730   -29.7190     2.6480     0.1880     0.2310
 2524.0000   -55.4110   -30.6540     5.9720     6.2790     6.2540   125.7690     8.4780   -29.6650     2.6350     0.1780     0.2310
 2524.5000   -55.6250   -30.7240     5.9510     6.5410     6.5610   126.2270     8.4820   -29.6040     2.6250     0.1610     0.2240
 2525.0000   -55.8400   -30.7950     5.9290     6.8020     6.8680   122.7990     8.4860   -29.5430     2.6140     0.1350     0.2170
 2525.5000   -56.0540   -30.8660     5.9080     7.0640     7.1750   119.6800     8.4900   -29.4830     2.6030     0.1000     0.2100
 2526.0000   -56.2680   -30.9360     6.2270     7.3260     7.4820   116.5030     8.4940   -29.4220     2.5950     0.0740     0.2040
