~VERSION INFORMATION
 VERS.                2.0:   CWLS LOG ASCII STANDARD - VERSION 2.0
 WRAP.                 NO:   ONE LINE PER DEPTH STEP
~WELL INFORMATION
#MNEM.UNIT      DATA TYPE    INFORMATION
#----------   ------------   ------------------------------
 STRT.F          794.0000:   START DEPTH
 STOP.F         2828.0000:   STOP DEPTH
 STEP.F            0.5000:   STEP LENGTH
 NULL.          -999.2500:   NO VALUE
 COMP.           U S NAVY:   COMPANY
 WELL. U S NAVY NPR 3 "A" #10-33:   WELL
 FLD .        TEAPOT DOME:   FIELD
 LOC .      S33 T39N R78W:   LOCATION
 CNTY.            NATRONA:   COUNTY
 STAT.            WYOMING:   STATE
 CTRY. UNITED STATES OF AMERICA:   COUNTRY
 SRVC.         MCCULLOUGH:   SERVICE COMPANY
 DATE.        25-JUL-1968:   LOGDATE
 API .     49025102180000:   API NUMBER
~CURVE INFORMATION
#MNEM.UNIT       API CODE    CURVE DESCRIPTION
#----------   ------------   ------------------------------
 DEPT.F                  :   
 GRN .GAPI   35 310 01 00:   GAMMA RAY
 NEUT.NAPI   35 330 01 00:   NEUTRON
 TEMP.DEG    99 000 00 00:   TEMPERATURE AT TOOL
~PARAMETER INFORMATION
#MNEM.UNIT          VALUE    DESCRIPTION
#----------   ------------   ------------------------------
 EKB .F            0.0000:   Kelly bushing
 EGL .F            0.0000:   Ground level
 EDF .F            0.0000:   Drilling floor
 EPD .F            0.0000:   Permanent datum
 TD  .F         2829.0000:   Total depth
 DATE.        25-JUL-1968:   Date logged
 CLNT.            A2DTECH:   Client Code
 DL  .F              2829:   Depth logger
 BLI .F              2825:   Bottom log interval
 TLI .F               800:   Top log interval
 DFT .                DRY:   Type fluid in hole
 TCS .HRS               2:   Time Circ. stopped
 ENGI.           KIMBERRY:   Recorded By
 ORIG.        2" 5" PRINT:   Origin of data
 UWI .     49025102180000:   Unique Well ID
 DICO. A2D TECHNOLOGIES, INC.:   Digitizing Company
~OTHER INFORMATION
~A   DEPT       GRN      NEUT       TEMP   
# ...
 1067.0000    62.2700   508.8230  -999.2500
 1067.5000    62.2540   502.8800  -999.2500
 1068.0000    61.7280   495.7620  -999.2500
 1068.5000    61.3590   499.3820  -999.2500
 1069.0000    62.4610   499.7190  -999.2500
 1069.5000    62.5220   499.9550  -999.2500
 1070.0000    61.3770   508.8870  -999.2500
 1070.5000    61.1870   514.0860  -999.2500
 1071.0000    61.0130   514.5790  -999.2500
 1071.5000    61.6610   516.4330  -999.2500
 1072.0000    62.5430   515.6150  -999.2500
 1072.5000    62.1960   525.5110  -999.2500
 1073.0000    61.5620   531.4210  -999.2500
 1073.5000    61.8880   523.7000  -999.2500
 1074.0000    62.2630   506.2240  -999.2500
 1074.5000    62.3600   501.9350  -999.2500
 1075.0000    61.4850   508.1470  -999.2500
 1075.5000    61.0440   513.5810  -999.2500
 1076.0000    60.4900   515.8080  -999.2500
 1076.5000    59.9170   525.2180  -999.2500
 1077.0000    58.0220   529.8450  -999.2500
 1077.5000    56.6030   524.0680  -999.2500
 1078.0000    58.9620   508.6720  -999.2500
 1078.5000    59.4860   501.7610  -999.2500
 1079.0000    60.1900   499.0830  -999.2500
 1079.5000    59.1430   507.9520  -999.2500
 1080.0000    60.0090   474.8710  -999.2500
 1080.5000    60.8700   478.5020  -999.2500
 1081.0000    59.7580   478.6020  -999.2500
 1081.5000    59.7540   480.8360  -999.2500
 1082.0000    61.4760   477.3050  -999.2500
 1082.5000    62.3130   493.4600  -999.2500
 1083.0000    63.6930   496.6170  -999.2500
 1083.5000    65.9870   504.7930  -999.2500
 1084.0000    68.6400   506.4680  -999.2500
 1084.5000    69.5250   505.4250  -999.2500
 1085.0000    64.9280   503.7140  -999.2500
 1085.5000    62.7830   506.3310  -999.2500
 1086.0000    61.8490   509.6510  -999.2500
 1086.5000    63.3310   501.4350  -999.2500
 1087.0000    58.0480   505.4140  -999.2500
 1087.5000    58.2520   513.5120  -999.2500
 1088.0000    59.1120   511.8180  -999.2500
 1088.5000    59.9940   505.3740  -999.2500
 1089.0000    60.6220   510.5940  -999.2500
 1089.5000    60.7780   516.6920  -999.2500
 1090.0000    60.9310   509.9210  -999.2500
 1090.5000    61.5200   520.0850  -999.2500
 1091.0000    61.7700   511.6170  -999.2500
 1091.5000    64.9710   503.4640  -999.2500
 1092.0000    68.5350   496.6430  -999.2500
 1092.5000    70.7980   495.9430  -999.2500
 1093.0000    73.4300   499.8420  -999.2500
 1093.5000    76.3410   504.8450  -999.2500
 1094.0000    81.7120   509.8660  -999.2500
 1094.5000    88.8920   514.8750  -999.2500
 1095.0000    95.1150   519.8710  -999.2500
 1095.5000   103.4500   524.7600  -999.2500
 1096.0000   100.2520   537.5660  -999.2500
 1096.5000    92.9830   545.6780  -999.2500
 1097.0000    86.2080   552.4830  -999.2500
 1097.5000    80.2760   559.2470  -999.2500
 1098.0000    72.4810   566.0490  -999.2500
 1098.5000    66.9400   574.7790  -999.2500
 1099.0000    65.0320   587.4030  -999.2500
 1099.5000    65.8360   601.0710  -999.2500
 1100.0000    64.7560   629.1780  -999.2500
 1100.5000    61.9260   675.0120  -999.2500
 1101.0000    62.8450   700.7170  -999.2500
 1101.5000    64.0480   731.4880  -999.2500
 1102.0000    64.6730   761.4920  -999.2500
 1102.5000    64.9660   697.4070  -999.2500
 1103.0000    65.8410   687.1540  -999.2500
 1103.5000    66.4960   642.6500  -999.2500
 1104.0000    67.2670   580.6000  -999.2500
 1104.5000    68.4740   516.8560  -999.2500
 1105.0000    68.3410   484.0630  -999.2500
 1105.5000    68.0290   493.6010  -999.2500
 1106.0000    67.4360   500.0270  -999.2500
 1106.5000    67.1910   500.5750  -999.2500
 1107.0000    67.1460   494.3140  -999.2500
 1107.5000    68.0850   488.0650  -999.2500
 1108.0000    67.7510   482.4700  -999.2500
 1108.5000    66.0390   493.7180  -999.2500
 1109.0000    64.1240   489.4360  -999.2500
 1109.5000    62.2840   484.2220  -999.2500
 1110.0000    66.0230   481.6350  -999.2500
 1110.5000    68.9060   495.8600  -999.2500
 1111.0000    70.1350   498.6670  -999.2500
 1111.5000    70.7350   496.8400  -999.2500
 1112.0000    71.6830   502.8130  -999.2500
 1112.5000    71.9540   489.9140  -999.2500
 1113.0000    70.1270   482.9030  -999.2500
 1113.5000    72.2580   498.8310  -999.2500
 1114.0000    75.2950   504.4440  -999.2500
 1114.5000    79.0700   487.1460  -999.2500
 1115.0000    83.6960   483.2400  -999.2500
 1115.5000    88.2970   487.2760  -999.2500
 1116.0000    92.7410   480.0980  -999.2500
 1116.5000    99.1200   463.7330  -999.2500
 1117.0000   102.8180   478.1190  -999.2500
 1117.5000   103.1970   498.8660  -999.2500
 1118.0000   100.8580   515.4660  -999.2500
 1118.5000    98.2600   516.9130  -999.2500
 1119.0000    97.4190   518.3890  -999.2500
 1119.5000    89.9590   526.2860  -999.2500
 1120.0000    81.4440   565.5100  -999.2500
 1120.5000    72.9610   549.2530  -999.2500
 1121.0000    67.3110   581.8630  -999.2500
 1121.5000    67.2030   589.7590  -999.2500
 1122.0000    68.5360   626.0830  -999.2500
 1122.5000    70.5660   692.5490  -999.2500
 1123.0000    72.2670   728.5840  -999.2500
 1123.5000    71.9280   759.2110  -999.2500
 1124.0000    67.9800   785.1990  -999.2500
 1124.5000    66.8830   744.5060  -999.2500
 1125.0000    67.2950   707.7890  -999.2500
 1125.5000    67.7800   678.2590  -999.2500
 1126.0000    67.3570   639.6390  -999.2500
 1126.5000    65.4480   563.0250  -999.2500
 1127.0000    64.5340   484.0080  -999.2500
 1127.5000    65.1430   482.1940  -999.2500
 1128.0000    65.7380   498.3460  -999.2500
 1128.5000    64.9540   484.9510  -999.2500
 1129.0000    64.9530   475.6840  -999.2500
 1129.5000    64.7180   478.9980  -999.2500
 1130.0000    64.0090   475.1820  -999.2500
 1130.5000    63.6970   477.8120  -999.2500
 1131.0000    63.2420   474.9210  -999.2500
 1131.5000    62.7160   478.8570  -999.2500
 1132.0000    61.8780   488.7490  -999.2500
 1132.5000    59.2170   493.6600  -999.2500
 1133.0000    58.9070   496.6610  -999.2500
 1133.5000    61.6890   499.1330  -999.2500
 1134.0000    63.5730   496.5100  -999.2500
 1134.5000    65.4600   508.2890  -999.2500
 1135.0000    67.2420   527.9440  -999.2500
 1135.5000    67.6840   541.2470  -999.2500
 1136.0000    65.4850   545.4100  -999.2500
 1136.5000    65.8750   541.0610  -999.2500
 1137.0000    64.8820   523.6230  -999.2500
 1137.5000    67.0260   508.1270  -999.2500
 1138.0000    69.0220   509.7820  -999.2500
 1138.5000    68.3790   506.4510  -999.2500
 1139.0000    69.1920   501.2160  -999.2500
 1139.5000    74.2800   508.3890  -999.2500
 1140.0000    76.7040   492.6080  -999.2500
 1140.5000    76.9680   501.9850  -999.2500
 1141.0000    79.0660   511.6740  -999.2500
 1141.5000    83.7300   518.1330  -999.2500
 1142.0000    80.1540   513.7090  -999.2500
 1142.5000    72.2180   514.5300  -999.2500
 1143.0000    65.5750   527.7070  -999.2500
 1143.5000    64.1520   543.2790  -999.2500
 1144.0000    62.7270   543.9990  -999.2500
 1144.5000    61.4470   547.1400  -999.2500
 1145.0000    60.5360   554.9820  -999.2500
 1145.5000    61.6750   556.6490  -999.2500
 1146.0000    62.9020   574.3560  -999.2500
 1146.5000    63.1680   600.1700  -999.2500
 1147.0000    62.8170   617.7890  -999.2500
 1147.5000    63.3000   638.2610  -999.2500
 1148.0000    63.5200   658.3530  -999.2500
 1148.5000    63.1730   616.7420  -999.2500
 1149.0000    64.6550   558.5270  -999.2500
 1149.5000    64.5330   505.7580  -999.2500
 1150.0000    65.8150   492.7030  -999.2500
 1150.5000    66.8090   531.9400  -999.2500
 1151.0000    66.5550   524.0190  -999.2500
 1151.5000    65.6080   519.5080  -999.2500
 1152.0000    63.9050   512.4820  -999.2500
 1152.5000    63.5190   493.5930  -999.2500
 1153.0000    63.9640   497.5510  -999.2500
 1153.5000    65.7540   503.2520  -999.2500
 1154.0000    65.5740   502.3170  -999.2500
 1154.5000    64.4960   506.2220  -999.2500
 1155.0000    65.2880   503.8030  -999.2500
 1155.5000    66.0120   497.5900  -999.2500
 1156.0000    66.1140   491.0880  -999.2500
 1156.5000    65.9090   494.9110  -999.2500
 1157.0000    65.5570   504.4700  -999.2500
 1157.5000    66.1370   514.6270  -999.2500
