~VERSION INFORMATION
 VERS.                2.0:   CWLS LOG ASCII STANDARD - VERSION 2.0
 WRAP.                 NO:   ONE LINE PER DEPTH STEP
~WELL INFORMATION
#MNEM.UNIT      DATA TYPE    INFORMATION
#----------   ------------   ------------------------------
 STRT.F          502.0000:   START DEPTH
 STOP.F         4210.0000:   STOP DEPTH
 STEP.F            0.5000:   STEP LENGTH
 NULL.          -999.2500:   NO VALUE
 COMP.   FENIX & SCISSION:   COMPANY
 WELL. FENIX NPR 3 "JX" #43-34:   WELL
 FLD .              N P R:   FIELD
 LOC .      S34 T39N R78W:   LOCATION
 CNTY.            NATRONA:   COUNTY
 STAT.            WYOMING:   STATE
 CTRY. UNITED STATES OF AMERICA:   COUNTRY
 SRVC.              WELEX:   SERVICE COMPANY
 DATE.        05-FEB-1979:   LOGDATE
 API .     49025107690000:   API NUMBER
~CURVE INFORMATION
#MNEM.UNIT       API CODE    CURVE DESCRIPTION
#----------   ------------   ------------------------------
 DEPT.F                  :   
 TENR.LBS    07 635 01 00:   TENSION FROM RESISTIVITY
 SPR .MV     07 010 01 00:   SPONTANEOUS POTENTIAL
 SFL .OHMM   07 220 01 00:   SHALLOW FOCUSED LOG RESISTIVITY
 ILD .OHMM   07 120 46 00:   DEEP INDUCTION RESISTIVITY
 ILM .OHMM   07 120 44 00:   INDUCTION LOG MEDIUM RESISTIVITY
 TEND.LBS    45 635 01 00:   TENSION FROM DENSITY LOG
 CALD.IN     45 280 60 00:   CALIPER FROM DENSITY LOG
 GRD .GAPI   45 310 01 00:   GAMMA RAY FROM DENSITY LOG
 CORR.G/C3   45 356 01 00:   DENSITY CORRECTION
 NPHI.DEC    42 890 03 00:   NEUTRON POROSITY SANDSTONE
 RHOB.G/C3   45 350 01 00:   BULK DENSITY
~PARAMETER INFORMATION
#MNEM.UNIT          VALUE    DESCRIPTION
#----------   ------------   ------------------------------
 EKB .F         5108.0000:   Kelly bushing
 EGL .F         5098.0000:   Ground level
 TD  .F         4204.0000:   Total depth
 DATE.        05-FEB-1979:   Date logged
 CLNT.            A2DTECH:   Client Code
 SL  . 1627' FNL & 2110' FWL:   Surface Location
 PD  .                 GL:   Permanent Datum
 DD  .F              4200:   Depth driller
 DL  .F              4204:   Depth logger
 BLI .F              4202:   Bottom log interval
 CS1 .IN            8.625:   Casing size
 CBD1.      8.625" @ 506':   Casing driller 1
 CBL1.F               506:   Casing logger 1
 BS1 .IN            7.875:   Bit size
 DFT .           CHEM/GEL:   Type fluid in hole
 DFD .                9.2:   Density
 DFV .                 55:   Viscosity
 DFPH.                9.5:   pH
 DFL .                5.7:   Fluid loss
 MSS .            MUD/PIT:   Source of sample
 RMS .OHMM            1.1:   Rm
 MST .F                52:   Rm Meas. temp.
 RMF .OHMM            .45:   Rmf
 MFST.F                52:   Rmf Meas. temp.
 RMC .OHMM            1.8:   Rmc
 MCST.F                52:   Rmc Meas. temp.
 MFSS.               MEAS:   Source Rmf.
 RMB .OHMM           5.06:   Rm. at BHT
 BHT .F               128:   BHT.
 TCS .HRS               8:   Time Circ. stopped
 MRT .F               128:   Maximum recorded temp.
 LUN .               9685:   Logging unit number
 LUL .             CASPER:   Logging unit location
 ENGI.        KEIN/JOINER:   Recorded By
 WITN.        J. DINSMORE:   Witnessed by
 ORIG.           5" PRINT:   Origin of data
 UWI .     49025107690000:   Unique Well ID
 DICO. A2D TECHNOLOGIES, INC.:   Digitizing Company
 DAPD.F                10:   Feet Above Permanent Datum
 BSD1.F              4200:   Depth drilled with bit1
 MCSS.               MEAS:   Source Rmc.
 EPD .F              5098:   Elevation Permanent Datum
 LMF .                 KB:   Log Measured From
 DMF .                 KB:   Drilling Measured From
 TLI .F               500:   Top log interval
~OTHER INFORMATION
~A   DEPT     TENR        SPR        SFL        ILD        ILM        TEND        CALD       GRD        CORR       NPHI       RHOB 
# ...
 2210.0000  1140.0000   -54.1180     4.6500     3.3980     3.1640  1216.7000     8.8590   170.5590     0.0460     0.3210     2.4390
 2210.5000  1140.0000   -54.1350     5.8750     3.4440     3.2030  1216.8440     8.8520   166.8100     0.0530     0.3220     2.4120
 2211.0000  1140.0000   -54.1520     5.8750     3.4150     3.2410  1216.9880     8.8450   166.0720     0.0630     0.3240     2.3730
 2211.5000  1140.0000   -54.1700     4.9500     3.3810     3.2790  1217.1310     8.8390   165.0200     0.0670     0.3250     2.3560
 2212.0000  1140.0000   -54.1870     4.1400     3.4870     3.3170  1217.2750     8.8320   164.0540     0.0770     0.3270     2.3430
 2212.5000  1140.0000   -54.2040     4.3990     3.6040     3.3550  1217.4189     8.8250   160.1520    -0.0200     0.3260     2.3630
 2213.0000  1140.0000   -54.2210     5.2570     3.7200     3.3930  1217.5630     8.8200   158.3340    -0.0080     0.3180     2.3650
 2213.5000  1140.0000   -54.2380     6.2090     3.8370     3.4310  1217.7061     8.8200   161.1320    -0.0030     0.3120     2.3800
 2214.0000  1140.0000   -54.2550     6.0130     3.9540     3.4690  1217.8500     8.8200   163.7920     0.0080     0.3070     2.3990
 2214.5000  1140.0000   -54.2730     5.7680     3.9910     3.5070  1217.9940     8.8200   164.6130     0.0110     0.3080     2.4080
 2215.0000  1140.0000   -54.2900     5.9720     3.9910     3.5450  1218.1370     8.8200   162.7390     0.0140     0.3100     2.3950
 2215.5000  1140.0000   -54.3070     6.3250     3.9910     3.5730  1218.2810     8.8200   162.7020     0.0210     0.3120     2.3860
 2216.0000  1140.0000   -54.3240     6.1440     3.9910     3.5730  1218.4250     8.8200   160.4060     0.0280     0.3140     2.3820
 2216.5000  1140.0000   -54.3410     5.5590     3.9910     3.5730  1218.5690     8.8200   158.0900     0.0340     0.3160     2.3470
 2217.0000  1140.0000   -54.3580     5.6200     3.9910     3.5730  1218.7120     8.8200   155.7350     0.0400     0.3180     2.3220
 2217.5000  1140.0000   -54.3770     5.7520     3.9180     3.5730  1218.8560     8.8200   153.2310     0.0480     0.3200     2.2870
 2218.0000  1140.0000   -54.3740     5.8750     3.6390     3.5730  1219.0000     8.8200   153.3720     0.0300     0.3220     2.2920
 2218.5000  1140.0000   -54.3570     5.0440     3.6590     3.5730  1219.1429     8.8220   155.4610    -0.0060     0.3190     2.3570
 2219.0000  1140.0000   -54.3410     4.2960     3.7360     3.5730  1219.2870     8.8600   154.6100    -0.0100     0.3160     2.3850
 2219.5000  1140.0000   -54.3250     4.9370     3.8130     3.5730  1219.4310     8.9000   153.5310     0.0090     0.3130     2.3810
 2220.0000  1140.0000   -54.3090     5.9280     3.8900     3.5730  1219.5750     8.9400   153.8290     0.0170     0.3110     2.3720
 2220.5000  1140.0000   -54.2930     6.6840     3.9320     3.5540  1219.7180     8.9780   155.0440     0.0200     0.3090     2.3640
 2221.0000  1140.0000   -54.2760     6.3800     3.9550     3.5360  1219.8621     8.9760   156.4960     0.0240     0.3120     2.3610
 2221.5000  1140.0000   -54.2600     5.5590     3.9910     3.5180  1220.0060     8.9730   157.2710     0.0330     0.3150     2.3570
 2222.0000  1140.0000   -54.2440     5.5590     3.8630     3.4440  1220.1490     8.9680   157.1520     0.0420     0.3170     2.3460
 2222.5000  1140.0000   -54.2280     5.5590     3.5080     3.3860  1220.2930     8.9640   157.2460     0.0450     0.3200     2.3090
 2223.0000  1140.0000   -54.2120     5.1910     3.4730     3.3300  1220.4370     8.9600   157.2910     0.0410     0.3240     2.2670
 2223.5000  1140.0000   -54.1960     4.7420     3.3900     3.2740  1220.5811     8.9560   158.6660     0.0540     0.3240     2.2740
 2224.0000  1140.0000   -54.1800     4.2960     3.3070     3.2180  1220.7240     8.9520   156.0750     0.0580     0.3190     2.2590
 2224.5000  1140.0000   -54.1640     3.9660     3.2240     3.1620  1220.8680     8.9480   154.6670     0.0090     0.3130     2.2880
 2225.0000  1140.0000   -54.1480     3.6390     3.1410     3.1060  1221.0120     8.9440   153.8140    -0.0210     0.3040     2.3940
 2225.5000  1140.0000   -54.1320     3.9120     3.2490     3.0830  1221.1560     8.9400   152.7920     0.0000     0.2960     2.4110
 2226.0000  1140.0000   -54.1160     4.1840     3.3560     3.0830  1221.2990     8.9400   151.8080     0.0150     0.2920     2.4050
 2226.5000  1140.0000   -54.1000     5.9850     3.4440     3.0830  1221.4430     8.9400   150.8880     0.0230     0.2900     2.3870
 2227.0000  1140.0000   -54.0840     5.7680     3.3840     3.0830  1221.5870     8.9400   151.2910     0.0280     0.2910     2.3730
 2227.5000  1140.0000   -54.0680     6.0960     3.2590     2.9610  1221.7300     8.9400   152.3680     0.0350     0.2920     2.3590
 2228.0000  1140.3760   -54.0520     5.5440     3.1310     2.8360  1221.8740     8.9400   154.3770     0.0360     0.2910     2.3420
 2228.5000  1140.8590   -54.0360     4.3760     2.9680     2.7110  1222.0179     8.9400   156.5230     0.0380     0.2880     2.3360
 2229.0000  1141.3409   -54.0190     3.4350     2.8290     2.5870  1222.1620     8.9400   156.3800     0.0350     0.2830     2.3470
 2229.5000  1141.8240   -54.0040     2.9720     2.7330     2.4620  1222.3051     8.9400   154.6430     0.0320     0.2790     2.3440
 2230.0000  1142.3060   -53.9860     2.9990     2.6370     2.3820  1222.4490     8.9400   152.9980     0.0290     0.2800     2.3750
 2230.5000  1142.7889   -53.9840     3.0220     2.5410     2.4180  1222.5930     8.9400   151.4370     0.0240     0.2810     2.3660
 2231.0000  1143.2710   -53.9840     3.1410     2.5040     2.4560  1222.7360     8.9400   151.1070     0.0250     0.2830     2.3490
 2231.5000  1143.7540   -53.9840     4.2600     2.4850     2.5180  1222.8800     8.9400   154.5030     0.0290     0.2900     2.3440
 2232.0000  1144.2371   -53.9840     4.1880     2.4660     2.4950  1223.0240     8.9400   156.3960     0.0330     0.3000     2.3480
 2232.5000  1144.7190   -53.9840     4.0440     2.4480     2.4300  1223.1680     8.9400   157.5390     0.0380     0.3010     2.3250
 2233.0000  1145.2020   -53.9840     3.9010     2.4290     2.3640  1223.3110     8.9400   158.9500     0.0360     0.2980     2.3010
 2233.5000  1145.6840   -53.9860     3.7760     2.4100     2.2980  1223.4550     8.9400   160.6930     0.0300     0.2960     2.3220
 2234.0000  1146.1670   -54.0160     2.7610     2.3820     2.2540  1223.5990     8.9400   161.8810     0.0250     0.3030     2.3460
 2234.5000  1146.6490   -54.0480     2.8310     2.4090     2.2990  1223.7419     8.9400   161.2170     0.0200     0.3020     2.3820
 2235.0000  1147.1320   -54.0810     2.9630     2.4580     2.3840  1223.8860     8.9400   160.5340     0.0260     0.3050     2.3900
 2235.5000  1147.6150   -54.1130     3.3860     2.5080     2.4690  1224.0300     8.9400   162.7710     0.0310     0.2990     2.3800
 2236.0000  1148.0970   -54.1450     4.1400     2.5570     2.5540  1224.1740     8.9400   165.3600     0.0330     0.2970     2.3670
 2236.5000  1148.5800   -54.1770     3.9430     2.6070     2.6390  1224.3170     8.9400   165.7510     0.0160     0.2940     2.3740
 2237.0000  1149.0620   -54.2090     3.7260     2.6610     2.7230  1224.4611     8.9400   165.0370     0.0010     0.3000     2.3930
 2237.5000  1149.5450   -54.2410     3.4440     2.8850     2.8080  1224.6050     8.9400   162.8680    -0.0160     0.3070     2.3890
 2238.0000  1150.0270   -54.2730     3.9160     3.1330     2.8930  1224.7480     8.9400   162.6790    -0.0180     0.3080     2.4030
 2238.5000  1150.5100   -54.3050     5.4580     3.2800     2.9780  1224.8920     8.9400   161.9640    -0.0120     0.3110     2.4140
 2239.0000  1150.9930   -54.3370     5.3910     3.3240     3.0630  1225.0360     8.9410   161.1520    -0.0050     0.3140     2.4040
 2239.5000  1151.4750   -54.3700     5.1580     3.3670     3.1410  1225.1801     8.9470   159.2880    -0.0100     0.3140     2.3940
 2240.0000  1151.9580   -54.4020     4.9250     3.5260     3.2240  1225.3230     8.9530   157.9970    -0.0220     0.3120     2.3950
