~VERSION INFORMATION
 VERS.                2.0:   CWLS LOG ASCII STANDARD - VERSION 2.0
 WRAP.                 NO:   ONE LINE PER DEPTH STEP
~WELL INFORMATION
#MNEM.UNIT      DATA TYPE    INFORMATION
#----------   ------------   ------------------------------
 STRT.F          417.0000:   START DEPTH
 STOP.F         4133.0000:   STOP DEPTH
 STEP.F            0.5000:   STEP LENGTH
 NULL.          -999.2500:   NO VALUE
 COMP.    FENIX & SCISSON:   COMPANY
 WELL. FENIX  "LX" #18-11:   WELL
 FLD .              NPR 3:   FIELD
 LOC .      S11 T38N R78W:   LOCATION
 CNTY.            NATRONA:   COUNTY
 STAT.            WYOMING:   STATE
 CTRY. UNITED STATES OF AMERICA:   COUNTRY
 SRVC.       SCHLUMBERGER:   SERVICE COMPANY
 DATE.        14-JAN-1978:   LOGDATE
 API .     49025105590000:   API NUMBER
~CURVE INFORMATION
#MNEM.UNIT       API CODE    CURVE DESCRIPTION
#----------   ------------   ------------------------------
 DEPT.F                  :   
 SPR .MV     07 010 01 00:   SPONTANEOUS POTENTIAL
 SFL .OHMM   07 220 01 00:   SHALLOW FOCUSED LOG RESISTIVITY
 ILD .OHMM   07 120 46 00:   DEEP INDUCTION RESISTIVITY
 ILM .OHMM   07 120 44 00:   INDUCTION LOG MEDIUM RESISTIVITY
 CALD.IN     45 280 60 00:   CALIPER FROM DENSITY LOG
 GRD .GAPI   45 310 01 00:   GAMMA RAY FROM DENSITY LOG
 RHOB.G/C3   45 350 01 00:   BULK DENSITY
 CORR.G/C3   45 356 01 00:   DENSITY CORRECTION
 NPHI.DEC    42 890 03 00:   NEUTRON POROSITY SANDSTONE
~PARAMETER INFORMATION
#MNEM.UNIT          VALUE    DESCRIPTION
#----------   ------------   ------------------------------
 EKB .F         5220.0000:   Kelly bushing
 EGL .F         5210.0000:   Ground level
 EDF .F            0.0000:   Drilling floor
 TD  .F         4125.0000:   Total depth
 DATE.        14-JAN-1978:   Date logged
 CLNT.            A2DTECH:   Client Code
 SL  . 330' FSL & 530' FWL:   Surface Location
 PD  .                 GL:   Permanent Datum
 EPD .F              5210:   Elevation Permanent Datum
 LMF .                 KB:   Log Measured From
 DMF .                 KB:   Drilling Measured From
 DAPD.F                10:   Feet Above Permanent Datum
 DD  .F              4125:   Depth driller
 DL  .F              4121:   Depth logger
 BLI .F              4116:   Bottom log interval
 TLI .F               427:   Top log interval
 CS1 .IN            8.625:   Casing size
 CBD1.      8.625" @ 513':   Casing driller 1
 CBL1.F               427:   Casing logger 1
 BS1 .IN            7.875:   Bit size
 BSD1.F              4125:   Depth drilled with bit1
 DFT .                KCL:   Type fluid in hole
 DFD .                8.8:   Density
 DFV .                 40:   Viscosity
 DFPH.                 12:   pH
 DFL .                7.4:   Fluid loss
 MSS .           MUD TANK:   Source of sample
 RMS .OHMM           .418:   Rm
 MST .F                60:   Rm Meas. temp.
 RMF .OHMM           .343:   Rmf
 MFST.F                60:   Rmf Meas. temp.
 MFSS.               MEAS:   Source Rmf.
 RMB .OHMM            .20:   Rm. at BHT
 BHT .F               123:   BHT.
 TCS .HRS            0600:   Time Circ. stopped
 TLAB.HRS            0845:   Time logger at bottom
 MRT .F               123:   Maximum recorded temp.
 LUN .               8035:   Logging unit number
 LUL .               CSPR:   Logging unit location
 ENGI.             MARTIN:   Recorded By
 WITN.         HARRINGTON:   Witnessed by
 ORIG.      2.5" 5" PRINT:   Origin of data
 UWI .     49025105590000:   Unique Well ID
 DICO. A2D TECHNOLOGIES, INC.:   Digitizing Company
~OTHER INFORMATION
~A   DEPT      SPR        SFL        ILD        ILM       CALD         GRD      RHOB       CORR       NPHI   
# ...
 2388.0000   -28.1440     7.3180     7.1990     6.5630     9.1800   123.4800     2.5130     0.0170     0.3410
 2388.5000   -28.2330     8.4410     7.1990     6.9930     9.1810   127.1120     2.5020     0.0110     0.3380
 2389.0000   -28.3220     9.6890     7.3010     7.2860     9.1820   129.4730     2.4890     0.0050     0.3270
 2389.5000   -28.4110    10.3100     7.4920     7.4700     9.1830   129.8930     2.4870     0.0000     0.3150
 2390.0000   -28.5000    10.4210     7.6800     7.4700     9.1840   130.5610     2.4920     0.0000     0.3100
 2390.5000   -28.5890     9.8920     8.1110     7.4700     9.1850   130.1650     2.5060     0.0020     0.3120
 2391.0000   -28.6780     9.4560     8.5330     7.5750     9.1860   129.7560     2.5190     0.0060     0.3140
 2391.5000   -28.7660     9.0710     8.9880     7.9510     9.1870   128.7480     2.5290     0.0060     0.3150
 2392.0000   -28.8740     9.8700     8.9880     8.3270     9.1870   127.3480     2.5210     0.0060     0.3110
 2392.5000   -29.0790    11.1990     8.9880     8.7040     9.1880   125.6240     2.5080     0.0040     0.3030
 2393.0000   -29.2860    13.0100     9.0400     9.0710     9.1890   123.6850     2.4940     0.0020     0.2930
 2393.5000   -29.4930    12.8790     9.1680     8.9040     9.1900   123.5660     2.4960     0.0000     0.2920
 2394.0000   -29.6970    12.1930     9.2960     8.7420     9.1910   123.4550     2.4990    -0.0020     0.2890
 2394.5000   -29.8280    10.9780     9.4240     8.5790     9.1920   123.5990     2.5040    -0.0010     0.2870
 2395.0000   -29.7780     9.9410     9.5520     8.3470     9.1930   120.5080     2.5070    -0.0010     0.2850
 2395.5000   -29.7320     9.8580     9.6800     8.5160     9.1940   116.2640     2.5150     0.0010     0.2850
 2396.0000   -29.6880    10.3000     9.8080     9.0080     9.1950   112.1260     2.5190     0.0110     0.2940
 2396.5000   -29.6240    12.0770     9.9360     9.4990     9.1950   114.1820     2.5100     0.0130     0.3050
 2397.0000   -29.1960    13.8800    10.0640     9.9900     9.2020   116.2770     2.4930     0.0070     0.3150
 2397.5000   -28.7710    15.2250    10.1920    10.2300     9.2170   114.5750     2.4760     0.0010     0.3110
 2398.0000   -28.3480    14.4030    10.3250    10.2300     9.2310   110.7230     2.4770    -0.0050     0.2960
 2398.5000   -27.9180    12.8860    10.3250    10.2300     9.2450   106.5070     2.4860    -0.0070     0.2810
 2399.0000   -27.8430    11.7520    10.3250     9.8150     9.2600   106.3500     2.4970    -0.0020     0.2810
 2399.5000   -27.8430    12.1350    10.1520     9.3000     9.2750   106.2980     2.4900     0.0030     0.2850
 2400.0000   -27.8440    12.6540     9.4810     8.7840     9.2920   108.2750     2.4720     0.0080     0.2910
 2400.5000   -27.8440    10.9140     8.9050     8.2690     9.3100   110.1980     2.4800     0.0400     0.2970
 2401.0000   -27.9370     9.6630     8.9050     7.7510     9.3290   112.3230     2.4910     0.0840     0.2980
 2401.5000   -28.0980     8.9050     8.9050     7.7510     9.3460   112.2600     2.5010     0.0980     0.3080
 2402.0000   -28.2600     8.9050     8.9050     7.9790     9.3540   108.2600     2.4760     0.0580     0.3170
 2402.5000   -28.4230    11.4300     8.7460     8.1180     9.3600   104.6160     2.4510     0.0150     0.3280
 2403.0000   -28.5850    11.9320     8.5990     7.9200     9.3960   104.9210     2.4420    -0.0030     0.3220
 2403.5000   -28.7470    12.3080     8.4530     7.7510     9.3910   108.4420     2.4600    -0.0040     0.3130
 2404.0000   -28.9090    11.0970     8.1930     7.4460     9.3920   111.6560     2.4810     0.0050     0.3070
 2404.5000   -29.0710     9.6780     7.6240     7.1320     9.3930   116.6020     2.4810     0.0160     0.3070
 2405.0000   -29.2330     8.4410     7.0560     6.8700     9.3920   122.4170     2.4810     0.0260     0.3100
 2405.5000   -29.3950     8.0820     6.5020     6.5160     9.3920   130.6580     2.4810     0.0360     0.3150
 2406.0000   -29.5570     7.7230     6.4430     6.1610     9.3920   141.3250     2.4810     0.0470     0.3200
 2406.5000   -29.7190     6.8100     6.3830     5.9280     9.3920   146.4160     2.4740     0.0640     0.3280
 2407.0000   -29.8820     6.9200     6.9010     5.8740     9.3920   148.0630     2.4580     0.0550     0.3370
 2407.5000   -30.0340     9.2030     7.2960     6.0390     9.3920   143.5930     2.4410     0.0350     0.3410
 2408.0000   -29.9700    12.9240     7.6920     6.8280     9.3920   141.3330     2.4320     0.0200     0.3300
 2408.5000   -29.8990    16.6440     8.0870     7.8900     9.3920   138.2250     2.4340     0.0050     0.3190
 2409.0000   -29.8410    17.9820     8.4830     8.9880     9.3920   136.9530     2.4370     0.0050     0.3100
 2409.5000   -29.8590    17.0120     8.8780     8.9240     9.3920   137.4010     2.4350     0.0060     0.3110
 2410.0000   -29.1290    15.2580     9.2730     8.8580     9.3920   138.9810     2.4270     0.0040     0.3100
 2410.5000   -28.2550    13.5250     9.4130     8.7920     9.3920   143.7920     2.4240    -0.0040     0.3070
 2411.0000   -27.8650    11.7920     8.6130     8.7270     9.3920   151.4390     2.4260    -0.0010     0.3070
 2411.5000   -27.9550    10.0580     7.8870     8.6610     9.3920   158.9390     2.4270     0.0020     0.3070
 2412.0000   -28.0530     8.7420     7.2410     8.1950     9.3920   164.8150     2.4260     0.0010     0.3130
 2412.5000   -28.1510     9.1330     6.6120     7.7310     9.3930   166.2050     2.4240    -0.0040     0.3160
 2413.0000   -28.2480     9.2400     5.9840     7.2670     9.3890   168.8950     2.4290    -0.0070     0.3100
 2413.5000   -28.3450     8.4590     5.3550     6.6200     9.4260   172.9040     2.4480     0.0040     0.2930
 2414.0000   -28.4420     7.0610     4.9270     5.8350     9.5010   174.3150     2.4670     0.0220     0.2980
 2414.5000   -28.5370     5.6620     4.7700     5.0490     9.5710   172.2880     2.4850     0.0380     0.3040
 2415.0000   -28.6550     4.3690     4.6010     4.3610     9.6410   153.3720     2.4870     0.0550     0.3240
 2415.5000   -29.4160     4.3690     4.4320     4.3000     9.7130   140.1680     2.4760     0.0600     0.3380
 2416.0000   -29.6110     4.9800     4.2630     4.2390     9.7810   137.5240     2.4740     0.0580     0.3330
 2416.5000   -29.7770     5.2080     4.1720     4.1780     9.8580   137.5570     2.4760     0.0590     0.3260
 2417.0000   -29.9450     5.0660     4.1720     4.1720     9.8620   137.4550     2.4800     0.0460     0.3370
 2417.5000   -30.1140     5.0660     4.2560     4.1720     9.8640   133.9580     2.4760     0.0300     0.3410
 2418.0000   -30.2840     5.2380     4.3460     4.2440     9.8620   130.7390     2.4960     0.0160     0.3300
 2418.5000   -30.4360     5.4570     4.4360     4.3360     9.8630   129.6960     2.5240     0.0120     0.3180
 2419.0000   -30.4000     5.6080     4.5260     4.4290     9.8630   129.6920     2.5400     0.0100     0.3100
 2419.5000   -30.3620     5.5040     4.6160     4.5210     9.8630   128.1140     2.5360     0.0080     0.3070
 2420.0000   -30.3250     5.4250     4.7050     4.6180     9.8630   125.9520     2.5340     0.0060     0.3040
 2420.5000   -30.2870     5.3460     4.7050     4.6380     9.8630   123.4410     2.5370     0.0040     0.3110
 2421.0000   -30.2530     5.2440     4.7050     4.6620     9.8630   127.4700     2.5380     0.0020     0.3140
 2421.5000   -29.9950     5.1210     4.7050     4.6860     9.8630   136.3610     2.5350     0.0010     0.3120
 2422.0000   -29.6620     4.9970     4.7050     4.7280     9.8630   144.6900     2.5220     0.0010     0.3090
 2422.5000   -29.3260     4.9270     4.7050     4.7480     9.8630   155.0760     2.5130     0.0000     0.3120
 2423.0000   -28.9880     5.0370     4.7050     4.7640     9.8630   161.5420     2.5040     0.0000     0.3180
 2423.5000   -28.6580     5.2630     4.7050     4.8160     9.8620   158.0950     2.5050     0.0030     0.3220
 2424.0000   -28.7670     5.4890     4.7050     4.8680     9.8720   142.2870     2.5100     0.0050     0.3160
