~VERSION INFORMATION
 VERS.                2.0:   CWLS LOG ASCII STANDARD - VERSION 2.0
 WRAP.                 NO:   ONE LINE PER DEPTH STEP
~WELL INFORMATION
#MNEM.UNIT      DATA TYPE    INFORMATION
#----------   ------------   ------------------------------
 STRT.F            0.0000:   START DEPTH
 STOP.F         3964.0000:   STOP DEPTH
 STEP.F            0.5000:   STEP LENGTH
 NULL.          -999.2500:   NO VALUE
 COMP. LAWRENCE ALLISON & ASSOCIATES:   COMPANY
 WELL. LAWRENCE NPR 3 "X" #43-10:   WELL
 FLD .              N P R:   FIELD
 LOC .      S10 T38N R78W:   LOCATION
 CNTY.            NATRONA:   COUNTY
 STAT.            WYOMING:   STATE
 CTRY. UNITED STATES OF AMERICA:   COUNTRY
 SRVC.      DRESSER ATLAS:   SERVICE COMPANY
 DATE.        07-AUG-1985:   LOGDATE
 API .     49025111390000:   API NUMBER
~CURVE INFORMATION
#MNEM.UNIT       API CODE    CURVE DESCRIPTION
#----------   ------------   ------------------------------
 DEPT.F                  :   
 CNC .DEC    42 890 03 00:   NEUTRON PORISITY SANDSTONE
 RHOB.G/C3   45 350 01 00:   BULK DENSITY
 CORR.G/C3   45 356 01 00:   DENSITY CORRECTION
 TEND.LBS    45 635 01 00:   TENSION FROM DENSITY LOG
 GRR .GAPI   07 310 01 00:   GAMMA RAY FROM RESISTIVITY
 CALR.IN     07 280 01 00:   CALIPER FROM RESISTIVITY
 SPR .MV     07 010 01 00:   SPONTANEOUS POTENTIAL
 TENR.LBS    07 635 01 00:   TENSION FROM RESISTIVITY
 RILD.OHMM   07 120 46 00:   DEEP INDUCTION RESISTIVITY
 RILM.OHMM   07 120 44 00:   INDUCTION LOG MEDIUM RESISTIVITY
 RFOC.OHMM   07 220 04 00:   RESISTIVITY FOCUSED LOG RES.
 DT  .US/F   60 520 00 00:   DELTA TIME
 TENS.LBS    60 635 01 00:   TENSION FROM SONIC
~PARAMETER INFORMATION
#MNEM.UNIT          VALUE    DESCRIPTION
#----------   ------------   ------------------------------
 EKB .F         5223.0000:   Kelly bushing
 EGL .F         5211.0000:   Ground level
 EDF .F            0.0000:   Drilling floor
 EPD .F         5211.0000:   Permanent datum
 TD  .F         3950.0000:   Total depth
 DATE.        07-AUG-1985:   Date logged
 CLNT.            A2DTECH:   Client Code
 SL  . 2016' FNL & 2230' FWL:   Surface Location
 PD  .                 GL:   Permanent Datum
 DD  .F              3950:   Depth driller
 DL  .F              3950:   Depth logger
 BLI .F              3948:   Bottom log interval
 CS1 .IN            8.625:   Casing size
 CBD1.      8.625" @ 518':   Casing driller 1
 CBL1.F               520:   Casing logger 1
 BS1 .IN            7.875:   Bit size
 DFT .            KCL-GEL:   Type fluid in hole
 DFD .                8.9:   Density
 DFV .                 40:   Viscosity
 DFPH.                  9:   pH
 DFL .                 12:   Fluid loss
 MSS .           FLOWLINE:   Source of sample
 RMS .OHMM           .318:   Rm
 MST .F                82:   Rm Meas. temp.
 RMF .OHMM            .24:   Rmf
 MFST.F                82:   Rmf Meas. temp.
 RMC .OHMM            .40:   Rmc
 MCST.F                82:   Rmc Meas. temp.
 MFSS.               CALC:   Source Rmf.
 RMB .OHMM            .19:   Rm. at BHT
 BHT .F               140:   BHT.
 TCS .HRS               4:   Time Circ. stopped
 MRT .F               140:   Maximum recorded temp.
 LUN .               6264:   Logging unit number
 LUL .               GLTE:   Logging unit location
 ENGI.           FAHLSING:   Recorded By
 WITN.             STRONG:   Witnessed by
 ORIG.           5" PRINT:   Origin of data
 UWI .     49025111390000:   Unique Well ID
 DICO. A2D TECHNOLOGIES, INC.:   Digitizing Company
 DAPD.                 12:   Feet Above Permanent Datum
 BSD1.               3950:   Depth drilled with bit1
 MCSS.               CALC:   Source Rmc.
~OTHER INFORMATION
~A    DEPT     CNC       RHOB       CORR       TEND         GRR      CALR        SPR       TENR       RILD       RILM       RFOC         DT       TENS   
# ...
 1664.0000  -999.2500  -999.2500  -999.2500  -999.2500   111.4950     9.7230   -83.0120   -63.3460     6.0060     5.8000     6.4340  -999.2500  -999.2500
 1664.5000  -999.2500  -999.2500  -999.2500  -999.2500   111.6980     9.7230   -83.0600   -63.0070     6.0370     5.8450     6.5040  -999.2500  -999.2500
 1665.0000  -999.2500  -999.2500  -999.2500  -999.2500   111.4680     9.7230   -83.1070   -62.6680     6.0680     5.8900     6.5740  -999.2500  -999.2500
 1665.5000  -999.2500  -999.2500  -999.2500  -999.2500   109.0290     9.7230   -83.1520   -62.3290     6.0980     5.9460     6.6440  -999.2500  -999.2500
 1666.0000  -999.2500  -999.2500  -999.2500  -999.2500   108.6740     9.7230   -83.2070   -61.9910     6.1290     5.9220     6.7140  -999.2500  -999.2500
 1666.5000  -999.2500  -999.2500  -999.2500  -999.2500   110.2380     9.7230   -83.4900   -61.6520     6.1670     5.8900     6.7590  -999.2500  -999.2500
 1667.0000  -999.2500  -999.2500  -999.2500  -999.2500   111.8950     9.7220   -83.7910   -61.3130     6.1400     5.8590     6.6800  -999.2500  -999.2500
 1667.5000  -999.2500  -999.2500  -999.2500  -999.2500   112.9620     9.7160   -84.0910   -60.9740     6.1040     5.8270     6.6120  -999.2500  -999.2500
 1668.0000  -999.2500  -999.2500  -999.2500  -999.2500   113.0410     9.7110   -84.3860   -60.6360     6.0680     5.7960     6.5440  -999.2500  -999.2500
 1668.5000  -999.2500  -999.2500  -999.2500  -999.2500   116.5240     9.7050   -84.4910   -60.2970     6.0320     5.7640     6.4740  -999.2500  -999.2500
 1669.0000  -999.2500  -999.2500  -999.2500  -999.2500   118.0860     9.7000   -84.2390   -59.9580     5.9960     5.7320     6.4010  -999.2500  -999.2500
 1669.5000  -999.2500  -999.2500  -999.2500  -999.2500   116.1130     9.6940   -83.9940   -59.6190     5.9610     5.6990     6.3280  -999.2500  -999.2500
 1670.0000  -999.2500  -999.2500  -999.2500  -999.2500   114.6130     9.6880   -83.7480   -59.2800     5.9180     5.6650     6.2550  -999.2500  -999.2500
 1670.5000  -999.2500  -999.2500  -999.2500  -999.2500   117.6460     9.6810   -83.5000   -58.9420     5.8710     5.6310     6.2240  -999.2500  -999.2500
 1671.0000  -999.2500  -999.2500  -999.2500  -999.2500   119.6120     9.6650   -83.4000   -58.6030     5.8230     5.5970     6.2240  -999.2500  -999.2500
 1671.5000  -999.2500  -999.2500  -999.2500  -999.2500   115.9980     9.6500   -83.3990   -58.2640     5.7840     5.5760     6.2240  -999.2500  -999.2500
 1672.0000  -999.2500  -999.2500  -999.2500  -999.2500   106.1200     9.6340   -83.3990   -57.9250     5.8170     5.6040     6.2240  -999.2500  -999.2500
 1672.5000  -999.2500  -999.2500  -999.2500  -999.2500   104.3430     9.6240   -83.3990   -57.5860     5.8450     5.6240     6.2240  -999.2500  -999.2500
 1673.0000  -999.2500  -999.2500  -999.2500  -999.2500   105.5230     9.6180   -83.3990   -57.2480     5.8730     5.6640     6.2500  -999.2500  -999.2500
 1673.5000  -999.2500  -999.2500  -999.2500  -999.2500   108.7320     9.6130   -83.3990   -56.9090     5.9010     5.7100     6.2760  -999.2500  -999.2500
 1674.0000  -999.2500  -999.2500  -999.2500  -999.2500   113.6260     9.6070   -83.3980   -56.5700     5.9290     5.7570     6.3020  -999.2500  -999.2500
 1674.5000  -999.2500  -999.2500  -999.2500  -999.2500   115.3700     9.6050   -83.3950   -56.2310     5.9450     5.7840     6.3290  -999.2500  -999.2500
 1675.0000  -999.2500  -999.2500  -999.2500  -999.2500   114.6450     9.6050   -83.5460   -55.8930     5.9460     5.7640     6.3920  -999.2500  -999.2500
 1675.5000  -999.2500  -999.2500  -999.2500  -999.2500   115.4590     9.6050   -83.7300   -55.5540     5.9460     5.7490     6.5230  -999.2500  -999.2500
 1676.0000  -999.2500  -999.2500  -999.2500  -999.2500   118.8300     9.6050   -83.9160   -55.2150     5.9460     5.7350     6.5750  -999.2500  -999.2500
 1676.5000  -999.2500  -999.2500  -999.2500  -999.2500   122.2270     9.6090   -83.9850   -54.8760     5.9460     5.7200     6.5160  -999.2500  -999.2500
 1677.0000  -999.2500  -999.2500  -999.2500  -999.2500   122.7150     9.6310   -84.0000   -54.5370     5.9460     5.7060     6.4180  -999.2500  -999.2500
 1677.5000  -999.2500  -999.2500  -999.2500  -999.2500   120.0110     9.6520   -84.3490   -54.1990     5.9450     5.6910     6.3210  -999.2500  -999.2500
 1678.0000  -999.2500  -999.2500  -999.2500  -999.2500   110.9350     9.6740   -84.7190   -53.8600     5.9370     5.6790     6.2240  -999.2500  -999.2500
 1678.5000  -999.2500  -999.2500  -999.2500  -999.2500   107.0780     9.6950   -84.5350   -53.5210     5.9280     5.6800     6.1670  -999.2500  -999.2500
 1679.0000  -999.2500  -999.2500  -999.2500  -999.2500   109.7980     9.7040   -84.2410   -53.1820     5.9200     5.6800     6.2550  -999.2500  -999.2500
 1679.5000  -999.2500  -999.2500  -999.2500  -999.2500   111.8270     9.7150   -83.9440   -52.8430     5.9120     5.6800     6.3270  -999.2500  -999.2500
 1680.0000  -999.2500  -999.2500  -999.2500  -999.2500   110.4430     9.7270   -83.6480   -52.5050     5.9030     5.6790     6.3970  -999.2500  -999.2500
 1680.5000  -999.2500  -999.2500  -999.2500  -999.2500   108.8030     9.7380   -83.3520   -52.1660     5.8920     5.6790     6.2190  -999.2500  -999.2500
 1681.0000  -999.2500  -999.2500  -999.2500  -999.2500   107.1620     9.7280   -83.0560   -51.8270     5.9130     5.6920     6.0430  -999.2500  -999.2500
 1681.5000  -999.2500  -999.2500  -999.2500  -999.2500   105.8990     9.7030   -82.8190   -51.4880     5.9490     5.7230     5.8380  -999.2500  -999.2500
 1682.0000  -999.2500  -999.2500  -999.2500  -999.2500   108.0140     9.6800   -82.5220   -51.1500     5.9840     5.7530     5.9620  -999.2500  -999.2500
 1682.5000  -999.2500  -999.2500  -999.2500  -999.2500   113.1240     9.6570   -82.4120   -50.8110     6.0200     5.7830     6.1260  -999.2500  -999.2500
 1683.0000  -999.2500  -999.2500  -999.2500  -999.2500   115.6490     9.6330   -82.6450   -50.4720     6.0560     5.8140     6.2910  -999.2500  -999.2500
 1683.5000  -999.2500  -999.2500  -999.2500  -999.2500   113.4580     9.6020   -82.9200   -50.1330     6.0910     5.8440     6.4550  -999.2500  -999.2500
 1684.0000  -999.2500  -999.2500  -999.2500  -999.2500   109.8950     9.5670   -83.1970   -49.7940     6.1110     5.8740     6.5430  -999.2500  -999.2500
 1684.5000  -999.2500  -999.2500  -999.2500  -999.2500   108.3120     9.5320   -83.4730   -49.4560     6.0780     5.8910     6.5750  -999.2500  -999.2500
 1685.0000  -999.2500  -999.2500  -999.2500  -999.2500   108.6340     9.5100   -83.7490   -49.1170     6.0550     5.8450     6.5750  -999.2500  -999.2500
 1685.5000  -999.2500  -999.2500  -999.2500  -999.2500   108.9000     9.4900   -83.8380   -48.7780     6.0320     5.8130     6.4500  -999.2500  -999.2500
 1686.0000  -999.2500  -999.2500  -999.2500  -999.2500   112.2260     9.4700   -83.8920   -48.4390     6.0080     5.7810     6.3300  -999.2500  -999.2500
 1686.5000  -999.2500  -999.2500  -999.2500  -999.2500   115.9920     9.4750   -83.9470   -48.1010     5.9920     5.7490     6.2100  -999.2500  -999.2500
 1687.0000  -999.2500  -999.2500  -999.2500  -999.2500   119.0330     9.4830   -84.0300   -47.7620     5.9790     5.7320     6.1670  -999.2500  -999.2500
 1687.5000  -999.2500  -999.2500  -999.2500  -999.2500   118.8910     9.4920   -84.2240   -47.4230     5.9660     5.7800     6.3280  -999.2500  -999.2500
 1688.0000  -999.2500  -999.2500  -999.2500  -999.2500   118.4800     9.5000   -84.4140   -47.0840     5.9530     5.8130     6.4560  -999.2500  -999.2500
 1688.5000  -999.2500  -999.2500  -999.2500  -999.2500   118.0720     9.5020   -84.6040   -46.7450     5.9460     5.8470     6.4030  -999.2500  -999.2500
 1689.0000  -999.2500  -999.2500  -999.2500  -999.2500   117.7900     9.4780   -84.7950   -46.4070     6.0300     5.8800     6.3400  -999.2500  -999.2500
 1689.5000  -999.2500  -999.2500  -999.2500  -999.2500   116.4930     9.4550   -84.9580   -46.5680     6.0880     5.9290     6.2810  -999.2500  -999.2500
