~VERSION INFORMATION
 VERS.                2.0:   CWLS LOG ASCII STANDARD - VERSION 2.0
 WRAP.                 NO:   ONE LINE PER DEPTH STEP
~WELL INFORMATION
#MNEM.UNIT      DATA TYPE    INFORMATION
#----------   ------------   ------------------------------
 STRT.F           22.0000:   START DEPTH
 STOP.F         4228.5000:   STOP DEPTH
 STEP.F            0.5000:   STEP LENGTH
 NULL.          -999.2500:   NO VALUE
 COMP. LAWRENCE ALLISON & ASSOCIATES:   COMPANY
 WELL. LAWRENCE NPR 3 "X" #25-2:   WELL
 FLD .                NPR:   FIELD
 LOC .       S2 T38N R78W:   LOCATION
 CNTY.            NATRONA:   COUNTY
 STAT.            WYOMING:   STATE
 CTRY. UNITED STATES OF AMERICA:   COUNTRY
 SRVC.      DRESSER ATLAS:   SERVICE COMPANY
 DATE.        22-DEC-1985:   LOGDATE
 API .     49025110700000:   API NUMBER
~CURVE INFORMATION
#MNEM.UNIT       API CODE    CURVE DESCRIPTION
#----------   ------------   ------------------------------
 DEPT.F                  :   
 TENS.LBS    60 635 01 00:   TENSION FROM SONIC
 DT  .US/F   60 520 00 00:   DELTA TIME
 SPHI.DEC    60 890 00 00:   SONIC POROSITY
 TENR.LBS    07 635 01 00:   TENSION FROM RESISTIVITY
 CALR.IN     07 280 01 00:   CALIPER FROM RESISTIVITY
 SPR .MV     07 010 01 00:   SPONTANEOUS POTENTIAL
 GRR .GAPI   07 310 01 00:   GAMMA RAY FROM RESISTIVITY
 SFL .OHMM   07 220 01 00:   SHALLOW FOCUSED LOG RESISTIVITY
 ILD .OHMM   07 120 46 00:   DEEP INDUCTION RESISTIVITY
 ILM .OHMM   07 120 44 00:   INDUCTION LOG MEDIUM RESISTIVITY
~PARAMETER INFORMATION
#MNEM.UNIT          VALUE    DESCRIPTION
#----------   ------------   ------------------------------
 EKB .F         5148.0000:   Kelly bushing
 EGL .F         5136.0000:   Ground level
 EDF .F            0.0000:   Drilling floor
 TD  .F         4228.0000:   Total depth
 DATE.        22-DEC-1985:   Date logged
 CLNT.            A2DTECH:   Client Code
 SL  . 1350' FWL & 1968' FSL:   Surface Location
 PD  .                 GL:   Permanent Datum
 DD  .F              4224:   Depth driller
 DL  .F              4228:   Depth logger
 BLI .F              4225:   Bottom log interval
 CS1 .IN            8.625:   Casing size
 CBD1.      8.625" @ 677':   Casing driller 1
 CBL1.F               677:   Casing logger 1
 BS1 .IN            7.875:   Bit size
 DFT .            KCL/GEL:   Type fluid in hole
 DFD .                9.2:   Density
 DFV .                 45:   Viscosity
 DFPH.                8.5:   pH
 DFL .               11.5:   Fluid loss
 MSS .               TANK:   Source of sample
 RMS .OHMM           .256:   Rm
 MST .F                63:   Rm Meas. temp.
 RMF .OHMM           .192:   Rmf
 MFST.F                64:   Rmf Meas. temp.
 RMC .OHMM           .320:   Rmc
 MCST.F                64:   Rmc Meas. temp.
 MFSS.               MEAS:   Source Rmf.
 RMB .OHMM           .119:   Rm. at BHT
 BHT .F               143:   BHT.
 TCS .HRS             4.5:   Time Circ. stopped
 MRT .F               143:   Maximum recorded temp.
 LUN .               6427:   Logging unit number
 LUL .          WILLISTON:   Logging unit location
 ENGI.             MCHUCH:   Recorded By
 WITN.             STRONG:   Witnessed by
 ORIG.           5" PRINT:   Origin of data
 UWI .     49025110700000:   Unique Well ID
 DICO. A2D TECHNOLOGIES, INC.:   Digitizing Company
 DAPD.                 12:   Feet Above Permanent Datum
 BSD1.               4224:   Depth drilled with bit1
 MCSS.               CALC:   Source Rmc.
 EPD .F              5136:   Elevation Permanent Datum
 LMF .                 KB:   Log Measured From
 DMF .                 KB:   Drilling Measured From
~OTHER INFORMATION
~A   DEPT     TENS         DT       SPHI       TENR       CALR        SPR         GRR       SFL        ILD        ILM   
# ...
 3707.0000   -95.8200    87.5400     0.2640   -74.1410     7.8610   -42.3150   104.7760     4.9770     4.1220     4.4050
 3707.5000   -93.2770    87.8350     0.2650   -70.8370     7.8570   -42.3240   104.3130     4.9530     4.1650     4.4270
 3708.0000   -90.7350    87.9020     0.2650   -67.5340     7.8540   -42.3240   104.5480     4.9530     4.2230     4.4500
 3708.5000   -88.1930    87.0680     0.2650   -68.3880     7.8510   -42.3240   102.7860     5.1500     4.3430     4.4720
 3709.0000   -85.6510    86.2110     0.2570   -75.4660     7.8480   -42.3230    99.4770     5.4790     4.4630     4.5680
 3709.5000   -85.1650    85.2720     0.2500   -82.5450     7.8450   -42.3280    94.8940     6.0090     4.5840     4.6830
 3710.0000   -85.1650    84.3980     0.2420   -80.2370     7.8430   -42.5550    92.8600     6.4640     4.7040     4.8420
 3710.5000   -85.1650    83.9060     0.2390   -71.2270     7.8570   -42.8020    93.0510     6.2640     4.7460     4.9980
 3711.0000   -85.1650    84.1170     0.2410   -66.7000     7.8730   -42.9180    95.0980     6.0070     4.7660     4.9530
 3711.5000   -85.1650    84.4620     0.2430   -69.7970     7.8880   -42.9140    97.3490     5.7480     4.7860     4.9840
 3712.0000   -85.1650    84.6730     0.2450   -72.8940     7.9000   -42.8160    98.7020     5.4600     4.8050     5.0170
 3712.5000   -85.1650    84.9050     0.2470   -74.9890     7.8860   -42.4350    95.9530     4.9080     4.8910     5.0750
 3713.0000   -85.1650    84.9050     0.2460   -71.4500     7.8720   -42.0680    95.1780     5.6640     5.0990     5.2730
 3713.5000   -85.1650    84.5720     0.2440   -67.9110     7.8580   -41.7190    97.5700     6.0510     5.3070     5.4720
 3714.0000   -85.1650    84.1800     0.2420   -66.2840     7.8440   -41.3750   102.7100     6.2530     5.5300     5.6840
 3714.5000   -85.5920    83.3300     0.2340   -71.7900     7.8230   -41.0460   104.2770     6.3650     5.3040     5.7060
 3715.0000   -86.5560    82.2200     0.2270   -77.2960     7.8010   -40.7190    98.7010     7.0950     4.9950     5.7370
 3715.5000   -87.5190    80.6930     0.2130   -82.8020     7.7790   -40.3540    98.3530     8.9140     4.3370     5.0830
 3716.0000   -88.4830    78.9510     0.1920   -84.3920     7.7670   -39.9430   101.0800    10.3250     3.5420     4.1720
 3716.5000   -89.4470    77.6120     0.1940   -82.2380     7.8730   -39.5550   133.5830     8.1110     2.8810     3.2620
 3717.0000   -90.4110    82.2510     0.2130   -80.0840     7.9780   -39.4790   165.6190     5.1950     2.8810     2.9620
 3717.5000   -91.3740    88.4440     0.2450   -77.9290     8.0400   -39.4110   187.6150     2.8560     2.9380     3.1870
 3718.0000   -92.3380    95.9940     0.2640   -75.7750     8.0170   -39.3730   172.6780     2.3330     2.9900     3.6020
 3718.5000   -93.3020    94.8950     0.2830   -78.4410     7.9940   -39.9870   139.0650     3.7310     3.0600     4.1260
 3719.0000   -94.2660    91.9540     0.2990   -81.7450     7.9710   -40.6150   122.1860     5.7820     3.1500     4.2780
 3719.5000   -95.2290    85.2050     0.2410   -85.0480     7.9680   -41.1650   111.9150     8.1320     3.3350     4.4290
 3720.0000   -96.1930    82.3930     0.2240   -88.3520     7.9860   -41.6440   111.8420     7.8620     3.7790     4.5810
 3720.5000   -97.1570    83.6830     0.2370   -91.6550     8.0030   -42.1630   121.0920     7.2780     4.1980     4.7930
 3721.0000   -98.1210    86.6580     0.2560   -94.9580     8.0200   -42.6750   126.8130     6.6000     4.8670     5.0150
 3721.5000   -99.0840    89.5630     0.2740   -98.2620     8.0240   -43.2010   128.7520     5.8430     5.0910     5.1380
 3722.0000  -100.0480    91.3810     0.2860  -101.5650     8.0270   -43.5920   124.1250     5.4790     5.0910     5.1260
 3722.5000  -101.0120    92.7820     0.2990  -104.8690     8.0300   -43.8640   119.2380     5.6030     4.9920     5.1160
 3723.0000  -101.9750    93.1970     0.3070  -103.6040     8.0330   -44.1290   121.6290     5.7510     4.8970     5.1070
 3723.5000  -102.9390    92.8810     0.3060  -100.6890     8.0370   -44.3090   126.2890     5.8970     4.8010     5.0910
 3724.0000  -103.9030    92.2490     0.2990   -97.7740     8.0400   -44.2570   127.4420     6.1380     4.7050     5.1050
 3724.5000  -104.8670    91.5400     0.2950   -95.4640     8.0350   -43.8680   128.4810     6.4340     4.6870     5.1380
 3725.0000  -105.8890    91.0990     0.2920   -95.4640     8.0280   -43.4730   129.6000     6.7680     4.6700     5.0310
 3725.5000  -106.9350    91.2790     0.2920   -95.4640     8.0200   -43.0810   131.4030     6.4640     4.6420     4.9240
 3726.0000  -107.9800    91.8120     0.2980   -95.4640     8.0130   -42.7290   134.7490     5.8420     4.6140     4.8170
 3726.5000  -109.0260    92.6820     0.3040   -95.4640     8.0050   -42.6840   139.7250     5.2660     4.5670     4.7110
 3727.0000  -110.0720    93.5900     0.3090   -95.4640     7.9980   -42.2950   141.0010     4.9080     4.4840     4.5620
 3727.5000  -111.1180    93.1970     0.3030   -96.9590     7.9900   -41.9410   137.0350     4.9630     4.2870     4.4030
 3728.0000  -112.1630    91.1030     0.2990  -105.7030     7.9820   -41.5940   132.4580     5.4470     4.0840     4.2370
 3728.5000  -113.2090    87.5510     0.2590  -114.4480     7.9840   -41.2480   135.2060     6.6720     4.1540     4.2370
 3729.0000  -114.2550    85.6040     0.2510  -123.1920     7.9880   -40.9020   144.1370     7.2170     4.2270     4.2660
 3729.5000  -114.3290    87.2710     0.2620  -118.2220     7.9930   -40.5570   151.2930     5.5850     4.3000     4.3490
 3730.0000  -109.2440    90.1750     0.2820  -108.6930     7.9970   -40.1860   147.1950     4.0840     4.3730     4.4360
 3730.5000  -104.1600    91.9980     0.3000   -99.1640     8.0010   -40.7250   123.5320     4.8410     4.4280     4.4770
 3731.0000   -99.0750    90.9830     0.2930   -89.6350     8.0050   -42.4220   107.6220     6.7680     4.3670     4.4530
 3731.5000   -93.9900    88.8350     0.2760   -80.1060     8.0100   -42.4820   110.4010     7.7620     4.3050     4.3950
 3732.0000   -88.9060    86.9030     0.2600   -77.2380     8.0140   -43.2870   118.7130     7.9840     4.2760     4.5920
 3732.5000   -85.6290    87.9690     0.2650   -80.5420     8.0180   -43.3270   133.3130     5.3570     4.6710     4.8640
 3733.0000   -87.3840    89.8410     0.2790   -83.8450     8.0190   -43.3160   134.7410     5.1380     4.9360     5.0850
 3733.5000   -89.1390    91.7980     0.2930   -87.2670     8.0140   -43.3140   132.5290     5.3560     5.1670     5.2560
 3734.0000   -90.8950    91.8440     0.2950   -90.8060     8.0100   -43.3170   126.4000     6.0940     5.3780     5.4260
 3734.5000   -92.6500    90.6990     0.2890   -94.3460     8.0050   -43.2270   120.2060     7.0490     5.5400     5.7140
 3735.0000   -94.4060    89.2310     0.2790  -100.3060     8.0010   -43.1120   115.1500     8.0040     5.7030     6.2310
 3735.5000   -88.5260    87.9380     0.2690  -105.4340     8.0010   -42.9950   112.3500     8.9580     5.9510     6.1860
 3736.0000   -76.9610    87.3030     0.2640   -78.8140     8.0010   -42.8430   113.5080     9.0790     5.9330     6.0930
 3736.5000   -65.3960    87.3580     0.2620   -55.5830     8.0010   -42.5800   118.0460     8.8330     5.8950     6.0310
 3737.0000   -55.8160    88.2180     0.2760   -61.7760     8.0010   -42.3250   125.8280     7.6610     5.8560     5.9860
 3737.5000   -61.0820    89.5140     0.2880   -67.6060     8.0010   -42.0710   137.8320     6.5580     5.7860     5.9400
 3738.0000   -66.3480    90.6990     0.3040   -73.4360     8.0010   -41.8150   147.2290     5.2820     5.6990     5.8970
 3738.5000   -71.6140    92.7970     0.3000   -70.2230     7.9970   -41.5630   141.8480     5.6900     5.6090     5.7520
 3739.0000   -76.8800    92.3250     0.3000   -74.7830     7.9820   -41.6590   130.2490     6.5780     5.5140     5.6140
 3739.5000   -82.1460    90.7910     0.2910   -95.4640     7.9670   -41.8030   117.0770     8.7910     5.1440     5.4790
 3740.0000   -66.5170    86.7190     0.2710   -66.4080     7.9530   -41.9480   103.5210    11.8500     4.5890     5.0380
