~VERSION INFORMATION
 VERS.                2.0:   CWLS LOG ASCII STANDARD - VERSION 2.0
 WRAP.                 NO:   ONE LINE PER DEPTH STEP
~WELL INFORMATION
#MNEM.UNIT      DATA TYPE    INFORMATION
#----------   ------------   ------------------------------
 STRT.F            0.0000:   START DEPTH
 STOP.F         4134.5000:   STOP DEPTH
 STEP.F            0.5000:   STEP LENGTH
 NULL.          -999.2500:   NO VALUE
 COMP. LAWRENCE ALLISON & ASSOCIATES:   COMPANY
 WELL. LAWRENCE NPR 3 "X" #72-10:   WELL
 FLD .            WILDCAT:   FIELD
 LOC .      S10 T38N R78W:   LOCATION
 CNTY.            NATRONA:   COUNTY
 STAT.            WYOMING:   STATE
 CTRY. UNITED STATES OF AMERICA:   COUNTRY
 SRVC.      DRESSER ATLAS:   SERVICE COMPANY
 DATE.        29-JUL-1983:   LOGDATE
 API .     49025109390000:   API NUMBER
~CURVE INFORMATION
#MNEM.UNIT       API CODE    CURVE DESCRIPTION
#----------   ------------   ------------------------------
 DEPT.F                  :   
 CALD.IN     45 280 60 00:   CALIPER FROM DENSITY LOG
 DEN .G/C3   45 350 01 00:   BULK DENSITY
 CORR.G/C3   45 356 01 00:   DENSITY CORRECTION
 TEND.LBS    45 635 01 00:   TENSION FROM DENSITY LOG
 NPHI.DEC    42 890 03 00:   NEUTRON POROSITY SANDSTONE
 GRD .GAPI   45 310 01 00:   GAMMA RAY FROM DENSITY LOG
 SPR .MV     07 010 01 00:   SPONTANEOUS POTENTIAL
 RILD.OHMM   07 120 46 00:   DEEP INDUCTION RESISTIVITY
 RILM.OHMM   07 120 44 00:   INDUCTION LOG MEDIUM RESISTIVITY
 RFOC.OHMM   07 220 04 00:   RESISTIVITY FOCUSED LOG RES.
 TENR.LBS    07 635 01 00:   TENSION FROM RESISTIVITY
 AC  .US/F   60 250 00 00:   ACCOUSTIC
 TENS.LBS    60 635 01 00:   TENSION FROM SONIC
 GRR .GAPI   07 310 01 00:   GAMMA RAY FROM RESISTIVITY
~PARAMETER INFORMATION
#MNEM.UNIT          VALUE    DESCRIPTION
#----------   ------------   ------------------------------
 EKB .F         5182.0000:   Kelly bushing
 EGL .F         5172.0000:   Ground level
 EDF .F            0.0000:   Drilling floor
 TD  .F         4139.0000:   Total depth
 DATE.        29-JUL-1983:   Date logged
 CLNT.            A2DTECH:   Client Code
 SL  . 900' FNL & 900' FEL:   Surface Location
 PD  .                 GL:   Permanent Datum
 EPD .F              5172:   Elevation Permanent Datum
 LMF .                 KB:   Log Measured From
 DMF .                 KB:   Drilling Measured From
 DAPD.F                10:   Feet Above Permanent Datum
 DD  .F              4139:   Depth driller
 DL  .F              4134:   Depth logger
 BLI .F              4132:   Bottom log interval
 CS1 .IN            9.625:   Casing size
 CBD1.      9.625" @ 476':   Casing driller 1
 BS1 .IN            7.875:   Bit size
 BSD1.F              4139:   Depth drilled with bit1
 DFT .               LSND:   Type fluid in hole
 DFD .                6.6:   Density
 DFV .                 41:   Viscosity
 DFPH.                8.5:   pH
 DFL .                 10:   Fluid loss
 MSS .           FLOWLINE:   Source of sample
 RMS .OHMM            .27:   Rm
 MST .F                91:   Rm Meas. temp.
 RMF .OHMM            .19:   Rmf
 MFST.F                87:   Rmf Meas. temp.
 RMC .OHMM            .34:   Rmc
 MCST.F                87:   Rmc Meas. temp.
 MFSS.               MEAS:   Source Rmf.
 MCSS.               CALC:   Source Rmc.
 RMB .OHMM            .19:   Rm. at BHT
 BHT .F               130:   BHT.
 TCS .HRS               3:   Time Circ. stopped
 MRT .F               130:   Maximum recorded temp.
 LUN .               6274:   Logging unit number
 LUL .               GLTF:   Logging unit location
 ENGI.             RAUTIC:   Recorded By
 WITN.             STRONG:   Witnessed by
 ORIG.           5" PRINT:   Origin of data
 UWI .     49025109390000:   Unique Well ID
 DICO. A2D TECHNOLOGIES, INC.:   Digitizing Company
~OTHER INFORMATION
~A    DEPT    CALD        DEN       CORR       TEND       NPHI        GRD        SPR       RILD       RILM       RFOC       TENR         AC       TENS         GRR  
# ...
 1200.5000     8.7390     2.5480     0.0450   -65.6970     0.2670   101.2800   -55.1320     8.8660     8.8030     9.0650   -67.2410  -999.2500  -999.2500    90.5190
 1201.0000     8.7370     2.5420     0.0320   -65.8990     0.2590   104.4290   -55.1310     8.8660     8.7870     9.0210   -65.1470  -999.2500  -999.2500    90.5480
 1201.5000     8.7340     2.5290     0.0210   -66.1010     0.2500   105.5930   -55.1920     8.8660     8.7710     8.9780   -63.0520  -999.2500  -999.2500    91.5090
 1202.0000     8.7320     2.5250     0.0190   -66.3030     0.2430   105.9770   -55.2750     8.8660     8.7550     8.9480   -60.9570  -999.2500  -999.2500    92.5750
 1202.5000     8.7300     2.5220     0.0180   -66.5050     0.2400   106.3040   -55.3320     8.8660     8.7380     8.9480   -58.8630  -999.2500  -999.2500    93.0820
 1203.0000     8.7270     2.5200     0.0170   -66.7070     0.2430   106.0390   -55.3310     8.8660     8.7220     8.9560   -58.6270  -999.2500  -999.2500    92.1920
 1203.5000     8.7250     2.5210     0.0210   -66.9090     0.2510   104.2000   -55.3310     8.8660     8.7050     8.9710   -60.0220  -999.2500  -999.2500    91.3680
 1204.0000     8.7220     2.5230     0.0370   -67.1110     0.2550   102.4890   -55.3310     8.8670     8.7750     8.9860   -61.4160  -999.2500  -999.2500    92.0880
 1204.5000     8.7200     2.5240     0.0530   -67.3130     0.2580   100.7230   -55.3310     8.8670     8.8490     9.0010   -62.8740  -999.2500  -999.2500    92.8470
 1205.0000     8.7180     2.5250     0.0480   -67.5150     0.2580    98.9380   -55.3310     8.8700     8.9230     9.0160   -63.8720  -999.2500  -999.2500    90.8980
 1205.5000     8.7150     2.5230     0.0430   -67.7170     0.2570    96.5270   -55.3310     8.8550     8.9970     9.0330   -64.9180  -999.2500  -999.2500    88.7400
 1206.0000     8.7130     2.5220     0.0370   -67.9190     0.2550    92.9240   -55.3310     9.0310     9.0720     9.0310   -65.9640  -999.2500  -999.2500    86.5160
 1206.5000     8.7100     2.5220     0.0240   -68.1210     0.2520    90.0880   -55.3310     9.1140     9.1460     9.1590   -67.0100  -999.2500  -999.2500    89.6970
 1207.0000     8.7080     2.5210     0.0210   -68.3230     0.2500    88.5880   -55.3310     9.1640     9.2200     9.2790   -68.0560  -999.2500  -999.2500    93.1920
 1207.5000     8.7090     2.5220     0.0260   -68.5250     0.2520    87.2000   -55.3300     9.2490     9.2940     9.3990   -69.1010  -999.2500  -999.2500    93.5840
 1208.0000     8.7090     2.5220     0.0210   -68.7270     0.2540    89.4760   -55.3300     9.3690     9.3690     9.5180   -70.1470  -999.2500  -999.2500    94.6670
 1208.5000     8.7090     2.5200     0.0150   -68.9290     0.2580    92.4950   -55.3380     9.2280     9.1670     9.5430   -71.1930  -999.2500  -999.2500    97.1440
 1209.0000     8.7100     2.5210     0.0220   -69.1310     0.2680    96.9530   -55.4960     9.0900     8.9150     9.3320   -72.2390  -999.2500  -999.2500    99.6230
 1209.5000     8.7100     2.5240     0.0330   -69.3320     0.2720    99.8660   -55.6680     8.9520     8.6620     9.1210   -71.0310  -999.2500  -999.2500   100.0640
 1210.0000     8.7100     2.5250     0.0320   -69.5340     0.2730   102.7220   -55.7990     8.8140     8.4090     8.9100   -66.6020  -999.2500  -999.2500   100.0740
 1210.5000     8.7110     2.5220     0.0030   -69.7360     0.2680   104.5220   -55.9300     8.6760     8.3070     8.7050   -62.1730  -999.2500  -999.2500   100.0700
 1211.0000     8.7110     2.5180    -0.0040   -69.9380     0.2620   102.0480   -56.0640     8.6250     8.2900     8.6250   -57.8840  -999.2500  -999.2500   100.0680
 1211.5000     8.7110     2.5220     0.0070   -70.1400     0.2640   100.5800   -56.1980     8.4680     8.2730     8.5460   -59.3230  -999.2500  -999.2500    99.7660
 1212.0000     8.7120     2.5240     0.0280   -70.3420     0.2660   102.6550   -56.3210     8.3900     8.2570     8.5860   -60.7170  -999.2500  -999.2500    98.6400
 1212.5000     8.7120     2.5230     0.0440   -70.5440     0.2640   104.1140   -56.2740     8.3140     8.2400     8.6240   -62.1120  -999.2500  -999.2500    96.1980
 1213.0000     8.7120     2.5180     0.0180   -70.7460     0.2630   103.6250   -56.2220     8.3140     8.2120     8.6610   -62.8740  -999.2500  -999.2500    95.3080
 1213.5000     8.7130     2.5140     0.0020   -70.9480     0.2640   104.1280   -56.1720     8.3140     8.1830     8.6990   -62.8740  -999.2500  -999.2500    95.3240
 1214.0000     8.7130     2.5210    -0.0090   -71.1500     0.2630   105.7530   -56.1240     8.3140     8.1530     8.7050   -62.8740  -999.2500  -999.2500    93.9740
 1214.5000     8.7130     2.5290     0.0120   -71.3520     0.2610   106.9340   -56.2380     8.3140     8.1230     8.7850   -62.8740  -999.2500  -999.2500    93.0440
 1215.0000     8.7140     2.5370     0.0330   -71.5540     0.2610   106.7170   -56.4020     8.3900     8.0940     8.7580   -65.7020  -999.2500  -999.2500    93.3860
 1215.5000     8.7140     2.5390     0.0430   -71.7560     0.2610   106.5820   -56.5670     8.3930     8.0640     8.7330   -69.8850  -999.2500  -999.2500    95.1940
 1216.0000     8.7140     2.5410     0.0470   -71.9580     0.2610   110.2720   -56.7630     8.3890     8.0340     8.7080   -70.4260  -999.2500  -999.2500    96.9760
 1216.5000     8.7150     2.5410     0.0490   -72.1600     0.2640   111.9130   -56.8780     8.3910     8.0050     8.6830   -62.8740  -999.2500  -999.2500    98.8100
 1217.0000     8.7150     2.5410     0.0470   -72.3620     0.2760   110.1570   -56.6530     8.3890     7.9750     8.6570   -64.5960  -999.2500  -999.2500    98.9150
 1217.5000     8.7150     2.5400     0.0450   -72.5640     0.2830   102.4240   -56.5330     8.3140     7.9450     8.6320   -66.1650  -999.2500  -999.2500    98.2380
 1218.0000     8.7160     2.5380     0.0430   -72.7660     0.2740    93.6490   -56.4210     8.2380     7.9160     8.5690   -67.7330  -999.2500  -999.2500    96.0770
 1218.5000     8.7160     2.5360     0.0420   -72.9680     0.2670    91.4180   -56.3100     8.1620     7.8860     8.4900   -69.3020  -999.2500  -999.2500    93.8850
 1219.0000     8.7160     2.5370     0.0490   -73.1690     0.2750    94.9120   -56.2010     8.0880     7.8560     8.4120   -70.8710  -999.2500  -999.2500    92.3440
 1219.5000     8.7160     2.5410     0.0570   -73.3710     0.2760    99.6750   -56.1550     8.0140     7.8270     8.3470   -72.4390  -999.2500  -999.2500    94.0040
 1220.0000     8.7170     2.5440     0.0520   -73.5730     0.2680   104.4580   -56.2660     8.0140     7.7970     8.2880   -72.8540  -999.2500  -999.2500    95.7030
 1220.5000     8.7170     2.5410     0.0360   -73.7750     0.2610   108.4140   -56.3710     8.0140     7.7670     8.2380   -72.8540  -999.2500  -999.2500    95.8530
 1221.0000     8.7170     2.5390     0.0400   -73.9770     0.2650   104.0420   -56.4770     8.0140     7.7370     8.2380   -72.8540  -999.2500  -999.2500    94.9200
 1221.5000     8.7180     2.5370     0.0490   -74.1790     0.2730    98.1220   -56.5980     8.0140     7.6540     8.2460   -72.8540  -999.2500  -999.2500    95.5970
 1222.0000     8.7180     2.5360     0.0710   -74.3810     0.2760    94.7260   -56.7310     8.0140     7.6540     8.2700   -72.8540  -999.2500  -999.2500    97.3700
 1222.5000     8.7180     2.5350     0.0710   -74.5830     0.2690    99.5340   -56.8640     8.0130     7.6540     8.2940   -72.8540  -999.2500  -999.2500    98.7130
 1223.0000     8.7190     2.5320     0.0590   -74.7850     0.2610   103.3660   -56.9970     8.0130     7.6540     8.3140   -72.8540  -999.2500  -999.2500    97.3210
 1223.5000     8.7190     2.5280     0.0450   -74.9870     0.2590   106.6510   -57.1260     8.0090     7.6540     8.3140   -72.8540  -999.2500  -999.2500    95.9190
 1224.0000     8.7190     2.5260     0.0370   -75.1890     0.2580   106.0320   -57.2680     8.0180     7.6540     8.3290   -72.8540  -999.2500  -999.2500    97.2740
 1224.5000     8.7200     2.5300     0.0270   -75.3910     0.2530   104.6240   -57.1030     7.9440     7.6540     8.3480   -72.8540  -999.2500  -999.2500    98.8570
