~VERSION INFORMATION
 VERS.                2.0:   CWLS LOG ASCII STANDARD - VERSION 2.0
 WRAP.                 NO:   ONE LINE PER DEPTH STEP
~WELL INFORMATION
#MNEM.UNIT      DATA TYPE    INFORMATION
#----------   ------------   ------------------------------
 STRT.F          397.0000:   START DEPTH
 STOP.F         5516.0000:   STOP DEPTH
 STEP.F            0.5000:   STEP LENGTH
 NULL.          -999.2500:   NO VALUE
 COMP.  FENIX AND SCISSON:   COMPANY
 WELL.   FENIX TPX #54-10:   WELL
 FLD . NAVAL PETROLEUM RESERVE=3:   FIELD
 LOC .      S10 T38N R78W:   LOCATION
 CNTY.            NATRONA:   COUNTY
 STAT.            WYOMING:   STATE
 CTRY. UNITED STATES OF AMERICA:   COUNTRY
 SRVC.       SCHLUMBERGER:   SERVICE COMPANY
 DATE.        03-APR-1981:   LOGDATE
 API .     49025108690000:   API NUMBER
~CURVE INFORMATION
#MNEM.UNIT       API CODE    CURVE DESCRIPTION
#----------   ------------   ------------------------------
 DEPT.F                  :   
 SPR .MV     11 010 01 00:   SPONTANEOUS POTENTIAL FROM RES.
 TENR.LBS    11 635 01 00:   TENSION FROM RES.
 LLD .OHMM   11 220 10 00:   LATEROLOG DEEP
 LLS .OHMM   11 220 09 00:   LATEROLOG LOG SHALLOW
 TEND.LBS    45 635 01 00:   TENSION FORM DENSITY LOG
 GRD .GAPI   45 310 01 00:   GAMMA RAY FROM DENSITY LOG
 NPHI.DEC    42 890 03 00:   NEUTRON POROSITY SANDSTONE
 CALD.IN     45 280 60 00:   CALIPER FROM DENSITY LOG
 CORR.G/C3   45 356 01 00:   DENSITY CORRECTION
 RHOB.G/C3   45 350 01 00:   BULK DENSITY
~PARAMETER INFORMATION
#MNEM.UNIT          VALUE    DESCRIPTION
#----------   ------------   ------------------------------
 EKB .F         5206.0000:   Kelly bushing
 EGL .F         5196.0000:   Ground level
 EDF .F            0.0000:   Drilling floor
 TD  .F         5498.0000:   Total depth
 CLNT.            A2DTECH:   Client Code
 SL  . 2080' FNL & 2150' FEL:   Surface Location
 PD  .                 GL:   Permanent Datum
 EPD .F              5196:   Elevation Permanent Datum
 LMF .                 KB:   Log Measured From
 DMF .                 KB:   Drilling Measured From
 DAPD.F                10:   Feet Above Permanent Datum
 DATE.         3-APR-1981:   Date Logged [DD-MMM-YYYY]
 DD  .F              5485:   Depth driller
 DL  .F              5498:   Depth logger
 BLI .F              5496:   Bottom log interval
 TLI .F               397:   Top log interval
 CS1 .IN                7:   Casing size
 CBD1.         7" @ 3891':   Casing driller 1
 CBL1.F              3889:   Casing logger 1
 BS1 .IN            6.125:   Bit size
 BSD1.F              5485:   Depth drilled with bit1
 DFT .           CHEM GEL:   Type fluid in hole
 DFD .                9.1:   Density
 DFV .                 42:   Viscosity
 DFPH.                9.0:   pH
 DFL .                5.0:   Fluid loss
 MSS .           MUD TANK:   Source of sample
 RMS .OHMM           0.81:   Rm
 MST .F                62:   Rm Meas. temp.
 RMF .OHMM           0.64:   Rmf
 MFST.F                62:   Rmf Meas. temp.
 MFSS.               MEAS:   Source Rmf.
 RMB .OHMM          0.031:   Rm. at BHT
 BHT .F               174:   BHT.
 TCS .HRS            0830:   Time Circ. stopped
 TLAB.HRS            2130:   Time logger at bottom
 MRT .F               174:   Maximum recorded temp.
 LUN .               8035:   Logging unit number
 LUL .               CSPR:   Logging unit location
 ENGI.             BEATIE:   Recorded By
 WITN.              FIVAS:   Witnessed by
 ORIG.           5" PRINT:   Origin of data
 UWI .     49025108690000:   Unique Well ID
 DICO. A2D TECHNOLOGIES, INC:   Digitizing Company
~OTHER INFORMATION
~A   DEPT      SPR       TENR        LLD        LLS       TEND         GRD        NPHI     CALD       CORR       RHOB   
# ...
 5020.0000   -24.5002  1739.2776    63.4240    60.6345  1793.9393    90.9963     0.1261     7.0571     0.0207     2.7117
 5020.5000   -24.7918  1739.1913    60.8120    58.1444  1794.1198    91.5962     0.1267     7.0873     0.0222     2.7267
 5021.0000   -25.0901  1739.1050    59.9681    57.3321  1794.2424    92.4954     0.1273     7.1024     0.0211     2.7312
 5021.5000   -25.3987  1739.0187    59.5526    56.5295  1794.4083    93.3960     0.1280     7.1176     0.0169     2.7266
 5022.0000   -25.5553  1738.9323    59.1410    56.5220  1794.5526    93.9945     0.1286     7.1185     0.0139     2.7161
 5022.5000   -25.6628  1738.8459    59.5616    56.9115  1794.6969    89.1535     0.1283     7.1479     0.0132     2.7055
 5023.0000   -25.3462  1738.7596    60.1510    57.3001  1794.8773    85.8245     0.1272     7.1481     0.0139     2.6920
 5023.5000   -25.0319  1738.6733    61.2695    57.6928  1795.0216    84.9124     0.1259     7.1482     0.0162     2.6852
 5024.0000   -24.4115  1738.5870    63.4598    58.4926  1780.0144    86.7179     0.1235     7.1634     0.0173     2.6907
 5024.5000   -24.2494  1738.5006    65.2714    58.4849  1780.1587    87.9207     0.1211     7.1785     0.0177     2.7009
 5025.0000   -24.3938  1738.4143    66.6651    58.0711  1780.3030    88.8213     0.1208     7.1787     0.0169     2.7024
 5025.5000   -24.9890  1738.3280    66.7235    57.6603  1780.4835    89.1178     0.1227     7.1788     0.0169     2.6994
 5026.0000   -25.6066  1738.2417    64.2783    56.4342  1780.6278    90.0731     0.1279     7.2090     0.0161     2.6978
 5026.5000   -26.6380  1738.1553    59.1784    53.7638  1780.7721    93.3344     0.1369     7.2242     0.0191     2.7156
 5027.0000   -27.3877  1738.0690    55.8121    50.8425  1796.0679    96.0477     0.1445     7.2394     0.0296     2.7324
 5027.5000   -27.9855  1737.9827    52.8981    48.4160  1796.2122    97.8546     0.1508     7.2695     0.0356     2.7384
 5028.0000   -28.7352  1737.8964    52.5270    46.1053  1796.3926    99.6616     0.1623     7.2997     0.0251     2.7181
 5028.5000   -29.4952  1737.8101    54.0321    44.1916  1796.5369   102.3734     0.1709     7.3149     0.0101     2.7060
 5029.0000   -30.2322  1737.7236    54.7997    43.8991  1796.6812   104.1804     0.1733     7.3601     0.0041     2.6992
 5029.5000   -30.6780  1737.6373    54.4190    45.4478  1796.8182   106.2894     0.1745     7.3903     0.0048     2.7014
 5030.0000   -31.1238  1737.5510    53.2894    46.7259  1796.9697   108.7006     0.1654     7.4204     0.0153     2.7180
 5030.5000   -31.5699  1737.4647    51.0639    47.3755  1781.9625   113.5362     0.1664     7.4506     0.0228     2.7308
 5031.0000   -31.8732  1737.3783    48.4422    44.7805  1766.9553   111.4067     0.1695     7.4808     0.0281     2.7390
 5031.5000   -32.4586  1737.2920    45.3502    42.0712  1767.1357   106.5672     0.1712     7.4809     0.0303     2.7382
 5032.0000   -32.7525  1737.2057    41.9860    39.5090  1767.2800   102.9361     0.1709     7.4811     0.0326     2.7375
 5032.5000   -32.7423  1737.1194    39.4180    36.8452  1767.4243   100.8155     0.1725     7.4963     0.0348     2.7427
 5033.0000   -32.8845  1737.0331    36.2364    34.3610  1767.6046   101.7408     0.1797     7.5264     0.0348     2.7352
 5033.5000   -33.0260  1736.9467    33.7821    31.0936  1782.9005   103.8238     0.1888     7.5416     0.0183     2.7114
 5034.0000   -33.0152  1736.8604    31.4940    26.3608  1798.1963   104.7258     0.1913     7.5568     0.0062     2.6900
 5034.5000   -33.0046  1736.7740    29.3609    22.9291  1798.3406   104.1144     0.1904     7.5719     0.0002     2.6839
 5035.0000   -32.9931  1736.6877    27.5523    22.2960  1798.4849   102.9002     0.1834     7.6021    -0.0028     2.6824
 5035.5000   -33.1349  1736.6013    28.1541    23.5708  1798.6652   100.3882     0.1722     7.6023    -0.0013     2.6854
 5036.0000   -33.1246  1736.5150    29.5741    25.6344  1813.9393    98.3556     0.1524     7.4368     0.0100     2.7003
 5036.5000   -33.1140  1736.4287    30.2056    26.8988  1814.1053    97.4435     0.1503     7.5425     0.0250     2.7177
 5037.0000   -33.0681  1736.3424    29.7864    27.0842  1814.2496    98.6462     0.1603     7.6628     0.0302     2.7177
 5037.5000   -32.9407  1736.2561    25.8868    26.1526  1814.3939   102.2659     0.1693     7.7530     0.0332     2.7184
 5038.0000   -32.9298  1736.1697    22.9762    23.7191  1799.3867   108.9052     0.1797     7.7982     0.0377     2.7259
 5038.5000   -32.9195  1736.0834    20.8269    21.1666  1799.5670   114.0354     0.1899     7.8134     0.0527     2.7560
 5039.0000   -32.9070  1735.9971    19.8295    18.5809  1799.7113   114.9375     0.1960     7.8286     0.0873     2.7680
 5039.5000   -32.8968  1735.9108    19.2756    17.0884  1799.8557   111.3049     0.2135     7.8437     0.0993     2.7687
 5040.0000   -32.9381  1735.8245    17.2346    15.9363  1800.0000   106.3658     0.2205     7.8439     0.0647     2.7145
 5040.5000   -33.1805  1735.7380    16.0673    15.1757  1800.1803   100.1138     0.2220     7.8440     0.0215     2.6866
 5041.0000   -33.1704  1735.6517    16.1815    15.4007  1800.3030    95.5763     0.1957     7.8592     0.0069     2.6836
 5041.5000   -33.4642  1735.5654    18.7531    17.9323  1800.4689    90.4346     0.1749     7.8743     0.0091     2.6956
 5042.0000   -33.7555  1735.4791    23.6278    21.9445  1800.6132    86.5014     0.1565     7.8895     0.0151     2.7167
 5042.5000   -33.7453  1735.3927    28.1817    26.4827  1800.7577    86.1935     0.1357     7.9047     0.0241     2.7257
 5043.0000   -33.7356  1735.3064    30.6607    28.9893  1800.9380    87.9991     0.1311     7.9048     0.0279     2.7257
 5043.5000   -33.7249  1735.2201    33.1243    31.0919  1801.0823    89.2018     0.1309     7.9350     0.0264     2.7219
 5044.0000   -33.7124  1735.1338    34.3099    31.5088  1786.0607    90.1024     0.1403     7.9502     0.0234     2.7196
 5044.5000   -33.3983  1735.0475    30.2397    29.1794  1786.2194    89.4924     0.1572     7.9653     0.0211     2.7203
 5045.0000   -33.2362  1734.9611    26.4655    26.8356  1786.3636    84.3493     0.1790     7.9655     0.0211     2.7301
 5045.5000   -32.9222  1734.8748    25.3756    25.5548  1786.5441    72.2590     0.1888     7.9956     0.0248     2.7501
 5046.0000   -32.5268  1734.7885    25.1997    24.8491  1786.6667    57.7517     0.1829     8.0108     0.0241     2.7917
 5046.5000   -32.2915  1734.7021    26.8538    27.0115  1786.8326    44.4529     0.1449     8.0110     0.0181     2.8369
 5047.0000   -32.1293  1734.6157    38.1364    31.9234  1786.9769    28.1118     0.0975     8.0111     0.0151     2.9121
 5047.5000   -32.2712  1734.5294   359.5570    38.5252  1787.1212     9.3947     0.0546     8.0263     0.0151     2.9647
 5048.0000   -32.4134  1734.4431   879.9166    56.5070  1802.4531     6.0657     0.0208     8.0264     0.0188     2.9692
 5048.5000   -32.6357  1734.3568 18251.8438  6631.7251  1802.5974     5.7579     0.0166     8.0266     0.0203     2.9722
 5049.0000   -32.8683  1734.2705 10857.4014  6448.6084  1802.7417     7.5648     0.0175     8.0418     0.0240     2.9782
 5049.5000   -32.9905  1734.1841  5297.3516  5231.6274  1802.8860    11.4006     0.0220     8.0569     0.0308     2.9812
 5050.0000   -33.1299  1734.1600  2389.6826  2588.1030  1803.0303    29.6801     0.0323     8.0871     0.0375     2.9624
 5050.5000   -33.3159  1734.1863  1389.1177  1587.7072  1788.0231    38.2334     0.0482     8.0873     0.0493     2.9119
 5051.0000   -33.5655  1734.2126   331.8801   587.3113  1773.0520    44.4209     0.0665     8.0874     0.0569     2.8600
 5051.5000   -33.5547  1734.2389   124.2667   105.6792  1773.1963    45.3083     0.0698     8.1026     0.0449     2.8141
 5052.0000   -33.6972  1734.2651    44.6155    28.7159  1773.3334    41.0751     0.0635     8.1327     0.0148     2.8110
 5052.5000   -33.6846  1734.2914    39.8894    30.5701  1773.4849    35.6342     0.0412     8.1479     0.0084     2.8281
 5053.0000   -33.8267  1734.3177    68.5278    41.0406  1773.6653    34.7250     0.0416     8.1781     0.0139     2.8893
