~VERSION INFORMATION
 VERS.                2.0:   CWLS LOG ASCII STANDARD - VERSION 2.0
 WRAP.                 NO:   ONE LINE PER DEPTH STEP
~WELL INFORMATION
#MNEM.UNIT      DATA TYPE    INFORMATION
#----------   ------------   ------------------------------
 STRT.F          670.0000:   START DEPTH
 STOP.F         3440.0000:   STOP DEPTH
 STEP.F            0.5000:   STEP LENGTH
 NULL.          -999.2500:   NO VALUE
 COMP.    FENIX & SCISSON:   COMPANY
 WELL.   FENIX "A" #57-33:   WELL
 FLD .             NPR #3:   FIELD
 LOC .      S33 T39N R78W:   LOCATION
 CNTY.            NATRONA:   COUNTY
 STAT.            WYOMING:   STATE
 CTRY. UNITED STATES OF AMERICA:   COUNTRY
 SRVC.       SCHLUMBERGER:   SERVICE COMPANY
 DATE.        27-APR-1977:   LOGDATE
 API .     49025103600000:   API NUMBER
~CURVE INFORMATION
#MNEM.UNIT       API CODE    CURVE DESCRIPTION
#----------   ------------   ------------------------------
 DEPT.F                  :   
 SPR .MV     11 010 01 00:   SPONTANEOUS POTENTIAL FROM RES.
 MSFL.OHMM   11 270 04 00:   MICRO SPHERICALLY FOCUSED
 LLD .OHMM   11 220 10 00:   LATEROLOG LOG DEEP
 LLS .OHMM   11 220 09 00:   LATEROLOG LOG SHALLOW
 CALD.IN     45 280 60 00:   CALIPER FROM DENSITY LOG
 DRHO.G/C3   45 356 01 00:   DENSITY CORRECTION
 NPHI.DEC    42 890 03 00:   NEUTRON POROSITY SANDSTONE
 RHOB.G/C3   45 350 01 00:   BULK DENSITY
 GRD .GAPI   45 310 01 00:   GAMMA RAY FROM RESISTIVITY
~PARAMETER INFORMATION
#MNEM.UNIT          VALUE    DESCRIPTION
#----------   ------------   ------------------------------
 EKB .F         5183.0000:   Kelly bushing
 EGL .F         5172.0000:   Ground level
 EDF .F            0.0000:   Drilling floor
 TD  .F         3424.0000:   Total depth
 DATE.        27-APR-1977:   Date logged
 CLNT.            A2DTECH:   Client Code
 SL  . 990' FSL & 2310' FEL:   Surface Location
 PD  .                 GL:   Permanent Datum
 EPD .F              5172:   Elevation Permanent Datum
 LMF .                 KB:   Log Measured From
 DMF .                 KB:   Drilling Measured From
 DAPD.F                11:   Feet Above Permanent Datum
 DD  .F              3421:   Depth driller
 DL  .F              3424:   Depth logger
 BLI .F              3423:   Bottom log interval
 TLI .F               764:   Top log interval
 CS1 .IN            8.625:   Casing size
 CBD1.      8.625" @ 711':   Casing driller 1
 BS1 .IN            7.875:   Bit size
 BSD1.F              3421:   Depth drilled with bit1
 DFT .            KCL MUD:   Type fluid in hole
 DFD .                9.5:   Density
 DFV .                 41:   Viscosity
 DFPH.                  8:   pH
 DFL .               10.8:   Fluid loss
 MSS .            MUD PIT:   Source of sample
 RMS .OHMM           0.26:   Rm
 MST .F                74:   Rm Meas. temp.
 RMF .OHMM           0.21:   Rmf
 MFST.F                74:   Rmf Meas. temp.
 RMC .OHMM            .09:   Rmc
 MCST.F                74:   Rmc Meas. temp.
 MFSS.               MEAS:   Source Rmf.
 MCSS.               CALC:   Source Rmc.
 RMB .OHMM           0.15:   Rm. at BHT
 BHT .F               126:   BHT.
 TCS .HRS            0900:   Time Circ. stopped
 TLAB.HRS            1430:   Time logger at bottom
 MRT .F               126:   Maximum recorded temp.
 LUN .               7711:   Logging unit number
 LUL .               CSPR:   Logging unit location
 ENGI.             SAYLER:   Recorded By
 WITN.         PETTINGILL:   Witnessed by
 ORIG.           5" PRINT:   Origin of data
 UWI .     49025103600000:   Unique Well ID
 DICO. A2D TECHNOLOGIES, INC.:   Digitizing Company
~OTHER INFORMATION
~A   DEPT      SPR       MSFL        LLD        LLS         CALD      DRHO        NPHI       RHOB      GRD   
# ...
  852.5000   -10.9060    11.2310    11.9810    11.6000     9.3340     0.0100     0.2900     2.5460   124.1530
  853.0000   -10.5740    11.3730    12.0660    11.7120     9.3290     0.0120     0.2880     2.5480   123.6410
  853.5000   -10.2420    11.5140    12.1510    11.8230     9.3250     0.0120     0.2870     2.5410   121.0420
  854.0000    -9.9100    11.5540    12.2090    11.8770     9.3200     0.0040     0.2820     2.5300   117.9340
  854.5000    -9.6230    11.2240    11.9190    11.5630     9.3150    -0.0050     0.2790     2.5370   116.5970
  855.0000    -9.6150    10.9740    11.6990    11.3240     9.3100    -0.0030     0.2780     2.5520   114.8500
  855.5000    -9.8780    10.7230    11.4790    11.0850     9.3060     0.0030     0.2800     2.5700   116.1720
  856.0000   -10.2170    10.4720    11.2590    10.8470     9.3010     0.0090     0.2810     2.5780   118.3350
  856.5000   -10.5590    10.2220    11.0390    10.6080     9.2970     0.0090     0.2800     2.5690   118.5120
  857.0000   -10.9010     9.9710    10.8190    10.3690     9.3260     0.0050     0.2800     2.5560   120.6650
  857.5000   -11.2420     9.7030    10.5400    10.0660     9.3580     0.0040     0.2810     2.5460   122.4020
  858.0000   -11.5830     9.7510    10.5720    10.1820     9.3890     0.0080     0.2780     2.5510   122.5710
  858.5000   -11.9330     9.8420    10.6340    10.2500     9.4160     0.0110     0.2880     2.5480   122.8740
  859.0000   -12.0210     9.9330    10.6950    10.3170     9.4210     0.0070     0.2920     2.5460   122.2030
  859.5000   -11.6840    10.0240    10.7570    10.3850     9.4280     0.0030     0.2960     2.5470   123.5840
  860.0000   -11.3530    10.0660    10.8340    10.4430     9.4360     0.0100     0.3010     2.5460   123.5990
  860.5000   -11.0170     9.8460    10.6520    10.2050     9.4440     0.0090     0.3050     2.5450   124.3250
  861.0000   -10.6850     9.5860    10.3140     9.9510     9.4520     0.0080     0.3090     2.5530   129.0000
  861.5000   -10.3530     9.3270     9.9770     9.6970     9.4600     0.0070     0.3130     2.5540   132.7960
  862.0000   -10.0210     9.0670     9.6400     9.4430     9.4680     0.0110     0.3150     2.5640   134.5850
  862.5000    -9.6900     8.6900     9.3530     9.1890     9.4760     0.0150     0.3200     2.5790   132.3370
  863.0000    -9.3540     8.7640     8.9110     8.9350     9.4840     0.0100     0.3170     2.5860   133.0250
  863.5000    -9.3190     8.8510     8.4360     8.7700     9.4910     0.0120     0.3230     2.5800   131.5650
  864.0000    -9.4670     9.1780     8.2240     8.7700     9.4990     0.0190     0.3290     2.5760   128.3320
  864.5000    -9.6150     9.6110     8.3410     8.9050     9.5070     0.0200     0.3330     2.5590   128.3600
  865.0000    -9.7650     9.9740     8.4430     9.0830     9.5150     0.0170     0.3340     2.5520   129.3550
  865.5000    -9.7690     9.9180     8.5450     9.2680     9.5230     0.0140     0.3360     2.5520   130.7260
  866.0000    -9.5170     9.8690     8.6460     9.2510     9.5310     0.0110     0.3480     2.5460   130.6450
  866.5000    -9.2670     9.8200     8.6900     9.2070     9.5360     0.0090     0.3490     2.5400   130.0630
  867.0000    -9.0200     9.7720     8.6900     9.1620     9.5370     0.0090     0.3390     2.5450   130.7870
  867.5000    -8.7740     9.7230     8.6900     9.1180     9.5380     0.0080     0.3310     2.5470   131.4640
  868.0000    -8.7580     9.6740     8.6900     9.0160     9.5390     0.0070     0.3270     2.5440   131.5270
  868.5000    -9.0430     9.6140     8.7610     9.1110     9.5400     0.0080     0.3280     2.5490   128.4690
  869.0000    -9.3260     9.7020     8.8840     9.2340     9.5410     0.0110     0.3270     2.5540   126.3200
  869.5000    -9.6110     9.8150     9.0080     9.3570     9.5420     0.0110     0.3230     2.5610   126.2470
  870.0000    -9.8950     9.9290     9.1310     9.4800     9.5430     0.0060     0.3170     2.5570   125.1950
  870.5000   -10.1780    10.0420     9.2680     9.6030     9.5440     0.0040     0.3090     2.5490   123.4390
  871.0000   -10.4610    10.0820     9.2680     9.7030     9.5450     0.0040     0.3140     2.5470   122.7990
  871.5000   -10.5280    10.1030     9.2680     9.7030     9.5460     0.0060     0.3170     2.5560   122.9280
  872.0000   -10.3490    10.1230     9.2680     9.7030     9.5470     0.0080     0.3110     2.5620   123.0670
  872.5000   -10.2510    10.1430     9.2680     9.7030     9.5480     0.0120     0.3080     2.5650   125.3390
  873.0000   -10.4000    10.2280     9.3980     9.7430     9.5490     0.0070     0.3080     2.5610   125.7260
  873.5000   -10.5430    10.5870     9.6180     9.9500     9.5500     0.0010     0.3070     2.5550   126.5830
  874.0000   -10.6850    10.9460     9.8380    10.1560     9.5510     0.0020     0.3050     2.5580   126.5560
  874.5000   -10.8120    11.4480     9.9740    10.3630     9.5520     0.0030     0.3080     2.5620   124.4150
  875.0000   -10.7670    11.4020    10.0660    10.5700     9.5530     0.0040     0.3120     2.5660   124.2340
  875.5000   -10.6730    11.3240    10.0660    10.7350     9.5540     0.0050     0.3140     2.5690   124.7910
  876.0000   -10.5800    11.2460    10.0660    10.6240     9.5550     0.0060     0.3150     2.5630   123.5120
  876.5000   -10.4870    11.1690    10.0660    10.6090     9.5560     0.0100     0.2930     2.5620   123.5310
  877.0000   -10.3930    11.0910    10.0660    10.5930     9.5560     0.0140     0.2830     2.5720   122.7600
  877.5000   -10.3000    11.0130    10.0660    10.5770     9.5560     0.0180     0.2850     2.5850   126.0030
  878.0000   -10.2260    10.9360    10.0660    10.5610     9.5560     0.0230     0.2870     2.5940   123.9200
  878.5000   -10.2800    10.8580    10.0660    10.5460     9.5560     0.0240     0.2930     2.5850   122.0440
  879.0000   -10.3370    10.7800    10.0660    10.4670     9.5560     0.0130     0.2990     2.5770   121.9330
  879.5000   -10.3920    10.6300    10.0660    10.3480     9.5420     0.0030     0.3040     2.5690   123.7620
  880.0000   -10.5670    10.3800    10.0660    10.2290     9.5200     0.0070     0.3080     2.5690   123.5140
  880.5000   -10.8410    10.1290    10.0930    10.1100     9.4980     0.0120     0.2980     2.5750   123.1760
  881.0000   -11.1160     9.8780    10.1360     9.9910     9.4760     0.0100     0.2960     2.5750   121.8410
  881.5000   -11.3910     9.6270    10.1790     9.8720     9.4540     0.0120     0.2990     2.5710   121.7740
  882.0000   -11.6670     9.3760    10.2220     9.7530     9.4360     0.0180     0.2960     2.5760   122.9640
  882.5000   -11.9420     9.1830    10.2650     9.6140     9.4360     0.0230     0.2870     2.5860   122.1830
  883.0000   -12.2180     9.1830    10.3080     9.6480     9.4360     0.0290     0.2900     2.5830   122.2950
  883.5000   -12.4940     9.1830    10.3510     9.6890     9.4360     0.0280     0.2940     2.5810   122.1260
  884.0000   -12.7680     9.4240    10.3930     9.7300     9.4360     0.0210     0.2910     2.5670   121.7350
  884.5000   -13.0150     9.7030    10.4430     9.7710     9.4360     0.0160     0.2900     2.5620   122.8070
  885.0000   -13.0750     9.6700    10.3820     9.8110     9.4360     0.0130     0.2920     2.5570   122.2590
  885.5000   -13.1400     9.5960    10.3480     9.8520     9.4460     0.0100     0.3000     2.5520   121.9910
  886.0000   -13.1930     9.5210    10.4270     9.8830     9.4600     0.0080     0.3010     2.5520   120.0120
  886.5000   -13.3080     9.4470    10.4910     9.8590     9.4750     0.0050     0.3020     2.5560   118.4300
  887.0000   -13.4490     9.3720    10.5400     9.7600     9.4900     0.0040     0.3030     2.5580   118.9130
  887.5000   -13.5910     9.2980    10.3020     9.6600     9.5040     0.0050     0.3090     2.5570   121.4790
  888.0000   -13.7340     9.2230    10.1590     9.5270     9.5190     0.0060     0.3000     2.5640   124.0260
  888.5000   -13.7680     9.1830    10.2550     9.5620     9.5340     0.0060     0.3000     2.5690   124.8230
