~VERSION INFORMATION
 VERS.                2.0:   CWLS LOG ASCII STANDARD - VERSION 2.0
 WRAP.                 NO:   ONE LINE PER DEPTH STEP
~WELL INFORMATION
#MNEM.UNIT      DATA TYPE    INFORMATION
#----------   ------------   ------------------------------
 STRT.F            7.5000:   START DEPTH
 STOP.F         5700.0000:   STOP DEPTH
 STEP.F            0.5000:   STEP LENGTH
 NULL.          -999.2500:   NO VALUE
 COMP. FLUOR DANIEL (NPOSR):   COMPANY
 WELL.   FLOUR "X" #52-10:   WELL
 FLD .             NPR #3:   FIELD
 LOC .      S10 T38N R78W:   LOCATION
 CNTY.            NATRONA:   COUNTY
 STAT.            WYOMING:   STATE
 CTRY. UNITED STATES OF AMERICA:   COUNTRY
 SRVC.      WESTERN ATLAS:   SERVICE COMPANY
 DATE.        12-JAN-1996:   LOGDATE
 API .     49025227600000:   API NUMBER
~CURVE INFORMATION
#MNEM.UNIT       API CODE    CURVE DESCRIPTION
#----------   ------------   ------------------------------
 DEPT.F                  :   
 TENR.LBS    11 635 01 00:   TENSION
 GRR .GAPI   11 310 01 00:   GAMMA RAY FROM RESISTIVITY
 LLD .OHMM   11 220 10 00:   LATEROLOG DEEP
 LLS .OHMM   11 220 09 00:   LATEROLOG SHALLOW
 SPR .MV     11 010 01 00:   SPONTANEOUS POTENTIAL
 CALD.IN     45 280 60 00:   CALIPER FROM DENSITY LOG
 TEND.LBS    45 635 01 00:   TENSION FROM DENSITY LOG
 ZCOR.G/C3   45 356 01 00:   DENSITY CORRECTION
 ZDEN.G/C3   45 350 01 00:   BULK DENSITY
 CNC .DEC    42 890 03 00:   NEUTRON POROSITY SANDSTONE
~PARAMETER INFORMATION
#MNEM.UNIT          VALUE    DESCRIPTION
#----------   ------------   ------------------------------
 EKB .F         5196.0000:   Kelly bushing
 EGL .F         5186.0000:   Ground level
 EDF .F         5195.0000:   Drilling floor
 TD  .F         5699.0000:   Total depth
 DATE.        12-JAN-1996:   Date logged
 CLNT.            A2DTECH:   Client Code
 SL  . 1032' FNL & 2536' FEL:   Surface Location
 PD  .                 GL:   Permanent Datum
 EPD .F              5186:   Elevation Permanent Datum
 LMF .                 KB:   Log Measured From
 DMF .                 KB:   Drilling Measured From
 DAPD.F                11:   Feet Above Permanent Datum
 DD  .F              5699:   Depth driller
 DL  .F              5699:   Depth logger
 BLI .F              5687:   Bottom log interval
 CS1 .IN            9.625:   Casing size
 CBD1.      9.625" @ 520':   Casing driller 1
 CBL1.F               522:   Casing logger 1
 BS1 .IN             8.75:   Bit size
 BSD1.F              5699:   Depth drilled with bit1
 DFT .               CHEM:   Type fluid in hole
 DFD .                9.8:   Density
 DFV .                 50:   Viscosity
 DFPH.                9.5:   pH
 DFL .                8.4:   Fluid loss
 MSS .           FLOWLINE:   Source of sample
 RMS .OHMM          0.515:   Rm
 MST .F                66:   Rm Meas. temp.
 RMF .OHMM          0.499:   Rmf
 MFST.F                66:   Rmf Meas. temp.
 RMC .OHMM          0.761:   Rmc
 MCST.F                66:   Rmc Meas. temp.
 MFSS.               MEAS:   Source Rmf.
 MCSS.               MEAS:   Source Rmc.
 RMB .OHMM          0.233:   Rm. at BHT
 BHT .F               174:   BHT.
 TCS .HRS               6:   Time Circ. stopped
 MRT .F               174:   Maximum recorded temp.
 LUN .            HL 6530:   Logging unit number
 LUL .             CASPER:   Logging unit location
 ENGI.        VERN RAUTIO:   Recorded By
 WITN. LAFRENIERE/OPSAL/HARDY:   Witnessed by
 ORIG.     2.5", 5" PRINT:   Origin of data
 UWI .     49025227600000:   Unique Well ID
 DICO. A2D TECHNOLOGIES, INC.:   Digitizing Company
~OTHER INFORMATION
~A    DEPT    TENR         GRR       LLD        LLS        SPR       CALD       TEND       ZCOR       ZDEN        CNC   
# ...
 5300.5000    34.9630   105.0060    33.3410    18.2940   -82.8770    10.2100    -9.4700     0.0140     2.7020     0.1770
 5301.0000    21.9160   105.8430    35.8000    20.2800   -83.0090    10.2120   -13.2860     0.0200     2.7100     0.1680
 5301.5000     8.8680   105.0170    37.7640    21.0930   -83.1420    10.2130   -17.1030     0.0250     2.7200     0.1570
 5302.0000    -4.1790    98.8110    37.9300    21.2420   -83.2750    10.2150   -20.9200     0.0310     2.7230     0.1460
 5302.5000   -10.6640    92.6980    38.0810    20.6910   -83.4070    10.2170   -24.5100     0.0250     2.7160     0.1360
 5303.0000    -0.2210    89.4800    36.9630    19.8620   -83.5400    10.2180   -30.3490     0.0160     2.7110     0.1340
 5303.5000     6.5390    90.8230    35.9340    19.0060   -83.6730    10.2200   -35.8610     0.0110     2.7090     0.1380
 5304.0000     6.5390    93.4230    34.7110    18.6570   -83.8070    10.2220   -41.3730     0.0080     2.7080     0.1430
 5304.5000     6.5390    96.0130    34.8840    18.8080   -83.9420    10.2230   -36.4560     0.0080     2.7070     0.1470
 5305.0000     6.5390    97.3450    35.0340    19.3860   -83.6640    10.2250   -21.1920     0.0080     2.7030     0.1480
 5305.5000    20.9700    95.5890    35.0340    20.0930   -83.3160    10.2270    -5.9280     0.0080     2.6960     0.1470
 5306.0000    37.2860    93.6910    35.0340    19.3510   -82.9730    10.2280     9.3360     0.0080     2.6890     0.1470
 5306.5000    53.6030    93.1820    31.3210    17.5850   -82.7230    10.2300    24.6000     0.0080     2.6830     0.1550
 5307.0000    41.1470    95.7620    27.4440    15.1010   -82.7280    10.2310    30.7060     0.0080     2.6860     0.1630
 5307.5000    26.6600    98.7930    23.5670    13.1960   -82.7270    10.2330    20.7840     0.0080     2.6920     0.1710
 5308.0000    26.6600    98.8210    20.0440    11.9890   -82.6990    10.2350    13.0350     0.0110     2.6990     0.1760
 5308.5000    26.6600    98.9410    19.5740    11.4170   -82.5430    10.2360     8.7210     0.0150     2.6990     0.1760
 5309.0000    26.6600    99.5470    19.0060    11.5750   -82.3890    10.2380     4.4080     0.0180     2.6950     0.1770
 5309.5000    25.4840    98.6630    19.4090    11.9150   -82.2360    10.2400     0.0940     0.0220     2.6980     0.1780
 5310.0000    19.9880    95.8010    19.9170    12.3880   -82.0830    10.2410    -4.2200     0.0260     2.7020     0.1770
 5310.5000    14.4920    92.1800    20.2800    12.9990   -81.9310    10.2430    -8.5340     0.0260     2.7060     0.1750
 5311.0000     8.9960    90.7150    20.1750    12.9590   -81.7610    10.2450   -12.8470     0.0230     2.7050     0.1740
 5311.5000    -3.5210    91.3840    19.3710    12.9020   -81.9100    10.2460   -17.1610     0.0200     2.7010     0.1760
 5312.0000    -3.5210    92.2180    18.5680    12.6160   -81.8390    10.2480   -21.4750     0.0180     2.6930     0.1770
 5312.5000    -3.5210    92.3300    17.7640    12.1700   -81.7870    10.2470   -22.8760     0.0160     2.6920     0.1790
 5313.0000     6.0510    92.0740    17.2950    11.7240   -81.7370    10.2420   -17.3640     0.0160     2.6940     0.1800
 5313.5000    17.2390    90.0780    16.6940    11.4170   -81.3820    10.2370   -11.8520     0.0160     2.6970     0.1810
 5314.0000    26.6600    88.0720    16.7570    11.4170   -80.9320    10.2320    -6.3400     0.0150     2.6920     0.1810
 5314.5000    26.6600    86.0730    16.9160    11.4790   -80.4800    10.2260    -0.8280     0.0130     2.6830     0.1810
 5315.0000    26.6600    84.0790    17.2610    11.5860   -80.0280    10.2210     4.6840     0.0110     2.6790     0.1820
 5315.5000    34.6750    83.0780    17.6060    11.6920   -79.5750    10.2160    10.1960     0.0100     2.6810     0.1860
 5316.0000    52.0790    83.2740    17.9780    11.7990   -79.1060    10.2100    14.7060     0.0080     2.6870     0.1920
 5316.5000    41.6700    83.2750    19.6290    12.4600   -78.5510    10.1900    14.7060     0.0120     2.6940     0.1840
 5317.0000    -3.2530    79.4250    21.4390    13.6150   -77.9700    10.1650     8.5880     0.0180     2.7390     0.1660
 5317.5000   -22.8690    73.3280    27.2800    16.2080   -77.3880    10.1400   -21.1760     0.0220     2.7840     0.1340
 5318.0000   -21.0050    57.5590    58.5040    26.9310   -76.8060    10.1150   -44.1180     0.0110     2.8560     0.0910
 5318.5000   -19.1400    41.7570   103.7630    60.9570   -76.2250    10.0920   -44.1180     0.0010     2.9240     0.0550
 5319.0000   -17.2750    27.5230   151.4630   103.8680   -75.6430    10.0890   -44.1180     0.0020     2.9640     0.0270
 5319.5000   -15.4100    21.1920   261.6560   139.5230   -75.0610    10.0870   -44.1180     0.0040     2.9830     0.0170
 5320.0000   -13.5810    19.4870   323.5470   161.7660   -74.4780    10.0860   -44.1180     0.0060     2.9980     0.0110
 5320.5000   -14.9820    18.3800   386.5300   175.6680   -74.0460    10.0840   -44.1180     0.0070     2.9940     0.0100
 5321.0000   -16.3560    16.2760   440.6810   263.4970   -73.7110    10.0830   -44.1180     0.0010     2.9770     0.0100
 5321.5000   -17.7300    14.2120   456.2250   351.9680   -73.3770    10.0810   -44.1180    -0.0060     2.9420     0.0110
 5322.0000   -19.1040    14.2720   286.3390   263.5130   -73.0440    10.0800   -44.1180    -0.0030     2.9350     0.0180
 5322.5000   -20.4780    16.5250   167.2430   169.0530   -72.7060    10.0780   -44.1180     0.0050     2.9020     0.0280
 5323.0000   -21.8520    22.3570    53.6540    74.5920   -72.3090    10.0760   -44.1180     0.0120     2.8440     0.0390
 5323.5000   -23.2260    28.7740    41.3930    37.7300   -71.8860    10.0750   -44.1180     0.0190     2.7700     0.0500
 5324.0000   -25.9180    35.2240    42.1670    38.6630   -71.4630    10.0730   -44.1180     0.0260     2.7850     0.0590
 5324.5000   -29.1810    36.2440    50.5860    48.3620   -71.0390    10.0720   -46.1760     0.0330     2.8370     0.0560
 5325.0000   -32.4450    33.8430   107.6840    99.2740   -70.6160    10.0700   -49.7200     0.0200     2.8850     0.0370
 5325.5000   -40.8340    28.8650   179.0670   178.1980   -70.1910    10.0680   -53.2630    -0.0020     2.9430     0.0180
 5326.0000   -52.4370    21.8700   245.2230   257.1220   -69.9750    10.0670   -56.8070    -0.0100     2.9500     0.0180
 5326.5000   -53.8230    22.7980   269.0310   300.6720   -69.9190    10.0650   -60.3500    -0.0190     2.9180     0.0220
 5327.0000   -53.8230    33.8050   175.0630   198.3030   -69.8670    10.0640   -63.8940    -0.0080     2.8590     0.0390
 5327.5000   -54.4820    50.2680   102.9190   119.7100   -69.8150    10.0620   -67.4370     0.0050     2.8000     0.0620
 5328.0000   -58.0830    66.8710    57.2510    67.7900   -69.7630    10.0600   -70.9800     0.0190     2.7400     0.0860
 5328.5000   -61.6840    80.9240    49.8210    61.6540   -69.7110    10.0590   -74.5240     0.0330     2.6940     0.1070
 5329.0000   -65.2850    89.1830    53.7230    62.8080   -69.6600    10.0570   -78.0670     0.0390     2.6970     0.1090
 5329.5000   -68.8860    88.6260    66.3460    70.6150   -69.6190    10.0560   -81.6110     0.0310     2.7100     0.1020
 5330.0000   -72.4870    85.4280   104.8000    88.8200   -69.0740    10.0540  -108.8240     0.0250     2.7540     0.0950
 5330.5000   -72.4630    70.0850   143.2540   134.0150   -68.4200    10.0520  -108.1960     0.0180     2.8050     0.0700
 5331.0000   -69.9770    55.0180   181.7090   175.6680   -67.7620    10.0510   -88.3530     0.0110     2.8550     0.0450
 5331.5000   -67.4910    40.0030   285.2610   262.7120   -67.1070    10.0490   -83.3330     0.0050     2.9090     0.0260
 5332.0000   -65.0040    25.1520   580.4810   484.3940   -66.4460    10.0480   -83.3330    -0.0020     2.9460     0.0100
 5332.5000   -65.7330    16.9520  1131.2150   839.4140   -66.1370    10.0460   -83.3330    -0.0030     2.9620     0.0030
 5333.0000   -69.1020    14.3740  3024.5149  1707.5780   -66.0800    10.0440   -83.3330     0.0000     2.9560     0.0010
 5333.5000   -72.4700    15.5830  5778.2271  2727.9651   -66.0270    10.0430   -83.3330     0.0020     2.9230     0.0030
