~VERSION INFORMATION
 VERS.                2.0:   CWLS LOG ASCII STANDARD - VERSION 2.0
 WRAP.                 NO:   ONE LINE PER DEPTH STEP
~WELL INFORMATION
#MNEM.UNIT      DATA TYPE    INFORMATION
#----------   ------------   ------------------------------
 STRT.F           10.0000:   START DEPTH
 STOP.F         4008.0000:   STOP DEPTH
 STEP.F            0.5000:   STEP LENGTH
 NULL.          -999.2500:   NO VALUE
 COMP. LAWRENCE ALLISON & ASSOC.:   COMPANY
 WELL. LAWRENCE NPR 3 "AX" #75-28:   WELL
 FLD .                NPR:   FIELD
 LOC .      S28 T39N R78W:   LOCATION
 CNTY.            NATRONA:   COUNTY
 STAT.            WYOMING:   STATE
 CTRY. UNITED STATES OF AMERICA:   COUNTRY
 SRVC.      DRESSER ATLAS:   SERVICE COMPANY
 DATE.        28-APR-1983:   LOGDATE
 API .     49025109060000:   API NUMBER
~CURVE INFORMATION
#MNEM.UNIT       API CODE    CURVE DESCRIPTION
#----------   ------------   ------------------------------
 DEPT.F                  :   
 RHOB.G/C3   45 350 01 00:   BULK DENSITY
 CORR.G/C3   45 356 01 00:   DENSITY CORRECTION
 TEND.LBS    45 635 01 00:   TENSION FROM DENSITY LOG
 NPHI.DEC    42 890 03 00:   NEUTRON POROSITY SANDSTONE
 GRR .GAPI   07 310 01 00:   GAMMA RAY FROM RESISTIVITY
 CALR.IN     07 280 01 00:   CALIPER FROM RESISTIVITY
 RFOC.OHMM   07 220 01 00:   RESISTIVITY FOCUSED LOG RES.
 RILD.OHMM   07 120 46 00:   DEEP INDUCTION RESISTIVITY
 TENR.LBS    01 635 01 00:   TENSION FROM RES.
 RILM.OHMM   07 120 44 00:   INDUCTION LOG MEDIUM RESISTIVITY
 TENS.LBS    60 635 01 00:   TENSION FROM SONIC LOG
 DT  .US/F   60 520 00 00:   DELTA TIME
 SPR .MV     07 010 01 00:   SPONTANEOUS POTENTIAL
~PARAMETER INFORMATION
#MNEM.UNIT          VALUE    DESCRIPTION
#----------   ------------   ------------------------------
 EKB .F         5068.0000:   Kelly bushing
 EGL .F         5058.0000:   Ground level
 EDF .F            0.0000:   Drilling floor
 TD  .F         4003.0000:   Total depth
 DATE.        28-APR-1983:   Date logged
 CLNT.            A2DTECH:   Client Code
 SL  . 2100' FSL & 1050' FEL:   Surface Location
 PD  .                 GL:   Permanent Datum
 EPD .F              5058:   Elevation Permanent Datum
 LMF .                 KB:   Log Measured From
 DMF .                 KB:   Drilling Measured From
 DAPD.F                10:   Feet Above Permanent Datum
 DD  .F              4000:   Depth driller
 DL  .F              4003:   Depth logger
 BLI .F              4000:   Bottom log interval
 CS1 .IN            8.625:   Casing size
 CBD1.      8.625" @ 498':   Casing driller 1
 CBL1.F               497:   Casing logger 1
 BS1 .IN            7.875:   Bit size
 BSD1.F              4000:   Depth drilled with bit1
 DFT .            KCL/GEL:   Type fluid in hole
 DFD .                  9:   Density
 DFV .                 43:   Viscosity
 DFPH.                8.5:   pH
 DFL .               12.4:   Fluid loss
 MSS .           MUD/TANK:   Source of sample
 RMS .OHMM            .45:   Rm
 MST .F                43:   Rm Meas. temp.
 RMF .OHMM            .27:   Rmf
 MFST.F                51:   Rmf Meas. temp.
 RMC .OHMM            .56:   Rmc
 MCST.F                43:   Rmc Meas. temp.
 MFSS.               MEAS:   Source Rmf.
 MCSS.               CALC:   Source Rmc.
 RMB .OHMM            .16:   Rm. at BHT
 BHT .F               121:   BHT.
 TCS .HRS               7:   Time Circ. stopped
 MRT .F               121:   Maximum recorded temp.
 LUN .               6274:   Logging unit number
 LUL .               GLTE:   Logging unit location
 ENGI.            WACDELL:   Recorded By
 WITN.             STRONG:   Witnessed by
 ORIG.           5" PRINT:   Origin of data
 UWI .     49025109060000:   Unique Well ID
 DICO. A2D TECHNOLOGIES, INC.:   Digitizing Company
~OTHER INFORMATION
~A   DEPT     RHOB       CORR       TEND       NPHI         GRR      CALR       RFOC       RILD       TENR       RILM       TENS         DT        SPR   
# ...
 1908.0000  -999.2500  -999.2500  -999.2500  -999.2500   114.7920     9.6400     8.8780     7.9090   -59.6190     8.1750  -999.2500  -999.2500   -35.9890
 1908.5000  -999.2500  -999.2500  -999.2500  -999.2500   112.6690     9.6450     8.6360     7.8500   -59.6190     8.1020  -999.2500  -999.2500   -36.0050
 1909.0000  -999.2500  -999.2500  -999.2500  -999.2500   109.8740     9.6510     8.4070     7.7920   -59.6190     8.0280  -999.2500  -999.2500   -36.1150
 1909.5000  -999.2500  -999.2500  -999.2500  -999.2500   106.7410     9.6570     8.2460     7.7340   -59.6190     7.9470  -999.2500  -999.2500   -36.3080
 1910.0000  -999.2500  -999.2500  -999.2500  -999.2500   104.1100     9.6630     8.5070     7.6590   -59.6190     7.9660  -999.2500  -999.2500   -36.5440
 1910.5000  -999.2500  -999.2500  -999.2500  -999.2500   103.3360     9.6690     8.7080     7.6930   -59.6190     7.9860  -999.2500  -999.2500   -36.7790
 1911.0000  -999.2500  -999.2500  -999.2500  -999.2500   105.2560     9.6730     8.8780     7.7400   -59.6190     8.0060  -999.2500  -999.2500   -36.9750
 1911.5000  -999.2500  -999.2500  -999.2500  -999.2500   109.0280     9.6750     8.8840     7.7860   -59.6190     8.0250  -999.2500  -999.2500   -37.1060
 1912.0000  -999.2500  -999.2500  -999.2500  -999.2500   112.3110     9.6750     8.8930     7.8330   -59.6190     8.0450  -999.2500  -999.2500   -37.1610
 1912.5000  -999.2500  -999.2500  -999.2500  -999.2500   113.0170     9.6750     8.9010     7.8800   -59.6190     8.0650  -999.2500  -999.2500   -37.1520
 1913.0000  -999.2500  -999.2500  -999.2500  -999.2500   111.0450     9.6750     8.9090     7.9260   -59.6190     8.0850  -999.2500  -999.2500   -37.1090
 1913.5000  -999.2500  -999.2500  -999.2500  -999.2500   108.3040     9.6750     8.9170     7.9730   -59.6190     8.1050  -999.2500  -999.2500   -37.0620
 1914.0000  -999.2500  -999.2500  -999.2500  -999.2500   107.0000     9.6750     8.9260     8.0190   -59.6190     8.1250  -999.2500  -999.2500   -37.0250
 1914.5000  -999.2500  -999.2500  -999.2500  -999.2500   107.9170     9.6750     8.9340     8.0660   -59.6190     8.1450  -999.2500  -999.2500   -36.9950
 1915.0000  -999.2500  -999.2500  -999.2500  -999.2500   110.2350     9.6750     8.9420     8.1120   -59.6190     8.1650  -999.2500  -999.2500   -36.9650
 1915.5000  -999.2500  -999.2500  -999.2500  -999.2500   112.5760     9.6750     8.9500     8.1590   -59.6190     8.1850  -999.2500  -999.2500   -36.9310
 1916.0000  -999.2500  -999.2500  -999.2500  -999.2500   113.9600     9.6750     8.9590     8.2060   -59.6190     8.2050  -999.2500  -999.2500   -36.8960
 1916.5000  -999.2500  -999.2500  -999.2500  -999.2500   113.9180     9.6740     8.9670     8.2460   -59.6190     8.2250  -999.2500  -999.2500   -36.8590
 1917.0000  -999.2500  -999.2500  -999.2500  -999.2500   112.3240     9.6690     8.9750     8.2460   -59.6190     8.2460  -999.2500  -999.2500   -36.8220
 1917.5000  -999.2500  -999.2500  -999.2500  -999.2500   109.5520     9.6630     8.9830     8.1900   -59.6190     8.2460  -999.2500  -999.2500   -36.7860
 1918.0000  -999.2500  -999.2500  -999.2500  -999.2500   106.6730     9.6560     8.9920     8.1300   -59.6190     8.2160  -999.2500  -999.2500   -36.7590
 1918.5000  -999.2500  -999.2500  -999.2500  -999.2500   104.9730     9.6490     9.0000     8.0710   -59.6190     8.1750  -999.2500  -999.2500   -36.7450
 1919.0000  -999.2500  -999.2500  -999.2500  -999.2500   104.9390     9.6420     9.0080     8.0110   -59.6190     8.1350  -999.2500  -999.2500   -36.7430
 1919.5000  -999.2500  -999.2500  -999.2500  -999.2500   105.9380     9.6360     9.0160     7.9520   -59.6190     8.0950  -999.2500  -999.2500   -36.7460
 1920.0000  -999.2500  -999.2500  -999.2500  -999.2500   107.0630     9.6290     9.0240     7.8920   -59.6190     8.0540  -999.2500  -999.2500   -36.7480
 1920.5000  -999.2500  -999.2500  -999.2500  -999.2500   108.2630     9.6220     9.0330     7.8330   -59.6190     8.0140  -999.2500  -999.2500   -36.7480
 1921.0000  -999.2500  -999.2500  -999.2500  -999.2500   110.3260     9.6160     9.0440     7.7730   -59.6190     7.9740  -999.2500  -999.2500   -36.7460
 1921.5000  -999.2500  -999.2500  -999.2500  -999.2500   113.7120     9.6090     8.8720     7.7140   -59.6190     7.9330  -999.2500  -999.2500   -36.7460
 1922.0000  -999.2500  -999.2500  -999.2500  -999.2500   117.5620     9.6020     8.6190     7.6540   -59.6190     7.8930  -999.2500  -999.2500   -36.7460
 1922.5000  -999.2500  -999.2500  -999.2500  -999.2500   120.1160     9.5960     8.3660     7.5940   -59.6190     7.8530  -999.2500  -999.2500   -36.7470
 1923.0000  -999.2500  -999.2500  -999.2500  -999.2500   120.1060     9.5890     7.9470     7.5190   -59.6190     7.8020  -999.2500  -999.2500   -36.7470
 1923.5000  -999.2500  -999.2500  -999.2500  -999.2500   117.7720     9.5820     7.9470     7.5920   -59.6190     7.8020  -999.2500  -999.2500   -36.7470
 1924.0000  -999.2500  -999.2500  -999.2500  -999.2500   114.6930     9.5760     8.3450     7.6890   -59.6190     7.8610  -999.2500  -999.2500   -36.7470
 1924.5000  -999.2500  -999.2500  -999.2500  -999.2500   112.5980     9.5690     8.6410     7.7870   -59.6190     7.9050  -999.2500  -999.2500   -36.7470
 1925.0000  -999.2500  -999.2500  -999.2500  -999.2500   112.0640     9.5620     8.8780     7.8840   -59.6190     7.9490  -999.2500  -999.2500   -36.7470
 1925.5000  -999.2500  -999.2500  -999.2500  -999.2500   112.0740     9.5530     8.8830     7.9820   -59.6190     7.9930  -999.2500  -999.2500   -36.7470
 1926.0000  -999.2500  -999.2500  -999.2500  -999.2500   110.9110     9.5420     8.8900     8.0960   -59.6190     8.0360  -999.2500  -999.2500   -36.7470
 1926.5000  -999.2500  -999.2500  -999.2500  -999.2500   107.8470     9.5270     8.8970     8.0850   -60.3730     8.0960  -999.2500  -999.2500   -36.7460
 1927.0000  -999.2500  -999.2500  -999.2500  -999.2500   104.1130     9.5110     8.9030     8.0720   -60.9860     8.0960  -999.2500  -999.2500   -36.7460
 1927.5000  -999.2500  -999.2500  -999.2500  -999.2500   102.0410     9.4960     8.9100     8.0600   -61.5990     8.0850  -999.2500  -999.2500   -36.7480
 1928.0000  -999.2500  -999.2500  -999.2500  -999.2500   102.9990     9.4810     8.9160     8.0470   -62.2120     8.0790  -999.2500  -999.2500   -36.7520
 1928.5000  -999.2500  -999.2500  -999.2500  -999.2500   106.1700     9.4660     8.9230     8.0350   -62.8260     8.0730  -999.2500  -999.2500   -36.7580
 1929.0000  -999.2500  -999.2500  -999.2500  -999.2500   109.3880     9.4510     8.9290     8.0220   -63.4390     8.0650  -999.2500  -999.2500   -36.7640
 1929.5000  -999.2500  -999.2500  -999.2500  -999.2500   111.0500     9.4350     8.9360     8.0090   -64.0520     8.0600  -999.2500  -999.2500   -36.7700
 1930.0000  -999.2500  -999.2500  -999.2500  -999.2500   111.0920     9.4180     8.9430     7.9970   -64.6650     8.0530  -999.2500  -999.2500   -36.7760
 1930.5000  -999.2500  -999.2500  -999.2500  -999.2500   110.2970     9.4050     8.9490     7.9840   -65.2790     8.0470  -999.2500  -999.2500   -36.7820
 1931.0000  -999.2500  -999.2500  -999.2500  -999.2500   109.2090     9.3970     8.9560     7.9720   -65.8920     8.0410  -999.2500  -999.2500   -36.7880
 1931.5000  -999.2500  -999.2500  -999.2500  -999.2500   107.8960     9.3960     8.9620     7.9590   -66.5050     8.0340  -999.2500  -999.2500   -36.7940
 1932.0000  -999.2500  -999.2500  -999.2500  -999.2500   106.5440     9.3990     8.9690     7.9470   -67.1190     8.0280  -999.2500  -999.2500   -36.8000
 1932.5000  -999.2500  -999.2500  -999.2500  -999.2500   105.8190     9.4040     8.9750     7.9340   -67.7320     8.0210  -999.2500  -999.2500   -36.8060
 1933.0000  -999.2500  -999.2500  -999.2500  -999.2500   106.4170     9.4070     8.9820     7.9210   -68.3450     8.0150  -999.2500  -999.2500   -36.8120
 1933.5000  -999.2500  -999.2500  -999.2500  -999.2500   108.3730     9.4100     8.9880     7.9090   -68.9580     8.0090  -999.2500  -999.2500   -36.8180
