~VERSION INFORMATION
 VERS.                2.0:   CWLS LOG ASCII STANDARD - VERSION 2.0
 WRAP.                 NO:   ONE LINE PER DEPTH STEP
~WELL INFORMATION
#MNEM.UNIT      DATA TYPE    INFORMATION
#----------   ------------   ------------------------------
 STRT.F          150.0000:   START DEPTH
 STOP.F         2980.0000:   STOP DEPTH
 STEP.F            0.5000:   STEP LENGTH
 NULL.          -999.2500:   NO VALUE
 COMP. FENIX & SCISSION U.S. NAVY:   COMPANY
 WELL.   FENIX "A" #84-20:   WELL
 FLD .             NPR #3:   FIELD
 LOC .      S20 T39N R78W:   LOCATION
 CNTY.            NATRONA:   COUNTY
 STAT.            WYOMING:   STATE
 CTRY. UNITED STATES OF AMERICA:   COUNTRY
 SRVC.       SCHLUMBERGER:   SERVICE COMPANY
 DATE.        21-FEB-1977:   LOGDATE
 API .     49025103020000:   API NUMBER
~CURVE INFORMATION
#MNEM.UNIT       API CODE    CURVE DESCRIPTION
#----------   ------------   ------------------------------
 DEPT.F                  :   
 NPHI.DEC    42 890 03 00:   NEUTRON POROSITY SANDSTONE
 GRD .GAPI   45 310 01 00:   GAMMA RAY FROM DENSITY LOG
 CALD.IN     45 280 60 00:   CALIPER FROM DENSITY LOG
 RHOB.G/C3   45 350 01 00:   BULK DENSITY
 DCOR.G/C3   45 356 01 00:   DENSITY CORRECTION
 SPR .MV     07 010 01 00:   SPONTANEOUS POTENTIAL
 LLD .OHMM   11 220 10 00:   LATEROLOG DEEP
 LLS .OHMM   11 220 09 00:   LATEROLOG SHALLOW
 MSFL.OHMM   07 270 04 00:   MICRO SPHERICALLY FOCUSED RES.
~PARAMETER INFORMATION
#MNEM.UNIT          VALUE    DESCRIPTION
#----------   ------------   ------------------------------
 EKB .F         5006.0000:   Kelly bushing
 EGL .F         4996.0000:   Ground level
 EDF .F            0.0000:   Drilling floor
 TD  .F         2973.0000:   Total depth
 DATE.        21-FEB-1977:   Date logged
 CLNT.            A2DTECH:   Client Code
 SL  . 330' FEL & 2310' FNL:   Surface Location
 PD  .                 GL:   Permanent Datum
 EPD .F              4996:   Elevation Permanent Datum
 LMF .                 KB:   Log Measured From
 DMF .                 KB:   Drilling Measured From
 DAPD.F                10:   Feet Above Permanent Datum
 DD  .F              2973:   Depth driller
 DL  .F              2971:   Depth logger
 BLI .F              2970:   Bottom log interval
 TLI .F               164:   Top log interval
 CS1 .IN            8.625:   Casing size
 CBD1.      8.625" @ 167':   Casing driller 1
 CBL1.F               164:   Casing logger 1
 BS1 .IN            7.875:   Bit size
 BSD1.F              2973:   Depth drilled with bit1
 DFT .            KCL MUD:   Type fluid in hole
 DFD .                9.5:   Density
 DFV .                 35:   Viscosity
 DFPH.                6.5:   pH
 DFL .                 11:   Fluid loss
 MSS .              CIRC.:   Source of sample
 RMS .OHMM           0.27:   Rm
 MST .F                72:   Rm Meas. temp.
 RMF .OHMM           0.19:   Rmf
 MFST.F                72:   Rmf Meas. temp.
 RMC .OHMM           0.35:   Rmc
 MCST.F                72:   Rmc Meas. temp.
 MFSS.               MEAS:   Source Rmf.
 MCSS.               CALC:   Source Rmc.
 RMB .OHMM           0.18:   Rm. at BHT
 BHT .F               110:   BHT.
 TCS .HRS            0300:   Time Circ. stopped
 TLAB.HRS            1000:   Time logger at bottom
 MRT .F               110:   Maximum recorded temp.
 LUN .               7711:   Logging unit number
 LUL .               CSPR:   Logging unit location
 ENGI.             SAYLER:   Recorded By
 WITN.               JAPP:   Witnessed by
 ORIG.           5" PRINT:   Origin of data
 UWI .     49025103020000:   Unique Well ID
 DICO. A2D TECHNOLOGIES, INC.:   Digitizing Company
~OTHER INFORMATION
~A   DEPT       NPHI       GRD      CALD       RHOB       DCOR        SPR        LLD        LLS       MSFL   
  150.0000     0.5000    70.4330  -999.2500  -999.2500  -999.2500  -999.2500  -999.2500  -999.2500  -999.2500
  150.5000     0.5000    70.5560  -999.2500  -999.2500  -999.2500  -999.2500  -999.2500  -999.2500  -999.2500
  151.0000     0.5000    73.4360  -999.2500  -999.2500  -999.2500  -999.2500  -999.2500  -999.2500  -999.2500
  151.5000     0.5000    74.6270  -999.2500  -999.2500  -999.2500  -999.2500  -999.2500  -999.2500  -999.2500
  152.0000     0.5000    74.4910  -999.2500     2.1660    -0.2140  -999.2500  -999.2500  -999.2500  -999.2500
  152.5000     0.4910    74.3310  -999.2500     2.1710    -0.2030  -999.2500  -999.2500  -999.2500  -999.2500
  153.0000     0.4820    74.1620  -999.2500     2.1910    -0.1960  -999.2500  -999.2500  -999.2500  -999.2500
  153.5000     0.4670    73.9910  -999.2500     2.2100    -0.1960  -999.2500  -999.2500  -999.2500  -999.2500
  154.0000     0.4560    73.8170  -999.2500     2.2090    -0.2030  -999.2500  -999.2500  -999.2500  -999.2500
  154.5000     0.4610    73.7030  -999.2500     2.1990    -0.2170  -999.2500  -999.2500  -999.2500  -999.2500
  155.0000     0.4650    73.6090  -999.2500     2.2090    -0.2140  -999.2500  -999.2500  -999.2500  -999.2500
  155.5000     0.4680    72.8270  -999.2500     2.2310    -0.2120  -999.2500  -999.2500  -999.2500  -999.2500
  156.0000     0.4710    71.2800  -999.2500     2.2430    -0.2210  -999.2500  -999.2500  -999.2500  -999.2500
  156.5000     0.4750    69.6930  -999.2500     2.2490    -0.2290  -999.2500  -999.2500  -999.2500  -999.2500
  157.0000     0.4800    68.6270  -999.2500     2.2420    -0.2340  -999.2500  -999.2500  -999.2500  -999.2500
  157.5000     0.4810    67.7040  -999.2500     2.2170    -0.2550  -999.2500  -999.2500  -999.2500  -999.2500
  158.0000     0.4760    66.8890  -999.2500     2.1980    -0.2610  -999.2500  -999.2500  -999.2500  -999.2500
  158.5000     0.4820    67.1570  -999.2500     2.2220    -0.2400  -999.2500  -999.2500  -999.2500  -999.2500
  159.0000     0.4850    68.0280  -999.2500     2.2370    -0.2250  -999.2500  -999.2500  -999.2500  -999.2500
  159.5000     0.4850    69.8280  -999.2500     2.2240    -0.2160  -999.2500  -999.2500  -999.2500  -999.2500
  160.0000     0.4750    72.4130     8.4500     2.2440    -0.2090  -999.2500  -999.2500  -999.2500  -999.2500
  160.5000     0.4780    74.9770     8.4970     2.2460    -0.2050  -999.2500  -999.2500  -999.2500  -999.2500
  161.0000     0.4540    75.3390     8.5770     2.2540    -0.2000  -999.2500  -999.2500  -999.2500  -999.2500
  161.5000     0.4260    75.6410     8.5530     2.2660    -0.1900  -999.2500     0.3000  -999.2500  -999.2500
  162.0000     0.3980    76.4380     8.4550     2.2690    -0.1580  -999.2500     0.2910  -999.2500  -999.2500
  162.5000     0.3700    79.1340     8.4370     2.3830    -0.0620  -999.2500     0.2820  -999.2500  -999.2500
  163.0000     0.3420    81.7000     8.5100     2.4890     0.0850  -999.2500     0.2710  -999.2500  -999.2500
  163.5000     0.3260    84.3150     8.5900     2.4420     0.1260  -999.2500     0.2790  -999.2500  -999.2500
  164.0000     0.3190    85.1050     8.9880     2.3910     0.0630  -999.2500     0.2900  -999.2500     6.7600
  164.5000     0.3230    85.1780     9.0520     2.4290     0.0510  -999.2500     0.3020    10.6000     6.2810
  165.0000     0.3250    86.0660     8.9400     2.4500     0.0540  -999.2500     0.3040    13.2020    10.3180
  165.5000     0.3250    88.3640     9.0960     2.4490     0.0510  -999.2500     0.3050    14.1040     9.8610
  166.0000     0.3160    90.3130     9.2890     2.4520     0.0470    -1.9040     0.3060    14.1040     8.9070
  166.5000     0.3130    90.7840     9.4420     2.4480     0.0490    -3.4920     0.3080    14.1040     9.2410
  167.0000     0.3110    90.9550     9.4180     2.4540     0.0420    -5.0790     0.3060    14.1040     9.8940
  167.5000     0.3180    91.0980     9.3970     2.4520     0.0350    -6.6660     0.3020    14.1650    10.3010
  168.0000     0.3230    90.5110     9.3710     2.4660     0.0410    -8.2530     0.2970    14.3070    10.9460
  168.5000     0.3230    91.1900     9.3200     2.4630     0.0380    -9.8410     0.2980    14.5900    11.5540
  169.0000     0.3220    92.2560     9.2690     2.4580     0.0380   -11.2380     0.3000    14.9030    11.9950
  169.5000     0.3260    92.8930     9.2190     2.4450     0.0330   -11.8770     0.3010    14.8120    12.5500
  170.0000     0.3280    92.4660     9.1680     2.4340     0.0250   -13.0730     0.3180    14.7090    12.4080
  170.5000     0.3250    93.0950     9.1160     2.4380     0.0360   -14.4550     0.3750    14.6060    11.6180
  171.0000     0.3190    94.9910     9.0710     2.4470     0.0470   -15.2850     0.4320    14.5040    10.8280
  171.5000     0.3150    97.0090     9.1150     2.4630     0.0550   -16.2220     0.4890    14.3650     9.7650
  172.0000     0.3130    97.7350     9.1520     2.4610     0.0600   -17.1190     0.5460    14.3840    10.6020
  172.5000     0.3100    98.4050     9.1750     2.4560     0.0420   -18.0270     0.6020    14.4570    11.8830
  173.0000     0.3070    98.7770     9.1080     2.4580     0.0560   -18.8950     0.6590    14.5310    12.8840
  173.5000     0.3070    98.6870     9.0430     2.4580     0.0520   -19.2190     0.7630    14.6320    12.9630
  174.0000     0.3090    98.5590     8.9800     2.4700     0.0740   -19.5350     0.9300    14.5230    13.0430
  174.5000     0.3090    98.2620     8.9150     2.4720     0.1010   -19.8160     1.0950    14.3480    13.1230
  175.0000     0.3070    97.8630     8.9190     2.5050     0.1480   -20.1030     1.5070    14.1730    13.2020
  175.5000     0.3040    96.2490     8.9780     2.4970     0.1540   -20.1190     1.9160    13.9970    13.2820
  176.0000     0.3070    94.5490     9.0370     2.4770     0.1100   -20.1180     3.4400    13.8220    13.3470
  176.5000     0.3100    93.4820     9.0970     2.4440     0.0770   -20.1150     5.7440    13.6470    13.2450
  177.0000     0.3150    94.7720     9.1410     2.4150     0.0620   -19.8370     8.0470    13.4710    13.1040
  177.5000     0.3170    95.7190     9.1040     2.4090     0.0570   -19.4770    10.1820    13.2960    13.1790
  178.0000     0.3210    96.4040     9.0700     2.4270     0.0960   -19.1190    11.2900    13.1210    13.3880
  178.5000     0.3200    95.4880     9.0900     2.4360     0.0870   -18.7200    11.6210    12.9460    13.5970
  179.0000     0.3180    94.4660     9.2060     2.4440     0.0820   -18.6320    11.9530    12.8650    13.8050
  179.5000     0.3150    92.9560     9.3190     2.4560     0.0850   -19.0250    12.1750    12.8250    14.0140
  180.0000     0.3070    93.7500     9.4340     2.4540     0.0800   -19.3700    12.1750    12.7910    14.3650
  180.5000     0.3040    95.1870     9.5130     2.4530     0.0720   -19.7280    12.1750    12.7560    14.3250
  181.0000     0.3000    96.6330     9.5680     2.4550     0.0810   -20.0880    12.1750    12.7210    14.1970
  181.5000     0.2990    97.7140     9.5990     2.4780     0.0910   -20.4410    12.1750    12.6860    14.0680
  182.0000     0.2990    98.5290     9.6240     2.4730     0.0960   -20.8020    12.1750    12.6510    13.9400
  182.5000     0.3010    99.3760     9.6480     2.4840     0.1070   -21.1570    12.1750    12.6160    13.8120
  183.0000     0.3000   100.1660     9.6730     2.4880     0.1080   -21.5120    12.1750    12.5810    13.6840
  183.5000     0.3000   100.1970     9.6980     2.4870     0.1040   -21.8940    12.1750    12.5460    13.5550
  184.0000     0.2980    99.8770     9.7260     2.4770     0.0960   -22.2000    12.1750    12.5110    13.4270
  184.5000     0.2990    99.3880     9.7550     2.4630     0.0750   -22.3880    12.1170    12.4760    13.2990
  185.0000     0.3080    99.4060     9.7840     2.4760     0.0860   -22.6030    11.8870    12.4410    13.1700
  185.5000     0.3150    99.3550     9.8120     2.4750     0.0870   -22.8160    11.6580    12.4010    13.0420
  186.0000     0.3290    97.9100     9.8410     2.4790     0.0890   -23.0240    11.4280    12.1750    12.9140
