~VERSION INFORMATION
 VERS.                2.0:   CWLS LOG ASCII STANDARD - VERSION 2.0
 WRAP.                 NO:   ONE LINE PER DEPTH STEP
~WELL INFORMATION
#MNEM.UNIT      DATA TYPE    INFORMATION
#----------   ------------   ------------------------------
 STRT.F           53.0000:   START DEPTH
 STOP.F         3110.0000:   STOP DEPTH
 STEP.F            0.5000:   STEP LENGTH
 NULL.          -999.2500:   NO VALUE
 COMP. LAWRENCE ALLISON & ASSOCIATES W:   COMPANY
 WELL. LAWRENCE NPR 3 "AX" #31-34:   WELL
 FLD .      NPR - WILDCAT:   FIELD
 LOC .      S34 T39N R78W:   LOCATION
 CNTY.            NATRONA:   COUNTY
 STAT.            WYOMING:   STATE
 CTRY. UNITED STATES OF AMERICA:   COUNTRY
 SRVC.      DRESSER ATLAS:   SERVICE COMPANY
 DATE.        11-JUL-1986:   LOGDATE
 API .     49025111020000:   API NUMBER
~CURVE INFORMATION
#MNEM.UNIT       API CODE    CURVE DESCRIPTION
#----------   ------------   ------------------------------
 DEPT.F                  :   
 DEN .G/C3   45 350 01 00:   BULK DENSITY
 TEND.LBS    45 635 01 00:   TENSION FROM DENSITY LOG
 CORR.G/C3   45 356 01 00:   DENSITY CORRECTION
 NPHI.DEC    42 890 03 00:   NEUTRON POROSITY SANDSTONE
 SPR .MV     07 010 01 00:   SPONTANEOUS POTENTIAL
 RILM.OHMM   07 120 44 00:   INDUCTION LOG MEDIUM RESISTIVITY
 RILD.OHMM   07 120 46 00:   DEEP INDUCTION RESISTIVITY
 RFOC.OHMM   07 220 04 00:   RESISTIVITY FOCUSED LOG RES.
 TENR.LBS    07 635 01 00:   TENSION FROM RESISTIVITY
 GRR .GAPI   07 310 01 00:   GAMMA RAY FROM RESISTIVITY
 CALR.IN     07 280 01 00:   CALIPER FROM RESISTIVITY
~PARAMETER INFORMATION
#MNEM.UNIT          VALUE    DESCRIPTION
#----------   ------------   ------------------------------
 EKB .F          5074.800:   Kelly bushing
 EGL .F          5063.000:   Ground level
 EDF .F            0.0000:   Drilling floor
 EPD .F            0.0000:   Permanent datum
 TD  .F         3108.0000:   Total depth
 DATE.        11-JUL-1986:   Date logged
 CLNT.            A2DTECH:   Client Code
 SL  . 1796' FWL & 318' FNL:   Surface Location
 PD  .                 GL:   Permanent Datum
 DAPD.F                11:   Feet Above Permanent Datum
 DD  .F              3103:   Depth driller
 DL  .F              3108:   Depth logger
 BLI .F              3106:   Bottom log interval
 CS1 .IN            8.625:   Casing size
 CBD1.      8.625" @ 602':   Casing driller 1
 CBL1.F               596:   Casing logger 1
 BS1 .IN            7.875:   Bit size
 BSD1.F              3103:   Depth drilled with bit1
 DFT .            KCL/GEL:   Type fluid in hole
 DFD .                  9:   Density
 DFV .                 42:   Viscosity
 MSS .           MUD/TANK:   Source of sample
 RMS .OHMM           .352:   Rm
 MST .F                82:   Rm Meas. temp.
 RMF .OHMM           .264:   Rmf
 MFST.F                82:   Rmf Meas. temp.
 RMC .OHMM            .44:   Rmc
 MCST.F                82:   Rmc Meas. temp.
 MFSS.               CALC:   Source Rmf.
 MCSS.               CALC:   Source Rmc.
 RMB .OHMM            .23:   Rm. at BHT
 BHT .F               115:   BHT.
 TCS .HRS               3:   Time Circ. stopped
 MRT .F               115:   Maximum recorded temp.
 LUN .            HL-6264:   Logging unit number
 LUL .           GILLETTE:   Logging unit location
 ENGI.     P. M. FASHSING:   Recorded By
 WITN.             STRONG:   Witnessed by
 ORIG.           5" PRINT:   Origin of data
 UWI .     49025111020000:   Unique Well ID
 DICO. A2D TECHNOLOGIES, INC.:   Digitizing Company
~OTHER INFORMATION
~A   DEPT      DEN       TEND       CORR       NPHI        SPR       RILM       RILD       RFOC       TENR         GRR      CALR   
# ...
 1425.5000  -999.2500  -999.2500  -999.2500  -999.2500   -87.8520     5.2050     5.9020     6.4320  -102.4570    91.8840    10.9170
 1426.0000  -999.2500  -999.2500  -999.2500  -999.2500   -87.8520     5.2050     5.8680     6.2600  -100.5970    94.0410    10.9140
 1426.5000  -999.2500  -999.2500  -999.2500  -999.2500   -87.8520     5.2050     5.8750     6.0880   -98.7370    96.7950    10.9100
 1427.0000  -999.2500  -999.2500  -999.2500  -999.2500   -87.8520     5.2680     5.8840     5.9770   -96.8770    99.3560    10.9060
 1427.5000  -999.2500  -999.2500  -999.2500  -999.2500   -87.8280     5.3830     5.8920     6.0260   -95.0160    98.6630    10.9030
 1428.0000  -999.2500  -999.2500  -999.2500  -999.2500   -87.6950     5.4990     5.9000     6.1630   -93.1560    96.6920    10.8990
 1428.5000  -999.2500  -999.2500  -999.2500  -999.2500   -87.5640     5.6040     5.9080     6.4690   -91.2960    94.7480    10.8950
 1429.0000  -999.2500  -999.2500  -999.2500  -999.2500   -87.4330     5.3020     5.9170     6.7380   -89.4350    94.1890    10.8920
 1429.5000  -999.2500  -999.2500  -999.2500  -999.2500   -87.3020     5.3020     5.9250     6.5230   -97.4010    95.3750    10.8920
 1430.0000  -999.2500  -999.2500  -999.2500  -999.2500   -87.1710     5.3020     5.9330     6.2930  -108.7000    96.5600    10.8960
 1430.5000  -999.2500  -999.2500  -999.2500  -999.2500   -87.0500     5.3020     5.9410     6.0330  -120.0000    96.1750    10.9000
 1431.0000  -999.2500  -999.2500  -999.2500  -999.2500   -87.0470     5.3320     5.9500     6.0530  -126.0250    94.2840    10.9040
 1431.5000  -999.2500  -999.2500  -999.2500  -999.2500   -87.0480     5.3750     5.9580     6.0840  -119.2450    94.2110    10.9070
 1432.0000  -999.2500  -999.2500  -999.2500  -999.2500   -87.0470     5.4180     5.9660     6.1150  -112.4650    95.5010    10.9040
 1432.5000  -999.2500  -999.2500  -999.2500  -999.2500   -87.0440     5.4620     5.9780     6.1450  -108.1220    96.7130    10.8870
 1433.0000  -999.2500  -999.2500  -999.2500  -999.2500   -87.0720     5.5050     5.9660     6.3300  -107.2450    96.4130    10.8700
 1433.5000  -999.2500  -999.2500  -999.2500  -999.2500   -87.6040     5.5520     5.9400     6.5100  -106.3680    95.1220    10.8540
 1434.0000  -999.2500  -999.2500  -999.2500  -999.2500   -88.1340     5.4780     5.9140     6.6900  -105.4920    93.8820    10.8370
 1434.5000  -999.2500  -999.2500  -999.2500  -999.2500   -88.6410     5.3380     5.8880     6.8010  -104.6150    93.8370    10.8280
 1435.0000  -999.2500  -999.2500  -999.2500  -999.2500   -88.6000     5.1990     5.8400     6.3730  -103.7380    95.1290    10.8260
 1435.5000  -999.2500  -999.2500  -999.2500  -999.2500   -88.5250     5.0590     5.7180     6.0890  -102.8620    96.3780    10.8230
 1436.0000  -999.2500  -999.2500  -999.2500  -999.2500   -88.4520     4.9710     5.5970     6.0890  -101.9850    95.4680    10.8200
 1436.5000  -999.2500  -999.2500  -999.2500  -999.2500   -88.3800     5.0400     5.4750     6.0890  -101.1080    92.3680    10.8170
 1437.0000  -999.2500  -999.2500  -999.2500  -999.2500   -88.3090     5.0940     5.4010     6.0890  -100.2310    92.9820    10.8140
 1437.5000  -999.2500  -999.2500  -999.2500  -999.2500   -88.2460     5.1470     5.4780     6.0890   -99.3550    94.4830    10.8110
 1438.0000  -999.2500  -999.2500  -999.2500  -999.2500   -88.1020     5.2000     5.5330     6.0890   -98.4780    95.9540    10.8040
 1438.5000  -999.2500  -999.2500  -999.2500  -999.2500   -87.9560     5.3410     5.5880     6.1450   -97.6010    95.7830    10.7910
 1439.0000  -999.2500  -999.2500  -999.2500  -999.2500   -87.8100     5.5010     5.6430     6.3210   -96.7250    92.5680    10.7780
 1439.5000  -999.2500  -999.2500  -999.2500  -999.2500   -87.6650     5.5750     5.6990     6.4940   -95.8480    89.9310    10.7650
 1440.0000  -999.2500  -999.2500  -999.2500  -999.2500   -87.5190     5.6500     5.7540     6.4160   -94.9710    90.7480    10.7520
 1440.5000  -999.2500  -999.2500  -999.2500  -999.2500   -87.3740     5.7610     5.8140     6.3760   -94.0950    92.8930    10.7390
 1441.0000  -999.2500  -999.2500  -999.2500  -999.2500   -87.2450     5.6840     5.8240     6.5580   -93.2180    95.4930    10.7260
 1441.5000  -999.2500  -999.2500  -999.2500  -999.2500   -87.2490     5.5090     5.8340     6.6810   -92.3410    97.5690    10.7180
 1442.0000  -999.2500  -999.2500  -999.2500  -999.2500   -87.2460     5.3350     5.8450     6.8010   -91.4640    98.8950    10.6290
 1442.5000  -999.2500  -999.2500  -999.2500  -999.2500   -87.4680     5.2050     5.8550     6.6230   -90.5880   100.1940    10.6250
 1443.0000  -999.2500  -999.2500  -999.2500  -999.2500   -87.8010     5.2160     5.8650     6.4490   -89.7110   102.0740    10.6180
 1443.5000  -999.2500  -999.2500  -999.2500  -999.2500   -88.1380     5.2250     5.8760     6.2760   -90.4670   103.3860    10.6130
 1444.0000  -999.2500  -999.2500  -999.2500  -999.2500   -88.4750     5.2340     5.8860     6.2020  -100.6370   101.9160    10.6070
 1444.5000  -999.2500  -999.2500  -999.2500  -999.2500   -88.8100     5.2420     5.8970     6.2090  -110.8060    99.6720    10.6010
 1445.0000  -999.2500  -999.2500  -999.2500  -999.2500   -89.0340     5.2510     5.9070     6.2390  -117.0550    98.9980    10.5960
 1445.5000  -999.2500  -999.2500  -999.2500  -999.2500   -88.9030     5.3710     5.9180     6.3130  -112.6340    99.0080    10.5900
 1446.0000  -999.2500  -999.2500  -999.2500  -999.2500   -88.7820     5.5400     5.9860     6.4870  -108.2120    98.4630    10.5840
 1446.5000  -999.2500  -999.2500  -999.2500  -999.2500   -88.6600     5.7080     6.0120     6.6610  -103.7900    97.0440    10.5790
 1447.0000  -999.2500  -999.2500  -999.2500  -999.2500   -88.5390     5.6310     6.0380     6.8350   -99.3690    95.6110    10.5730
 1447.5000  -999.2500  -999.2500  -999.2500  -999.2500   -88.4180     5.5550     6.0630     6.9270  -102.2680    95.2800    10.5720
 1448.0000  -999.2500  -999.2500  -999.2500  -999.2500   -88.2970     5.4790     6.0890     6.8250  -107.6210    95.0030    10.5800
 1448.5000  -999.2500  -999.2500  -999.2500  -999.2500   -88.1760     5.4010     6.1150     6.7440  -112.9730    94.9340    10.5880
 1449.0000  -999.2500  -999.2500  -999.2500  -999.2500   -88.0550     5.3860     6.1450     6.6640  -118.2430    97.5040    10.5960
 1449.5000  -999.2500  -999.2500  -999.2500  -999.2500   -87.9340     5.3710     6.1180     6.5840  -111.3400   100.7320    10.6040
 1450.0000  -999.2500  -999.2500  -999.2500  -999.2500   -87.8130     5.3560     6.0850     6.5040  -104.5410   104.0160    10.6120
 1450.5000  -999.2500  -999.2500  -999.2500  -999.2500   -87.6920     5.3410     6.0520     6.4350   -98.7240   101.6400    10.6200
 1451.0000  -999.2500  -999.2500  -999.2500  -999.2500   -87.5710     5.3250     6.0200     6.5160   -98.7240    99.7980    10.6280
 1451.5000  -999.2500  -999.2500  -999.2500  -999.2500   -87.4490     5.3100     5.9870     6.6010   -98.7240   100.3000    10.6360
 1452.0000  -999.2500  -999.2500  -999.2500  -999.2500   -87.3300     5.2950     5.9540     6.6770   -98.7240   101.4300    10.6440
 1452.5000  -999.2500  -999.2500  -999.2500  -999.2500   -87.2920     5.2800     5.9210     6.6200   -98.7240   101.8880    10.6520
 1453.0000  -999.2500  -999.2500  -999.2500  -999.2500   -87.4260     5.2650     5.8890     6.5700   -98.7240   100.8890    10.6600
 1453.5000  -999.2500  -999.2500  -999.2500  -999.2500   -87.5580     5.2540     5.8560     6.5190   -98.7240    99.8960    10.6680
 1454.0000  -999.2500  -999.2500  -999.2500  -999.2500   -87.6900     5.2800     5.8140     6.4680   -98.7240   100.4910    10.6760
 1454.5000  -999.2500  -999.2500  -999.2500  -999.2500   -87.8230     5.3010     5.8200     6.4350   -98.7240   101.7330    10.6840
 1455.0000  -999.2500  -999.2500  -999.2500  -999.2500   -87.9540     5.3220     5.8300     6.4650   -98.7240   103.3780    10.6920
 1455.5000  -999.2500  -999.2500  -999.2500  -999.2500   -88.0530     5.3430     5.8410     6.4920   -98.7240   103.2540    10.7000
