~VERSION INFORMATION
 VERS.                2.0:   CWLS LOG ASCII STANDARD - VERSION 2.0
 WRAP.                 NO:   ONE LINE PER DEPTH STEP
~WELL INFORMATION
#MNEM.UNIT      DATA TYPE    INFORMATION
#----------   ------------   ------------------------------
 STRT.F          198.5000:   START DEPTH
 STOP.F         3172.0000:   STOP DEPTH
 STEP.F            0.5000:   STEP LENGTH
 NULL.          -999.2500:   NO VALUE
 COMP.    FENIX & SCISSON:   COMPANY
 WELL. FENIX & SCISSON AX #26-11:   WELL
 FLD .              NPR-3:   FIELD
 LOC .      S11 T38N R78W:   LOCATION
 CNTY.            NATRONA:   COUNTY
 STAT.            WYOMING:   STATE
 CTRY. UNITED STATES OF AMERICA:   COUNTRY
 SRVC.              WELEX:   SERVICE COMPANY
 DATE.        11-NOV-1977:   LOGDATE
 API .     49025104420000:   API NUMBER
~CURVE INFORMATION
#MNEM.UNIT       API CODE    CURVE DESCRIPTION
#----------   ------------   ------------------------------
 DEPT.F                  :   
 GRD .GAPI   45 310 01 00:   GAMMA RAY FROM DENSITY LOG
 CALD.IN     45 280 60 00:   CALIPER FROM DENSITY LOG
 CORR.G/C3   45 356 01 00:   DENSITY CORRECTION
 TEND.LBS    45 635 01 00:   TENSION FROM DENSITY LOG
 RHOB.G/C3   45 350 01 00:   BULK DENSITY
 SPR .MV     07 010 01 00:   SPONTANEOUS POTENTIAL
 ILD .OHMM   07 120 46 00:   DEEP INDUCTION RESISTIVITY
 ILM .OHMM   07 120 44 00:   INDUCTION LOG MEDIUM RESISTIVITY
 SGRD.OHMM   07 220 05 00:   SHALLOW SHORT GUARD RESISTIVITY
~PARAMETER INFORMATION
#MNEM.UNIT          VALUE    DESCRIPTION
#----------   ------------   ------------------------------
 EKB .F         5187.0000:   Kelly bushing
 EGL .F         5177.0000:   Ground level
 EDF .F            0.0000:   Drilling floor
 EPD .F         5177.0000:   Permanent datum
 TD  .F         3174.0000:   Total depth
 CLNT.            A2DTECH:   Client Code
 SL  . 1650' FSL & 840' FWL:   Surface Location
 PD  .                 GL:   Permanent Datum
 LMF .                 KB:   Log Measured From
 DMF .                 KB:   Drilling Measured From
 DAPD.F                10:   Feet Above Permanent Datum
 DATE.        11-NOV-1977:   Date Logged [DD-MMM-YYYY]
 DD  .F              3170:   Depth driller
 DL  .F              3174:   Depth logger
 BLI .F              3172:   Bottom log interval
 TLI .F               200:   Top log interval
 CS1 .              8.625:   Casing size
 CBD1.      8.625" @ 220':   Casing driller 1
 CBL1.IN              220:   Casing logger 1
 BS1 .IN            7.875:   Bit size
 BSD1.F              3170:   Depth drilled with bit1
 DFT .            KCL MUD:   Type fluid in hole
 DFD .                8.9:   Density
 DFV .                 37:   Viscosity
 DFPH.               11.0:   pH
 DFL .                6.4:   Fluid loss
 MSS .           FLOWLINE:   Source of sample
 RMS .OHMM           2.79:   Rm
 MST .F                50:   Rm Meas. temp.
 RMF .OHMM           2.16:   Rmf
 MFST.F                50:   Rmf Meas. temp.
 MFSS.               FANN:   Source Rmf.
 MCSS.               TEST:   Source Rmc.
 RMB .OHMM           1.22:   Rm. at BHT
 BHT .F               114:   BHT.
 TCS .HRS               3:   Time Circ. stopped
 MRT .F               114:   Maximum recorded temp.
 LUN .               8611:   Logging unit number
 LUL .             CASPER:   Logging unit location
 ENGI.            C. DOAK:   Recorded By
 WITN.         HARRINGTON:   Witnessed by
 ORIG.      2.5" 5" PRINT:   Origin of data
 UWI .     49025104420000:   Unique Well ID
 DICO. A2D TECHNOLOGIES, INC.:   Digitizing Company
~OTHER INFORMATION
~A   DEPT       GRD      CALD       CORR       TEND       RHOB        SPR        ILD        ILM       SGRD   
# ...
 1585.5000   114.8851     9.3423     0.0031  1498.7773     2.5199   -73.9238     5.9484     7.6602     8.8364
 1586.0000   114.2791     9.3697     0.0031  1499.0830     2.5179   -73.9207     5.9484     7.5031     8.8972
 1586.5000   111.8822     9.3648     0.0031  1499.3887     2.5168   -73.9176     5.9484     7.2988     9.0836
 1587.0000   107.6942     9.3368     0.0000  1468.9252     2.5272   -73.9145     5.9484     7.1491     9.1457
 1587.5000   105.2972     9.3359    -0.0031  1469.2307     2.5349   -73.9114     5.9484     7.1491     8.8316
 1588.0000   105.1224     9.3350    -0.0031  1469.5386     2.5422   -73.9083     5.9484     7.2485     8.7084
 1588.5000   107.6675     9.3341     0.0031  1469.8462     2.5474   -73.9052     5.9896     7.4515     8.7680
 1589.0000   110.0466     9.3331     0.0093  1470.1539     2.5443   -73.9021     5.9896     7.5031     8.8280
 1589.5000   111.8288     9.3322     0.0124  1470.4615     2.5422   -73.8990     6.0311     7.2933     9.3319
 1590.0000   114.8049     9.3313     0.0184  1470.7693     2.5391   -73.8959     6.0730     7.0999     9.3958
 1590.5000   114.7960     9.3303     0.0215  1471.0769     2.5381   -73.8928     6.0730     7.0026     8.9902
 1591.0000   112.3991     9.3294     0.0218  1471.3846     2.5439   -73.8898     6.0311     6.9065     8.7617
 1591.5000   111.1961     9.3285     0.0249  1471.6924     2.5516   -73.8867     6.0311     6.9065     8.6395
 1592.0000   109.3962     9.3276     0.0307  1472.0000     2.5564   -73.8836     6.0311     6.9065     8.5784
 1592.5000   107.5962     9.3153     0.0337  1472.3077     2.5586   -73.8805     6.0311     7.0026     8.6374
 1593.0000   108.7814     9.2947     0.0342  1472.6154     2.5610   -73.8774     6.0311     7.1491     8.6963
 1593.5000   109.9665     9.2938     0.0337  1472.9231     2.5610   -73.8743     6.0311     7.3493     8.7561
 1594.0000   110.5546     9.2929     0.0301  1473.2308     2.5617   -73.8712     6.0311     7.5551     8.8772
 1594.5000   112.3367     9.2920     0.0270  1473.5386     2.5632   -73.8681     6.0311     7.7132     9.0632
 1595.0000   112.9249     9.2910     0.0215  1473.8462     2.5678   -73.8650     6.0311     7.7721     9.1253
 1595.5000   114.7070     9.2901     0.0184  1474.1539     2.5702   -73.8619     6.0311     7.8205     9.0608
 1596.0000   119.4742     9.2892     0.0184  1474.4615     2.5755   -73.8588     6.0311     7.7667     8.8721
 1596.5000   119.4653     9.2882     0.0191  1474.7692     2.5769   -73.8558     6.0311     7.7132     8.9952
 1597.0000   118.2624     9.2873     0.0245  1475.0769     2.5738   -73.8527     6.0311     7.7132     9.2478
 1597.5000   115.8654     9.3039     0.0245  1475.3846     2.5697   -73.8496     6.0311     7.7132     9.1187
 1598.0000   114.0655     9.3164     0.0215  1475.6924     2.5638   -73.8465     6.0311     7.7132     8.9915
 1598.5000   112.2655     9.3153     0.0184  1476.0000     2.5577   -73.8434     6.0311     7.7132     9.0534
 1599.0000   112.2566     9.3144     0.0193  1476.3077     2.5515   -73.8403     6.0311     7.7132     8.9891
 1599.5000   112.2477     9.2825     0.0215  1476.6155     2.5499   -73.8372     6.0311     7.7132     8.8637
 1600.0000   114.0298     9.2816     0.0215  1476.9231     2.5515   -73.8341     6.0335     7.7667     9.0495
 1600.5000   114.0125     9.2807     0.0215  1477.2308     2.5560   -73.8310     6.0482     7.7653     8.6775
 1601.0000   113.4007     9.2797     0.0226  1477.5385     2.5591   -73.8279     6.0628     7.7640     8.5559
 1601.5000   112.1918     9.2479     0.0288  1477.8462     2.5637   -73.8237     6.0730     7.9798     8.7956
 1602.0000   111.5800     9.2469     0.0337  1478.1538     2.5683   -73.8127     6.0730     8.3735     9.1685
 1602.5000   109.7741     9.2151     0.0294  1478.4615     2.5650   -73.8018     6.0311     8.6069     9.4910
 1603.0000   109.1622     9.2141     0.0215  1478.7693     2.5512   -73.7908     6.0311     8.6051     9.4891
 1603.5000   111.5354     9.1823     0.0184  1479.0769     2.5435   -73.7798     5.9896     8.3692     9.2841
 1604.0000   114.5057     9.1813     0.0198  1479.3846     2.5388   -73.7689     5.9896     7.9182     9.0235
 1604.5000   116.2819     9.1185     0.0149  1518.7693     2.5372   -73.7579     5.9484     7.8627     8.7233
 1605.0000   116.8657     9.1176     0.0087  1520.0000     2.5356   -73.7469     5.9484     8.1375     8.6010
 1605.5000   118.6403     9.1167     0.0026  1521.2308     2.5371   -73.7360     5.8667     7.6456     8.7202
 1606.0000   119.2239     9.0520     0.0086  1522.4615     2.5448   -73.7250     5.8263     7.4361     8.5379
 1606.5000   118.0136     9.0200     0.0147  1523.6924     2.5493   -73.7140     5.8263     7.3828     8.2443
 1607.0000   116.8047     9.0189     0.0178  1524.9229     2.5477   -73.7031     5.8263     7.3316     7.9057
 1607.5000   118.5809     9.0178     0.0116  1526.1537     2.5462   -73.6921     5.8263     7.3812     8.2409
 1608.0000   119.1642     9.0167     0.0085  1527.3844     2.5430   -73.6812     5.8263     7.4822     8.7720
 1608.5000   119.2299     9.0156     0.0053  1528.6154     2.5461   -73.6702     5.8263     7.4809     8.8926
 1609.0000   116.7454     8.9836     0.0084  1529.8461     2.5491   -73.6592     5.8263     7.4797     9.0788
 1609.5000   114.3425     8.9825     0.0083  1531.0769     2.5427   -73.6483     5.8263     7.4784     8.9510
 1610.0000   111.9396     8.9812     0.0052  1532.3077     2.5243   -73.6373     5.8667     7.4771     8.7644
 1610.5000   109.4845     8.9801    -0.0010  1533.5385     2.5182   -73.6263     5.8667     7.5280     8.9474
 1611.0000   113.1039     8.9791    -0.0041  1534.7694     2.5150   -73.6154     5.9074     7.5789     8.9417
 1611.5000   114.2831     8.9470    -0.0041  1535.9999     2.5120   -73.6044     5.9074     7.6301     8.7515
 1612.0000   116.6563     8.9459    -0.0011  1537.2306     2.5086   -73.5934     5.9074     7.5238     8.6361
 1612.5000   118.4325     8.9449     0.0019  1538.4614     2.5023   -73.5825     5.9484     7.4194     8.7549
 1613.0000   119.0149     8.9438     0.0019  1539.6921     2.4996   -73.5715     5.9484     7.2661     8.8757
 1613.5000   120.7909     8.9427     0.0049  1540.9231     2.5054   -73.5605     5.9484     7.1595     9.0615
 1614.0000   121.3731     8.9416     0.0079  1542.1538     2.5148   -73.5496     5.9484     7.0657     8.7495
 1614.5000   120.7580     8.9406    -0.0013  1543.3846     2.5080   -73.5386     5.9484     7.0643     8.6871
 1615.0000   118.9453     8.9395    -0.0044  1544.6155     2.5018   -73.5277     5.9484     7.1120     8.7464
 1615.5000   116.4854     8.9384    -0.0076  1545.8462     2.4978   -73.5167     5.9484     7.2596     8.9909
 1616.0000   114.1255     8.9373    -0.0076  1547.0768     2.5047   -73.5057     5.9484     7.4103     9.3072
 1616.5000   113.5065     8.9363    -0.0046  1548.3075     2.5108   -73.4948     5.9484     7.5641     9.1767
 1617.0000   112.9254     8.9352    -0.0046  1549.5383     2.5150   -73.4838     5.9484     7.6683     8.7997
 1617.5000   112.9105     8.9341    -0.0016  1550.7692     2.5161   -73.4728     5.9484     7.6667     8.7369
 1618.0000   112.8436     8.9330     0.0014  1552.0000     2.5114   -73.4619     5.9896     7.6654     9.2351
 1618.5000   112.2249     8.9320     0.0013  1553.2307     2.5165   -73.4509     5.9896     7.5070     9.5600
 1619.0000   111.6716     8.9309    -0.0050  1554.4615     2.5190   -73.4399     5.9896     7.3013     9.1580
 1619.5000   111.6567     8.9298    -0.0112  1555.6923     2.5141   -73.4290     5.9896     7.2498     8.8971
 1620.0000   111.5623     8.9287    -0.0172  1556.9232     2.5008   -73.4180     5.9896     7.2553     8.7275
 1620.5000   111.0299     8.9276    -0.0172  1558.1538     2.4999   -73.4071     5.9896     7.6059     8.7257
 1621.0000   109.7274     8.9266    -0.0203  1559.3845     2.5116   -73.3961     5.9896     7.9812     8.8462
 1621.5000   108.4108     8.9255    -0.0173  1560.6152     2.5179   -73.3851     5.9896     8.4330     9.2213
