~VERSION INFORMATION
 VERS.                2.0:   CWLS LOG ASCII STANDARD - VERSION 2.0
 WRAP.                 NO:   ONE LINE PER DEPTH STEP
~WELL INFORMATION
#MNEM.UNIT      DATA TYPE    INFORMATION
#----------   ------------   ------------------------------
 STRT.F          200.0000:   START DEPTH
 STOP.F         3000.0000:   STOP DEPTH
 STEP.F            0.5000:   STEP LENGTH
 NULL.          -999.2500:   NO VALUE
 COMP.    FENIX & SCISSON:   COMPANY
 WELL.   FENIX "A" #65-28:   WELL
 FLD .              NPR 3:   FIELD
 LOC .      S28 T39N R78W:   LOCATION
 CNTY.            NATRONA:   COUNTY
 STAT.            WYOMING:   STATE
 CTRY. UNITED STATES OF AMERICA:   COUNTRY
 SRVC.              WELEX:   SERVICE COMPANY
 DATE.        25-JUL-1977:   LOGDATE
 API .     49025104010000:   API NUMBER
~CURVE INFORMATION
#MNEM.UNIT       API CODE    CURVE DESCRIPTION
#----------   ------------   ------------------------------
 DEPT.F                  :   
 GRD .GAPI   45 310 01 00:   GAMMA RAY FROM DENSITY LOG
 CALD.IN     45 280 60 00:   CALIPER FROM DENSITY LOG
 RHOB.G/C3   45 350 01 00:   BULK DENSITY
 DCOR.G/C3   45 356 01 00:   DENSITY CORRECTION
 SPR .MV     07 010 01 00:   SPONTANEOUS POTENTIAL
 RILM.OHMM   07 120 44 00:   INDUCTION LOG MEDIUM RESISTIVITY
 RILD.OHMM   07 120 46 00:   DEEP INDUCTION RESISTIVITY
 SGRD.OHMM   07 220 05 00:   SHALLOW GUARD
~PARAMETER INFORMATION
#MNEM.UNIT          VALUE    DESCRIPTION
#----------   ------------   ------------------------------
 EKB .F         5069.0000:   Kelly bushing
 EGL .F         5059.0000:   Ground level
 EDF .F            0.0000:   Drilling floor
 TD  .F         3006.0000:   Total depth
 DATE.        25-JUL-1977:   Date logged
 CLNT.            A2DTECH:   Client Code
 SL  . 2310' FSL & 1650' FEL:   Surface Location
 PD  .                 GL:   Permanent Datum
 EPD .F              5059:   Elevation Permanent Datum
 LMF .                 KB:   Log Measured From
 DMF .                 KB:   Drilling Measured From
 DAPD.F                10:   Feet Above Permanent Datum
 DD  .F              3006:   Depth driller
 DL  .F              3006:   Depth logger
 BLI .F              3004:   Bottom log interval
 TLI .F               200:   Top log interval
 CS1 .IN            8.625:   Casing size
 CBD1.      8.625" @ 205':   Casing driller 1
 CBL1.F               220:   Casing logger 1
 BS1 .IN            7.875:   Bit size
 BSD1.F              3006:   Depth drilled with bit1
 DFT .            KCL MUD:   Type fluid in hole
 DFD .                8.9:   Density
 DFV .                 39:   Viscosity
 DFPH.                7.5:   pH
 DFL .                7.2:   Fluid loss
 MSS .           FLOWLINE:   Source of sample
 RMS .OHMM           0.29:   Rm
 MST .F                78:   Rm Meas. temp.
 RMF .OHMM           0.19:   Rmf
 MFST.F                78:   Rmf Meas. temp.
 RMC .OHMM           0.80:   Rmc
 MCST.F                78:   Rmc Meas. temp.
 MFSS.               FANN:   Source Rmf.
 MCSS.                KIT:   Source Rmc.
 RMB .OHMM           0.20:   Rm. at BHT
 BHT .F               113:   BHT.
 TCS .HRS               3:   Time Circ. stopped
 MRT .F               113:   Maximum recorded temp.
 LUN .               8766:   Logging unit number
 LUL .             CASPER:   Logging unit location
 ENGI.         G. BENTSEN:   Recorded By
 WITN.      B. HARRINGTON:   Witnessed by
 ORIG.           5" PRINT:   Origin of data
 UWI .     49025104010000:   Unique Well ID
 DICO. A2D TECHNOLOGIES, INC.:   Digitizing Company
~OTHER INFORMATION
~A   DEPT       GRD        CALD       RHOB      DCOR       SPR       RILM         RILD       SGRD 
# ...
 1860.5000   155.3660     9.3380     2.3940     0.1890   -36.6600     8.1620     7.7540    10.2010
 1861.0000   153.4010     9.3540     2.3800     0.1810   -36.7730     7.8470     7.6400    10.0190
 1861.5000   155.1130     9.3470     2.3670     0.1680   -36.8600     7.5430     7.4580    10.3330
 1862.0000   155.5830     9.3400     2.3510     0.1490   -36.8580     7.4720     7.2770    10.5530
 1862.5000   153.4490     9.4090     2.3640     0.1290   -36.8580     7.4070     7.1400    10.7720
 1863.0000   153.7390     9.3880     2.3800     0.1130   -36.8580     8.4680     7.1400    10.9800
 1863.5000   151.4980     9.3600     2.3980     0.0980   -36.8570     8.8470     7.1590    11.0310
 1864.0000   149.3430     9.3150     2.4150     0.0810   -36.8320     8.8950     7.2010    11.0800
 1864.5000   148.3130     9.2970     2.4240     0.0790   -36.7770     9.7740     7.2720    11.1280
 1865.0000   147.8020     9.3030     2.4230     0.0670   -36.7210    10.2360     7.3480    11.1770
 1865.5000   148.1440     9.3120     2.4140     0.0740   -36.6650    10.2980     7.4230    11.1830
 1866.0000   149.7520     9.3330     2.3960     0.0740   -36.7190     9.9130     7.4990    10.9680
 1866.5000   149.8330     9.2980     2.3790     0.0920   -36.7850     9.5590     7.6130    10.8240
 1867.0000   148.0830     9.2810     2.3610     0.1010   -36.8510     9.1980     7.5540    10.6120
 1867.5000   147.0780     9.2960     2.3430     0.1180   -36.9180     8.8220     7.4380    10.3720
 1868.0000   153.2660     9.3100     2.3250     0.1380   -36.9840     8.4470     7.3220    10.1110
 1868.5000   155.0630     9.3250     2.3170     0.1590   -37.0500     8.1910     7.2050     9.7090
 1869.0000   151.6440     9.4010     2.3200     0.1760   -37.1160     8.1910     7.0890     9.2700
 1869.5000   150.1550     9.5160     2.3360     0.1800   -37.1830     8.1470     6.9900     8.9770
 1870.0000   152.8920     9.6320     2.3540     0.1890   -37.2490     7.8170     6.9260     9.8620
 1870.5000   154.8790     9.7470     2.3610     0.1480   -37.3150     7.4860     6.8630    10.3310
 1871.0000   152.2050     9.8640     2.3720     0.1130   -37.3820     7.1400     6.7990    10.3930
 1871.5000   156.7770     9.8640     2.4010     0.0840   -37.4490     7.8890     6.7590    10.2520
 1872.0000   162.2460     9.7650     2.4310     0.0660   -37.4210     9.2440     6.8530    10.1470
 1872.5000   160.2100     9.6650     2.4460     0.0650   -37.3810    10.5980     6.9380    10.0190
 1873.0000   157.5260     9.5650     2.4480     0.0670   -37.3410    11.9530     7.0350    10.1560
 1873.5000   163.0860     9.4650     2.4440     0.0730   -37.3010    13.0660     7.1790    10.3340
 1874.0000   160.7860     9.3750     2.4370     0.0800   -37.2590    11.1830     7.3590    10.5120
 1874.5000   157.9810     9.3880     2.4270     0.0870   -37.3180    10.3570     7.5390    10.6900
 1875.0000   161.2020     9.3990     2.4010     0.0940   -37.4000     9.7790     7.6870    10.8680
 1875.5000   162.1820     9.4100     2.3820     0.0980   -37.4270     9.3170     7.7100    11.0460
 1876.0000   162.8100     9.4210     2.3570     0.1050   -37.3660     8.8950     7.7320    11.1540
 1876.5000   166.0820     9.4320     2.3310     0.1160   -37.3060     9.3210     7.7550    11.2460
 1877.0000   164.0890     9.4550     2.3070     0.1270   -37.2460     9.6190     7.7770    11.3370
 1877.5000   164.0040     9.4910     2.2870     0.1380   -37.1850     9.8900     7.8000    11.3890
 1878.0000   160.7690     9.5160     2.2740     0.1490   -37.1250    10.1600     7.8220    10.4880
 1878.5000   161.9080     9.5060     2.2660     0.1550   -37.0640    10.2040     7.8450    11.0100
 1879.0000   163.5180     9.4970     2.2630     0.1530   -37.0550     9.6150     7.8680    11.4330
 1879.5000   165.1510     9.4890     2.2570     0.1490   -37.0540     9.1400     7.8900    11.6000
 1880.0000   163.6860     9.4800     2.2490     0.1390   -37.1120     8.9540     7.9130    11.4060
 1880.5000   163.4220     9.4810     2.2510     0.1350   -37.1780     8.9200     7.9350    11.2230
 1881.0000   165.2520     9.4870     2.2660     0.1320   -37.2450     8.8950     7.9580    10.9800
 1881.5000   163.6010     9.4930     2.2850     0.1250   -37.3110     8.4210     7.9690    11.1930
 1882.0000   161.0210     9.4950     2.3520     0.1190   -37.3780     8.1430     7.8020    11.5090
 1882.5000   158.7620     9.4860     2.3960     0.1180   -37.4480     8.0410     7.6890    11.9230
 1883.0000   160.8400     9.4780     2.4110     0.1280   -37.2740     7.9690     7.5760    11.7620
 1883.5000   157.0050     9.5010     2.4130     0.1240   -37.0730     8.8950     7.4070    11.5290
 1884.0000   152.7880     9.5230     2.4010     0.1170   -36.8690     8.7190     7.4350    11.2960
 1884.5000   153.6580     9.5190     2.4110     0.1130   -36.9720     8.4970     7.4910    11.1830
 1885.0000   151.7860     9.4730     2.4220     0.1130   -37.1020     9.1000     7.5470    11.1830
 1885.5000   148.2200     9.4680     2.4150     0.1120   -37.2310     9.6410     7.6030    11.4070
 1886.0000   143.2340     9.4860     2.4040     0.1100   -37.3590    10.1110     7.6590    11.7170
 1886.5000   144.7180     9.5030     2.3910     0.1070   -37.4880     9.8720     7.7160    11.9230
 1887.0000   142.0410     9.5010     2.3770     0.1040   -37.6220     9.6160     7.7720    11.6370
 1887.5000   138.4750     9.4600     2.3640     0.1070   -37.5610     9.3530     7.8280    11.4240
 1888.0000   133.9400     9.4440     2.3520     0.1110   -37.4450     9.0580     7.8840    11.2860
 1888.5000   135.4560     9.4640     2.3570     0.1070   -37.3270     8.7620     7.9400    11.9230
 1889.0000   132.3700     9.4830     2.3690     0.1020   -37.2100     8.5750     7.9960    11.7180
 1889.5000   128.2540     9.5010     2.3820     0.0960   -37.0930     8.7000     8.0430    11.4500
 1890.0000   124.3830     9.5160     2.3840     0.1100   -36.9750     8.7920     7.9580    11.0700
 1890.5000   123.2710     9.5040     2.3780     0.1050   -36.8650     8.8840     7.8720    10.4880
 1891.0000   122.0950     9.4930     2.3750     0.1020   -36.9720     8.9770     7.7850    10.7110
 1891.5000   121.4550     9.4810     2.3850     0.0980   -37.0890     8.8230     7.6990    11.0880
 1892.0000   120.5140     9.5240     2.4040     0.0980   -37.2090     8.6670     7.6120    11.3890
 1892.5000   119.6880     9.6040     2.4130     0.1050   -37.1810     8.5750     7.5430    11.3890
 1893.0000   119.3160     9.6450     2.4020     0.1120   -37.0650     9.9420     7.6340    11.3200
 1893.5000   118.8100     9.6080     2.3900     0.1180   -36.9480    10.7120     7.7230    11.2340
 1894.0000   119.2200     9.5780     2.3760     0.1200   -36.8730    10.7810     7.8120    11.1480
 1894.5000   120.3320     9.5880     2.3560     0.1150   -36.9650     9.7970     7.9010    11.0620
 1895.0000   120.6230     9.5980     2.3600     0.1290   -37.0530     8.8400     7.9690    11.0810
 1895.5000   119.2160     9.6080     2.3500     0.1370   -37.1410     8.1170     7.8470    10.8700
 1896.0000   118.8470     9.6280     2.3310     0.1540   -37.2280     8.8200     7.7540    10.6090
 1896.5000   118.8400     9.7160     2.2980     0.1550   -37.3160     9.9280     7.6380    10.3140
 1897.0000   118.8660     9.7660     2.2630     0.1610   -37.4040     9.8370     7.5280    10.0200
 1897.5000   117.7650     9.9690     2.2210     0.1550   -37.4910     8.6730     7.4180     9.7260
 1898.0000   115.7420    10.7060     2.1780     0.1680   -37.5790     6.9470     7.3080     9.5500
 1898.5000   118.7520    11.5200     2.1420     0.1840   -37.6670     8.6270     7.1980     9.4750
 1899.0000   120.9410    12.0240     2.1090     0.1970   -37.7550     9.9460     7.0880     9.4000
 1899.5000   115.6960    11.8820     2.0740     0.2090   -37.8420    11.9200     7.0010     9.3240
 1900.0000   114.1290    11.9110     2.0390     0.2130   -37.9300    15.8360     6.9680     9.2270
 1900.5000   119.4530    12.0870     2.0120     0.2070   -38.0210    14.6900     6.9360     9.2630
