~VERSION INFORMATION
 VERS.                2.0:   CWLS LOG ASCII STANDARD - VERSION 2.0
 WRAP.                 NO:   ONE LINE PER DEPTH STEP
~WELL INFORMATION
#MNEM.UNIT      DATA TYPE    INFORMATION
#----------   ------------   ------------------------------
 STRT.F          450.5000:   START DEPTH
 STOP.F         3173.5000:   STOP DEPTH
 STEP.F            0.5000:   STEP LENGTH
 NULL.          -999.2500:   NO VALUE
 COMP.    FENIX & SCISSON:   COMPANY
 WELL. FENIX & SCISSONNPR #72-TX-33:   WELL
 FLD .              N.P.R:   FIELD
 LOC .      S33 T39N R78W:   LOCATION
 CNTY.            NATRONA:   COUNTY
 STAT.            WYOMING:   STATE
 CTRY. UNITED STATES OF AMERICA:   COUNTRY
 SRVC.       SCHLUMBERGER:   SERVICE COMPANY
 DATE.        03-SEP-1981:   LOGDATE
 API .     49025108810000:   API NUMBER
~CURVE INFORMATION
#MNEM.UNIT       API CODE    CURVE DESCRIPTION
#----------   ------------   ------------------------------
 DEPT.F                  :   
 CALD.IN     45 280 60 00:   CALIPER FROM DENSITY LOG
 GRD .GAPI   45 310 01 00:   GAMMA RAY FROM DENSITY LOG
 DPHI.DEC    45 890 03 00:   
 RHOB.G/C3   45 350 01 00:   BULK DENSITY
 CORR.G/C3   45 356 01 00:   DENSITY CORRECTION
 SPR .MV     07 010 01 00:   SPONTANEOUS POTENTIAL
 SFL .OHMM   07 220 01 00:   SHALLOW FOCUSED LOG RESISTIVITY
 ILD .OHMM   07 120 46 00:   DEEP INDUCTION RESISTIVITY
 ILM .OHMM   07 120 44 00:   INDUCTION LOG MEDIUM RESISTIVITY
 TENR.LBS    07 635 01 00:   TENSION FROM RESISTIVITY
~PARAMETER INFORMATION
#MNEM.UNIT          VALUE    DESCRIPTION
#----------   ------------   ------------------------------
 EKB .F         5115.0000:   Kelly bushing
 EGL .F         5105.0000:   Ground level
 EDF .F            0.0000:   Drilling floor
 TD  .F         3162.0000:   Total depth
 DATE.        03-SEP-1981:   Date logged
 CLNT.            A2DTECH:   Client Code
 CTRY.                USA:   Country
 SL  . 808' FNL & 954' FEL:   Surface Location
 PD  .                 GL:   Permanent Datum
 EPD .F              5105:   Elevation Permanent Datum
 LMF .                 KB:   Log Measured From
 DMF .                 KB:   Drilling Measured From
 DAPD.F                10:   Feet Above Permanent Datum
 DD  .F              3162:   Depth driller
 DL  .F              3162:   Depth logger
 BLI .F              3158:   Bottom log interval
 TLI .F              1612:   Top log interval
 CS1 .IN            9.625:   Casing size
 CBD1.      9.625" @ 480':   Casing driller 1
 BS1 .IN            7.875:   Bit size
 BSD1.F              3162:   Depth drilled with bit1
 DFT .              WATER:   Type fluid in hole
 MSS .               TANK:   Source of sample
 RMS .OHMM            6.3:   Rm
 MST .F                73:   Rm Meas. temp.
 RMF .OHMM            6.3:   Rmf
 MFST.F                73:   Rmf Meas. temp.
 TCS .HRS            2200:   Time Circ. stopped
 TLAB.HRS            0300:   Time logger at bottom
 MRT .F               100:   Maximum recorded temp.
 LUN .               8039:   Logging unit number
 LUL .               CSPR:   Logging unit location
 ENGI.           C. PEARR:   Recorded By
 WITN.           R. SCOTT:   Witnessed by
 ORIG.         2.5" PRINT:   Origin of data
 UWI .     49025108810000:   Unique Well ID
 DICO. A2D TECHNOLOGIES, INC.:   Digitizing Company
~OTHER INFORMATION
~A   DEPT     CALD         GRD      DPHI       RHOB       CORR        SPR        SFL        ILD        ILM       TENR   
# ...
  651.5000     9.7587   133.8893     0.1449     2.4365    -0.0030  -999.2500  -999.2500  -999.2500  -999.2500  -999.2500
  652.0000     9.7319   133.8755     0.1449     2.4384    -0.0030  -999.2500  -999.2500  -999.2500  -999.2500  -999.2500
  652.5000     9.7184   132.7035     0.1422     2.4384    -0.0050  -999.2500  -999.2500  -999.2500  -999.2500  -999.2500
  653.0000     9.7178   129.2015     0.1372     2.4501    -0.0030  -999.2500  -999.2500  -999.2500  -999.2500  -999.2500
  653.5000     9.6781   124.5413     0.1309     2.4598     0.0008  -999.2500  -999.2500  -999.2500  -999.2500  -999.2500
  654.0000     9.6775   117.5509     0.1255     2.4754     0.0028  -999.2500  -999.2500  -999.2500  -999.2500  -999.2500
  654.5000     9.7153   115.2116     0.1239     2.4793     0.0027  -999.2500  -999.2500  -999.2500  -999.2500  -999.2500
  655.0000     9.6931   116.9466     0.1177     2.4773     0.0027  -999.2500  -999.2500  -999.2500  -999.2500  -999.2500
  655.5000     9.6750   121.0024     0.1192     2.4734     0.0027  -999.2500  -999.2500  -999.2500  -999.2500  -999.2500
  656.0000     9.6744   126.8070     0.1232     2.4675     0.0026  -999.2500  -999.2500  -999.2500  -999.2500  -999.2500
  656.5000     9.6735   126.2119     0.1263     2.4674     0.0046  -999.2500  -999.2500  -999.2500  -999.2500  -999.2500
  657.0000     9.6726   122.7144     0.1263     2.4694     0.0065  -999.2500  -999.2500  -999.2500  -999.2500  -999.2500
  657.5000     9.6720   119.7937     0.1263     2.4674     0.0065  -999.2500  -999.2500  -999.2500  -999.2500  -999.2500
  658.0000     9.6717   121.5287     0.1263     2.4693     0.0064  -999.2500  -999.2500  -999.2500  -999.2500  -999.2500
  658.5000     9.6317   125.5845     0.1240     2.4712    -0.0034  -999.2500  -999.2500  -999.2500  -999.2500  -999.2500
  659.0000     9.6308   127.9008     0.1228     2.4732     0.0005  -999.2500  -999.2500  -999.2500  -999.2500  -999.2500
  659.5000     9.6301   127.8871     0.1217     2.4751     0.0044  -999.2500  -999.2500  -999.2500  -999.2500  -999.2500
  660.0000     9.5905   124.9710     0.1194     2.4809     0.0200  -999.2500  -999.2500  -999.2500  -999.2500  -999.2500
  660.5000     9.6286   123.7944     0.1186     2.4828     0.0336  -999.2500  -999.2500  -999.2500  -999.2500  -999.2500
  661.0000     9.6045   122.6225     0.1178     2.4828     0.0258  -999.2500  -999.2500  -999.2500  -999.2500  -999.2500
  661.5000     9.5883   120.8646     0.1225     2.4750     0.0121  -999.2500  -999.2500  -999.2500  -999.2500  -999.2500
  662.0000     9.5874   119.6926     0.1241     2.4691     0.0042  -999.2500  -999.2500  -999.2500  -999.2500  -999.2500
  662.5000     9.5868   119.0975     0.1272     2.4651    -0.0095  -999.2500  -999.2500  -999.2500  -999.2500  -999.2500
  663.0000     9.5859   119.6696     0.1280     2.4671     0.0022  -999.2500  -999.2500  -999.2500  -999.2500  -999.2500
  663.5000     9.5853   120.2372     0.1179     2.4827     0.0041  -999.2500  -999.2500  -999.2500  -999.2500  -999.2500
  664.0000     9.5849   121.3862     0.0937     2.5061     0.0198  -999.2500  -999.2500  -999.2500  -999.2500  -999.2500
  664.5000     9.5834   120.7956     0.0991     2.5060     0.0304  -999.2500  -999.2500  -999.2500  -999.2500  -999.2500
  665.0000     9.5828   119.6191     0.1046     2.5021     0.0334  -999.2500  -999.2500  -999.2500  -999.2500  -999.2500
  665.5000     9.5819   119.6099     0.1100     2.4884     0.0216  -999.2500  -999.2500  -999.2500  -999.2500  -999.2500
  666.0000     9.6200   122.5030     0.1156     2.4845     0.0216  -999.2500  -999.2500  -999.2500  -999.2500  -999.2500
  666.5000     9.6191   123.0752     0.1164     2.4883     0.0176  -999.2500  -999.2500  -999.2500  -999.2500  -999.2500
  667.0000     9.6384   120.1545     0.1098     2.4981     0.0196  -999.2500  -999.2500  -999.2500  -999.2500  -999.2500
  667.5000     9.6563   118.4012     0.1055     2.5000     0.0195  -999.2500  -999.2500  -999.2500  -999.2500  -999.2500
  668.0000     9.6557   116.0619     0.1055     2.4961     0.0195  -999.2500  -999.2500  -999.2500  -999.2500  -999.2500
  668.5000     9.6548   117.2154     0.1078     2.4902     0.0214  -999.2500  -999.2500  -999.2500  -999.2500  -999.2500
  669.0000     9.6542   120.6899     0.1125     2.4823     0.0233  -999.2500  -999.2500  -999.2500  -999.2500  -999.2500
  669.5000     9.6533   122.4249     0.1172     2.4804     0.0233  -999.2500  -999.2500  -999.2500  -999.2500  -999.2500
  670.0000     9.6790   124.1552     0.1218     2.4725     0.0155  -999.2500  -999.2500  -999.2500  -999.2500  -999.2500
  670.5000     9.6905   124.1460     0.1251     2.4686     0.0155  -999.2500  -999.2500  -999.2500  -999.2500  -999.2500
  671.0000     9.6899   125.8764     0.1251     2.4705     0.0154  -999.2500  -999.2500  -999.2500  -999.2500  -999.2500
  671.5000     9.6890   127.0299     0.1229     2.4724     0.0174  -999.2500  -999.2500  -999.2500  -999.2500  -999.2500
  672.0000     9.6496   128.7603     0.1274     2.4685     0.0154  -999.2500  -999.2500  -999.2500  -999.2500  -999.2500
  672.5000     9.6877   128.1697     0.1321     2.4587     0.0056  -999.2500  -999.2500  -999.2500  -999.2500  -999.2500
  673.0000     9.6865   126.9932     0.1337     2.4567    -0.0003  -999.2500  -999.2500  -999.2500  -999.2500  -999.2500
  673.5000     9.6859   126.3980     0.1291     2.4606     0.0016  -999.2500  -999.2500  -999.2500  -999.2500  -999.2500
  674.0000     9.6465   125.2260     0.1259     2.4723     0.0074  -999.2500  -999.2500  -999.2500  -999.2500  -999.2500
  674.5000     9.6456   122.3054     0.1228     2.4703     0.0094  -999.2500  -999.2500  -999.2500  -999.2500  -999.2500
  675.0000     9.6835   121.1334     0.1252     2.4625     0.0132  -999.2500  -999.2500  -999.2500  -999.2500  -999.2500
  675.5000     9.6828   122.2824     0.1314     2.4605    -0.0005  -999.2500  -999.2500  -999.2500  -999.2500  -999.2500
  676.0000     9.6819   126.3428     0.1299     2.4644     0.0073  -999.2500  -999.2500  -999.2500  -999.2500  -999.2500
  676.5000     9.6813   129.8173     0.1252     2.4702     0.0073  -999.2500  -999.2500  -999.2500  -999.2500  -999.2500
  677.0000     9.6419   130.3895     0.1229     2.4741     0.0123  -999.2500  -999.2500  -999.2500  -999.2500  -999.2500
  677.5000     9.6798   128.6316     0.1223     2.4760     0.0151  -999.2500  -999.2500  -999.2500  -999.2500  -999.2500
  678.0000     9.6401   126.2969     0.1198     2.4720     0.0150  -999.2500  -999.2500  -999.2500  -999.2500  -999.2500
  678.5000     9.6398   122.7948     0.1253     2.4681     0.0130  -999.2500  -999.2500  -999.2500  -999.2500  -999.2500
  679.0000     9.6779   121.0415     0.1260     2.4700     0.0032  -999.2500  -999.2500  -999.2500  -999.2500  -999.2500
  679.5000     9.6390   119.8650     0.1242     2.4720     0.0052  -999.2500  -999.2500  -999.2500  -999.2500  -999.2500
  680.0000     9.6370   119.8512     0.1198     2.4719     0.0071  -999.2500  -999.2500  -999.2500  -999.2500  -999.2500
  680.5000     9.6364   120.4234     0.1230     2.4719     0.0090  -999.2500  -999.2500  -999.2500  -999.2500  -999.2500
  681.0000     9.6355   121.5723     0.1214     2.4699     0.0129  -999.2500  -999.2500  -999.2500  -999.2500  -999.2500
  681.5000     9.6346   122.7259     0.1308     2.4582     0.0168  -999.2500  -999.2500  -999.2500  -999.2500  -999.2500
  682.0000     9.6730   123.8749     0.1347     2.4445     0.0128  -999.2500  -999.2500  -999.2500  -999.2500  -999.2500
  682.5000     9.6719   126.7726     0.1449     2.4327    -0.0067  -999.2500  -999.2500  -999.2500  -999.2500  -999.2500
  683.0000     9.6324   130.8284     0.1465     2.4366    -0.0087  -999.2500  -999.2500  -999.2500  -999.2500  -999.2500
  683.5000     9.6315   130.8192     0.1472     2.4444    -0.0038  -999.2500  -999.2500  -999.2500  -999.2500  -999.2500
  684.0000     9.6697   127.8985     0.1395     2.4580    -0.0010  -999.2500  -999.2500  -999.2500  -999.2500  -999.2500
  684.5000     9.6687   124.9825     0.1318     2.4639     0.0049  -999.2500  -999.2500  -999.2500  -999.2500  -999.2500
