~VERSION INFORMATION
 VERS.                2.0:   CWLS LOG ASCII STANDARD - VERSION 2.0
 WRAP.                 NO:   ONE LINE PER DEPTH STEP
~WELL INFORMATION
#MNEM.UNIT      DATA TYPE    INFORMATION
#----------   ------------   ------------------------------
 STRT.F           46.0000:   START DEPTH
 STOP.F         2736.5000:   STOP DEPTH
 STEP.F            0.5000:   STEP LENGTH
 NULL.          -999.2500:   NO VALUE
 COMP.          INTEX OIL:   COMPANY
 WELL. INTEX NPR 3 "AX" #72-20:   WELL
 FLD .             TEAPOT:   FIELD
 LOC .      S20 T39N R78W:   LOCATION
 CNTY.            NATRONA:   COUNTY
 STAT.            WYOMING:   STATE
 CTRY. UNITED STATES OF AMERICA:   COUNTRY
 SRVC.       SCHLUMBERGER:   SERVICE COMPANY
 DATE.        11-MAY-1966:   LOGDATE
 API .     49025095110000:   API NUMBER
~CURVE INFORMATION
#MNEM.UNIT       API CODE    CURVE DESCRIPTION
#----------   ------------   ------------------------------
 DEPT.F                  :   
 SPR .MV     05 010 01 00:   SPONTANEOUS POTENTIAL FROM RES.
 ILD .OHMM   05 120 46 00:   INDUCTION LOG DEEP
 ASN .OHMM   05 041 16 00:   AMPLIFIED SHORT NORMAL 16"
 CALD.IN     45 280 60 00:   CALIPER FROM DENSITY LOG
 CORR.G/C3   45 356 01 00:   DENSITY CORRECTION
 RHOB.G/C3   45 350 01 00:   BULK DENSITY
 GRD .GAPI   45 310 01 00:   GAMMA RAY FROM DENSITY LOG
~PARAMETER INFORMATION
#MNEM.UNIT          VALUE    DESCRIPTION
#----------   ------------   ------------------------------
 EKB .F         5042.3000:   Kelly bushing
 EGL .F         5032.0000:   Ground level
 EDF .F            0.0000:   Drilling floor
 EPD .F         5032.0000:   Permanent datum
 TD  .F         2740.0000:   Total depth
 DATE.        11-MAY-1966:   Date logged
 CLNT.            A2DTECH:   Client Code
 DAPD.F              10.3:   Feet Above Permanent Datum
 DD  .F              2740:   Depth driller
 DL  .F              2737:   Depth logger
 BLI .F              2736:   Bottom log interval
 TLI .F                88:   Top log interval
 CS1 .IN            10.75:   Casing size
 CBD1.       10.75" @ 24':   Casing driller 1
 BS1 .IN            7.875:   Bit size
 BSD1.F              2740:   Depth drilled with bit1
 DFT .           OIL EMUL:   Type fluid in hole
 DFD .                9.8:   Density
 DFV .                 58:   Viscosity
 MSS .         CIRCULATED:   Source of sample
 RMS .OHMM           3.04:   Rm
 MST .F                54:   Rm Meas. temp.
 RMF .OHMM           1.95:   Rmf
 MFST.F                55:   Rmf Meas. temp.
 MFSS.                 FR:   Source Rmf.
 RMB .OHMM           1.64:   Rm. at BHT
 BHT .F               100:   BHT.
 TCS .HRS               4:   Time Circ. stopped
 MRT .F               100:   Maximum recorded temp.
 LUN .               4507:   Logging unit number
 LUL .               CSPR:   Logging unit location
 ENGI.               HAUG:   Recorded By
 WITN.             TUTTLE:   Witnessed by
 ORIG.        2" 5" PRINT:   Origin of data
 UWI .     49025095110000:   Unique Well ID
 DICO. A2D TECHNOLOGIES, INC.:   Digitizing Company
~OTHER INFORMATION
~A   DEPT      SPR        ILD        ASN       CALD       CORR       RHOB         GRD  
# ...
 1638.5000   -41.9290     9.1890    13.4420     8.6570     0.0140     2.4220   145.1790
 1639.0000   -41.9290     9.2030    13.5440     8.6570     0.0200     2.4260   146.6210
 1639.5000   -41.9290     9.2170    13.6360     8.6570     0.0350     2.4530   146.3370
 1640.0000   -41.9290     9.2310    13.7380     8.6570     0.0410     2.4660   145.2600
 1640.5000   -41.9290     9.2450    13.8280     8.6570     0.0290     2.4490   143.6760
 1641.0000   -41.9290     9.2590    13.9530     8.6570     0.0190     2.4330   142.4530
 1641.5000   -41.9290     9.2720    14.0650     8.6570     0.0100     2.4250   141.9050
 1642.0000   -41.9290     9.2870    14.1870     8.6570     0.0220     2.4320   139.2070
 1642.5000   -41.9290     9.3000    14.3000     8.6570     0.0270     2.4380   136.7620
 1643.0000   -41.9290     9.3110    14.3920     8.6570     0.0230     2.4420   134.0100
 1643.5000   -41.9290     9.2830    14.2280     8.6570     0.0280     2.4410   134.0450
 1644.0000   -41.9290     9.2560    14.0680     8.6570     0.0310     2.4400   139.0550
 1644.5000   -41.9290     9.2280    13.8950     8.6570     0.0260     2.4380   142.1880
 1645.0000   -41.9290     9.2010    13.7340     8.6570     0.0220     2.4320   143.6070
 1645.5000   -41.9290     9.1720    13.5620     8.6570     0.0170     2.4260   143.4510
 1646.0000   -41.9290     9.1450    13.3990     8.6570     0.0130     2.4200   142.3930
 1646.5000   -41.9260     9.1210    13.2550     8.6570     0.0090     2.4160   140.7460
 1647.0000   -41.8920     9.1440    13.3650     8.6570     0.0080     2.4110   139.5970
 1647.5000   -41.8570     9.1670    13.4820     8.6570     0.0150     2.4140   139.0510
 1648.0000   -41.8210     9.1920    13.6080     8.6570     0.0210     2.4290   139.6930
 1648.5000   -41.7850     9.2160    13.7270     8.6570     0.0280     2.4420   140.9350
 1649.0000   -41.7500     9.2400    13.8490     8.6570     0.0340     2.4510   144.0410
 1649.5000   -41.7140     9.2650    13.9710     8.6570     0.0410     2.4460   145.4830
 1650.0000   -41.6790     9.2880    14.0920     8.6570     0.0480     2.4400   144.7890
 1650.5000   -41.6430     9.3080    14.2060     8.6570     0.0520     2.4560   144.2610
 1651.0000   -41.6070     9.2600    14.2070     8.6570     0.0510     2.4630   143.7830
 1651.5000   -41.5720     9.2080    14.1100     8.6570     0.0420     2.4490   143.2960
 1652.0000   -41.5360     9.1530    14.0030     8.6570     0.0270     2.4400   145.1970
 1652.5000   -41.5060     9.1010    13.8960     8.6570     0.0220     2.4430   146.4230
 1653.0000   -41.4760     9.0480    13.7910     8.6570     0.0310     2.4520   146.5790
 1653.5000   -41.4460     8.9950    13.6840     8.6570     0.0310     2.4500   145.5160
 1654.0000   -41.4150     8.9410    13.5790     8.6570     0.0220     2.4400   143.1480
 1654.5000   -41.3850     8.8890    13.4720     8.6570     0.0130     2.4350   139.0920
 1655.0000   -41.3550     8.8350    13.3680     8.6570     0.0130     2.4370   138.6880
 1655.5000   -41.3250     8.7830    13.2580     8.6570     0.0130     2.4360   138.8390
 1656.0000   -41.2950     8.7320    13.1560     8.6570     0.0140     2.4330   138.8250
 1656.5000   -41.2650     8.7610    13.0520     8.6570     0.0160     2.4310   142.5060
 1657.0000   -41.2350     8.7960    13.1140     8.6570     0.0210     2.4290   144.8100
 1657.5000   -41.2050     8.8340    13.1900     8.6570     0.0260     2.4340   144.6420
 1658.0000   -41.1740     8.8700    13.2700     8.6570     0.0310     2.4400   144.4980
 1658.5000   -41.1440     8.9070    13.3460     8.6570     0.0360     2.4550   145.3820
 1659.0000   -41.1140     8.9430    13.4250     8.6570     0.0330     2.4560   143.5030
 1659.5000   -41.0840     8.9790    13.5030     8.6570     0.0210     2.4450   141.5990
 1660.0000   -41.0540     9.0160    13.5790     8.6570     0.0140     2.4400   142.0570
 1660.5000   -41.0240     9.0520    13.6590     8.6570     0.0100     2.4400   142.7470
 1661.0000   -40.9940     9.0890    13.7340     8.6570     0.0140     2.4480   145.8430
 1661.5000   -40.9640     9.1250    13.8150     8.6570     0.0190     2.4490   149.0060
 1662.0000   -40.9330     9.1620    13.8040     8.6570     0.0190     2.4390   150.4620
 1662.5000   -40.9030     9.1980    13.7830     8.6570     0.0170     2.4360   150.2680
 1663.0000   -40.8730     9.2360    13.7600     8.6570     0.0160     2.4400   149.7930
 1663.5000   -40.8440     9.2700    13.7390     8.6570     0.0300     2.4440   144.4630
 1664.0000   -40.8120     9.3080    13.7170     8.6570     0.0260     2.4400   141.2700
 1664.5000   -40.7840     9.2630    13.6940     8.6570     0.0240     2.4330   144.0920
 1665.0000   -40.7520     9.2050    13.6740     8.6570     0.0250     2.4350   146.5140
 1665.5000   -40.7630     9.1450    13.6500     8.6570     0.0280     2.4470   149.3470
 1666.0000   -40.7790     9.0880    13.6230     8.6570     0.0310     2.4580   150.3310
 1666.5000   -40.7970     9.0290    13.4660     8.6570     0.0350     2.4690   150.1700
 1667.0000   -40.8140     8.9710    13.2680     8.6570     0.0330     2.4760   150.1290
 1667.5000   -40.8310     8.9130    13.0770     8.6570     0.0260     2.4580   150.0690
 1668.0000   -40.8480     8.8530    12.8750     8.6570     0.0200     2.4310   149.9880
 1668.5000   -40.8650     8.7970    12.6920     8.6570     0.0140     2.4230   149.9470
 1669.0000   -40.8820     8.7330    12.5120     8.6570     0.0070     2.4210   149.8540
 1669.5000   -40.8990     8.7470    12.6400     8.6570     0.0010     2.4160   149.8140
 1670.0000   -40.9160     8.7720    12.8730     8.6570    -0.0050     2.4100   149.8160
 1670.5000   -40.9330     8.8000    13.1140     8.6570     0.0000     2.4100   147.6140
 1671.0000   -40.9500     8.8250    13.3390     8.6570     0.0060     2.4090   140.7370
 1671.5000   -40.9670     8.8510    13.5730     8.6570     0.0110     2.4140   138.5250
 1672.0000   -40.9840     8.8770    13.6070     8.6570     0.0170     2.4230   136.5960
 1672.5000   -41.0010     8.9030    13.5720     8.6570     0.0220     2.4310   135.6640
 1673.0000   -41.0180     8.9290    13.5420     8.6570     0.0270     2.4340   136.2420
 1673.5000   -41.0350     8.9550    13.5130     8.6570     0.0340     2.4360   136.9090
 1674.0000   -41.0520     8.9810    13.4830     8.6570     0.0330     2.4390   137.6470
 1674.5000   -41.0690     9.0070    13.4540     8.6570     0.0310     2.4420   138.3220
 1675.0000   -41.0860     9.0320    13.4240     8.6570     0.0230     2.4400   139.0310
 1675.5000   -41.1030     9.0590    13.3940     8.6570     0.0160     2.4330   139.7280
 1676.0000   -41.1190     9.0840    13.3640     8.6570     0.0090     2.4240   140.4220
 1676.5000   -41.1360     9.1100    13.3340     8.6570     0.0020     2.4090   141.5660
 1677.0000   -41.0970     9.0930    13.3040     8.6570     0.0010     2.4010   143.6750
 1677.5000   -41.0340     9.0570    13.2740     8.6570     0.0020     2.4040   145.8850
 1678.0000   -40.9720     9.0230    13.2440     8.6570     0.0040     2.4040   148.8520
 1678.5000   -40.9110     8.9890    13.2140     8.6570     0.0050     2.4090   150.4690
 1679.0000   -40.8490     8.9540    13.1840     8.6570     0.0080     2.4160   150.4110
 1679.5000   -40.7870     8.9200    13.1540     8.6570     0.0110     2.4220   150.5660
 1680.0000   -40.7250     8.8860    13.1240     8.6570     0.0140     2.4290   150.7040
 1680.5000   -40.6630     8.8510    13.0940     8.6570     0.0170     2.4350   150.7650
 1681.0000   -40.6020     8.8170    13.0640     8.6570     0.0190     2.4350   150.5590
 1681.5000   -40.5400     8.7830    13.0340     8.6570     0.0210     2.4310   146.6760
 1682.0000   -40.4780     8.7480    13.0040     8.6570     0.0220     2.4360   144.8790
 1682.5000   -40.4160     8.7140    12.9730     8.6570     0.0210     2.4380   145.3480
 1683.0000   -40.3550     8.6790    12.9430     8.6570     0.0210     2.4320   146.1060
 1683.5000   -40.2930     8.6450    12.9140     8.6570     0.0240     2.4270   147.0670
