~VERSION INFORMATION
 VERS.                2.0:   CWLS LOG ASCII STANDARD - VERSION 2.0
 WRAP.                 NO:   ONE LINE PER DEPTH STEP
~WELL INFORMATION
#MNEM.UNIT      DATA TYPE    INFORMATION
#----------   ------------   ------------------------------
 STRT.F          200.5000:   START DEPTH
 STOP.F         3012.5000:   STOP DEPTH
 STEP.F            0.5000:   STEP LENGTH
 NULL.          -999.2500:   NO VALUE
 COMP.    FENIX & SCISSON:   COMPANY
 WELL.  FENIX "AX" #75-29:   WELL
 FLD .              NPR-3:   FIELD
 LOC .      S29 T39N R78W:   LOCATION
 CNTY.            NATRONA:   COUNTY
 STAT.            WYOMING:   STATE
 CTRY. UNITED STATES OF AMERICA:   COUNTRY
 SRVC.           BIRDWELL:   SERVICE COMPANY
 DATE.        15-FEB-1978:   LOGDATE
 API .     49025105830000:   API NUMBER
~CURVE INFORMATION
#MNEM.UNIT       API CODE    CURVE DESCRIPTION
#----------   ------------   ------------------------------
 DEPT.F                  :   
 GRD .GAPI   45 310 01 00:   GAMMA RAY FROM DENSITY LOG
 CALD.IN     45 280 60 00:   CALIPER FROM DENSITY LOG
 DEN .G/C3   45 350 01 00:   BULK DENSITY
 DCOR.G/C3   45 356 01 00:   DENSITY CORRECTION
 SPR .MV     05 010 01 00:   SPONTANEOUS POTENTIAL
 SN  .OHMM   05 040 16 00:   SHORT NORMAL 16"
 RILD.OHMM   05 120 46 00:   DEEP INDUCTION RESISTIVITY
~PARAMETER INFORMATION
#MNEM.UNIT          VALUE    DESCRIPTION
#----------   ------------   ------------------------------
 EKB .F         5042.0000:   Kelly bushing
 EGL .F         5032.0000:   Ground level
 EDF .F            0.0000:   Drilling floor
 TD  .F         3010.0000:   Total depth
 DATE.        15-FEB-1978:   Date logged
 CLNT.            A2DTECH:   Client Code
 SL  . 2550' FSL & 950' FEL:   Surface Location
 PD  .                 GL:   Permanent Datum
 EPD .F              5032:   Elevation Permanent Datum
 LMF .                 KB:   Log Measured From
 DMF .                 KB:   Drilling Measured From
 DAPD.F                10:   Feet Above Permanent Datum
 DD  .F              3010:   Depth driller
 DL  .F              3010:   Depth logger
 BLI .F              3002:   Bottom log interval
 TLI .F               200:   Top log interval
 CS1 .IN            8.625:   Casing size
 CBD1.      8.625" @ 222':   Casing driller 1
 CBL1.F               222:   Casing logger 1
 BS1 .IN            7.875:   Bit size
 BSD1.F              3010:   Depth drilled with bit1
 DFT .         LIGNO/SULF:   Type fluid in hole
 DFD .                9.1:   Density
 DFV .                 33:   Viscosity
 DFPH.                 10:   pH
 DFL .                4.9:   Fluid loss
 MSS .           FLOWLINE:   Source of sample
 RMS .OHMM              2:   Rm
 MST .F                66:   Rm Meas. temp.
 RMF .OHMM            2.2:   Rmf
 MFST.F                58:   Rmf Meas. temp.
 RMC .OHMM            1.8:   Rmc
 MCST.F                60:   Rmc Meas. temp.
 MFSS.               MEAS:   Source Rmf.
 RMB .OHMM            1.7:   Rm. at BHT
 BHT .F               118:   BHT.
 TCS .HRS               5:   Time Circ. stopped
 MRT .F               118:   Maximum recorded temp.
 LUN .               2958:   Logging unit number
 LUL .               CASP:   Logging unit location
 ENGI.            POINTER:   Recorded By
 WITN.           MCGINLEY:   Witnessed by
 ORIG.           5" PRINT:   Origin of data
 UWI .     49025105830000:   Unique Well ID
 DICO. A2D TECHNOLOGIES, INC.:   Digitizing Company
~OTHER INFORMATION
~A   DEPT       GRD      CALD        DEN       DCOR        SPR         SN       RILD   
# ...
 1474.5000    77.5530     9.7360     2.5520     0.0930   -55.4780     9.5140     8.7600
 1475.0000    75.1950     9.7680     2.5560     0.0950   -55.4780     9.5640     8.7230
 1475.5000    73.8900     9.7980     2.5550     0.0970   -55.4780     9.6150     8.7690
 1476.0000    73.5250     9.7920     2.5520     0.0990   -55.4780     9.6650     8.8350
 1476.5000    73.3710     9.7820     2.5530     0.1050   -55.4780     9.7160     8.9010
 1477.0000    73.3980     9.7900     2.5590     0.1120   -55.4780     9.7660     8.9670
 1477.5000    74.0400     9.8000     2.5600     0.1130   -55.4780     9.8340     9.0320
 1478.0000    76.3010     9.7810     2.5650     0.1130   -55.4780     9.8100     9.0980
 1478.5000    75.7980     9.7510     2.5680     0.1120   -55.4780     9.7560     9.1350
 1479.0000    76.5920     9.6780     2.5610     0.1090   -55.4760     9.7030     9.1350
 1479.5000    74.4460     9.5400     2.5480     0.1020   -55.3920     9.6500     9.1350
 1480.0000    75.3900     9.4530     2.5290     0.1050   -54.9340     9.5660     9.1350
 1480.5000    74.6150     9.4250     2.5380     0.1030   -55.3010     9.5820     9.1350
 1481.0000    73.5080     9.3950     2.5540     0.1020   -55.4460     9.6220     9.0660
 1481.5000    72.9460     9.3760     2.5570     0.1000   -55.3900     9.6620     8.9820
 1482.0000    73.7230     9.3610     2.5610     0.0990   -55.3350     9.7030     8.8980
 1482.5000    78.0240     9.3470     2.5510     0.0970   -55.2780     9.7440     8.8140
 1483.0000    78.3560     9.3400     2.5520     0.0950   -55.2220     9.6370     8.7300
 1483.5000    77.9720     9.3300     2.5590     0.0940   -55.1650     9.5280     8.6430
 1484.0000    78.0820     9.3330     2.5600     0.0940   -55.1080     9.4190     8.6430
 1484.5000    78.7190     9.3440     2.5570     0.0950   -54.9680     9.3050     8.6430
 1485.0000    78.8680     9.3540     2.5490     0.0970   -54.7370     9.2380     8.5320
 1485.5000    77.7000     9.3640     2.5430     0.1050   -54.5150     9.1680     8.3840
 1486.0000    76.5590     9.3740     2.5460     0.1120   -54.7750     9.1350     8.2640
 1486.5000    76.0080     9.3850     2.5530     0.1130   -55.0350     9.1350     8.3490
 1487.0000    76.1740     9.3950     2.5470     0.1140   -54.3320     9.1350     8.4070
 1487.5000    77.2550     9.4050     2.5530     0.1080   -54.9700     9.1350     8.2970
 1488.0000    77.9170     9.4150     2.5460     0.1040   -55.4830     9.1350     8.2130
 1488.5000    77.9150     9.4250     2.5320     0.1070   -55.2730     9.1350     8.1030
 1489.0000    77.9240     9.4260     2.5210     0.1190   -55.0800     9.1350     8.1250
 1489.5000    78.0890     9.4260     2.5240     0.1510   -54.9770     9.1350     8.1570
 1490.0000    78.4710     9.4260     2.5200     0.1870   -54.8820     9.1350     8.1890
 1490.5000    77.3210     9.4260     2.5230     0.2160   -54.8480     9.1350     8.2210
 1491.0000    76.5990     9.4260     2.5170     0.2200   -54.8160     9.1130     8.2540
 1491.5000    76.6700     9.4260     2.5080     0.2250   -54.7840     9.0790     8.2860
 1492.0000    72.8020     9.4260     2.5170     0.3170   -54.7520     9.0460     8.3180
 1492.5000    72.7730     9.4260     2.5390     0.3710   -54.7200     9.0120     8.3300
 1493.0000    72.9910     9.4280     2.5950     0.3800   -54.6860     8.9790     8.3300
 1493.5000    73.9220     9.3930     2.5810     0.3730   -54.7470     8.9450     8.3300
 1494.0000    74.8960     9.3560     2.5530     0.3660   -54.8280     8.9120     8.2850
 1494.5000    74.3460     9.3190     2.5280     0.3590   -54.9110     8.8790     8.1730
 1495.0000    74.1070     9.2840     2.5260     0.3490   -54.9940     8.8450     8.0610
 1495.5000    76.8220     9.2620     2.5250     0.3270   -55.0770     8.8040     7.9480
 1496.0000    79.5200     9.2390     2.5110     0.2680   -55.1090     8.8120     7.8090
 1496.5000    79.6700     9.2170     2.4910     0.2600   -55.1380     8.8260     7.8600
 1497.0000    79.3260     9.1940     2.5000     0.2570   -55.1680     8.8400     7.9510
 1497.5000    76.9240     9.1690     2.5230     0.2230   -55.1980     8.8550     8.0420
 1498.0000    74.1940     9.1340     2.5120     0.1790   -55.2280     8.8690     8.1030
 1498.5000    73.1770     9.1080     2.5010     0.1330   -55.2560     8.8830     8.0780
 1499.0000    73.0700     9.1090     2.5170     0.1140   -55.2100     8.8970     8.0600
 1499.5000    73.2690     9.1090     2.5290     0.1160   -54.9550     8.9120     8.0410
 1500.0000    73.0020     9.1090     2.5380     0.1280   -54.7090     8.9260     8.0280
 1500.5000    72.2460     9.1090     2.5370     0.1420   -54.4640     8.9400     8.1510
 1501.0000    69.9040     9.1090     2.5420     0.1510   -54.2190     8.9540     8.2540
 1501.5000    69.5170     9.1000     2.5550     0.1380   -54.0950     8.9680     8.4320
 1502.0000    69.6630     9.0860     2.5650     0.1260   -54.1150     9.2150     8.5980
 1502.5000    69.0880     9.0730     2.5380     0.1280   -54.1350     9.3910     8.7390
 1503.0000    70.9240     9.0600     2.5490     0.1210   -54.1560     9.0510     8.8040
 1503.5000    73.1890     9.0500     2.5610     0.1140   -54.1770    10.2030     8.9100
 1504.0000    73.0440     9.0530     2.5280     0.1130   -54.1980    10.1320     9.0130
 1504.5000    71.6770     9.0560     2.5020     0.1030   -54.2180     9.9570     9.1160
 1505.0000    70.5900     9.0590     2.4760     0.0930   -54.2400     9.7440     9.2190
 1505.5000    71.5760     9.0630     2.5150     0.0830   -54.2650     9.8050     9.3050
 1506.0000    72.0950     9.0660     2.5450     0.0790   -54.2990     9.8850     9.1660
 1506.5000    71.8480     9.0690     2.5490     0.0820   -53.8330     9.9640     9.0470
 1507.0000    71.6720     9.0690     2.5530     0.0880   -54.6980    10.0170     8.9680
 1507.5000    74.5080     9.0670     2.5490     0.0940   -53.3630     9.6990     9.0000
 1508.0000    75.3810     9.0530     2.5680     0.1000   -54.2890     9.4610     9.0510
 1508.5000    74.7320     9.0400     2.5620     0.0910   -54.2770     9.3050     8.9660
 1509.0000    73.3420     9.0260     2.5510     0.0950   -54.2800     9.1830     8.7960
 1509.5000    71.9340     9.0120     2.5620     0.0960   -54.2920     9.0600     8.6270
 1510.0000    71.6190     8.9990     2.5680     0.0900   -54.6360     8.9380     8.4570
 1510.5000    72.0030     8.9850     2.5440     0.0970   -55.0120     8.8160     8.3170
 1511.0000    73.1530     8.9710     2.5530     0.0990   -54.6700     8.7230     8.2540
 1511.5000    75.3780     8.9730     2.5620     0.0970   -54.1420     8.7980     8.3060
 1512.0000    80.6340     8.9760     2.5650     0.0950   -54.0290     8.8580     8.4070
 1512.5000    83.5500     8.9780     2.5610     0.0950   -53.9030     8.9190     8.3530
 1513.0000    83.1100     8.9810     2.5590     0.0980   -53.6530     8.9680     8.2190
 1513.5000    82.8490     8.9840     2.5720     0.0950   -53.4000     8.7340     8.0840
 1514.0000    83.4170     8.9870     2.5660     0.0930   -53.1480     8.5380     7.9500
 1514.5000    78.3850     8.9890     2.5550     0.0890   -52.8970     8.2540     7.8090
 1515.0000    79.3110     8.9920     2.5500     0.0890   -52.6470     8.2890     7.8300
 1515.5000    78.8140     8.9950     2.5530     0.0930   -52.3930     8.3520     7.8520
 1516.0000    79.8780     8.9980     2.5370     0.1020   -52.4800     8.4160     7.8740
 1516.5000    78.8330     9.0010     2.5490     0.1110   -52.7820     8.4800     7.8950
 1517.0000    77.7700     9.0030     2.5540     0.1100   -53.0820     8.5640     7.9170
 1517.5000    76.7310     9.0060     2.5870     0.1070   -53.2150     8.5360     7.9390
 1518.0000    80.0670     9.0090     2.5790     0.1030   -52.9470     8.4950     7.9550
 1518.5000    82.5960     9.0090     2.5650     0.1010   -53.0080     8.4540     7.9190
 1519.0000    81.3960     9.0080     2.5600     0.1010   -53.1670     8.4140     7.8770
 1519.5000    83.0190     9.0070     2.5620     0.1000   -53.2440     8.4070     7.8360
