~VERSION INFORMATION
 VERS.                2.0:   CWLS LOG ASCII STANDARD - VERSION 2.0
 WRAP.                 NO:   ONE LINE PER DEPTH STEP
~WELL INFORMATION
#MNEM.UNIT      DATA TYPE    INFORMATION
#----------   ------------   ------------------------------
 STRT.F          176.0000:   START DEPTH
 STOP.F         3442.0000:   STOP DEPTH
 STEP.F            0.5000:   STEP LENGTH
 NULL.          -999.2500:   NO VALUE
 COMP.  FENIX AND SCISSON:   COMPANY
 WELL.  FENIX "AX" #65-15:   WELL
 FLD . NAVAL PETROLEUM RESERVE #3:   FIELD
 LOC .      S15 T38N R78W:   LOCATION
 CNTY.            NATRONA:   COUNTY
 STAT.            WYOMING:   STATE
 CTRY. UNITED STATES OF AMERICA:   COUNTRY
 SRVC.       SCHLUMBERGER:   SERVICE COMPANY
 DATE.        09-APR-1981:   LOGDATE
 API .     49025108710000:   API NUMBER
~CURVE INFORMATION
#MNEM.UNIT       API CODE    CURVE DESCRIPTION
#----------   ------------   ------------------------------
 DEPT.F                  :   
 TENR.LBS    07 635 01 00:   TENSION
 SPR .MV     07 010 01 00:   SPONTANEOUS POTENTIAL
 ILD .OHMM   07 120 46 00:   INDUCTION LOG DEEP RESISTIVITY
 ILM .OHMM   07 120 44 00:   INDUCTION LOG MEDIUM RESISTIVITY
 SFL .OHMM   07 220 01 00:   SHALLOW FOCUSED LOG RESISTIVITY
 TEND.LBS    45 635 01 00:   TENSION FROM DENSITY LOG
 CALD.IN     45 280 60 00:   CALIPER FROM DENSITY LOG
 GRD .GAPI   45 310 01 00:   GAMMA RAY FROM DENSITY LOG
 RHOB.G/C3   45 350 01 00:   BULK DENSITY
 CORR.G/C3   45 356 01 00:   DENSITY CORRECTION
~PARAMETER INFORMATION
#MNEM.UNIT          VALUE    DESCRIPTION
#----------   ------------   ------------------------------
 EKB .F         5287.0000:   Kelly bushing
 EGL .F         5277.0000:   Ground level
 EDF .F            0.0000:   Drilling floor
 TD  .F         5476.0000:   Total depth
 DATE.        09-APR-1981:   Date logged
 CLNT.            A2DTECH:   Client Code
 SL  . 1945' FSL & 1161' FEL:   Surface Location
 PD  .                 GL:   Permanent Datum
 EPD .F              5277:   Elevation Permanent Datum
 LMF .                 KB:   Log Measured From
 DMF .                 KB:   Drilling Measured From
 DAPD.F                10:   Feet Above Permanent Datum
 DD  .F              5476:   Depth driller
 DL  .F              5436:   Depth logger
 BLI .F              5430:   Bottom log interval
 TLI .F               190:   Top log interval
 CS1 .IN            8.625:   Casing size
 CBD1.      8.625" @ 190':   Casing driller 1
 CBL1.F               190:   Casing logger 1
 BS1 .IN            7.875:   Bit size
 BSD1.F              5476:   Depth drilled with bit1
 DFT .           CHEM GEL:   Type fluid in hole
 DFD .                9.1:   Density
 DFV .                 42:   Viscosity
 DFPH.                9.5:   pH
 DFL .                  8:   Fluid loss
 MSS .            MUDTANK:   Source of sample
 RMS .OHMM           1.62:   Rm
 MST .F                71:   Rm Meas. temp.
 RMF .OHMM           1.45:   Rmf
 MFST.F                71:   Rmf Meas. temp.
 MFSS.               MEAS:   Source Rmf.
 RMB .OHMM           1.02:   Rm. at BHT
 BHT .F               116:   BHT.
 TCS .HRS            1600:   Time Circ. stopped
 TLAB.HRS            1830:   Time logger at bottom
 MRT .F               116:   Maximum recorded temp.
 LUN .               8035:   Logging unit number
 LUL .               CSPR:   Logging unit location
 ENGI.            BEATTIE:   Recorded By
 WITN.              EIVAS:   Witnessed by
 ORIG.           5" PRINT:   Origin of data
 UWI .     49025108710000:   Unique Well ID
 DICO. A2D TECHNOLOGIES, INC.:   Digitizing Company
~OTHER INFORMATION
~A   DEPT     TENR        SPR        ILD        ILM        SFL       TEND       CALD         GRD      RHOB       CORR   
# ...
 1248.0000   415.1140   -21.9740     8.7360     8.1560     9.2320   424.1520     8.4610   110.5640     2.5150     0.0030
 1248.5000   415.2880   -21.8950     8.7360     8.1330     9.3120   424.1520     8.4590   112.5840     2.5170     0.0060
 1249.0000   415.4620   -21.8090     8.7780     8.1230     9.3920   429.3250     8.4570   112.9670     2.5170     0.0070
 1249.5000   415.6350   -21.7600     8.8540     8.3180     9.4730   435.2630     8.4540   108.9880     2.5160     0.0080
 1250.0000   415.8090   -21.7660     8.9290     8.4850     9.5690   441.2010     8.4490   103.7160     2.5180     0.0110
 1250.5000   415.9830   -21.7650     9.0050     8.6510     9.6780   443.1140     8.4440    97.8530     2.5230     0.0170
 1251.0000   416.1560   -21.7640     9.0800     8.8170     9.8140   439.9330     8.4390    99.6090     2.5230     0.0230
 1251.5000   416.3300   -21.7650     9.1560     8.9840     9.9490   436.7510     8.4330   102.6880     2.5180     0.0190
 1252.0000   416.5030   -21.7650     9.2310     9.1500    10.0850   434.1320     8.4280   104.8410     2.5130     0.0150
 1252.5000   416.6770   -21.7650     9.3060     9.3160    10.2210   433.7480     8.4230   106.3500     2.5160     0.0100
 1253.0000   416.8510   -21.7650     9.3810     9.5690    10.3560   433.0950     8.4180   107.8660     2.5220     0.0060
 1253.5000   417.0240   -21.7650     9.4560     9.5470    10.4810   432.4430     8.4130   108.1470     2.5210     0.0050
 1254.0000   417.1980   -21.7650     9.5690     9.5020    10.4810   431.7900     8.4070   107.5080     2.5130     0.0050
 1254.5000   417.3710   -21.7650     9.5580     9.4560    10.4180   431.1380     8.4020   107.1060     2.5110     0.0120
 1255.0000   417.5450   -21.7650     9.5360     9.4110    10.3470   430.4850     8.3970   109.1440     2.5190     0.0160
 1255.5000   417.7190   -21.7640     9.5140     9.3650    10.2770   429.8330     8.3980   111.8640     2.5260     0.0130
 1256.0000   417.8920   -21.7670     9.4930     9.3200    10.2060   429.1800     8.4000   113.4040     2.5230     0.0090
 1256.5000   418.0660   -21.7430     9.4710     9.2740    10.1360   428.5280     8.4020   113.6270     2.5210     0.0040
 1257.0000   418.2390   -21.6940     9.4490     9.2270    10.0650   427.8750     8.4040   113.4630     2.5180     0.0010
 1257.5000   418.4130   -21.6470     9.4270     9.2270     9.9950   427.2220     8.4060   113.2870     2.5110    -0.0010
 1258.0000   418.5870   -21.6000     9.3970     9.2270     9.9240   426.5700     8.4070   113.1090     2.5050    -0.0030
 1258.5000   418.7600   -21.5530     9.5090     9.2270    10.0400   425.9170     8.4090   112.9560     2.5070     0.0000
 1259.0000   418.9340   -21.5060     9.6980     9.2270    10.1580   425.2650     8.4110   111.2700     2.5140     0.0080
 1259.5000   419.1080   -21.4590     9.8870     9.2270    10.2750   424.6120     8.4130   108.6830     2.5210     0.0160
 1260.0000   419.2810   -21.4120    10.0750     9.2250    10.3930   424.1520     8.4150   106.0880     2.5180     0.0160
 1260.5000   419.4550   -21.3650    10.2920     9.2250    10.4640   424.1520     8.4170   103.6920     2.5150     0.0140
 1261.0000   419.6280   -21.3180    10.2100     9.2290    10.3990   424.1520     8.4190   103.1740     2.5110     0.0130
 1261.5000   419.8020   -21.2710    10.1130     9.2270    10.3330   424.1520     8.4200   105.9690     2.5070     0.0090
 1262.0000   419.9760   -21.2230    10.0170     9.5660    10.2670   424.1520     8.4220   108.6010     2.5060     0.0050
 1262.5000   420.1490   -21.1760     9.9210     9.4790    10.2010   424.1520     8.4240   109.5140     2.5050     0.0020
 1263.0000   420.3230   -21.1300     9.8250     9.4130    10.1350   424.1520     8.4260   109.0740     2.5060    -0.0010
 1263.5000   420.4960   -21.0810     9.7290     9.3500    10.0690   424.1520     8.4280   108.6590     2.5130     0.0010
 1264.0000   420.6700   -21.0370     9.6320     9.2870    10.0030   424.1520     8.4300   107.4820     2.5200     0.0040
 1264.5000   420.8440   -20.9860     9.5360     9.2240     9.9370   424.1520     8.4320   105.3430     2.5250     0.0090
 1265.0000   421.0170   -21.0290     9.4400     9.1610     9.8710   424.1520     8.4330   104.8560     2.5260     0.0080
 1265.5000   421.1910   -21.0860     9.3440     9.0980     9.8050   424.1520     8.4350   107.0850     2.5270     0.0070
 1266.0000   421.3640   -21.1460     9.2480     9.0350     9.7390   424.1520     8.4350   112.4650     2.5270     0.0050
 1266.5000   421.5380   -21.2030     9.2270     8.9720     9.6740   424.1520     8.4340   117.3060     2.5280     0.0120
 1267.0000   421.7120   -21.2620     9.2260     8.8980     9.6080   424.1520     8.4330   117.3210     2.5320     0.0190
 1267.5000   421.8850   -21.3190     9.2270     8.8870     9.5690   424.1520     8.4320   114.6730     2.5320     0.0220
 1268.0000   422.0590   -21.3700     9.2270     8.8600     9.6260   424.1520     8.4310   111.2530     2.5260     0.0170
 1268.5000   422.2330   -21.3720     9.2270     8.8320     9.6820   424.1520     8.4290   108.2770     2.5200     0.0120
 1269.0000   422.4060   -21.3730     9.2270     8.8050     9.7390   424.1520     8.4280   106.0810     2.5150     0.0070
 1269.5000   422.5800   -21.3720     9.2270     8.7770     9.7950   424.1520     8.4270   104.0110     2.5190     0.0050
 1270.0000   422.7530   -21.3730     9.2270     8.7370     9.8510   424.1520     8.4260   104.1120     2.5280     0.0080
 1270.5000   422.9270   -21.3720     9.2270     8.7460     9.9240   424.1520     8.4250   106.4210     2.5360     0.0130
 1271.0000   423.1010   -21.3730     9.2270     8.7680     9.8310   424.1520     8.4240   108.9930     2.5450     0.0190
 1271.5000   423.2740   -21.3730     9.2270     8.7890     9.6980   424.1520     8.4220   111.3660     2.5490     0.0250
 1272.0000   423.4480   -21.3700     9.2270     8.8100     9.5640   424.1520     8.4210   112.0300     2.5450     0.0260
 1272.5000   423.6210   -21.4010     9.2270     8.8310     9.4310   424.1520     8.4200   113.2440     2.5350     0.0180
 1273.0000   423.7950   -21.4850     9.2270     8.8520     9.2270   424.1520     8.4190   114.8060     2.5240     0.0110
 1273.5000   423.9690   -21.5660     9.2270     8.8730     9.2270   424.1520     8.4180   115.0210     2.5150     0.0070
 1274.0000   424.1420   -21.6490     9.2270     8.8940     9.3180   424.1520     8.4170   112.5230     2.5170     0.0070
 1274.5000   424.3160   -21.7320     9.2270     8.9150     9.5630   424.1520     8.4160   108.7660     2.5290     0.0170
 1275.0000   424.4890   -21.8140     9.2270     8.9360     9.8080   424.1520     8.4160   106.5580     2.5400     0.0220
 1275.5000   424.6630   -21.8960     9.2270     8.9570    10.0530   424.1520     8.4160   106.6760     2.5410     0.0210
 1276.0000   424.8370   -21.9800     9.2270     8.9780    10.2920   424.1520     8.4160   108.1440     2.5380     0.0140
 1276.5000   424.9010   -22.0590     9.2270     8.9990     9.9360   424.1520     8.4260   105.6950     2.5460     0.0130
 1277.0000   424.9010   -22.1500     9.2270     9.0190     9.3970   424.1520     8.4350   102.1700     2.5530     0.0200
 1277.5000   424.9010   -22.1570     9.2270     9.0400     9.3970   424.1520     8.4440    99.8170     2.5480     0.0220
 1278.0000   424.9010   -22.1580     9.2270     9.0640     9.5700   424.1520     8.4540   100.0100     2.5270     0.0120
 1278.5000   424.9010   -22.1550     9.2270     8.9970     9.9430   424.1520     8.4380   101.2610     2.5100     0.0090
 1279.0000   424.9010   -22.1640     9.2270     8.9040    10.3160   424.1520     8.4140   101.9870     2.5150     0.0160
 1279.5000   424.9010   -22.0810     9.2270     8.8100    10.8690   424.1520     8.3980   104.2060     2.5240     0.0220
 1280.0000   424.9010   -21.8960     9.2280     8.7160    10.5760   424.1520     8.4390   108.1260     2.5270     0.0270
 1280.5000   424.9010   -21.7220     9.2290     8.6220    10.0030   424.1520     8.4740   112.4030     2.5280     0.0290
 1281.0000   424.9010   -21.5460     9.2240     8.5790     9.4310   424.1520     8.4600   112.7780     2.5280     0.0270
