~VERSION INFORMATION
 VERS.                2.0:   CWLS LOG ASCII STANDARD - VERSION 2.0
 WRAP.                 NO:   ONE LINE PER DEPTH STEP
~WELL INFORMATION
#MNEM.UNIT      DATA TYPE    INFORMATION
#----------   ------------   ------------------------------
 STRT.F           16.0000:   START DEPTH
 STOP.F         4208.0000:   STOP DEPTH
 STEP.F            0.5000:   STEP LENGTH
 NULL.          -999.2500:   NO VALUE
 COMP.    FENIX & SCISSON:   COMPANY
 WELL. FENIX NPR 3 "MX" #41-10:   WELL
 FLD .                NPR:   FIELD
 LOC .      S10 T38N R78W:   LOCATION
 CNTY.            NATRONA:   COUNTY
 STAT.            WYOMING:   STATE
 CTRY. UNITED STATES OF AMERICA:   COUNTRY
 SRVC.       SCHLUMBERGER:   SERVICE COMPANY
 DATE.        04-NOV-1978:   LOGDATE
 API .     49025107260000:   API NUMBER
~CURVE INFORMATION
#MNEM.UNIT       API CODE    CURVE DESCRIPTION
#----------   ------------   ------------------------------
 DEPT.F                  :   
 TENR.LBS    07 635 01 00:   TENSION FROM RESISTIVITY
 SPR .MV     07 010 01 00:   SPONTANEOUS POTENTIAL
 SFL .OHMM   07 220 01 00:   SHALLOW FOCUSED LOG RESISTIVITY
 ILD .OHMM   07 120 46 00:   DEEP INDUCTION RESISTIVITY
 ILM .OHMM   07 120 44 00:   INDUCTION LOG MEDIUM RESISTIVITY
 CALD.IN     45 280 60 00:   CALIPER FROM DENSITY LOG
 GRD .GAPI   45 310 01 00:   GAMMA RAY FROM DENSITY LOG
 TEND.LBS    45 635 01 00:   TENSION FROM DENSITY LOG
 RHOB.G/C3   45 350 01 00:   BULK DENSITY
 CORR.G/C3   45 356 01 00:   DENSITY CORRECTION
 NPHI.DEC    42 890 03 00:   NEUTRON POROSITY SANDSTONE
~PARAMETER INFORMATION
#MNEM.UNIT          VALUE    DESCRIPTION
#----------   ------------   ------------------------------
 EKB .F         5237.0000:   Kelly bushing
 EGL .F         5227.0000:   Ground level
 EDF .F            0.0000:   Drilling floor
 TD  .F         4200.0000:   Total depth
 DATE.        04-NOV-1978:   Date logged
 CLNT.            A2DTECH:   Client Code
 SL  . 70' FNL & 2370' FWL:   Surface Location
 PD  .                 GL:   Permanent Datum
 EPD .F              5227:   Elevation Permanent Datum
 LMF .                 KB:   Log Measured From
 DMF .                 KB:   Drilling Measured From
 DAPD.F                10:   Feet Above Permanent Datum
 DD  .F              4200:   Depth driller
 DL  .F              4191:   Depth logger
 BLI .F              4185:   Bottom log interval
 TLI .F               506:   Top log interval
 CS1 .IN            9.625:   Casing size
 CBD1.      9.625" @ 500':   Casing driller 1
 CBL1.F               506:   Casing logger 1
 BS1 .IN             8.75:   Bit size
 BSD1.F              4200:   Depth drilled with bit1
 DFT .                FGM:   Type fluid in hole
 DFD .                9.3:   Density
 DFV .                 42:   Viscosity
 DFPH.               11.5:   pH
 DFL .                6.4:   Fluid loss
 MSS .               TANK:   Source of sample
 RMS .OHMM           1.08:   Rm
 MST .F                67:   Rm Meas. temp.
 RMF .OHMM           0.83:   Rmf
 MFST.F                67:   Rmf Meas. temp.
 MFSS.               MEAS:   Source Rmf.
 RMB .OHMM           0.58:   Rm. at BHT
 BHT .F               125:   BHT.
 TCS .HRS            0430:   Time Circ. stopped
 TLAB.HRS            0830:   Time logger at bottom
 MRT .F               125:   Maximum recorded temp.
 LUN .               8039:   Logging unit number
 LUL .               CSPR:   Logging unit location
 ENGI.          STADULLIS:   Recorded By
 WITN.              AMEND:   Witnessed by
 ORIG.           5" PRINT:   Origin of data
 UWI .     49025107260000:   Unique Well ID
 DICO. A2D TECHNOLOGIES, INC.:   Digitizing Company
~OTHER INFORMATION
~A   DEPT     TENR        SPR        SFL        ILD        ILM       CALD         GRD      TEND       RHOB       CORR       NPHI   
# ...
 1236.0000   582.3290   -21.8910     8.6000     9.3170     8.4270    12.0560    94.5150   943.7750     2.5020     0.0170     0.2860
 1236.5000   582.5620   -21.8710     8.7550     9.3070     8.4360    12.0380    94.3280   943.7750     2.5300     0.0270     0.2860
 1237.0000   582.7740   -21.8520     8.9460     9.2980     8.4460    12.0190    94.8260   944.6330     2.5390     0.0370     0.2870
 1237.5000   582.9860   -21.8320     8.8660     9.2900     8.4610    12.0130    96.4990   946.9700     2.5380     0.0350     0.2870
 1238.0000   583.1970   -21.8120     8.6610     9.2110     8.4150    12.0300    98.0110   949.3060     2.5330     0.0330     0.2770
 1238.5000   583.4090   -21.7930     8.4550     9.0880     8.2010    12.0450    99.5260   951.6430     2.5340     0.0300     0.2810
 1239.0000   583.6200   -21.7730     8.1560     8.9650     7.9860    12.0520   101.2330   953.9800     2.5420     0.0300     0.2860
 1239.5000   583.8320   -21.7540     8.1560     8.8420     7.7710    12.0360   100.7500   956.3160     2.5480     0.0280     0.2920
 1240.0000   584.0440   -21.7340     7.9940     8.7210     7.5570    12.0220    99.1280   958.6530     2.5340     0.0280     0.2960
 1240.5000   584.2550   -21.7150     7.5290     8.6210     7.3420    12.0140    97.6080   960.9890     2.5180     0.0270     0.2970
 1241.0000   584.4670   -21.6950     7.4360     8.5930     7.2900    12.0860    96.4080   963.3260     2.5280     0.0320     0.2980
 1241.5000   584.6790   -21.6750     7.5270     8.5580     7.2690    12.1570    95.1140   965.6630     2.5400     0.0400     0.3000
 1242.0000   584.8900   -21.6560     7.6930     8.5230     7.2470    12.2300    93.9910   967.9990     2.5450     0.0450     0.3000
 1242.5000   585.1020   -21.6360     7.9430     8.4880     7.2260    12.3200    92.5400   970.3360     2.5300     0.0380     0.2930
 1243.0000   585.3130   -21.6170     8.1560     8.4530     7.2040    12.2090    94.6970   972.6730     2.5150     0.0300     0.2870
 1243.5000   585.5250   -21.5970     7.9190     8.4180     7.1830    11.9740    98.6870   975.0090     2.5150     0.0240     0.2880
 1244.0000   585.7370   -21.5780     7.7120     8.3820     7.1660    11.7350   100.9760   977.3460     2.5260     0.0300     0.2950
 1244.5000   585.9480   -21.5580     7.5060     8.3490     7.2160    11.6550   100.4660   979.6820     2.5370     0.0810     0.2980
 1245.0000   586.1600   -21.5380     7.4360     8.3100     7.2780    11.9960   100.3500   982.0190     2.5420     0.1370     0.2990
 1245.5000   586.3710   -21.5160     7.4360     8.3090     7.3400    13.1220   100.0860   983.9360     2.5290     0.1920     0.2920
 1246.0000   586.5830   -21.4900     7.4360     8.3090     7.4020    14.7370   100.5310   976.3550     2.5000     0.2470     0.2910
 1246.5000   586.7950   -21.4650     7.4360     8.3080     7.4630    14.5600   101.9420   969.9300     2.4590     0.2490     0.2940
 1247.0000   587.0060   -21.4390     7.4360     8.3080     7.5250    13.9940   103.1440   963.5040     2.4370     0.2310     0.2970
 1247.5000   587.2180   -21.4130     7.4360     8.3110     7.5870    13.4530   102.2360   957.0780     2.4420     0.1890     0.2990
 1248.0000   587.4300   -21.3870     7.4360     8.3080     7.6490    13.1770   101.3640   950.6530     2.4720     0.1480     0.3010
 1248.5000   587.6410   -21.3620     8.3080     8.4180     7.7100    12.8530   100.4940   944.2270     2.5040     0.1050     0.3020
 1249.0000   587.8530   -21.3360     8.2410     8.5210     7.7720    12.5620    98.8370   937.8010     2.5110     0.0820     0.3040
 1249.5000   588.0640   -21.3350     8.1110     8.6240     7.8340    12.2480    96.4650   931.3760     2.4960     0.0630     0.3090
 1250.0000   588.2760   -21.3450     8.0060     8.7270     7.8890    12.0450    94.2190   924.9500     2.4890     0.0460     0.2960
 1250.5000   588.4880   -21.3550     8.3220     8.8300     7.9400    12.0060    91.8430   918.5240     2.4970     0.0300     0.2890
 1251.0000   588.6990   -21.3640     8.6210     9.1130     7.9910    11.9340    91.0580   912.0980     2.5030     0.0170     0.2820
 1251.5000   588.9110   -21.3730     8.6210     9.1060     8.0420    11.9420    91.2260   905.6730     2.5100     0.0150     0.2790
 1252.0000   589.1230   -21.3830     8.6210     9.0920     8.0930    11.9560    93.1690   996.7870     2.5160     0.0140     0.2830
 1252.5000   589.3340   -21.3920     8.6590     9.0770     8.1440    11.9710    94.9490  1133.8690     2.5360     0.0200     0.2860
 1253.0000   589.5460   -21.4010     8.7280     9.0630     8.1560    11.9850    95.8660  1194.6790     2.5670     0.0260     0.2900
 1253.5000   589.7570   -21.4100     8.7730     9.0490     8.1560    11.9990    95.1970  1104.7190     2.5870     0.0330     0.2940
 1254.0000   589.9690   -21.4200     8.7320     9.0340     8.1560    12.0120    94.6920  1014.7590     2.5850     0.0350     0.2960
 1254.5000   590.1810   -21.4290     8.6900     9.0200     8.1560    12.0120    94.2160   943.7750     2.5780     0.0340     0.2950
 1255.0000   590.3920   -21.4380     8.6490     9.0060     8.1560    12.0150    93.6210   943.7750     2.5720     0.0340     0.2910
 1255.5000   590.6040   -21.4480     8.6210     8.9910     8.1560    12.0180    93.5450   943.7750     2.5730     0.0410     0.2870
 1256.0000   590.8160   -21.4570     8.6210     8.9770     8.1560    12.0220    93.6880   943.7750     2.5770     0.0470     0.2830
 1256.5000   591.0270   -21.4660     8.6210     8.9640     8.1560    12.0250    96.0580   943.7750     2.5810     0.0530     0.2800
 1257.0000   591.2390   -21.4750     8.5140     8.9480     8.1560    12.0290    98.0290   943.7750     2.5690     0.0530     0.2760
 1257.5000   591.4500   -21.4850     8.3420     8.9790     8.1560    12.0320   100.1310   943.7750     2.5480     0.0440     0.2770
 1258.0000   591.6620   -21.4940     8.1560     9.0160     8.1560    12.0350   102.5180   943.7750     2.5250     0.0320     0.2810
 1258.5000   591.8740   -21.5030     8.0060     9.0540     8.1560    12.0390   102.4220   943.7750     2.5080     0.0200     0.2850
 1259.0000   592.0850   -21.5120     8.9460     9.0920     8.1520    12.0420   100.5830   943.7750     2.5090     0.0180     0.2900
 1259.5000   592.2970   -21.5220     8.9180     9.1290     8.1400    12.0460    98.3900   943.7750     2.5200     0.0190     0.2940
 1260.0000   592.5090   -21.5280     8.7780     9.1670     8.1290    12.0490    99.7690   943.7750     2.5300     0.0240     0.2980
 1260.5000   592.7200   -21.5280     8.6210     9.2050     8.1180    12.0530   102.7980   943.7750     2.5410     0.0300     0.3010
 1261.0000   592.9320   -21.5280     8.5970     9.2420     8.1060    12.0440   105.2980   943.7750     2.5420     0.0370     0.3100
 1261.5000   593.1430   -21.5280     8.5460     9.2810     8.0950    12.0230   100.9340   943.7750     2.5320     0.0430     0.3130
 1262.0000   593.3550   -21.5280     8.4960     9.2750     8.0840    12.0030    96.9910   943.7750     2.5170     0.0450     0.3150
 1262.5000   593.5670   -21.5280     8.4450     9.2680     8.0720    11.9830    92.6650   943.7750     2.5100     0.0420     0.3140
 1263.0000   593.7780   -21.5280     8.3950     9.2600     8.0610    11.9630    88.9110   943.7750     2.5140     0.0410     0.3130
 1263.5000   593.9900   -21.5280     8.3440     9.2510     8.0500    11.9440    87.7980   943.7750     2.5170     0.0390     0.3150
 1264.0000   594.2020   -21.5280     8.3080     9.2440     8.0380    11.9240    88.0890   943.7750     2.5100     0.0290     0.3170
 1264.5000   594.4130   -21.5280     8.3270     9.2360     8.0270    11.9020    88.3260   943.7750     2.4990     0.0200     0.3190
 1265.0000   594.6250   -21.5280     8.3480     9.2280     8.0160    11.8890    88.5520   943.7750     2.4980     0.0100     0.3190
 1265.5000   594.8360   -21.5280     8.3690     9.2200     8.0080    11.8910    88.6080   943.7750     2.5060     0.0110     0.3130
 1266.0000   595.0480   -21.5280     8.3900     9.2120     8.0220    11.8910    89.5450   943.7750     2.5130     0.0130     0.3080
