~VERSION INFORMATION
 VERS.                2.0:   CWLS LOG ASCII STANDARD - VERSION 2.0
 WRAP.                 NO:   ONE LINE PER DEPTH STEP
~WELL INFORMATION
#MNEM.UNIT      DATA TYPE    INFORMATION
#----------   ------------   ------------------------------
 STRT.F          200.0000:   START DEPTH
 STOP.F         3196.5000:   STOP DEPTH
 STEP.F            0.5000:   STEP LENGTH
 NULL.          -999.2500:   NO VALUE
 COMP.    FENIX & SCISSON:   COMPANY
 WELL. FENIX & SCISSON #82-15:   WELL
 FLD .                NPR:   FIELD
 LOC .      S15 T38N R78W:   LOCATION
 CNTY.            NATRONA:   COUNTY
 STAT.            WYOMING:   STATE
 CTRY. UNITED STATES OF AMERICA:   COUNTRY
 SRVC.              WELEX:   SERVICE COMPANY
 DATE.        14-AUG-1977:   LOGDATE
 API .     49025104100000:   API NUMBER
~CURVE INFORMATION
#MNEM.UNIT       API CODE    CURVE DESCRIPTION
#----------   ------------   ------------------------------
 DEPT.F                  :   
 CALD.IN     45 280 60 00:   CALIPER FROM DENSITY LOG
 GRD .GAPI   45 310 01 00:   GAMMA RAY FROM DENSITY LOG
 RHOB.G/C3   45 350 01 00:   BULK DENSITY
 CORR.G/C3   45 356 01 00:   DENSITY CORRECTION
 SPR .MV     07 010 01 00:   SPONTANEOUS POTENTIAL
 ILD .OHMM   07 120 46 00:   DEEP INDUCTION RESISTIVITY
 ILM .OHMM   07 120 44 00:   INDUCTION LOG MEDIUM RESISTIVITY
 GURD.OHMM   07 220 05 00:   GUARD LOG RESISTIVITY
~PARAMETER INFORMATION
#MNEM.UNIT          VALUE    DESCRIPTION
#----------   ------------   ------------------------------
 EKB .F         5259.0000:   Kelly bushing
 EGL .F         5249.0000:   Ground level
 EDF .F            0.0000:   Drilling floor
 EPD .F            0.0000:   Permanent datum
 TD  .F         3197.0000:   Total depth
 CLNT.            A2DTECH:   Client Code
 SL  . 990' FNL & 330' FEL:   Surface Location
 PD  .                 GL:   Permanent Datum
 DAPD.F                10:   Feet Above Permanent Datum
 DATE.        14-AUG-1977:   Date Logged [DD-MMM-YYYY]
 DD  .F              3197:   Depth driller
 DL  .F              3200:   Depth logger
 BLI .F              3198:   Bottom log interval
 TLI .F               200:   Top log interval
 CS1 .IN            8.625:   Casing size
 CBD1.      8.625" @ 236':   Casing driller 1
 CBL1.F               220:   Casing logger 1
 BS1 .IN            7.875:   Bit size
 BSD1.F              3197:   Depth drilled with bit1
 DFT .            KCL MUD:   Type fluid in hole
 DFD .                9.1:   Density
 DFV .                 42:   Viscosity
 DFPH.               10.5:   pH
 DFL .                7.2:   Fluid loss
 MSS .           FLOWLINE:   Source of sample
 RMS .OHMM          0.240:   Rm
 MST .F                92:   Rm Meas. temp.
 RMF .OHMM          0.160:   Rmf
 MFST.F                92:   Rmf Meas. temp.
 MFSS.               MEAS:   Source Rmf.
 RMC .OHMM          0.238:   Rmc
 MCST.F                92:   Rmc Meas. temp.
 MCSS.               MEAS:   Source Rmc.
 RMB .OHMM          0.194:   Rm. at BHT
 BHT .F               114:   BHT.
 TCS .HRS               3:   Time Circ. stopped
 MRT .F               114:   Maximum recorded temp.
 LUN .               9685:   Logging unit number
 LUL .             CASPER:   Logging unit location
 ENGI.            C. DOAK:   Recorded By
 WITN.      W. PETTINGILL:   Witnessed by
 ORIG.           5" PRINT:   Origin of data
 UWI .     49025104100000:   Unique Well ID
 DICO. A2D TECHNOLOGIES, INC.:   Digitizing Company
~OTHER INFORMATION
~A   DEPT       CALD       GRD        RHOB      CORR       SPR        ILD        ILM       GURD   
# ...
 2184.5000     9.8412   108.9338     2.2025     0.1237   -63.1273     8.1764     8.7744     9.2864
 2185.0000    10.6021   108.9687     2.2148     0.1388   -63.1069     8.1802     8.5904     9.0381
 2185.5000    13.6373   108.0954     2.2297     0.1564   -63.0865     8.1841     8.4064     8.7358
 2186.0000    15.9924   106.6397     2.2629     0.1864   -63.0661     7.9578     8.2224     8.4985
 2186.5000    15.9937   105.7751     2.2839     0.2030   -63.0457     7.7503     8.0198     8.3325
 2187.0000    13.6262   107.3484     2.3140     0.1852   -63.1748     7.5430     7.8064     8.1110
 2187.5000    11.4986   107.0530     2.3478     0.1719   -63.3039     7.3404     7.5985     7.6785
 2188.0000     9.4310   105.8798     2.4003     0.1616   -63.2784     7.1423     7.7104     7.0217
 2188.5000     9.4022   106.2233     2.4221     0.1572   -63.2580     6.9505     9.2143     6.8330
 2189.0000     9.4036   107.7574     2.4244     0.1589   -63.0881     6.7646    11.7831     7.3794
 2189.5000     9.4049   109.2916     2.4058     0.1640   -62.9182     6.6746    11.0008     8.0795
 2190.0000     9.4065   109.6263     2.3834     0.1712   -62.8978     6.5859    13.6476     8.4864
 2190.5000     9.4078   109.3613     2.3602     0.1728   -62.8774     6.4992    14.6370     9.1004
 2191.0000     9.4391   108.7966     2.3349     0.1625   -62.8570     6.5022    11.9000     9.5582
 2191.5000     9.5154   109.1687     2.3147     0.1492   -62.8366     6.5505     8.9652     9.4959
 2192.0000     9.6816   109.7747     2.3245     0.1329   -62.8161     6.5991     7.2385     9.1005
 2192.5000     9.7729   111.0090     2.3231     0.1208   -62.7952     6.6943     6.9397     8.6321
 2193.0000     9.6393   111.0439     2.3149     0.1167   -62.7703     6.6974     7.1508     8.2858
 2193.5000     9.6208   109.8794     2.3001     0.1109   -62.7499     6.7471     7.6692     7.9522
 2194.0000     9.1775   109.9143     2.2971     0.0827   -62.7295     6.7973     8.2252     7.9021
 2194.5000     8.9689   111.1486     2.3242     0.0559   -62.7091     6.8961     8.2313     8.5340
 2195.0000     8.9102   112.0840     2.3482     0.0486   -62.6887     7.0441     8.3522     9.5398
 2195.5000     8.9115   110.9273     2.3573     0.0502   -62.6683     7.1954     8.1301     9.9505
 2196.0000     8.9428   110.0539     2.3334     0.0429   -62.7982     7.4010     8.5995     8.6688
 2196.5000     9.2140   109.7890     2.3123     0.0281   -62.9268     7.6124     8.6657     8.6753
 2197.0000    10.0849   111.0320     2.2774     0.0193   -62.9058     7.7759     8.3785     8.5612
 2197.5000    10.9588   111.6667     2.2528     0.0135   -63.0351     7.9448     7.7161     7.9381
 2198.0000     9.3232   111.4017     2.2274     0.0046   -63.1642     8.0019     7.0570     7.3095
 2198.5000     8.3947   111.1364     2.1870     0.0018   -63.4377     7.9503     6.6816     6.7307
 2199.0000     8.6811   110.5720     2.1624     0.0094   -63.4173     7.9001     7.0186     6.7816
 2199.5000     8.9973   111.8150     2.1467     0.0186   -63.3969     7.8483     7.7927     7.2723
 2200.0000     9.3551   112.7407     2.1116     0.0292   -63.5311     7.6915     9.2095     7.7984
 2200.5000     9.6147   111.5710     2.0832     0.0443   -63.6550     7.6415     8.8058     7.6953
 2201.0000     8.9570   113.1733     2.0608     0.0623   -63.6346     7.5415     8.3116     7.7005
 2201.5000     8.5834   112.5427     2.0496     0.0984   -63.6142     7.4417     7.9227     7.6514
 2202.0000     9.0502   113.1754     2.0382     0.1249   -63.8928     7.2433     7.3354     7.3950
 2202.5000     9.7264   113.2146     2.0287     0.1565   -63.8673     7.0491     6.8142     7.1959
 2203.0000    10.7775   113.8463     2.0243     0.1895   -64.0015     6.5810     5.2411     6.8126
 2203.5000    13.1517   116.2772     2.0206     0.1777   -64.4244     5.8940     5.3547     6.3164
 2204.0000    15.9682   116.6011     2.0251     0.1659   -64.4040     5.5026     5.2473     5.7358
 2204.5000    15.9699   114.5342     2.0462     0.1660   -64.5382     5.3551     5.3992     5.3921
 2205.0000    15.9715   115.4739     2.0732     0.1599   -64.6673     5.3210     5.4782     5.3208
 2205.5000    15.9732   115.2061     2.1219     0.1323   -64.9458     5.3709     5.4440     5.2869
 2206.0000    14.3108   113.4314     2.1602     0.1021   -64.9203     5.4770     7.6087     5.3273
 2206.5000    12.1535   113.5566     2.2712     0.1053   -64.8998     5.5950     8.7474     5.4420
 2207.0000    11.1956   115.9100     2.4282     0.1219   -65.0290     5.7155     8.4973     5.5592
 2207.5000    11.0022   115.6342     2.4929     0.1340   -65.1581     5.7583     7.3027     5.6398
 2208.0000    10.9733   115.3665     2.4855     0.1356   -65.1326     5.9233     5.6168     5.8013
 2208.5000    10.9262   115.4922     2.4758     0.1358   -65.2667     6.0091     4.8928     5.9676
 2209.0000    10.7526   116.0383     2.4691     0.1314   -65.3958     6.1019     5.1750     6.1392
 2209.5000    10.5893   116.9699     2.4647     0.1210   -65.6744     6.2716     5.3991     6.2282
 2210.0000    10.4710   118.2014     2.4610     0.1046   -65.6489     6.3625     7.1633     6.3184
 2210.5000    10.5326   119.4333     2.4558     0.0975   -65.9274     6.4547    10.3666     6.4546
 2211.0000    10.6541   119.1187     2.4446     0.0871   -65.9070     6.4581     9.8145     6.5481
 2211.5000    10.7157   117.1063     2.4364     0.0693   -66.1856     6.4616     9.9581     6.6891
 2212.0000    10.7623   115.6391     2.4357     0.0590   -66.4852     6.4204    10.4599     6.8332
 2212.5000    10.7789   113.5722     2.4390     0.0606   -66.8871     6.2918    10.3710     7.0779
 2213.0000    10.8437   112.1051     2.4418     0.0698   -67.1656     6.2517     9.6403     7.3830
 2213.5000    10.9474   111.2376     2.4389     0.0774   -67.4442     6.2994     8.4560     7.2854
 2214.0000    10.9640   111.2697     2.4322     0.0835   -67.5555     6.3466     9.0700     6.4797
 2214.5000    10.8307   110.1023     2.4255     0.0872   -68.0055     6.4833    20.1263     6.6653
 2215.0000    10.7423   108.6158     2.4196     0.0901   -68.2631     6.6689    23.4503     7.0002
 2215.5000    10.6690   106.2765     2.4174     0.0945   -68.4007     6.7656    19.1998     7.4543
 2216.0000    10.6252   104.2096     2.4189     0.0991   -68.5342     6.9113    14.7674     7.7748
 2216.5000    10.5972   102.4425     2.4213     0.1030   -68.6677     7.0115    11.6251     8.0610
 2217.0000    10.5538   101.8669     2.4220     0.1084   -68.9507     7.1140     9.4947     8.5175
 2217.5000    10.4325   103.1064     2.4198     0.1115   -69.0807     7.1673     8.6764     8.3468
 2218.0000    10.2547   104.0380     2.4146     0.0967   -69.2137     7.1216     7.5129     7.6323
 2218.5000    10.1988   104.3700     2.4094     0.0774   -69.1973     6.9790     7.2108     7.0763
 2219.0000    10.2008   104.4020     2.4035     0.0536   -69.1778     6.7910     6.8279     6.5608
 2219.5000    10.2624   104.1342     2.4208     0.0600   -69.0123     6.8903     6.3314     6.8904
 2220.0000    10.3840   104.1743     2.4343     0.0524   -68.8469     6.8940     5.7902     6.8465
 2220.5000    10.4905   104.8061     2.4396     0.0480   -68.8309     6.8440     5.2953     7.1522
 2221.0000    10.5671   106.3375     2.4404     0.0482   -68.8150     6.3961     4.7641     8.9183
 2221.5000    10.6587   106.6694     2.4351     0.0529   -68.7990     6.0546     4.1618     7.8773
 2222.0000    10.6753   106.3936     2.4293     0.0515   -68.9327     5.6918     5.4938     7.0549
 2222.5000    10.6299   107.3332     2.4248     0.0501   -69.0660     5.4254     6.3142     6.5864
 2223.0000    10.6489   108.5647     2.4204     0.0503   -69.0461     5.2074     6.0195     6.1491
 2223.5000    10.7105   109.4963     2.4174     0.0535   -69.0301     5.0329     5.4292     5.2465
 2224.0000    10.6521   108.2979     2.4160     0.0569   -69.1636     4.8980     6.0695     4.8538
 2224.5000    10.5637   106.7974     2.4176     0.0613   -69.1477     4.8332     7.1222     5.3704
