~VERSION INFORMATION
 VERS.                2.0:   CWLS LOG ASCII STANDARD - VERSION 2.0
 WRAP.                 NO:   ONE LINE PER DEPTH STEP
~WELL INFORMATION
#MNEM.UNIT      DATA TYPE    INFORMATION
#----------   ------------   ------------------------------
 STRT.F          198.0000:   START DEPTH
 STOP.F         3140.0000:   STOP DEPTH
 STEP.F            0.5000:   STEP LENGTH
 NULL.          -999.2500:   NO VALUE
 COMP.    FENIX & SCISSON:   COMPANY
 WELL. FENIX NPR 3 "AX" #43-34:   WELL
 FLD .                NPR:   FIELD
 LOC .      S34 T39N R78W:   LOCATION
 CNTY.            NATRONA:   COUNTY
 STAT.            WYOMING:   STATE
 CTRY. UNITED STATES OF AMERICA:   COUNTRY
 SRVC.              WELEX:   SERVICE COMPANY
 DATE.        02-JUL-1977:   LOGDATE
 API .     49025103890000:   API NUMBER
~CURVE INFORMATION
#MNEM.UNIT       API CODE    CURVE DESCRIPTION
#----------   ------------   ------------------------------
 DEPT.F                  :   
 CALD.IN     45 280 60 00:   CALIPER FROM DENSITY LOG
 GRD .GAPI   45 310 01 00:   GAMMA RAY FROM DENSITY LOG
 RHOB.G/C3   45 350 01 00:   BULK DENSITY
 CORR.G/C3   45 356 01 00:   DENSITY CORRECTION
 SPR .MV     07 010 01 00:   SPONTANEOUS POTENTIAL
 SFLU.OHMM   07 220 01 00:   SPHERICALLY FOCUSED LOG UNAVERAGED RESISTIVITY
 ILD .OHMM   07 120 46 00:   DEEP INDUCTION RESISTIVITY
 ILM .OHMM   07 120 44 00:   INDUCTION LOG MEDIUM RESISTIVITY
~PARAMETER INFORMATION
#MNEM.UNIT          VALUE    DESCRIPTION
#----------   ------------   ------------------------------
 EKB .F         5118.0000:   Kelly bushing
 EGL .F         5108.0000:   Ground level
 TD  .F         3145.0000:   Total depth
 DATE.        02-JUL-1977:   Date logged
 CLNT.            A2DTECH:   Client Code
 SL  . 1650' FNL & 2310' FWL:   Surface Location
 PD  .                 GL:   Permanent Datum
 EPD .F              5108:   Elevation Permanent Datum
 LMF .                 KB:   Log Measured From
 DMF .                 KB:   Drilling Measured From
 DAPD.F                10:   Feet Above Permanent Datum
 DD  .F              3145:   Depth driller
 DL  .F              3143:   Depth logger
 BLI .F              3141:   Bottom log interval
 TLI .F               200:   Top log interval
 CS1 .IN            8.625:   Casing size
 CBD1.      8.625" @ 203':   Casing driller 1
 CBL1.F               224:   Casing logger 1
 BS1 .IN            7.875:   Bit size
 BSD1.F              3145:   Depth drilled with bit1
 DFT .            KCL/MUD:   Type fluid in hole
 DFD .                  9:   Density
 DFV .                 34:   Viscosity
 DFPH.                7.5:   pH
 DFL .                9.2:   Fluid loss
 MSS .           FLOWLINE:   Source of sample
 RMS .OHMM            .18:   Rm
 MST .F                75:   Rm Meas. temp.
 RMF .OHMM            .16:   Rmf
 MFST.F                75:   Rmf Meas. temp.
 RMC .OHMM            .30:   Rmc
 MCST.F                75:   Rmc Meas. temp.
 MFSS.               FANN:   Source Rmf.
 MCSS.                KIT:   Source Rmc.
 RMB .OHMM            .11:   Rm. at BHT
 BHT .F               118:   BHT.
 TCS .HRS            3.75:   Time Circ. stopped
 MRT .F               118:   Maximum recorded temp.
 LUN .               8766:   Logging unit number
 LUL .             CASPER:   Logging unit location
 ENGI.          T. JOYNER:   Recorded By
 WITN.     W. PETTNG/GILL:   Witnessed by
 ORIG.           5" PRINT:   Origin of data
 UWI .     49025103890000:   Unique Well ID
 DICO. A2D TECHNOLOGIES, INC.:   Digitizing Company
~OTHER INFORMATION
~A   DEPT     CALD         GRD        RHOB     CORR        SPR       SFLU        ILD        ILM   
# ...
 2344.5000     8.2054   177.0774     2.4483     0.0596   -52.4107    12.0356     7.5296     8.2526
 2345.0000     8.2058   177.4755     2.4403     0.0517   -52.4092    12.2550     7.5282     8.1011
 2345.5000     8.2061   177.0853     2.4354     0.0477   -52.4070    10.2038     7.2566     7.6657
 2346.0000     8.1670   177.8743     2.4344     0.0478   -52.4055     8.2450     6.9935     7.3892
 2346.5000     8.2266   176.2996     2.4334     0.0478   -52.8015     9.2016     6.6176     5.9290
 2347.0000     8.2269   172.3596     2.4364     0.0478   -52.8000    10.2682     6.3784     5.7152
 2347.5000     8.2273   167.6352     2.4384     0.0479   -52.7978    11.0451     5.9260     4.9344
 2348.0000     8.2276   166.8508     2.4444     0.0399   -53.1946     8.1845     5.4065     4.8439
 2348.5000     8.2280   166.4609     2.4484     0.0360   -52.7941     5.7821     4.7546     4.3386
 2349.0000     8.2283   164.8875     2.4514     0.0320   -52.7926     5.4726     4.6674     4.0314
 2349.5000     8.2287   161.3417     2.4644     0.0281   -52.3919     4.9034     4.3369     3.8853
 2350.0000     8.2290   159.7684     2.4773     0.0281   -52.7888     4.7265     4.0291     3.8842
 2350.5000     8.2293   158.5897     2.4833     0.0282   -52.7863     4.7249     3.8914     3.8832
 2351.0000     8.2889   155.4387     2.4893     0.0438   -52.7974     4.8137     3.6769     3.9560
 2351.5000     8.2891   157.0178     2.4913     0.0402   -52.8021     6.4488     3.4175     3.9565
 2352.0000     8.2893   156.6318     2.4973     0.0402   -52.8114     5.7795     3.4176     4.0299
 2352.5000     8.2899   153.8754     2.5073     0.0443   -52.8137     5.4715     3.4178     4.1047
 2353.0000     8.2902   152.6970     2.5262     0.0443   -52.8208     5.2754     3.4179     4.1050
 2353.5000     8.2905   150.7297     2.5312     0.0563   -52.8255     5.3732     3.4813     4.1052
 2354.0000     8.2909   150.3402     2.5462     0.0603   -52.8371     6.1068     3.4816     4.1813
 2354.5000     8.2913   149.1619     2.5422     0.0603   -52.4412     6.4514     3.7464     4.2588
 2355.0000     8.2919   149.9557     2.5393     0.0604   -52.4482     6.3350     3.7466     4.4180
 2355.5000     8.2921   150.3551     2.5373     0.0564   -52.4529     6.3355     3.8867     4.4182
 2356.0000     8.2924   151.9376     2.5373     0.0565   -52.4599     6.3358     3.9587     4.5834
 2356.5000     8.2928   151.5481     2.5373     0.0565   -52.4646     6.2216     4.1826     4.7547
 2357.0000     8.2931   149.9755     2.5373     0.0645   -52.4716     6.2219     4.4191     4.9324
 2357.5000     8.2935   150.7692     2.5363     0.0606   -52.4763     6.2224     4.5842     4.9328
 2358.0000     8.2938   151.9573     2.5324     0.0606   -52.4834     6.2228     4.6692     5.0206
 2358.5000     8.2942   151.9622     2.5284     0.0606   -52.4881     5.8913     4.5849     5.2121
 2359.0000     8.2944   152.3614     2.5225     0.0567   -52.4951     6.3388     4.4201     5.5071
 2359.5000     8.2949   153.1540     2.5165     0.0567   -52.5021     6.2469     4.2614     5.5072
 2360.0000     8.2952   154.3419     2.5086     0.0568   -52.5068     5.5779     4.2617     5.5075
 2360.5000     8.2956   155.1355     2.5016     0.0568   -52.9095     6.3398     4.5028     4.5860
 2361.0000     8.2959   155.9270     2.5016     0.0568   -52.9142     6.3402     4.7574     4.7574
 2361.5000     8.2963   155.9338     2.5016     0.0609   -52.9212     6.3407     4.8455     5.4087
 2362.0000     8.2966   154.3624     2.5037     0.0609   -52.9259     6.3410     4.9355     5.6107
 2362.5000     8.2970   155.9444     2.5037     0.0609   -52.9329     6.3416     4.9359     6.2632
 2363.0000     8.2973   156.7378     2.5017     0.0570   -53.3379     6.8234     4.7585     6.4973
 2363.5000     8.2977   156.7427     2.5037     0.0530   -53.3426     6.4595     4.4226     6.8650
 2364.0000     8.2980   154.7761     2.5097     0.0571   -53.3495     6.0043     4.4228     7.2533
 2364.5000     8.2984   153.9924     2.5137     0.0611   -53.3542     4.5646     4.2640     4.3430
 2365.0000     8.2987   157.1514     2.5157     0.0611   -53.3612     4.3212     4.1868     4.1869
 2365.5000     8.2991   157.5505     2.5157     0.0612   -53.3658     4.1663     4.1111     4.1871
 2366.0000     8.2994   158.3428     2.5157     0.0692   -53.3728     4.4015     4.0367     4.1113
 2366.5000     8.2998   159.1361     2.5098     0.0612   -53.3774     4.7359     3.9637     4.1115
 2367.0000     8.3594   159.9293     2.5048     0.0533   -53.3844     4.6502     3.8213     3.9639
 2367.5000     8.3596   159.9340     2.5038     0.0533   -53.3891     4.6505     3.5514     3.8214
 2368.0000     8.3599   157.5735     2.5039     0.0534   -53.7939     4.5665     3.4870     3.7522
 2368.5000     8.3603   157.1841     2.5059     0.0494   -53.4007     4.4841     3.2409     3.4873
 2369.0000     8.3606   159.9483     2.5049     0.0495   -53.4077     4.3233     3.0677     3.4362
 2369.5000     8.3610   159.9530     2.4999     0.0495   -53.4123     4.0928     2.9575     3.1824
 2370.0000     8.3613   160.3520     2.4930     0.0655   -53.4193     3.2270     2.8511     3.0679
 2370.5000     8.3617   157.5975     2.4880     0.0496   -53.4239     3.1114     2.6989     3.1415
 2371.0000     8.3620   157.2081     2.4860     0.0536   -53.4309     3.1115     2.7095     3.0311
 2371.5000     8.3624   158.0013     2.4841     0.0536   -53.4356     3.6019     2.7201     3.0313
 2372.0000     8.3627   157.6119     2.4841     0.0537   -53.4425     4.0198     2.7308     3.0314
 2372.5000     8.3631   156.8284     2.4881     0.0537   -53.0495     4.0943     2.7416     3.0863
 2373.0000     8.3634   154.8625     2.5001     0.0577   -53.0565     4.0203     2.6504     3.0865
 2373.5000     8.3638   153.2909     2.5031     0.0578   -53.4588     4.0206     2.7496     3.1993
 2374.0000     8.3641   154.0840     2.4981     0.0578   -53.4658     3.8764     2.8524     3.3161
 2374.5000     8.3645   156.0594     2.4931     0.0499   -53.0728     3.8766     2.8525     3.3162
 2375.0000     8.3648   155.2760     2.4862     0.0499   -53.0798     4.0955     2.9054     3.3763
 2375.5000     8.3652   154.0986     2.4862     0.0460   -52.6868     4.0958     2.9056     3.3765
 2376.0000     8.2868   154.1035     2.4872     0.0619   -53.0914     3.9488     2.9057     3.3766
 2376.5000     8.2870   154.1084     2.4912     0.0500   -52.6985     3.9491     2.9059     3.3769
 2377.0000     8.2874   156.8718     2.4892     0.0501   -52.7055     4.0222     2.9598     3.4380
 2377.5000     8.2878   159.2360     2.4853     0.0461   -52.7102     4.0225     2.9600     3.4382
 2378.0000     8.2878   154.9042     2.4853     0.0382   -52.7172     4.0227     2.9601     3.4383
 2378.5000     8.2883   158.0683     2.4853     0.0382   -52.7219     4.0230     2.9602     3.4385
 2379.0000     8.2889   160.4314     2.4873     0.0383   -52.7289     4.0974     3.0152     3.5008
 2379.5000     8.3680   157.6839     2.4873     0.0383   -52.7335     4.0977     3.0154     3.5011
 2380.0000     8.3683   155.3195     2.4864     0.0383   -52.3431     4.0979     3.0156     3.3662
 2380.5000     8.3686   157.2995     2.4854     0.0344   -52.7452     4.0239     3.0716     3.3664
 2381.0000     8.3690   159.2743     2.4924     0.0344   -52.7522     3.8795     3.0717     3.3666
 2381.5000     8.3693   160.4611     2.4964     0.0385   -52.3594     4.0244     3.0719     3.3667
 2382.0000     8.3697   159.6778     2.4974     0.0385   -52.3664     4.0989     3.0720     3.3669
 2382.5000     8.3700   158.1066     2.5014     0.0385   -52.3711     4.0249     3.0722     3.3672
 2383.0000     8.3704   155.7415     2.5014     0.0386   -52.3782     3.8805     3.0165     3.3673
 2383.5000     8.3707   158.1162     2.4925     0.0346   -52.3828     3.9524     3.0167     3.4297
 2384.0000     8.3711   160.4778     2.4865     0.0267   -52.7872     5.1066     2.9620     3.6241
 2384.5000     8.3714   157.7318     2.4845     0.0347   -52.3945     5.2013     2.9084     3.6242
