~VERSION INFORMATION
 VERS.                2.0:   CWLS LOG ASCII STANDARD - VERSION 2.0
 WRAP.                 NO:   ONE LINE PER DEPTH STEP
~WELL INFORMATION
#MNEM.UNIT      DATA TYPE    INFORMATION
#----------   ------------   ------------------------------
 STRT.F          261.0000:   START DEPTH
 STOP.F         2875.0000:   STOP DEPTH
 STEP.F            0.5000:   STEP LENGTH
 NULL.          -999.2500:   NO VALUE
 COMP.   LAWRENCE ALLISON:   COMPANY
 WELL. LAWRENCE ALLISON "X" #85-20:   WELL
 FLD .          N.P.R. #3:   FIELD
 LOC .      S20 T39N R78W:   LOCATION
 CNTY.            NATRONA:   COUNTY
 STAT.            WYOMING:   STATE
 CTRY. UNITED STATES OF AMERICA:   COUNTRY
 SRVC.      DRESSER ATLAS:   SERVICE COMPANY
 DATE.        23-JUL-1986:   LOGDATE
 API .     49025111030000:   API NUMBER
~CURVE INFORMATION
#MNEM.UNIT       API CODE    CURVE DESCRIPTION
#----------   ------------   ------------------------------
 DEPT.F                  :   
 CORR.G/C3   45 356 01 00:   DENSITY CORRECTION
 RHOB.G/C3   45 350 01 00:   BULK DENSITY
 CNC .DEC    42 890 03 00:   NEUTRON POROSITY SANDSTONE
 GRR .GAPI   07 310 01 00:   GAMMA RAY FROM RESISTIVITY
 CALR.IN     07 280 01 00:   CALIPER FROM RESISTIVITY
 SPR .MV     07 010 01 00:   SPONTANEOUS POTENTIAL
 TENR.LBS    07 635 01 00:   TENSION FROM RESISTIVITY
 RILD.OHMM   07 120 46 00:   DEEP INDUCTION RESISTIVITY
 RILM.OHMM   07 120 44 00:   INDUCTION LOG MEDIUM RESISTIVITY
 RFOC.OHMM   07 220 04 00:   RESISTIVITY FOCUSED LOG RES.
~PARAMETER INFORMATION
#MNEM.UNIT          VALUE    DESCRIPTION
#----------   ------------   ------------------------------
 EKB .F         5007.0000:   Kelly bushing
 EGL .F         4995.0000:   Ground level
 EDF .F            0.0000:   Drilling floor
 EPD .F         4995.0000:   Permanent datum
 TD  .F         2874.0000:   Total depth
 CLNT.            A2DTECH:   Client Code
 SL  . 307' FEL & 2237' FSL:   Surface Location
 DATE.        23-JUL-1986:   Date Logged [DD-MMM-YYYY]
 DD  .F              2870:   Depth driller
 DL  .F              2874:   Depth logger
 BLI .F              2872:   Bottom log interval
 TLI .F              2205:   Top log interval
 CS1 .              8.625:   Casing size
 CBD1.      8.625" @ 261':   Casing driller 1
 CBL1.IN              261:   Casing logger 1
 BS1 .IN            7.875:   Bit size
 BSD1.F              2870:   Depth drilled with bit1
 DFT .            KCL-GEL:   Type fluid in hole
 DFD .                9.0:   Density
 DFV .                 37:   Viscosity
 MSS .           MUD TANK:   Source of sample
 RMS .OHMM          0.257:   Rm
 MST .F                89:   Rm Meas. temp.
 RMF .OHMM           0.19:   Rmf
 MFST.F                89:   Rmf Meas. temp.
 MFSS.               CALC:   Source Rmf.
 RMC .OHMM           0.32:   Rmc
 MCST.F                89:   Rmc Meas. temp.
 MCSS.               CALC:   Source Rmc.
 RMB .OHMM           0.20:   Rm. at BHT
 BHT .F               116:   BHT.
 TCS .HRS               4:   Time Circ. stopped
 MRT .F               116:   Maximum recorded temp.
 LUN .            HL 6264:   Logging unit number
 LUL .           GILLETTE:   Logging unit location
 ENGI.      P.M. FAHLSING:   Recorded By
 WITN.           JENNINGS:   Witnessed by
 ORIG.         2.5" PRINT:   Origin of data
 UWI .     49025111030000:   Unique Well ID
 DICO. A2D TECHNOLOGIES, INC.:   Digitizing Company
~OTHER INFORMATION
~A   DEPT     CORR       RHOB        CNC         GRR        CALR      SPR        TENR       RILD      RILM         RFOC 
# ...
 2103.5000  -999.2500  -999.2500  -999.2500   118.6310    10.2999   -96.0125   -42.5482     3.9605     4.0170     4.1088
 2104.0000  -999.2500  -999.2500  -999.2500   120.9960    10.2977   -96.5803   -43.6404     3.9940     4.0094     4.0519
 2104.5000  -999.2500  -999.2500  -999.2500   115.6459    10.2955   -96.8441   -44.7327     4.0322     3.9604     3.9959
 2105.0000  -999.2500  -999.2500  -999.2500   108.0119    10.2933   -96.8529   -45.8250     4.0636     3.9593     4.4879
 2105.5000  -999.2500  -999.2500  -999.2500   106.2315    10.2911   -96.8618   -46.9173     4.0617     4.0127     5.0398
 2106.0000  -999.2500  -999.2500  -999.2500   104.4510    10.2889   -96.8706   -48.0096     4.1161     4.0768     4.8686
 2106.5000  -999.2500  -999.2500  -999.2500   103.2641    10.2867   -96.8794   -49.1019     4.1909     4.1892     4.6879
 2107.0000  -999.2500  -999.2500  -999.2500   101.4837    10.2845   -96.8882   -50.1942     4.3053     4.3049     4.7180
 2107.5000  -999.2500  -999.2500  -999.2500    99.7033    10.2823   -96.8236   -51.2864     4.3416     4.4101     4.8472
 2108.0000  -999.2500  -999.2500  -999.2500   101.4837    10.2801   -96.6106   -52.3787     4.2976     4.3210     4.9956
 2108.5000  -999.2500  -999.2500  -999.2500   107.4184    10.2779   -96.5374   -53.4710     4.0873     4.1448     5.1161
 2109.0000  -999.2500  -999.2500  -999.2500   112.7596    10.2757   -96.3340   -54.5633     3.9952     4.0050     5.1697
 2109.5000  -999.2500  -999.2500  -999.2500   114.8986    10.2735   -96.2509   -55.6556     4.0338     4.0195     5.0004
 2110.0000  -999.2500  -999.2500  -999.2500   111.5727    10.2713   -95.9607   -56.7479     4.1796     4.1305     4.6568
 2110.5000  -999.2500  -999.2500  -999.2500   110.9792    10.2691   -95.7720   -57.8402     4.3526     4.3028     4.2535
 2111.0000  -999.2500  -999.2500  -999.2500   110.3858    10.2670   -95.4866   -58.9324     4.4943     4.4823     4.4518
 2111.5000  -999.2500  -999.2500  -999.2500   108.0119    10.2648   -95.2013   -60.0247     4.7203     4.6060     5.1439
 2112.0000  -999.2500  -999.2500  -999.2500   103.8576    10.2622   -94.8000   -61.1170     4.8246     4.7331     5.7212
 2112.5000  -999.2500  -999.2500  -999.2500   104.4510    10.2618   -94.5099   -62.2093     4.8889     4.8517     6.0116
 2113.0000  -999.2500  -999.2500  -999.2500   108.0119    10.2613   -94.3471   -63.3016     4.9540     4.9200     5.9833
 2113.5000  -999.2500  -999.2500  -999.2500   113.3531    10.2609   -94.3559   -64.3939     5.0457     4.9883     5.7297
 2114.0000  -999.2500  -999.2500  -999.2500   116.9139    10.2605   -94.7962   -65.4862     5.0869     5.0566     5.4347
 2114.5000  -999.2500  -999.2500  -999.2500   117.0831    10.2303   -95.3982   -66.5784     5.1547     5.1044     5.3701
 2115.0000  -999.2500  -999.2500  -999.2500   111.5727    10.2596   -96.0000   -67.6707     5.1793     5.1417     5.6916
 2115.5000  -999.2500  -999.2500  -999.2500   103.2641    10.2295   -96.1559   -68.7630     5.2485     5.2098     5.9882
 2116.0000  -999.2500  -999.2500  -999.2500    94.9555    10.2290   -96.4588   -69.8553     5.3184     5.2789     5.9864
 2116.5000  -999.2500  -999.2500  -999.2500    97.9229    10.2286   -96.3059   -70.9476     5.3895     5.3488     5.9034
 2117.0000  -999.2500  -999.2500  -999.2500   107.4184    10.2281   -96.1823   -72.0399     5.4328     5.3791     5.9104
 2117.5000  -999.2500  -999.2500  -999.2500   114.5401    10.2277   -96.0196   -73.1321     5.5051     5.4171     6.0723
 2118.0000  -999.2500  -999.2500  -999.2500   116.3205    10.2272   -95.9059   -74.2244     5.5025     5.3412     6.1618
 2118.5000  -999.2500  -999.2500  -999.2500   113.9466    10.2268   -95.9164   -75.3167     5.3966     5.2663     6.3222
 2119.0000  -999.2500  -999.2500  -999.2500   105.6380    10.2263   -95.6310   -76.4090     5.1779     5.1600     6.3129
 2119.5000  -999.2500  -999.2500  -999.2500   102.0771    10.1962   -95.6398   -77.5013     5.0637     5.0502     6.2191
 2120.0000  -999.2500  -999.2500  -999.2500   102.0771    10.1661   -95.3529   -77.9006     5.0616     5.0478     5.9679
 2120.5000  -999.2500  -999.2500  -999.2500   103.8576    10.1360   -95.0690   -77.6706     5.1574     5.0780     5.8010
 2121.0000  -999.2500  -999.2500  -999.2500   105.6380    10.1355   -95.0778   -62.6113     5.2979     5.1123     5.4915
 2121.5000  -999.2500  -999.2500  -999.2500   106.2315    10.1054   -94.7912   -62.3887     5.3390     5.0406     5.3495
 2122.0000  -999.2500  -999.2500  -999.2500   104.4510    10.1050   -94.8012   -63.2540     5.3074     5.0382     6.3317
 2122.5000  -999.2500  -999.2500  -999.2500   102.0771    10.1045   -94.5158   -76.7887     5.2332     4.9350     7.3245
 2123.0000  -999.2500  -999.2500  -999.2500    99.1098    10.1041   -94.5246   -76.5578     5.0901     4.7996     7.2152
 2123.5000  -999.2500  -999.2500  -999.2500   104.4510    10.1036   -94.6882   -76.3353     5.0189     4.7321     6.7378
 2124.0000  -999.2500  -999.2500  -999.2500   105.0445    10.1032   -94.6941   -76.1127     4.8818     4.6023     6.2910
 2124.5000  -999.2500  -999.2500  -999.2500   103.8576    10.1027   -94.7000   -75.8902     4.7483     4.5064     5.7966
 2125.0000  -999.2500  -999.2500  -999.2500   101.4837    10.0726   -95.0000   -60.8309     4.6185     4.4432     5.4128
 2125.5000  -999.2500  -999.2500  -999.2500   105.0445    10.0722   -95.3000   -60.6083     4.5539     4.4411     4.9847
 2126.0000  -999.2500  -999.2500  -999.2500   110.9792    10.0421   -95.6000   -60.3857     4.5780     4.5313     4.8488
 2126.5000  -999.2500  -999.2500  -999.2500   116.9139    10.0119   -95.6059   -45.3264     4.6931     4.6546     4.9143
 2127.0000  -999.2500  -999.2500  -999.2500   121.6617    10.0115   -95.9059   -45.1038     4.8874     4.7813     5.0493
 2127.5000  -999.2500  -999.2500  -999.2500   126.4095    10.0111   -95.9118   -44.8813     5.1597     4.9466     5.3319
 2128.0000  -999.2500  -999.2500  -999.2500   123.4421    10.0106   -95.9176   -44.6588     5.4151     5.1512     5.9472
 2128.5000  -999.2500  -999.2500  -999.2500   110.3858    10.0102   -95.6294   -44.4363     5.6727     5.4381     7.1033
 2129.0000  -999.2500  -999.2500  -999.2500   106.8249    10.0097   -95.6353   -44.2136     5.9076     5.6631     7.2985
 2129.5000  -999.2500  -999.2500  -999.2500   103.2641    10.0093   -95.3471   -43.9911     6.1156     5.8546     7.0994
 2130.0000  -999.2500  -999.2500  -999.2500   107.4184    10.0088   -95.0588   -43.7685     6.2452     6.0966     6.9058
 2130.5000  -999.2500  -999.2500  -999.2500   112.1662    10.0381   -95.0647   -43.5460     6.3284     6.2626     6.7175
 2131.0000  -999.2500  -999.2500  -999.2500   113.9466    10.0376   -94.7765   -43.3235     6.3258     6.2992     6.6244
 2131.5000  -999.2500  -999.2500  -999.2500   110.3858    10.0372   -94.7824   -43.1009     6.3232     6.2962     6.5325
 2132.0000  -999.2500  -999.2500  -999.2500   106.2315    10.0665   -94.7882   -42.8784     6.2350     6.2079     6.6208
 2132.5000  -999.2500  -999.2500  -999.2500   103.2641    10.0957   -94.7941   -42.6557     6.1952     6.2049     6.8026
 2133.0000  -999.2500  -999.2500  -999.2500   102.0771    10.1250   -94.5059   -42.4332     6.1828     6.2019     6.9894
 2133.5000  -999.2500  -999.2500  -999.2500   102.6706    10.1244   -94.5118   -42.2107     6.2274     6.2464     7.0838
 2134.0000  -999.2500  -999.2500  -999.2500   105.0445    10.1240   -94.5176   -41.9882     6.2630     6.2812     7.0818
 2134.5000  -999.2500  -999.2500  -999.2500   107.4184    10.1235   -94.5235   -41.7656     6.2694     6.1931     7.2764
 2135.0000  -999.2500  -999.2500  -999.2500   108.6053    10.1231   -94.2353   -41.5431     6.2197     6.1900     7.2744
 2135.5000  -999.2500  -999.2500  -999.2500   105.6380    10.1226   -94.5353   -41.3204     6.1329     6.1871     7.2724
 2136.0000  -999.2500  -999.2500  -999.2500   103.8576    10.1222   -95.1294   -41.0978     6.0102     6.0530     7.2704
 2136.5000  -999.2500  -999.2500  -999.2500   106.2315    10.1515   -95.4294   -40.8754     5.9630     5.9678     7.1696
