~VERSION INFORMATION
 VERS.                2.0:   CWLS LOG ASCII STANDARD - VERSION 2.0
 WRAP.                 NO:   ONE LINE PER DEPTH STEP
~WELL INFORMATION
#MNEM.UNIT      DATA TYPE    INFORMATION
#----------   ------------   ------------------------------
 STRT.F           76.0000:   START DEPTH
 STOP.F         4972.0000:   STOP DEPTH
 STEP.F            0.5000:   STEP LENGTH
 NULL.          -999.2500:   NO VALUE
 COMP.    PENIX & SCISSON:   COMPANY
 WELL. FENIX NPR 3 "LX" #85-9:   WELL
 FLD .                NPR:   FIELD
 LOC .       S9 T38N R78W:   LOCATION
 CNTY.            NATRONA:   COUNTY
 STAT.            WYOMING:   STATE
 CTRY. UNITED STATES OF AMERICA:   COUNTRY
 SRVC.       SCHLUMBERGER:   SERVICE COMPANY
 DATE.        10-OCT-1978:   LOGDATE
 API .     49025107250000:   API NUMBER
~CURVE INFORMATION
#MNEM.UNIT       API CODE    CURVE DESCRIPTION
#----------   ------------   ------------------------------
 DEPT.F                  :   
 TENR.LBS    07 635 01 00:   TENSION FROM RESISTIVITY
 SPR .MV     07 010 01 00:   SPONTANEOUS POTENTIAL
 SFL .OHMM   07 220 01 00:   SHALLOW FOCUSED LOG RESISTIVITY
 ILD .OHMM   07 120 46 00:   DEEP INDUCTION RESISTIVITY
 ILM .OHMM   07 120 44 00:   INDUCTION LOG MEDIUM RESISTIVITY
 CALD.IN     45 280 60 00:   CALIPER FROM DENSITY LOG
 GRD .GAPI   45 310 01 00:   GAMMA RAY FROM DENSITY LOG
 CORR.G/C3   45 356 01 00:   DENSITY CORRECTION
 TEND.LBS    45 635 01 00:   TENSION FROM DENSITY LOG
 RHOB.G/C3   45 350 01 00:   BULK DENSITY
 NPHI.DEC    42 890 03 00:   NEUTRON POROSITY SANDSTONE
~PARAMETER INFORMATION
#MNEM.UNIT          VALUE    DESCRIPTION
#----------   ------------   ------------------------------
 EKB .F         5288.0000:   Kelly bushing
 EGL .F         5278.0000:   Ground level
 EDF .F            0.0000:   Drilling floor
 TD  .F         4950.0000:   Total depth
 DATE.        10-OCT-1978:   Date logged
 CLNT.            A2DTECH:   Client Code
 SL  . 2310' FSL & 230' FEL:   Surface Location
 PD  .                 GL:   Permanent Datum
 EPD .F              5278:   Elevation Permanent Datum
 LMF .                 KB:   Log Measured From
 DMF .                 KB:   Drilling Measured From
 DAPD.F                10:   Feet Above Permanent Datum
 DD  .F              4950:   Depth driller
 DL  .F              4950:   Depth logger
 BLI .F              4947:   Bottom log interval
 TLI .F               499:   Top log interval
 CS1 .IN            8.625:   Casing size
 CBD1.      8.625" @ 489':   Casing driller 1
 CBL1.F               499:   Casing logger 1
 BS1 .IN            7.875:   Bit size
 BSD1.F              4950:   Depth drilled with bit1
 DFT .            GEL/MUD:   Type fluid in hole
 DFD .                9.3:   Density
 DFV .                175:   Viscosity
 DFPH.                 12:   pH
 DFL .                  4:   Fluid loss
 MSS .               TANK:   Source of sample
 RMS .OHMM           .600:   Rm
 MST .F                71:   Rm Meas. temp.
 RMF .OHMM           .804:   Rmf
 MFST.F                71:   Rmf Meas. temp.
 MFSS.               MEAS:   Source Rmf.
 RMB .OHMM           .308:   Rm. at BHT
 BHT .F               138:   BHT.
 TCS .HRS            1200:   Time Circ. stopped
 TLAB.HRS            0330:   Time logger at bottom
 MRT .F               138:   Maximum recorded temp.
 LUN .               8035:   Logging unit number
 LUL .               CSPR:   Logging unit location
 ENGI.        CRAIG/DFARR:   Recorded By
 WITN.              AMEND:   Witnessed by
 ORIG.           5" PRINT:   Origin of data
 UWI .     49025107250000:   Unique Well ID
 DICO. A2D TECHNOLOGIES, INC.:   Digitizing Company
~OTHER INFORMATION
~A   DEPT     TENR        SPR        SFL        ILD        ILM       CALD         GRD      CORR       TEND       RHOB         NPHI 
# ...
 4041.0000  1825.9189   -20.5980    14.3130     9.9100    10.9110     9.6820   101.9840     0.0710  2007.9170     2.5560     0.1780
 4041.5000  1826.0820   -20.7140    15.1200    10.1270    10.9110     9.6750   103.5920     0.0620  2008.6021     2.5380     0.1740
 4042.0000  1826.2450   -20.8080    15.8420    10.0480    10.7820     9.6680   103.4380     0.0440  2009.2870     2.5150     0.1800
 4042.5000  1826.4091   -20.4840    14.4240     9.8790    10.5050     9.6610   102.2490     0.0250  2009.9720     2.5220     0.1870
 4043.0000  1826.5720   -20.1770    13.1010     9.7100    10.2280     9.6530   103.8120     0.0290  2010.6560     2.5410     0.1940
 4043.5000  1826.7360   -19.8480    11.7780     9.5420     9.9520     9.6460   104.4450     0.0340  2011.3409     2.5470     0.2000
 4044.0000  1826.8990   -19.5310    10.9110     9.3730     9.6750     9.6390   103.1730     0.0400  2012.0260     2.5490     0.2060
 4044.5000  1827.0620   -19.2100    11.3620     9.2040     9.3990     9.6320   101.9420     0.0450  2012.7050     2.5500     0.2020
 4045.0000  1827.2260   -18.8880    12.4320     9.0550     9.1220     9.6250   101.5890     0.0510  2013.3831     2.5540     0.1960
 4045.5000  1827.3890   -18.5740    12.2030     8.6610     8.8450     9.6180   105.3800     0.0520  2014.0610     2.5440     0.1990
 4046.0000  1827.5520   -18.2420    11.6360     8.3080     8.5690     9.6100   108.7560     0.0420  2014.7390     2.5340     0.2060
 4046.5000  1827.7159   -17.9320    11.0260     7.9550     8.2920     9.6060   112.4390     0.0330  2015.4160     2.5290     0.2130
 4047.0000  1827.8790   -17.7000    10.4160     7.6030     8.0150     9.6110   115.9260     0.0260  2016.0940     2.5260     0.2190
 4047.5000  1828.0430   -18.1300     9.8060     7.3360     7.8120     9.6140   118.4940     0.0270  2016.7720     2.5380     0.2260
 4048.0000  1828.2061   -18.5100     9.1960     7.2240     7.6320     9.6180   119.0980     0.0280  2017.4490     2.5330     0.2330
 4048.5000  1828.3690   -18.9260     8.9740     7.1110     7.4520     9.6220   117.8890     0.0290  2018.1270     2.5260     0.2430
 4049.0000  1828.5330   -19.2360     8.8880     6.9990     7.3760     9.6250   116.2280     0.0290  2018.8051     2.5190     0.2380
 4049.5000  1828.6960   -19.2420     9.3350     6.7230     6.9740     9.6290   114.7010     0.0380  2019.4830     2.5350     0.2310
 4050.0000  1828.8590   -19.2530     9.9400     6.4020     6.6340     9.6330   117.6200     0.0610  2020.1600     2.5430     0.2190
 4050.5000  1829.0229   -19.2330     9.3630     6.0810     6.2930     9.6370   120.7100     0.0830  2020.8380     2.5500     0.2220
 4051.0000  1829.1860   -19.2680     7.9300     5.7600     5.9530     9.6410   123.9070     0.1060  2021.5160     2.5640     0.2360
 4051.5000  1829.3500   -19.2610     6.4970     5.4390     5.6130     9.6430   126.8620     0.1290  2022.1930     2.5740     0.2540
 4052.0000  1829.5129   -19.9840     5.3020     5.1180     5.2730     9.6550   127.5240     0.1370  2022.8710     2.5580     0.2730
 4052.5000  1829.6760   -19.9280     4.9720     4.8040     4.9330     9.6740   127.8680     0.0990  2023.5490     2.5100     0.2980
 4053.0000  1829.8400   -19.8320     4.7150     4.6530     4.7140     9.6920   129.0080     0.0630  2024.2271     2.4840     0.2940
 4053.5000  1830.0031   -19.6860     4.7570     4.5060     4.5700     9.7090   131.8800     0.0280  2024.9041     2.4760     0.2890
 4054.0000  1830.1660   -19.5700     4.8540     4.3580     4.4350     9.7280   135.1110     0.0340  2025.5820     2.4740     0.2870
 4054.5000  1830.3300   -19.4450     4.9510     4.2160     4.3760     9.7450   134.9290     0.0470  2026.2600     2.4750     0.2870
 4055.0000  1830.4930   -19.3200     5.0480     4.3090     4.4480     9.7630   134.6970     0.0610  2026.9380     2.4830     0.2880
 4055.5000  1830.6570   -19.1950     5.1450     4.3980     4.5180     9.7510   134.9330     0.0750  2027.6150     2.4840     0.2880
 4056.0000  1830.8199   -19.0730     5.2420     4.4880     4.5880     9.7360   131.6700     0.0750  2028.2930     2.4750     0.2930
 4056.5000  1830.9830   -18.9480     5.3390     4.5770     4.6570     9.7200   128.5010     0.0610  2028.9709     2.4670     0.2950
 4057.0000  1831.1470   -18.8260     5.4360     4.6670     4.7270     9.7050   127.4640     0.0470  2029.6479     2.4730     0.2860
 4057.5000  1831.3101   -18.6070     5.5330     4.7410     4.7960     9.6900   127.8680     0.0340  2030.3260     2.4870     0.2770
 4058.0000  1831.4740   -18.4860     5.6300     4.7970     4.8660     9.6910   128.3380     0.0260  2031.0040     2.4960     0.2680
 4058.5000  1831.6370   -18.8350     5.6820     4.8530     4.9360     9.6990   128.9220     0.0410  2031.6820     2.5010     0.2640
 4059.0000  1831.8000   -19.1270     5.6350     4.8940     5.1260     9.7070   129.0850     0.0780  2032.3590     2.5090     0.2740
 4059.5000  1831.9640   -19.4460     5.5770     5.3280     5.6410     9.7150   127.1030     0.0990  2033.0370     2.5050     0.2840
 4060.0000  1832.1270   -19.7570     6.0570     5.8260     6.1570     9.7230   120.5950     0.0800  2033.7150     2.4880     0.2920
 4060.5000  1832.2900   -20.0610     7.7810     6.3230     6.6720     9.7310   114.3290     0.0510  2034.3920     2.4960     0.2560
 4061.0000  1832.4540   -20.4060     9.5040     6.8200     7.1880     9.7390   110.5590     0.0480  2035.0699     2.5280     0.2240
 4061.5000  1832.6169   -20.3940    11.2270     7.3180     7.7030     9.7470   112.4540     0.0530  2035.7480     2.5650     0.1920
 4062.0000  1832.7810   -19.8470    12.9050     7.8150     8.2190     9.7550   114.2010     0.0580  2036.4260     2.5850     0.1650
 4062.5000  1832.9440   -19.2860    13.3950     8.3120     8.7340     9.7630   116.5740     0.0600  2037.1030     2.5810     0.1680
 4063.0000  1833.1071   -19.3090    13.0310     8.8100     9.2260     9.7710   119.5460     0.0570  2037.7810     2.5760     0.1720
 4063.5000  1833.2710   -19.3570    12.5110     9.1570     9.4810     9.7790   122.9270     0.0540  2038.4590     2.5720     0.1790
 4064.0000  1833.4340   -19.4270    11.9920     9.3590     9.7640     9.7870   126.1440     0.0410  2039.1360     2.5610     0.1910
 4064.5000  1833.5970   -19.4730    11.3590     9.5610    10.0470     9.7950   125.6150     0.0250  2039.8140     2.5490     0.1890
 4065.0000  1833.7610   -19.5490    11.4360     9.7630    10.1780     9.8030   124.5050     0.0090  2040.4919     2.5360     0.1850
 4065.5000  1833.9240   -19.5890    11.5910     9.9400    10.3180     9.8120   122.3810     0.0040  2041.1700     2.5330     0.1820
 4066.0000  1834.0880   -19.5920    11.7560     9.5980     9.8770     9.8200   122.7120     0.0090  2041.8470     2.5400     0.1810
 4066.5000  1834.2510   -18.9490    11.3710     9.2940     9.5320     9.8280   126.0330     0.0140  2042.5250     2.5480     0.1820
 4067.0000  1834.4139   -18.3780    10.9570     8.9890     9.1870     9.8360   128.9860     0.0180  2043.2030     2.5550     0.1840
 4067.5000  1834.5780   -17.9600    10.5430     8.6850     8.8420     9.8450   132.1070     0.0210  2043.8800     2.5570     0.1890
 4068.0000  1834.7410   -17.8290    10.1280     8.3810     8.4970     9.8610   133.4990     0.0210  2044.5580     2.5560     0.1940
 4068.5000  1834.9041   -17.6590     9.9400     8.0760     8.1510     9.8800   133.4380     0.0290  2045.2360     2.5550     0.1990
 4069.0000  1835.0680   -17.4920     9.4490     7.7720     7.8060     9.8990   136.3850     0.0410  2045.9139     2.5540     0.2040
 4069.5000  1835.2310   -17.3190     9.0200     7.5150     7.4610     9.9180   142.1410     0.0480  2046.5909     2.5470     0.2090
 4070.0000  1835.3950   -17.3160     8.5920     7.1090     7.1100     9.9360   146.8610     0.0360  2047.2690     2.5270     0.2140
 4070.5000  1835.5580   -17.4340     8.0060     6.7580     6.7470     9.9560   153.7470     0.0250  2047.9470     2.5070     0.2250
 4071.0000  1835.7209   -17.5540     7.2960     6.4060     6.3840     9.9650   151.6530     0.0150  2048.6240     2.4910     0.2340
