~VERSION INFORMATION
 VERS.                2.0:   CWLS LOG ASCII STANDARD - VERSION 2.0
 WRAP.                 NO:   ONE LINE PER DEPTH STEP
~WELL INFORMATION
#MNEM.UNIT      DATA TYPE    INFORMATION
#----------   ------------   ------------------------------
 STRT.F           32.0000:   START DEPTH
 STOP.F         2998.0000:   STOP DEPTH
 STEP.F            0.5000:   STEP LENGTH
 NULL.          -999.2500:   NO VALUE
 COMP.   TESORO PETROLEUM:   COMPANY
 WELL. TESORO N.P.R. #3-34:   WELL
 FLD .        TEAPOT DOME:   FIELD
 LOC .      S34 T39N R78W:   LOCATION
 CNTY.            NATRONA:   COUNTY
 STAT.            WYOMING:   STATE
 CTRY. UNITED STATES OF AMERICA:   COUNTRY
 SRVC.       SCHLUMBERGER:   SERVICE COMPANY
 DATE.        08-AUG-1969:   LOGDATE
 API .     49025100250000:   API NUMBER
~CURVE INFORMATION
#MNEM.UNIT       API CODE    CURVE DESCRIPTION
#----------   ------------   ------------------------------
 DEPT.F                  :   
 SPR .MV     05 010 01 00:   SPONTANEOUS POTENTIAL FROM RES.
 ASN .OHMM   05 040 16 00:   AMPLIFIED SHORT NORMAL 16"
 ILD .OHMM   05 120 46 00:   INDUCTION LOG DEEP
 CORR.G/C3   45 356 01 00:   DENSITY CORRECTION
 GRD .GAPI   45 310 01 00:   GAMMA RAY FROM DENSITY LOG
 CALD.IN     45 280 60 00:   CALIPER FROM DENSITY LOG
 RHOB.G/C3   45 350 01 00:   BULK DENSITY
~PARAMETER INFORMATION
#MNEM.UNIT          VALUE    DESCRIPTION
#----------   ------------   ------------------------------
 EKB .F         5185.0000:   Kelly bushing
 EGL .F         5172.0000:   Ground level
 TD  .F         2999.0000:   Total depth
 CLNT.            A2DTECH:   Client Code
 SL  . 465' FWL & 1075' FSL':   Surface Location
 DATE.        08-AUG-1969:   Date Logged [DD-MMM-YYYY]
 DD  .F              2998:   Depth driller
 DL  .F              2999:   Depth logger
 BLI .F              2998:   Bottom log interval
 TLI .F               615:   Top log interval
 CS1 .              10.75:   Casing size
 CBD1.      10.75" @ 615':   Casing driller 1
 CBL1.IN              615:   Casing logger 1
 BS1 .IN                9:   Bit size
 BSD1.F              2998:   Depth drilled with bit1
 DFT .      FRESH GEL MUD:   Type fluid in hole
 DFD .                9.6:   Density
 DFV .                 55:   Viscosity
 DFPH.                9.5:   pH
 DFL .                7.0:   Fluid loss
 MSS .           FLOWLINE:   Source of sample
 RMS .OHMM           0.75:   Rm
 MST .F                87:   Rm Meas. temp.
 RMF .OHMM           1.09:   Rmf
 MFST.F                87:   Rmf Meas. temp.
 MFSS.               MEAS:   Source Rmf.
 RMB .OHMM           0.59:   Rm. at BHT
 BHT .F               111:   BHT.
 TCS .HRS               3:   Time Circ. stopped
 MRT .F               111:   Maximum recorded temp.
 LUN .               4507:   Logging unit number
 LUL .               CSPR:   Logging unit location
 ENGI.            ED MIXA:   Recorded By
 WITN.                MAY:   Witnessed by
 ORIG.   1" 2.5" 5" PRINT:   Origin of data
 UWI .     49025100250000:   Unique Well ID
 DICO. A2D TECHNOLOGIES, INC.:   Digitizing Company
~OTHER INFORMATION
~A   DEPT      SPR        ASN        ILD       CORR        GRD       CALD       RHOB   
# ...
 2853.0000   -24.6860     6.3672     6.0428     0.0303   103.0398     9.0131     2.5326
 2853.5000   -24.6875     6.4560     5.8925     0.0224   103.3638     8.9990     2.5405
 2854.0000   -24.6887     6.4414     5.5950     0.0183   105.2479     8.9993     2.5516
 2854.5000   -24.6901     6.3234     5.2975     0.0187   107.9786     8.9997     2.5490
 2855.0000   -24.6868     6.1019     4.9999     0.0213   108.8685     9.0000     2.5383
 2855.5000   -24.5495     5.7675     4.5483     0.0223   109.1407     9.0003     2.5419
 2856.0000   -24.4075     5.3186     4.1828     0.0203   110.7762     9.0006     2.5487
 2856.5000   -24.4089     4.8698     3.8853     0.0173   117.5889     9.0009     2.5409
 2857.0000   -24.2398     4.4461     3.8093     0.0154   124.0689     9.0012     2.5103
 2857.5000   -23.9813     4.0768     3.8072     0.0183   130.1068     9.0015     2.5079
 2858.0000   -23.9829     4.0325     4.0262     0.0250   136.5866     9.0018     2.4981
 2858.5000   -23.9842     4.3722     4.2456     0.0312   148.3331     9.0021     2.4882
 2859.0000   -23.9859     4.9778     4.6867     0.0350   154.9112     9.0024     2.5065
 2859.5000   -23.9873     5.6869     5.1277     0.0357   137.1814     9.0027     2.5177
 2860.0000   -24.1321     6.2482     5.5736     0.0345   115.8404     9.0031     2.5311
 2860.5000   -24.2770     6.5544     6.0831     0.0322   106.0514     9.0034     2.5589
 2861.0000   -24.2784     6.7947     6.4508     0.0298   103.6018     9.0037     2.5731
 2861.5000   -24.2797     6.9867     6.7436     0.0270   101.1523     9.0040     2.5801
 2862.0000   -24.2813     7.1492     6.9630     0.0232    99.3144     9.0043     2.5738
 2862.5000   -24.2829     7.3117     7.1081     0.0183   101.1462     9.0046     2.5590
 2863.0000   -24.2841     7.4446     7.2537     0.0160   102.9780     9.0049     2.5526
 2863.5000   -24.2855     7.5775     7.2516     0.0188   101.7517     9.0052     2.5426
 2864.0000   -24.1433     7.7253     7.2495     0.0230   100.5254     9.0055     2.5501
 2864.5000   -24.1451     7.8730     7.1702     0.0262   101.7456     9.0058     2.5575
 2865.0000   -24.1464     8.0541     7.0232     0.0286   101.7426     9.0061     2.5531
 2865.5000   -24.0042     8.2422     6.8734     0.0309    99.2931     9.0064     2.5736
 2866.0000   -24.0059     8.3456     6.8713     0.0376    96.2319     9.0068     2.5939
 2866.5000   -23.8638     8.3900     6.9431     0.0459    93.7824     9.0071     2.6003
 2867.0000   -23.7215     8.4047     7.0148     0.0488    91.9445     9.0074     2.5877
 2867.5000   -23.5797     8.2806     7.2338     0.0358    91.3298     9.0077     2.5681
 2868.0000   -23.4374     8.0798     7.3794     0.0241    96.2197     9.0080     2.5385
 2868.5000   -23.4392     8.0207     7.6727     0.0159   101.7212     9.0083     2.5338
 2869.0000   -23.4406     8.0502     7.8922     0.0107   105.9995     9.0195     2.5435
 2869.5000   -23.4422     8.2866     7.9634     0.0075   107.8313     9.0394     2.5457
 2870.0000   -23.4435     8.5820     7.9613     0.0051   109.0515     9.0398     2.5450
 2870.5000   -23.5883     8.7445     7.8854     0.0087   102.9323     9.0401     2.5517
 2871.0000   -23.5897     8.8183     7.7355     0.0186    94.9781     9.0097     2.5577
 2871.5000   -23.8783     8.7740     7.4285     0.0422    90.6938     9.0101     2.5668
 2872.0000   -24.0232     8.2235     7.0661     0.0753    92.5256     8.9985     2.6048
 2872.5000   -23.8807     7.7548     6.6948     0.1050    94.3574     8.9495     2.6209
 2873.0000   -23.8824     7.4298     6.3234     0.1110    94.3543     8.9071     2.6283
 2873.5000   -23.8837     7.0901     5.8038     0.1150    94.3513     8.8890     2.6224
 2874.0000   -23.8854     6.7651     5.2108     0.1095    94.3482     8.8893     2.5811
 2874.5000   -24.0303     6.4479     4.6179     0.0951    95.5684     8.8590     2.5516
 2875.0000   -24.0316     6.0266     4.0249     0.0774    99.2351     8.8593     2.5487
 2875.5000   -24.0330     5.2142     3.5797     0.0535   102.2901     8.8902     2.5457
 2876.0000   -24.0346     4.6086     3.2821     0.0431   104.1220     8.8905     2.5354
 2876.5000   -23.8924     4.0620     3.2057     0.0315   108.4003     8.9040     2.4897
 2877.0000   -23.8938     3.3973     3.2036     0.0279   115.1250     8.9351     2.4971
 2877.5000   -23.8954     3.3678     3.3497     0.0402   129.1893     8.9661     2.5000
 2878.0000   -23.8967     3.5155     3.4210     0.0623   152.4278     8.9835     2.4631
 2878.5000   -23.8983     3.8848     3.9353     0.0749   174.4431     9.0144     2.4336
 2879.0000   -23.8997     4.5133     4.5979     0.0929   170.1587     9.0147     2.4100
 2879.5000   -24.0446     6.2186     5.4821     0.1094   153.0303     9.0455     2.4454
 2880.0000   -24.0462     7.5332     6.4401     0.1183   127.9508     9.0764     2.4735
 2880.5000   -24.0473     7.8582     7.1155     0.1224   104.0945     9.0767     2.4985
 2881.0000   -24.0488     8.0207     7.6171     0.0761    93.6939     9.0465     2.5487
 2881.5000   -24.0502     7.9716     7.7632     0.0493    88.1863     9.0162     2.5752
 2882.0000   -24.0516     7.7843     7.5390     0.0435    84.5135     8.9859     2.5634
 2882.5000   -24.0533     7.6071     7.2415     0.0400    85.7337     8.9556     2.5723
 2883.0000   -24.0548     7.4263     7.0173     0.0359    87.5655     8.9559     2.5811
 2883.5000   -24.0560     7.2396     7.0152     0.0349    89.3973     8.9563     2.5634
 2884.0000   -24.0575     7.0529     6.8654     0.0359    86.9478     8.9566     2.5553
 2884.5000   -24.0590     6.8661     6.6417     0.0387    85.7215     8.9875     2.5737
 2885.0000   -24.0604     6.6765     6.4869     0.0421    85.1068     8.9729     2.5739
 2885.5000   -24.0618     6.4598     6.2677     0.0447    85.7154     8.9881     2.5457
 2886.0000   -24.0631     6.1728     6.0441     0.0407    89.3820     8.9884     2.5250
 2886.5000   -24.0648     5.8858     5.7465     0.0330    92.4371     8.9887     2.5398
 2887.0000   -23.9224     5.5988     5.4490     0.0249    94.2689     9.0054     2.5429
 2887.5000   -23.9240     5.3118     5.0033     0.0198    96.1007     9.0199     2.5310
 2888.0000   -23.9254     4.8301     3.9672     0.0227    99.1558     9.0202     2.5310
 2888.5000   -23.9271     4.1507     3.3004     0.0300   106.4922     9.0205     2.5129
 2889.0000   -23.9284     3.8700     3.0767     0.0322   119.3332     9.0208     2.4784
 2889.5000   -23.7861     3.6780     3.0007     0.0343   129.1160     8.9905     2.4528
 2890.0000   -23.6442     3.6031     3.0725     0.0439   136.4524     8.9603     2.4665
 2890.5000   -23.6459     3.7223     3.3653     0.0711   142.5656     8.9125     2.4749
 2891.0000   -23.6473     4.1507     3.7325     0.0849   134.6115     8.8997     2.4679
 2891.5000   -23.5048     4.8006     4.0997     0.0955   119.3179     8.9000     2.4446
 2892.0000   -23.5065     5.3914     4.4776     0.1043   108.3057     8.9003     2.4561
 2892.5000   -23.5079     6.0519     5.2028     0.1122    97.9051     8.9006     2.5155
 2893.0000   -23.3657     6.7651     5.8654     0.0462    95.4556     8.9497     2.5407
 2893.5000   -23.2240     7.0458     6.3803     0.0397    94.2293     9.0236     2.5523
 2894.0000   -23.2253     7.2526     6.5997     0.0342    96.6727     9.0239     2.5442
 2894.5000   -23.0832     7.3412     6.7453     0.0330    97.2814     8.9936     2.5468
 2895.0000   -23.0849     7.3560     6.8171     0.0369    98.5014     8.9939     2.5546
 2895.5000   -23.0862     7.3560     6.7406     0.0433   100.9449     8.9637     2.5465
 2896.0000   -23.0876     7.3412     6.7385     0.0487   110.1161     8.9640     2.5326
 2896.5000   -23.0889     7.3708     6.7363     0.0369   113.1712     8.9643     2.5251
 2897.0000   -23.0906     7.4314     6.7338     0.0257   114.3914     8.9339     2.5354
 2897.5000   -23.0920     7.5480     6.7317     0.0261   108.2721     8.9343     2.5501
 2898.0000   -22.9495     7.6662     6.7296     0.0286   104.5994     8.9346     2.5281
