~VERSION INFORMATION
 VERS.                2.0:   CWLS LOG ASCII STANDARD - VERSION 2.0
 WRAP.                 NO:   ONE LINE PER DEPTH STEP
~WELL INFORMATION
#MNEM.UNIT      DATA TYPE    INFORMATION
#----------   ------------   ------------------------------
 STRT.F           90.0000:   START DEPTH
 STOP.F         3342.0000:   STOP DEPTH
 STEP.F            0.5000:   STEP LENGTH
 NULL.          -999.2500:   NO VALUE
 COMP. LAWRENCE ALLISON AND ASSOCIATES:   COMPANY
 WELL. LAWERNCE "X" #83-3:   WELL
 FLD .             NPR #3:   FIELD
 LOC .       S3 T38N R78W:   LOCATION
 CNTY.            NATRONA:   COUNTY
 STAT.            WYOMING:   STATE
 CTRY. UNITED STATES OF AMERICA:   COUNTRY
 SRVC.      DRESSER ATLAS:   SERVICE COMPANY
 DATE.        23-APR-1985:   LOGDATE
 API .     49025110210000:   API NUMBER
~CURVE INFORMATION
#MNEM.UNIT       API CODE    CURVE DESCRIPTION
#----------   ------------   ------------------------------
 DEPT.F                  :   
 TENR.LBS    07 635 01 00:   TENSION FROM RESISTIVITY
 CALR.IN     07 280 01 00:   CALIPER FROM RESISTIVITY
 SPR .MV     07 010 01 00:   SPONTANEOUS POTENTIAL
 GRR .GAPI   07 310 01 00:   GAMMA RAY FROM RESISTIVITY
 RFOC.OHMM   07 220 04 00:   RESISTIVITY FOCUSED LOG RES.
 RILD.OHMM   07 120 46 00:   DEEP INDUCTION RESISTIVITY
 RILM.OHMM   07 120 44 00:   INDUCTION LOG MEDIUM RESISTIVITY
 NPHI.DEC    42 890 03 00:   NEUTRON POROSITY SANDSTONE
 RHOB.G/C3   45 350 01 00:   BULK DENSITY
 TEND.LBS    45 635 01 00:   TENSION FROM DENSITY LOG
 CORR.G/C3   45 356 01 00:   DENSITY CORRECTION
~PARAMETER INFORMATION
#MNEM.UNIT          VALUE    DESCRIPTION
#----------   ------------   ------------------------------
 EKB .F         5125.0000:   Kelly bushing
 EGL .F         5112.0000:   Ground level
 EDF .F            0.0000:   Drilling floor
 TD  .F         3330.0000:   Total depth
 DATE.        23-APR-1985:   Date logged
 CLNT.            A2DTECH:   Client Code
 SL  . 1745' FNL & 612' FEL:   Surface Location
 PD  .                 GL:   Permanent Datum
 DD  .F              3330:   Depth driller
 DL  .F              3328:   Depth logger
 BLI .F              3326:   Bottom log interval
 CS1 .IN            8.625:   Casing size
 CBD1.      8.625" @ 526':   Casing driller 1
 CBL1.F               528:   Casing logger 1
 BS1 .IN            7.875:   Bit size
 DFT .            KCL-GEL:   Type fluid in hole
 DFD .                9.1:   Density
 DFV .                 43:   Viscosity
 DFPH.                  8:   pH
 DFL .                  8:   Fluid loss
 MSS .           FLOWLINE:   Source of sample
 RMS .OHMM          0.445:   Rm
 MST .F                72:   Rm Meas. temp.
 RMF .OHMM           0.36:   Rmf
 MFST.F                70:   Rmf Meas. temp.
 RMC .OHMM           0.55:   Rmc
 MCST.F                72:   Rmc Meas. temp.
 MFSS.               MEAS:   Source Rmf.
 RMB .OHMM          0.286:   Rm. at BHT
 BHT .F               116:   BHT.
 TCS .HRS               3:   Time Circ. stopped
 MRT .F               116:   Maximum recorded temp.
 LUN .               6274:   Logging unit number
 LUL .               GLTE:   Logging unit location
 ENGI.             RAUTIO:   Recorded By
 WITN.             STRONG:   Witnessed by
 ORIG.           5" PRINT:   Origin of data
 UWI .     49025110210000:   Unique Well ID
 DICO. A2D TECHNOLOGIES, INC.:   Digitizing Company
 DAPD.                 13:   Feet Above Permanent Datum
 BSD1.               3330:   Depth drilled with bit1
 MCSS.               CALC:   Source Rmc.
 EPD .               5112:   Elevation Permanent Datum
 LMF .                 KB:   Log Measured From
 DMF .                 KB:   Drilling Measured From
~OTHER INFORMATION
~A   DEPT     TENR       CALR        SPR         GRR      RFOC       RILD       RILM       NPHI       RHOB       TEND       CORR   
# ...
 1096.5000   -63.8920    10.7730   -60.6960    91.0340     8.3210     8.5840     8.3870  -999.2500  -999.2500  -999.2500  -999.2500
 1097.0000   -58.3530    10.7730   -61.0020    90.8760     8.3590     8.5650     8.3710  -999.2500  -999.2500  -999.2500  -999.2500
 1097.5000   -55.5830    10.7730   -61.3470    93.4680     8.3390     8.5470     8.3390  -999.2500  -999.2500  -999.2500  -999.2500
 1098.0000   -58.9110    10.7730   -61.6930    96.4630     8.3200     8.5290     8.2710  -999.2500  -999.2500  -999.2500  -999.2500
 1098.5000   -61.9360    10.7730   -62.0330    96.5620     8.3020     8.5110     8.2030  -999.2500  -999.2500  -999.2500  -999.2500
 1099.0000   -64.9620    10.7730   -62.2080    95.6730     8.2830     8.4930     8.1350  -999.2500  -999.2500  -999.2500  -999.2500
 1099.5000   -67.9870    10.7730   -61.9150    94.8830     8.2640     8.4740     8.0670  -999.2500  -999.2500  -999.2500  -999.2500
 1100.0000   -71.0120    10.7730   -61.6370    96.8340     8.2460     8.4560     7.9990  -999.2500  -999.2500  -999.2500  -999.2500
 1100.5000   -74.0380    10.7730   -61.3590    98.7020     8.2270     8.4360     7.8390  -999.2500  -999.2500  -999.2500  -999.2500
 1101.0000   -75.3490    10.7730   -61.0830    97.9400     8.2070     8.4360     7.8490  -999.2500  -999.2500  -999.2500  -999.2500
 1101.5000   -74.7850    10.7730   -60.8880    97.3680     8.1870     8.4680     7.8680  -999.2500  -999.2500  -999.2500  -999.2500
 1102.0000   -74.2220    10.7730   -60.9620    98.4510     8.1320     8.4960     7.8870  -999.2500  -999.2500  -999.2500  -999.2500
 1102.5000   -73.6580    10.7730   -61.0940    99.1720     8.1640     8.5240     7.9060  -999.2500  -999.2500  -999.2500  -999.2500
 1103.0000   -73.0950    10.7730   -61.2230    98.8370     8.1980     8.5510     8.0580  -999.2500  -999.2500  -999.2500  -999.2500
 1103.5000   -72.5310    10.7730   -61.2030    99.2050     8.2330     8.5800     7.9680  -999.2500  -999.2500  -999.2500  -999.2500
 1104.0000   -71.9680    10.7730   -60.9160   100.5890     8.2670     8.6720     7.8720  -999.2500  -999.2500  -999.2500  -999.2500
 1104.5000   -71.4040    10.7730   -60.6390   100.7520     8.3590     8.5830     7.7770  -999.2500  -999.2500  -999.2500  -999.2500
 1105.0000   -70.8410    10.7730   -60.3580   100.0590     8.1780     8.4650     7.6960  -999.2500  -999.2500  -999.2500  -999.2500
 1105.5000   -70.2770    10.7730   -60.3030   101.7230     7.9840     8.4360     7.7110  -999.2500  -999.2500  -999.2500  -999.2500
 1106.0000   -69.7140    10.7720   -60.3340   103.5620     8.0050     8.4360     7.7510  -999.2500  -999.2500  -999.2500  -999.2500
 1106.5000   -69.1500    10.7810   -60.3660   101.8970     8.0410     8.4360     7.7910  -999.2500  -999.2500  -999.2500  -999.2500
 1107.0000   -68.5870    10.7920   -60.3990    97.7310     8.0770     8.4360     7.8310  -999.2500  -999.2500  -999.2500  -999.2500
 1107.5000   -68.0230    10.7930   -60.4310    95.5410     8.1130     8.4360     7.8710  -999.2500  -999.2500  -999.2500  -999.2500
 1108.0000   -67.4600    10.7920   -60.4620    98.5720     8.1490     8.4360     7.9110  -999.2500  -999.2500  -999.2500  -999.2500
 1108.5000   -66.8970    10.7900   -60.4960    98.2290     8.2070     8.4370     7.9270  -999.2500  -999.2500  -999.2500  -999.2500
 1109.0000   -66.3330    10.8120   -60.5160    97.0430     8.1510     8.4380     7.9530  -999.2500  -999.2500  -999.2500  -999.2500
 1109.5000   -65.7700    10.8190   -60.3470    97.9550     8.0120     8.3280     7.9840  -999.2500  -999.2500  -999.2500  -999.2500
 1110.0000   -65.5530    10.8570   -60.6030    99.7580     7.8730     8.1510     7.6970  -999.2500  -999.2500  -999.2500  -999.2500
 1110.5000   -65.5530    10.8950   -60.8500   101.5780     7.7340     7.9740     7.2320  -999.2500  -999.2500  -999.2500  -999.2500
 1111.0000   -65.5530    10.9300   -61.0820   103.4010     7.5950     7.7970     7.0210  -999.2500  -999.2500  -999.2500  -999.2500
 1111.5000   -65.5530    10.9310   -61.1970   105.1460     7.4560     7.6910     7.0210  -999.2500  -999.2500  -999.2500  -999.2500
 1112.0000   -65.5530    10.9310   -61.3610   106.1030     7.3290     7.5710     7.0210  -999.2500  -999.2500  -999.2500  -999.2500
 1112.5000   -65.5530    10.9310   -61.5260   107.0140     7.2400     7.4510     7.0860  -999.2500  -999.2500  -999.2500  -999.2500
 1113.0000   -65.5530    10.9290   -61.6940   107.3600     7.1510     7.3310     7.0160  -999.2500  -999.2500  -999.2500  -999.2500
 1113.5000   -65.5530    10.9260   -61.8580   106.9870     7.0630     7.2120     6.9350  -999.2500  -999.2500  -999.2500  -999.2500
 1114.0000   -55.5830    10.9240   -61.5650   106.3020     6.9740     7.0920     6.8540  -999.2500  -999.2500  -999.2500  -999.2500
 1114.5000   -55.5830    10.9210   -61.1980   104.5830     6.8850     6.9720     6.7720  -999.2500  -999.2500  -999.2500  -999.2500
 1115.0000   -62.3630    10.9190   -60.8300   106.0860     6.7960     6.8930     6.6910  -999.2500  -999.2500  -999.2500  -999.2500
 1115.5000   -65.5530    10.9170   -60.4990   107.6190     6.7640     6.8990     6.6090  -999.2500  -999.2500  -999.2500  -999.2500
 1116.0000   -58.6540    10.9140   -60.5520   107.8710     6.7600     6.9070     6.5840  -999.2500  -999.2500  -999.2500  -999.2500
 1116.5000   -48.6240    10.9120   -60.6210   107.0750     6.7550     6.9150     6.5840  -999.2500  -999.2500  -999.2500  -999.2500
 1117.0000   -65.5530    10.8960   -60.6870   104.8240     6.7500     6.9230     6.5840  -999.2500  -999.2500  -999.2500  -999.2500
 1117.5000   -55.5830    10.8760   -60.8080   101.3190     6.7460     6.9320     6.5840  -999.2500  -999.2500  -999.2500  -999.2500
 1118.0000   -55.5830    10.8550   -60.9670    98.4690     6.7410     6.9400     6.5780  -999.2500  -999.2500  -999.2500  -999.2500
 1118.5000   -55.5830    10.8330   -61.1280   100.7370     6.7360     6.9480     6.5690  -999.2500  -999.2500  -999.2500  -999.2500
 1119.0000   -55.5830    10.8520   -61.2880   103.2090     6.7310     6.9560     6.5600  -999.2500  -999.2500  -999.2500  -999.2500
 1119.5000   -55.5830    10.8320   -61.4490   104.5860     6.7270     6.9570     6.5510  -999.2500  -999.2500  -999.2500  -999.2500
 1120.0000   -55.5830    10.8340   -61.6100   105.9900     6.7220     6.9570     6.5420  -999.2500  -999.2500  -999.2500  -999.2500
 1120.5000   -55.5830    10.8370   -61.6820   103.7000     6.7170     6.9570     6.5330  -999.2500  -999.2500  -999.2500  -999.2500
 1121.0000   -56.3140    10.8390   -61.6830    98.9450     6.7130     6.9570     6.4640  -999.2500  -999.2500  -999.2500  -999.2500
 1121.5000   -58.4040    10.8420   -61.6830    96.5780     6.7060     6.9570     6.4890  -999.2500  -999.2500  -999.2500  -999.2500
 1122.0000   -60.4940    10.8440   -61.6830    96.0070     6.7240     6.9570     6.5230  -999.2500  -999.2500  -999.2500  -999.2500
 1122.5000   -62.5830    10.8470   -61.6830    94.5490     6.7750     6.9570     6.5560  -999.2500  -999.2500  -999.2500  -999.2500
 1123.0000   -64.6730    10.8490   -61.6830    96.3690     6.8260     6.9570     6.5850  -999.2500  -999.2500  -999.2500  -999.2500
 1123.5000   -61.1570    10.8510   -61.6830    98.3710     6.8770     7.0100     6.5940  -999.2500  -999.2500  -999.2500  -999.2500
 1124.0000   -53.5590    10.8500   -61.6850   100.3610     6.9280     7.0780     6.6020  -999.2500  -999.2500  -999.2500  -999.2500
 1124.5000   -45.9610    10.8450   -61.6350   100.8950     6.9790     7.1470     6.6110  -999.2500  -999.2500  -999.2500  -999.2500
 1125.0000   -38.3620    10.8400   -61.5740    99.4350     7.0300     7.2150     6.6190  -999.2500  -999.2500  -999.2500  -999.2500
 1125.5000   -30.7640    10.8350   -61.5130    98.0400     7.0810     7.2830     6.6280  -999.2500  -999.2500  -999.2500  -999.2500
 1126.0000   -23.1650    10.8300   -61.4520   101.1800     7.1310     7.3510     6.6360  -999.2500  -999.2500  -999.2500  -999.2500
 1126.5000   -15.7030    10.8250   -61.3910   104.6450     7.1510     7.4870     6.6450  -999.2500  -999.2500  -999.2500  -999.2500
