~VERSION INFORMATION
 VERS.                2.0:   CWLS LOG ASCII STANDARD - VERSION 2.0
 WRAP.                 NO:   ONE LINE PER DEPTH STEP
~WELL INFORMATION
#MNEM.UNIT      DATA TYPE    INFORMATION
#----------   ------------   ------------------------------
 STRT.F           50.0000:   START DEPTH
 STOP.F         3270.0000:   STOP DEPTH
 STEP.F            0.5000:   STEP LENGTH
 NULL.          -999.2500:   NO VALUE
 COMP.   LAWRENCE ALLISON:   COMPANY
 WELL. LAWRENCE NPR 3 "AX" #12-11:   WELL
 FLD .                NPR:   FIELD
 LOC .      S11 T38N R78W:   LOCATION
 CNTY.            NATRONA:   COUNTY
 STAT.            WYOMING:   STATE
 CTRY. UNITED STATES OF AMERICA:   COUNTRY
 SRVC.      DRESSER ATLAS:   SERVICE COMPANY
 DATE.        18-JUL-1985:   LOGDATE
 API .     49025110460000:   API NUMBER
~CURVE INFORMATION
#MNEM.UNIT       API CODE    CURVE DESCRIPTION
#----------   ------------   ------------------------------
 DEPT.F                  :   
 TEND.LBS    45 635 01 00:   TENSION FROM DENSITY LOG
 RHOB.G/C3   45 350 01 00:   BULK DENSITY
 CORR.G/C3   45 356 01 00:   DENSITY CORRECTION
 NPHI.DEC    42 890 03 00:   NEUTRON POROSITY SANDSTONE
 TENR.LBS    07 635 01 00:   TENSION
 GRR .GAPI   07 310 01 00:   GAMMA RAY FROM RESISTIVITY
 RFOC.OHMM   07 220 01 00:   RESISTIVITY FOCUSED LOG RES.
 RILD.OHMM   07 120 46 00:   INDUCTION LOG DEEP RESISTIVITY
 RILM.OHMM   07 120 44 00:   INDUCTION LOG MEDIUM RESISTIVITY
 SN  .OHMM   01 040 00 00:   SHORT NORMAL
 ILD .OHMM   07 120 46 00:   INDUCTION LOG DEEP RESISTIVITY
 TENS.LBS    60 635 01 00:   TENSION FROM SONIC LOG
 DT  .US/F   60 520 00 00:   DELTA TIME
 SPR .MV     07 010 01 00:   SPONTANEOUS POTENTIAL
~PARAMETER INFORMATION
#MNEM.UNIT          VALUE    DESCRIPTION
#----------   ------------   ------------------------------
 EKB .F         5152.0000:   Kelly bushing
 EGL .F         5140.0000:   Ground level
 EDF .F            0.0000:   Drilling floor
 TD  .F         3271.0000:   Total depth
 DATE.        18-JUL-1985:   Date logged
 CLNT.            A2DTECH:   Client Code
 SL  . 1050' FNL & 150' FWL:   Surface Location
 PD  .                 GL:   Permanent Datum
 EPD .F              5140:   Elevation Permanent Datum
 LMF .                 KB:   Log Measured From
 DMF .                 KB:   Drilling Measured From
 DAPD.F                12:   Feet Above Permanent Datum
 DD  .F              3271:   Depth driller
 DL  .F              3262:   Depth logger
 BLI .F              3259:   Bottom log interval
 CS1 .IN            8.625:   Casing size
 CBD1.      8.625" @ 560':   Casing driller 1
 CBL1.F               560:   Casing logger 1
 BS1 .IN            7.875:   Bit size
 BSD1.F              3271:   Depth drilled with bit1
 DFT .            GEL/KCL:   Type fluid in hole
 DFD .                8.8:   Density
 DFV .                 40:   Viscosity
 DFPH.                  8:   pH
 DFL .                  8:   Fluid loss
 MSS .           MUD/TANK:   Source of sample
 RMS .OHMM            .31:   Rm
 MST .F                82:   Rm Meas. temp.
 RMF .OHMM            .25:   Rmf
 MFST.F                82:   Rmf Meas. temp.
 RMC .OHMM            .39:   Rmc
 MCST.F                82:   Rmc Meas. temp.
 MFSS.               MEAS:   Source Rmf.
 MCSS.               CALC:   Source Rmc.
 RMB .OHMM           .198:   Rm. at BHT
 BHT .F               128:   BHT.
 TCS .HRS               3:   Time Circ. stopped
 MRT .F               128:   Maximum recorded temp.
 LUN .            HL-6274:   Logging unit number
 LUL .           GILLETTE:   Logging unit location
 ENGI.             RAUTIO:   Recorded By
 WITN.             STRONG:   Witnessed by
 ORIG.           5" PRINT:   Origin of data
 UWI .     49025110460000:   Unique Well ID
 DICO. A2D TECHNOLOGIES, INC.:   Digitizing Company
~OTHER INFORMATION
~A   DEPT     TEND       RHOB       CORR       NPHI       TENR        GRR       RFOC       RILD       RILM           SN        ILD     TENS         DT         SPR  
# ...
 3088.0000   -47.7570     2.4470     0.0240     0.2520    -2.9040   113.7110     3.3020     2.4650     2.6030  -999.2500  -999.2500    -7.8490    89.4480    71.0750
 3088.5000   -47.3710     2.4460     0.0230     0.2600    -2.2230   114.7820     3.3370     2.4650     2.5720  -999.2500  -999.2500    -5.8370    89.4630    70.9840
 3089.0000   -46.9840     2.4390     0.0160     0.2670    -1.5430   115.8140     3.1830     2.4650     2.5490  -999.2500  -999.2500    -3.8250    89.8780    71.2570
 3089.5000   -46.5980     2.4310     0.0090     0.2660    -0.8620   117.5360     3.0690     2.4550     2.5260  -999.2500  -999.2500    -1.8130    90.2920    71.5220
 3090.0000   -46.2110     2.4230     0.0040     0.2640    -0.1820   119.3730     3.0160     2.4290     2.5050  -999.2500  -999.2500     0.1990    90.7470    71.7250
 3090.5000   -46.0200     2.4260     0.0040     0.2720     0.4990   121.2340     3.0340     2.4020     2.4840  -999.2500  -999.2500     2.2110    90.6590    71.9230
 3091.0000   -46.0200     2.4300     0.0040     0.2800     1.1800   121.4780     3.0440     2.3750     2.4640  -999.2500  -999.2500     4.2230    90.5330    71.4950
 3091.5000   -46.0200     2.4330     0.0120     0.2800     1.8600   120.6110     3.0440     2.3480     2.4430  -999.2500  -999.2500     6.2350    90.4070    70.3590
 3092.0000   -46.0200     2.4370     0.0130     0.2750     2.5410   119.8680     3.0300     2.3210     2.4220  -999.2500  -999.2500     8.2470    90.8480    68.9580
 3092.5000   -46.0200     2.4360     0.0090     0.2530     3.2210   121.6090     2.9200     2.2950     2.4010  -999.2500  -999.2500    10.2590    91.7820    66.6600
 3093.0000   -46.0200     2.4340     0.0040     0.2530     3.9020   123.3010     2.8030     2.2680     2.3800  -999.2500  -999.2500    12.2710    92.7160    66.3250
 3093.5000   -46.0200     2.4360     0.0020     0.2610     4.5830   124.3050     2.8030     2.2410     2.3590  -999.2500  -999.2500    14.2830    92.9380    66.2890
 3094.0000   -46.0200     2.4390     0.0020     0.2690     5.2630   123.7300     2.9140     2.2140     2.3380  -999.2500  -999.2500    16.2950    92.3830    66.2370
 3094.5000   -46.0200     2.4380     0.0100     0.2770     5.9440   122.9990     2.9980     2.1870     2.3170  -999.2500  -999.2500    18.3070    91.6650    66.1820
 3095.0000   -46.0200     2.4350     0.0180     0.2800     6.6240   125.1170     3.0610     2.1600     2.2960  -999.2500  -999.2500    20.3190    90.9460    66.1350
 3095.5000   -46.0200     2.4360     0.0220     0.2790     7.3050   127.6660     2.9500     2.1280     2.2690  -999.2500  -999.2500    22.3310    91.0750    66.0100
 3096.0000   -46.0200     2.4380     0.0190     0.2750     7.9860   131.9020     2.8420     2.1560     2.3020  -999.2500  -999.2500    23.2400    91.6940    65.8900
 3096.5000   -46.0200     2.4410     0.0110     0.2700     8.6660   134.6090     2.6770     2.1870     2.3260  -999.2500  -999.2500    20.1920    92.3130    65.7700
 3097.0000   -46.0200     2.4420     0.0070     0.2670     9.3470   131.1630     2.7500     2.2170     2.3500  -999.2500  -999.2500    17.1440    92.4630    65.6510
 3097.5000   -46.0200     2.4350     0.0050     0.2650    10.0280   125.2680     2.8920     2.2480     2.3760  -999.2500  -999.2500    14.0950    92.1400    65.5320
 3098.0000   -46.0200     2.4280     0.0030     0.2640    10.7080   120.1850     2.9880     2.2910     2.4710  -999.2500  -999.2500    11.0470    91.8160    65.4050
 3098.5000   -46.0200     2.4260     0.0060     0.2620    11.3890   118.6060     2.9750     2.4900     2.6590  -999.2500  -999.2500     7.9980    91.5260    65.2940
 3099.0000   -46.0200     2.4350     0.0140     0.2540    12.0690   118.8010     2.9620     2.6890     2.8460  -999.2500  -999.2500     4.9500    91.2450    64.9890
 3099.5000   -46.0200     2.4520     0.0230     0.2370    12.7500   117.4980     3.1610     2.8880     3.0330  -999.2500  -999.2500     3.9840    90.7470    64.7770
 3100.0000   -46.0200     2.4820     0.0220     0.2210    13.4310   112.2430     3.2760     3.0880     3.2210  -999.2500  -999.2500     3.9840    88.2360    64.7800
 3100.5000   -46.0200     2.5030     0.0190     0.2090    14.1110   107.4590     3.8060     3.2870     3.4080  -999.2500  -999.2500     3.9840    84.7580    64.8680
 3101.0000   -46.0200     2.4980     0.0140     0.2150    14.7920   109.2530     4.7430     3.4860     3.5960  -999.2500  -999.2500     3.9840    81.2790    64.9880
 3101.5000   -46.0200     2.4890     0.0060     0.2280    15.4720   112.5890     5.6320     3.6460     3.7480  -999.2500  -999.2500     3.9840    78.5080    65.1100
 3102.0000   -46.0200     2.4700    -0.0020     0.2420    16.1530   121.4610     5.6840     3.8530     3.9600  -999.2500  -999.2500     3.9840    77.3010    65.2310
 3102.5000   -46.0200     2.4510    -0.0090     0.2430    16.8340   129.4220     5.0900     4.0590     4.1720  -999.2500  -999.2500     3.9840    78.9960    65.3530
 3103.0000   -46.0200     2.4490    -0.0160     0.2410    17.5140   135.2730     4.4360     4.2140     4.3040  -999.2500  -999.2500     3.9840    81.8350    65.4740
 3103.5000   -46.0200     2.4570    -0.0160     0.2240    18.1950   135.2980     3.7260     4.3890     4.3950  -999.2500  -999.2500     3.9840    83.6750    65.5960
 3104.0000   -46.0200     2.4690    -0.0080     0.2080    18.8750   120.7740     3.6920     4.5640     4.4860  -999.2500  -999.2500     3.9840    83.1640    65.7170
 3104.5000   -46.0200     2.4820     0.0010     0.2020    19.5560   108.7580     4.5920     4.7390     4.5760  -999.2500  -999.2500     3.9840    82.1810    65.7610
 3105.0000   -46.0200     2.4830     0.0110     0.2040    20.2370   103.0280     5.3300     4.9140     4.7660  -999.2500  -999.2500     3.9840    80.5080    65.6700
 3105.5000   -46.0200     2.4840     0.0200     0.2070    20.9170   100.2830     5.3300     5.0900     4.9950  -999.2500  -999.2500     3.9840    79.1750    65.5790
 3106.0000   -46.0200     2.4900     0.0180     0.2100    21.5980    99.4510     5.4290     5.2740     5.2230  -999.2500  -999.2500     3.9840    78.5780    65.5950
 3106.5000   -46.0200     2.4950     0.0140     0.2090    22.2780    96.9450     5.6680     5.4440     5.4520  -999.2500  -999.2500     3.9840    77.9800    65.6300
 3107.0000   -46.0200     2.4890     0.0080     0.2060    22.9590    95.8380     5.8760     5.6140     5.6800  -999.2500  -999.2500     3.9840    77.3830    65.6660
 3107.5000   -46.0200     2.4850     0.0140     0.2040    23.6400    95.4540     5.9790     5.7830     5.9090  -999.2500  -999.2500     3.9840    76.7860    65.7010
 3108.0000   -46.0200     2.4880     0.0200     0.2040    24.3200    94.3260     6.0520     5.9510     6.1170  -999.2500  -999.2500     3.9840    76.3330    65.7370
 3108.5000   -46.0200     2.5030     0.0200     0.2040    25.0010    93.9960     6.1170     5.8860     6.0560  -999.2500  -999.2500     3.9840    76.4790    65.7780
 3109.0000   -46.0200     2.5070     0.0060     0.2050    25.6810    94.2430     6.1170     5.8170     5.9910  -999.2500  -999.2500     3.9840    76.6240    65.5810
 3109.5000   -46.0200     2.5100     0.0010     0.2080    26.3620    94.5030     6.0530     5.7470     5.9250  -999.2500  -999.2500     3.9840    76.7690    65.3340
 3110.0000   -46.0200     2.5050     0.0030     0.2150    27.0430    95.6600     5.9510     5.6780     5.8590  -999.2500  -999.2500     3.9840    76.9150    65.0840
 3110.5000   -46.0200     2.4990     0.0040     0.2220    27.7230    98.3430     6.0330     5.6080     5.7900  -999.2500  -999.2500     3.9840    77.0600    64.8350
 3111.0000   -46.0200     2.4920     0.0030     0.2250    28.4040   102.8240     6.1740     5.5390     5.8330  -999.2500  -999.2500     3.9840    77.2010    64.5870
 3111.5000   -46.0200     2.4780     0.0030     0.2300    29.0840   107.6460     6.0980     5.4790     5.8900  -999.2500  -999.2500     7.5090    77.7180    64.3410
 3112.0000   -46.0200     2.4680     0.0030     0.2280    29.7650   112.4150     5.6750     5.4590     5.9510  -999.2500  -999.2500    10.9240    78.1970    64.3600
