~VERSION INFORMATION
 VERS.                2.0:   CWLS LOG ASCII STANDARD - VERSION 2.0
 WRAP.                 NO:   ONE LINE PER DEPTH STEP
~WELL INFORMATION
#MNEM.UNIT      DATA TYPE    INFORMATION
#----------   ------------   ------------------------------
 STRT.F           11.0000:   START DEPTH
 STOP.F         4154.0000:   STOP DEPTH
 STEP.F            0.5000:   STEP LENGTH
 NULL.          -999.2500:   NO VALUE
 COMP.   LAWRENCE ALLISON:   COMPANY
 WELL. ALLISON NPR 3 "LX" #14-22:   WELL
 FLD .                NPR:   FIELD
 LOC .      S22 T38N R78W:   LOCATION
 CNTY.            NATRONA:   COUNTY
 STAT.            WYOMING:   STATE
 CTRY. UNITED STATES OF AMERICA:   COUNTRY
 SRVC.       DRESER ATLAS:   SERVICE COMPANY
 DATE.        14-APR-1985:   LOGDATE
 API .     49025110230000:   API NUMBER
~CURVE INFORMATION
#MNEM.UNIT       API CODE    CURVE DESCRIPTION
#----------   ------------   ------------------------------
 DEPT.F                  :   
 TEND.LBS    45 635 01 00:   TENSION FROM DENSITY LOG
 RHOB.G/C3   45 350 01 00:   BULK DENSITY
 DRHO.G/C3   45 356 01 00:   DENSITY CORRECTION
 CALD.IN     45 280 60 00:   CALIPER FROM DENSITY LOG
 NPHI.DEC    42 890 03 00:   NEUTRON POROSITY SANDSTONE
 TENR.LBS    07 635 01 00:   TENSION FROM RESISTIVITY
 SPR .MV     07 010 01 00:   SPONTANEOUS POTENTIAL
 GRR .GAPI   07 310 01 00:   GAMMA RAY FROM RESISTIVITY
 RFOC.OHMM   07 220 01 00:   RESISTIVITY FOCUSED LOG RES.
 RILD.OHMM   07 120 46 00:   DEEP INDUCTION RESISTIVITY
 RILM.OHMM   07 120 44 00:   INDUCTION LOG MEDIUM RESISTIVITY
~PARAMETER INFORMATION
#MNEM.UNIT          VALUE    DESCRIPTION
#----------   ------------   ------------------------------
 EKB .F         5230.4000:   Kelly bushing
 EGL .F         5220.4000:   Ground level
 EDF .F            0.0000:   Drilling floor
 TD  .F         4150.0000:   Total depth
 DATE.        14-APR-1985:   Date logged
 CLNT.            A2DTECH:   Client Code
 SL  . 905' FNL & 824' FWL:   Surface Location
 PD  .                 GL:   Permanent Datum
 EPD .F            5220.4:   Elevation Permanent Datum
 LMF .                 KB:   Log Measured From
 DMF .                 KB:   Drilling Measured From
 DAPD.F                10:   Feet Above Permanent Datum
 DD  .F              4150:   Depth driller
 DL  .F              4140:   Depth logger
 BLI .F              4138:   Bottom log interval
 CS1 .IN            8.625:   Casing size
 CBD1.      8.625" @ 738':   Casing driller 1
 CBL1.F               738:   Casing logger 1
 BS1 .IN            7.875:   Bit size
 BSD1.F              4150:   Depth drilled with bit1
 DFT .            KCL/GEL:   Type fluid in hole
 DFD .                9.1:   Density
 DFV .                 48:   Viscosity
 DFPH.                8.5:   pH
 DFL .                 10:   Fluid loss
 MSS .           FLOWLINE:   Source of sample
 RMS .OHMM            .35:   Rm
 MST .F                62:   Rm Meas. temp.
 RMF .OHMM            .26:   Rmf
 MFST.F                62:   Rmf Meas. temp.
 RMC .OHMM            .43:   Rmc
 MCST.F                62:   Rmc Meas. temp.
 MFSS.               CALC:   Source Rmf.
 MCSS.               CALC:   Source Rmc.
 RMB .OHMM            .16:   Rm. at BHT
 BHT .F               140:   BHT.
 TCS .HRS               6:   Time Circ. stopped
 MRT .F               140:   Maximum recorded temp.
 LUN .               6274:   Logging unit number
 LUL .               GLTE:   Logging unit location
 ENGI.               MACK:   Recorded By
 WITN.             STRONG:   Witnessed by
 ORIG.           5" PRINT:   Origin of data
 UWI .     49025110230000:   Unique Well ID
 DICO. A2D TECHNOLOGIES, INC.:   Digitizing Company
~OTHER INFORMATION
~A   DEPT     TEND       RHOB       DRHO       CALD       NPHI       TENR        SPR        GRR       RFOC       RILD       RILM   
# ...
 3640.5000   -56.3560     2.3710     0.0780     8.7200     0.3070  -104.8550   -55.3750   176.1580     3.0020     1.7660     1.5030
 3641.0000   -56.3560     2.3230     0.0830     8.7200     0.3280  -104.8550   -55.1600   193.1430     2.3220     1.5000     1.4320
 3641.5000   -56.3560     2.3100     0.0680     8.6530     0.3440   -94.8450   -54.9450   201.5240     1.8660     1.3050     1.3610
 3642.0000   -56.3560     2.2580     0.0590     8.5850     0.3530  -100.9260   -54.7470   205.3710     1.7310     1.2470     1.3300
 3642.5000   -56.3560     2.1460     0.0680     8.5870     0.2990  -104.8550   -54.0120   208.1380     1.5960     1.2600     1.4380
 3643.0000   -56.3560     2.0530     0.0780     8.6800     0.2970  -114.8650   -53.1520   201.3620     1.5130     1.3820     1.7550
 3643.5000   -56.3560     2.0230     0.0630     8.7690     0.2790  -114.8650   -52.3100   183.7310     1.6550     1.7250     2.1350
 3644.0000   -56.3560     2.0770    -0.0010     8.6070     0.2610  -114.8650   -52.1690   184.8810     2.5550     2.0680     2.5140
 3644.5000   -56.3560     2.2460    -0.0530     8.6470     0.2450  -114.8650   -52.1130   116.1020     3.9720     2.4110     2.8940
 3645.0000   -57.5470     2.4160    -0.0240     8.6970     0.2350  -114.8650   -53.0040    97.9720     5.3880     2.7540     3.2730
 3645.5000   -62.5420     2.5080     0.0110     8.7230     0.2380  -114.8650   -53.9190    96.4280     6.1450     3.0980     3.6140
 3646.0000   -67.5370     2.5000     0.0300     8.7260     0.2450  -114.8650   -54.8280   105.8640     5.5860     3.4410     3.8220
 3646.5000   -72.5320     2.4850     0.0190     8.7290     0.2520  -114.8650   -55.7190   112.0210     4.7000     3.9030     4.0210
 3647.0000   -77.5270     2.4700     0.0030     8.7330     0.2560  -114.8650   -56.0740   113.4690     4.1720     3.8730     3.9970
 3647.5000   -82.5220     2.4610    -0.0060     8.7360     0.2530  -114.8650   -56.0320   111.9490     4.1160     3.8130     3.9600
 3648.0000   -83.9830     2.4580     0.0000     8.7390     0.2470  -114.8650   -55.9930   110.0210     4.0950     3.8050     3.9110
 3648.5000   -76.0960     2.4580     0.0090     8.7420     0.2430  -114.8650   -55.9520   108.1710     4.0730     3.8730     4.0110
 3649.0000   -68.2090     2.4580     0.0050     8.7600     0.2430  -114.8650   -55.9110   107.5840     4.0580     3.9540     4.1580
 3649.5000   -60.3220     2.4570     0.0020     8.7800     0.2420  -114.8650   -55.8700   106.9070     4.3390     4.1060     4.3060
 3650.0000   -56.3560     2.4580     0.0080     8.8000     0.2390  -114.8650   -55.8300   106.2490     4.5980     4.2590     4.4540
 3650.5000   -64.7560     2.4580     0.0160     8.8210     0.2370  -114.8650   -55.7890   105.9660     4.8800     4.4110     4.6020
 3651.0000   -72.3960     2.4540     0.0170     8.8370     0.2350  -114.8650   -55.7480   106.7290     4.9040     4.5750     4.7090
 3651.5000   -75.4160     2.4510     0.0150     8.8530     0.2330  -114.8650   -55.7080   107.3690     4.9370     4.6140     4.7620
 3652.0000   -73.8140     2.4500     0.0120     8.8700     0.2310  -114.8650   -55.6670   107.3930     4.9700     4.6690     4.8140
 3652.5000   -72.2120     2.4500     0.0270     8.8810     0.2350  -114.8650   -55.6260   106.5140     5.0030     4.7230     4.8660
 3653.0000   -70.6110     2.4490     0.0420     8.8780     0.2380  -114.8650   -55.5860   105.3670     5.0370     4.7780     4.9180
 3653.5000   -69.0090     2.4480     0.0490     8.8750     0.2330  -114.8650   -55.5450   104.8340     5.0700     4.7910     4.9700
 3654.0000   -67.4070     2.4470     0.0370     8.8730     0.2280  -114.8650   -55.5040   105.7650     5.1030     4.7910     5.0220
 3654.5000   -66.2860     2.4390     0.0310     8.8700     0.2260  -114.8650   -55.4370   106.6320     5.1970     4.8410     5.0740
 3655.0000   -66.2860     2.4320     0.0360     8.8680     0.2280  -113.4350   -55.3150   107.2380     5.3070     4.9060     5.1270
 3655.5000   -66.2860     2.4320     0.0360     8.8660     0.2290  -106.2130   -55.1950   105.8140     5.3860     4.9700     5.1580
 3656.0000   -66.2860     2.4370     0.0300     8.8630     0.2290   -98.9920   -55.0750   103.6680     5.4440     5.0350     5.2010
 3656.5000   -66.2860     2.4410     0.0250     8.8640     0.2280   -91.7700   -54.9550   101.5450     5.5020     5.0990     5.2540
 3657.0000   -66.2860     2.4340     0.0230     8.8710     0.2280   -84.5490   -54.8550    99.1310     5.5600     5.1100     5.3080
 3657.5000   -55.8590     2.4250     0.0200     8.8790     0.2270   -77.3270   -54.7880    95.6800     5.6040     5.0890     5.3610
 3658.0000   -40.9630     2.4220     0.0200     8.8610     0.2270   -70.1060   -54.7210    92.3530     5.8660     5.0680     5.4010
 3658.5000   -36.4950     2.4260     0.0360     8.8240     0.2360   -65.7800   -54.6540    93.0270     6.1130     5.0470     5.3240
 3659.0000   -36.4950     2.4230     0.0380     8.7870     0.2440   -69.3910   -54.5880    97.2900     6.1450     5.0270     5.2340
 3659.5000   -36.4950     2.4170     0.0250     8.7660     0.2520   -73.0020   -54.5230   103.6040     5.5900     5.0060     5.1440
 3660.0000   -36.4950     2.4200     0.0100     8.7800     0.2530   -76.6120   -54.6040   109.8120     5.0760     4.9850     5.0630
 3660.5000   -36.4950     2.4260     0.0080     8.7930     0.2530   -80.2230   -54.9010   112.5090     4.5750     4.9710     5.2820
 3661.0000   -36.4950     2.4240     0.0130     8.7820     0.2510   -83.8340   -55.1960   104.9630     4.9560     5.1140     5.4810
 3661.5000   -39.4740     2.4210     0.0260     8.7130     0.2470   -87.4450   -55.4720    99.8130     5.4910     5.2720     5.6800
 3662.0000   -49.4040     2.4240     0.0380     8.6680     0.2370   -91.0550   -55.4800    94.7220     6.0260     5.4300     5.8800
 3662.5000   -59.3350     2.4350     0.0780     8.6420     0.2270   -94.8450   -55.4780    92.7910     6.4350     5.5880     6.0890
 3663.0000   -65.1400     2.4410     0.1290     8.6240     0.2280   -94.8450   -55.4780    93.5070     6.4050     5.7460     6.0890
 3663.5000   -61.3210     2.4030     0.1560     8.6300     0.2320   -94.8450   -55.4780    96.4680     6.3220     5.8680     6.0890
 3664.0000   -57.5010     2.3330     0.1550     8.6360     0.2360   -94.8450   -55.4790   100.4810     6.2390     5.8640     6.0890
 3664.5000   -53.6820     2.2550     0.1640     8.6410     0.2380   -94.8450   -55.4740   104.4660     6.1550     5.8590     6.0890
 3665.0000   -49.8630     2.1760     0.1720     8.6450     0.2390   -94.8450   -55.3740   105.9760     6.0890     5.8540     6.0890
 3665.5000   -46.4250     2.1290     0.1770     8.6470     0.2380   -94.8450   -55.2750   106.2960     6.1350     5.8480     6.0890
 3666.0000   -61.3210     2.1250     0.1490     8.6500     0.2370   -99.2700   -55.1780   105.7230     6.2120     5.8430     6.0890
 3666.5000   -77.8720     2.1540     0.1100     8.6520     0.2350  -109.9130   -55.0800   105.1660     6.2890     5.8380     6.0890
 3667.0000   -84.5790     2.2160     0.0820     8.6540     0.2380  -120.5550   -54.9820   103.7160     6.3320     5.8330     6.0890
 3667.5000   -79.3520     2.2760     0.0850     8.6570     0.2420  -131.1970   -54.8840   101.8860     6.3650     5.8270     6.0890
 3668.0000   -74.1260     2.3140     0.0870     8.6590     0.2530  -133.9640   -54.7850   100.5450     6.3980     5.8220     6.0880
 3668.5000   -68.8990     2.2810     0.0420     8.6610     0.2590  -131.9420   -54.6870    99.3110     6.4310     5.8170     6.1030
 3669.0000   -68.7690     2.2620     0.0010     8.6630     0.2490  -129.9200   -54.8190    98.5170     6.4640     5.7900     6.1240
 3669.5000   -73.7340     2.3110    -0.0100     8.6630     0.2440  -127.8980   -54.9700    97.8680     6.4940     5.7390     6.1450
 3670.0000   -78.6990     2.3350     0.0130     8.6630     0.2440  -125.8760   -55.1220    97.9650     6.3570     5.6880     6.2020
 3670.5000   -83.6640     2.3330     0.0230     8.6640     0.2570  -124.7300   -55.2760    99.9210     6.1600     5.6370     5.9500
