~VERSION INFORMATION
 VERS.                2.0:   CWLS LOG ASCII STANDARD - VERSION 2.0
 WRAP.                 NO:   ONE LINE PER DEPTH STEP
~WELL INFORMATION
#MNEM.UNIT      DATA TYPE    INFORMATION
#----------   ------------   ------------------------------
 STRT.F          480.0000:   START DEPTH
 STOP.F         4609.5000:   STOP DEPTH
 STEP.F            0.5000:   STEP LENGTH
 NULL.          -999.2500:   NO VALUE
 COMP.   FENNIX & SCISSON:   COMPANY
 WELL. FENNIX NPR-3 "LX" #58-14:   WELL
 FLD .              NPR-3:   FIELD
 LOC .      S14 T38N R78W:   LOCATION
 CNTY.            NATRONA:   COUNTY
 STAT.            WYOMING:   STATE
 CTRY. UNITED STATES OF AMERICA:   COUNTRY
 SRVC.       SCHLUMBERGER:   SERVICE COMPANY
 DATE.        08-MAR-1978:   LOGDATE
 API .     49025105920000:   API NUMBER
~CURVE INFORMATION
#MNEM.UNIT       API CODE    CURVE DESCRIPTION
#----------   ------------   ------------------------------
 DEPT.F                  :   
 SPR .MV     07 010 01 00:   SPONTANEOUS POTENTIAL
 SFL .OHMM   07 220 01 00:   SHALLOW FOCUSED LOG RESISTIVITY
 ILD .OHMM   07 120 46 00:   DEEP INDUCTION RESISTIVITY
 ILM .OHMM   07 120 44 00:   INDUCTION LOG MEDIUM RESISTIVITY
 CALD.IN     45 280 60 00:   CALIPER FROM DENSITY LOG
 GRD .GAPI   45 310 01 00:   GAMMA RAY FROM DENSITY LOG
 CORR.G/C3   45 356 01 00:   DENSITY CORRECTION
 RHOB.G/C3   45 350 01 00:   BULK DENSITY
 NPHI.DEC    42 890 03 00:   NEUTRON POROSITY SANDSTONE
~PARAMETER INFORMATION
#MNEM.UNIT          VALUE    DESCRIPTION
#----------   ------------   ------------------------------
 EKB .F         5320.0000:   Kelly bushing
 EGL .F         5310.0000:   Ground level
 EDF .F            0.0000:   Drilling floor
 TD  .F         4635.0000:   Total depth
 DATE.        08-MAR-1978:   Date logged
 CLNT.            A2DTECH:   Client Code
 SL  . 810' FSL & 1830' FEL:   Surface Location
 PD  .                 GL:   Permanent Datum
 DD  .F              4635:   Depth driller
 DL  .F              4608:   Depth logger
 BLI .F              4607:   Bottom log interval
 DFT .                FGM:   Type fluid in hole
 DFD .                9.1:   Density
 DFV .                 38:   Viscosity
 DFPH.                 11:   pH
 MSS .           FLOWLINE:   Source of sample
 RMS .OHMM           1.53:   Rm
 MST .F                58:   Rm Meas. temp.
 RMF .OHMM           1.06:   Rmf
 MFST.F                58:   Rmf Meas. temp.
 MFSS.               MEAS:   Source Rmf.
 RMB .OHMM           0.68:   Rm. at BHT
 BHT .F               131:   BHT.
 TCS .HRS            0630:   Time Circ. stopped
 MRT .F               131:   Maximum recorded temp.
 LUN .               8039:   Logging unit number
 LUL .               CSPP:   Logging unit location
 ENGI.           PETERSON:   Recorded By
 ORIG.           5" PRINT:   Origin of data
 UWI .     49025105920000:   Unique Well ID
 DICO. A2D TECHNOLOGIES, INC.:   Digitizing Company
 DAPD.                 20:   Feet Above Permanent Datum
 BSD1.               4635:   Depth drilled with bit1
 EPD .               5310:   Elevation Permanent Datum
 LMF .                 KB:   Log Measured From
 DMF .                 KB:   Drilling Measured From
 TLI .                508:   Top log interval
 CS1 .              8.625:   Casing size
 CBL1.                508:   Casing logger 1
 BS1 .              7.875:   Bit size
~OTHER INFORMATION
~A   DEPT      SPR        SFL        ILD        ILM       CALD         GRD      CORR       RHOB         NPHI 
# ...
 2414.5000   -50.8770     6.2040     5.8450     5.5570    10.6970   115.0490     0.0560     2.5140     0.3420
 2415.0000   -50.8950     6.2520     5.8230     5.5640    10.7010   113.4980     0.0400     2.5040     0.3300
 2415.5000   -50.9130     6.3000     5.8730     5.5820    10.7050   111.7710     0.0280     2.4960     0.3240
 2416.0000   -50.9310     6.3480     5.9350     5.5990    10.7090   112.3770     0.0220     2.4990     0.3290
 2416.5000   -50.9490     6.3960     5.9970     5.6500    10.7120   114.9680     0.0240     2.5050     0.3490
 2417.0000   -50.9670     6.4430     6.0590     5.7460    10.7160   116.2450     0.0260     2.5050     0.3450
 2417.5000   -50.9860     6.6110     6.1430     5.8420    10.7200   116.0060     0.0280     2.5030     0.3380
 2418.0000   -50.9450     6.8280     6.2570     5.9380    10.7240   115.0400     0.0300     2.5070     0.3280
 2418.5000   -50.8800     7.0460     6.3710     6.0350    10.7280   113.1370     0.0360     2.5140     0.3190
 2419.0000   -50.8070     7.2130     6.4850     6.1310    10.7320   110.2010     0.0420     2.5180     0.3140
 2419.5000   -51.0200     7.4010     6.6240     6.2270    10.7360   108.5660     0.0440     2.5170     0.3090
 2420.0000   -51.3550     7.3790     6.5770     6.3250    10.7400   109.0440     0.0430     2.5100     0.3120
 2420.5000   -51.6930     7.3420     6.5170     6.2580    10.7440   112.5160     0.0410     2.5010     0.3140
 2421.0000   -52.0300     7.1590     6.4580     6.1900    10.7470   115.9080     0.0460     2.4950     0.3170
 2421.5000   -52.3680     6.9180     6.3980     6.1230    10.7510   117.6090     0.0620     2.5080     0.3200
 2422.0000   -52.7050     6.5750     6.3150     6.0550    10.7470   117.3060     0.0790     2.5260     0.3240
 2422.5000   -53.0470     6.2090     6.2250     5.9830    10.7360   116.1740     0.0870     2.5360     0.3370
 2423.0000   -53.0780     6.1000     6.1350     5.8990    10.7240   115.2270     0.0830     2.5280     0.3470
 2423.5000   -52.9250     5.9840     6.0440     5.8090    10.7130   116.0000     0.0790     2.5180     0.3540
 2424.0000   -52.6470     5.9280     5.9540     5.7460    10.7010   116.8970     0.0750     2.5140     0.3520
 2424.5000   -52.0380     6.0950     5.7620     5.6980    10.6900   118.7000     0.0680     2.5110     0.3490
 2425.0000   -51.4270     6.0950     5.5050     5.5630    10.6790   119.5590     0.0600     2.5060     0.3460
 2425.5000   -51.0190     6.0950     5.0560     5.4290    10.6670   118.2220     0.0500     2.5010     0.3430
 2426.0000   -50.7380     6.1520     4.5570     5.3050    10.6560   115.2850     0.0410     2.4930     0.3360
 2426.5000   -50.4570     5.6080     4.0950     4.6230    10.6440   111.8660     0.0360     2.4620     0.3250
 2427.0000   -50.2860     4.5740     3.9540     3.9940    10.6300   108.8510     0.0480     2.4160     0.3320
 2427.5000   -50.1430     3.4150     3.9100     3.4310    10.7420   104.1900     0.0630     2.3180     0.3780
 2428.0000   -50.0130     2.7520     3.9100     3.0180    10.8790    99.7900     0.0680     2.2150     0.4730
 2428.5000   -50.3770     3.1320     3.9100     3.4120    10.8930    98.1840     0.0160     2.1130     0.5130
 2429.0000   -50.7750     4.3630     3.9100     3.7070    10.6650    98.2700    -0.0010     2.1300     0.4770
 2429.5000   -51.1770     5.5410     4.0740     4.0020    10.4700   102.5040    -0.0010     2.2640     0.4140
 2430.0000   -51.3970     6.5020     4.4670     4.3160    10.4470   108.5160     0.0250     2.4000     0.3470
 2430.5000   -51.6140     6.4770     4.9400     4.6570    10.4240   114.9290     0.0460     2.4790     0.3040
 2431.0000   -51.8320     6.4530     5.4120     4.9980    10.4000   116.7560     0.0630     2.5080     0.3030
 2431.5000   -52.0500     6.4280     5.8550     5.2640    10.3760   114.9600     0.0780     2.5280     0.3060
 2432.0000   -52.2680     6.4030     6.2130     5.5110    10.3760   113.5200     0.0810     2.5360     0.3100
 2432.5000   -52.2970     6.3250     6.2360     5.7440    10.3770   112.5970     0.0760     2.5290     0.3170
 2433.0000   -52.1460     6.4890     6.2590     5.9160    10.3780   113.2650     0.0630     2.5190     0.3240
 2433.5000   -51.9960     6.6570     6.2820     6.0950    10.3790   115.4760     0.0490     2.5090     0.3320
 2434.0000   -51.8440     6.8250     6.3050     6.0280    10.3800   117.7350     0.0410     2.4950     0.3370
 2434.5000   -51.6930     7.0020     6.3250     5.9830    10.3810   119.2830     0.0330     2.4820     0.3300
 2435.0000   -51.5420     7.0020     6.3870     6.0750    10.3820   120.4160     0.0310     2.4730     0.3250
 2435.5000   -51.3900     7.0020     6.4520     6.1550    10.3830   120.3210     0.0430     2.4830     0.3220
 2436.0000   -51.2330     7.0020     6.5180     6.2170    10.3840   120.0640     0.0520     2.4990     0.3310
 2436.5000   -51.2090     7.0020     6.5630     6.2430    10.3850   118.3330     0.0590     2.5070     0.3460
 2437.0000   -51.2370     7.0570     6.5240     6.2690    10.3860   115.6510     0.0580     2.5100     0.3590
 2437.5000   -51.2670     7.2360     6.4940     6.2960    10.3880   114.1420     0.0580     2.5100     0.3620
 2438.0000   -51.2970     7.4700     6.4640     6.3250    10.3890   115.2900     0.0500     2.5050     0.3590
 2438.5000   -51.3270     7.3630     6.4430     6.3120    10.3900   116.9770     0.0390     2.5010     0.3530
 2439.0000   -51.3570     7.2070     6.5030     6.2940    10.3910   117.6810     0.0390     2.5000     0.3450
 2439.5000   -51.3870     7.0520     6.5510     6.2760    10.3920   118.3650     0.0440     2.5060     0.3360
 2440.0000   -51.4170     6.8730     6.5980     6.2580    10.3930   119.7300     0.0490     2.5120     0.3260
 2440.5000   -51.4470     6.9190     6.6520     6.2400    10.3940   121.9560     0.0520     2.5130     0.3220
 2441.0000   -51.4760     6.9720     6.7140     6.2220    10.3950   124.2820     0.0460     2.5140     0.3250
 2441.5000   -51.5060     7.0950     6.7770     6.2090    10.3980   125.4190     0.0430     2.5160     0.3300
 2442.0000   -51.5360     7.3060     6.8390     6.3540    10.4010   124.5880     0.0470     2.5160     0.3320
 2442.5000   -51.5650     7.5220     6.9010     6.4720    10.4040   121.5670     0.0370     2.5050     0.3310
 2443.0000   -51.5400     7.7570     6.9620     6.5900    10.4070   118.5170     0.0310     2.4980     0.3270
 2443.5000   -51.4230     7.9340     7.0230     6.7080    10.4100   116.8110     0.0340     2.4980     0.3270
 2444.0000   -51.3080     8.0260     7.0830     6.8250    10.4130   116.7610     0.0390     2.5040     0.3310
 2444.5000   -51.1920     8.1180     7.1320     6.9370    10.4170   118.3970     0.0450     2.5130     0.3390
 2445.0000   -51.0760     8.1940     7.0680     6.8640    10.4230   118.0410     0.0420     2.5140     0.3380
 2445.5000   -50.9610     7.8870     7.0130     6.8020    10.4300   114.7580     0.0360     2.5090     0.3290
 2446.0000   -50.8450     7.6270     6.9580     6.7400    10.4360   111.2990     0.0310     2.5020     0.3200
 2446.5000   -50.7930     7.3670     6.9040     6.6780    10.4430   109.9070     0.0290     2.5040     0.3130
 2447.0000   -50.7920     7.1870     6.8490     6.6160    10.4490   110.5390     0.0270     2.5110     0.3130
 2447.5000   -50.7890     7.1060     6.7950     6.5630    10.4560   112.7250     0.0220     2.5120     0.3160
 2448.0000   -50.9120     7.0260     6.7450     6.4590    10.4620   115.2200     0.0190     2.5050     0.3260
 2448.5000   -51.0760     6.9460     6.7260     6.3480    10.4690   117.2030     0.0190     2.5000     0.3360
 2449.0000   -51.2400     6.8660     6.7060     6.2380    10.4740   117.8300     0.0190     2.4960     0.3420
 2449.5000   -51.4040     6.8100     6.6850     6.0950    10.4710   119.7560     0.0170     2.4910     0.3390
 2450.0000   -51.5680     7.0430     6.7700     6.2280    10.4680   120.9790     0.0190     2.4910     0.3370
 2450.5000   -51.7320     7.3070     6.8680     6.4150    10.4660   122.9630     0.0250     2.5030     0.3350
