~VERSION INFORMATION
 VERS.                2.0:   CWLS LOG ASCII STANDARD - VERSION 2.0
 WRAP.                 NO:   ONE LINE PER DEPTH STEP
~WELL INFORMATION
#MNEM.UNIT      DATA TYPE    INFORMATION
#----------   ------------   ------------------------------
 STRT.F           10.0000:   START DEPTH
 STOP.F         3234.0000:   STOP DEPTH
 STEP.F            0.5000:   STEP LENGTH
 NULL.          -999.2500:   NO VALUE
 COMP. LAWRENCE ALLISON & ASSOSCIATES:   COMPANY
 WELL. 		  38-X-10:   WELL
 FLD .             NPR #3:   FIELD
 LOC .      S10 T38N R78W:   LOCATION
 CNTY.            NATRONA:   COUNTY
 STAT.            WYOMING:   STATE
 CTRY. UNITED STATES OF AMERICA:   COUNTRY
 SRVC.      DRESSER ATLAS:   SERVICE COMPANY
 DATE.        02-AUG-1986:   LOGDATE
 API .       490251120600:   API NUMBER
~CURVE INFORMATION
#MNEM.UNIT       API CODE    CURVE DESCRIPTION
#----------   ------------   ------------------------------
 DEPT.F                  :   
 GRR .GAPI   07 310 01 00:   GAMMA RAY FROM RESISTIVITY
 SPR .MV     07 010 01 00:   SPONTANEOUS POTENTIAL
 TENR.LBS    07 635 01 00:   TENSION FROM RESISTIVITY
 RILM.OHMM   07 120 44 00:   RESISTIVITY INDUCTION LOG MEDIUM
 CNC .DEC    42 890 03 00:   NEUTRON POROSITY SANDSTONE
 CALD.IN     45 280 60 00:   CALIPER FROM DENSITY LOG
 GRD .GAPI   45 310 01 00:   GAMMA RAY FROM DENSITY LOG
 RHOB.G/C3   45 350 01 00:   BULK DENSITY
 TEND.LBS    45 635 01 00:   TENSION FORM DENSITY LOG
 CORR.G/C3   45 356 01 00:   DENSITY CORRECTION
 RILD.OHMM   07 120 46 00:   RESISTIVITY INDUCTION LOG DEEP
 RFOC.OHMM   07 220 04 00:   RESISTIVITY FOCUSED
~PARAMETER INFORMATION
#MNEM.UNIT          VALUE    DESCRIPTION
#----------   ------------   ------------------------------
 EKB .F         5224.0000:   Kelly bushing
 EGL .F         5212.0000:   Ground level
 EDF .F            0.0000:   Drilling floor
 TD  .F         3231.0000:   Total depth
 CLNT.            A2DTECH:   Client Code
 SL  . 296' FSL & 1435' FWL:   Surface Location
 PD  .                 GL:   Permanent Datum
 EPD .F              5212:   Elevation Permanent Datum
 LMF .                 KB:   Log Measured From
 DMF .                 KB:   Drilling Measured From
 DAPD.F                12:   Feet Above Permanent Datum
 DATE.        02-AUG-1986:   Date Logged [DD-MMM-YYYY]
 DD  .F              3230:   Depth driller
 DL  .F              3231:   Depth logger
 BLI .F              3229:   Bottom log interval
 TLI .F                11:   Top log interval
 CS1 .IN            8.625:   Casing size
 CBD1.      8.625" @ 626':   Casing driller 1
 CBL1.F               626:   Casing logger 1
 BS1 .IN            7.875:   Bit size
 BSD1.F              3230:   Depth drilled with bit1
 DFT .            KCL-GEL:   Type fluid in hole
 DFD .                  9:   Density
 DFV .                 36:   Viscosity
 DFPH.               10.5:   pH
 DFL .                 12:   Fluid loss
 MSS .           FLOWLINE:   Source of sample
 RMS .OHMM          0.263:   Rm
 MST .F               100:   Rm Meas. temp.
 RMF .OHMM          0.197:   Rmf
 MFST.F               100:   Rmf Meas. temp.
 MFSS.               MEAS:   Source Rmf.
 RMC .OHMM          0.329:   Rmc
 MCST.F               100:   Rmc Meas. temp.
 MCSS.               CALC:   Source Rmc.
 RMB .OHMM          0.193:   Rm. at BHT
 BHT .F               136:   BHT.
 TCS .HRS               5:   Time Circ. stopped
 MRT .F               136:   Maximum recorded temp.
 LUN .            HL-6274:   Logging unit number
 LUL .           GILLETTE:   Logging unit location
 ENGI.            PANASUK:   Recorded By
 WITN.             STRONG:   Witnessed by
 ORIG.        2" 5" PRINT:   Origin of data
 UWI .       490251120600:   Unique Well ID
 DICO. A2D TECHNOLOGIES, INC.:   Digitizing Company
~OTHER INFORMATION
~A   DEPT       GRR       SPR       TENR       RILM        CNC       CALD        GRD       RHOB       TEND       CORR       RILD       RFOC   
# ...
 2978.0000   135.5499   -35.7758   -92.3158     5.6546     0.2914    10.0006   134.4378     2.5053  -112.2033    -0.0122     5.7214     7.4862
 2978.5000   134.9352   -35.7793   -92.4601     5.5802     0.3034    10.0005   134.1265     2.5053  -104.7625    -0.0094     5.6422     7.3830
 2979.0000   133.7144   -35.6300  -100.1573     5.5040     0.3104    10.0003   135.0255     2.5092   -97.3216    -0.0079     5.5254     7.2814
 2979.5000   134.3117   -35.4814  -100.3021     5.4284     0.3146    10.0001   137.4927     2.5159   -97.4332    -0.0004     5.4110     7.2818
 2980.0000   136.4242   -35.4850  -100.4820     5.3171     0.3158    10.0000   140.4523     2.5212   -97.5225     0.0101     5.2990     7.1317
 2980.5000   140.0497   -35.3364  -100.6264     5.2443     0.3155    10.0150   143.1667     2.5234  -105.1419     0.0177     5.1893     7.0334
 2981.0000   142.7683   -35.1878   -93.2178     5.1309     0.3143    10.0148   144.3705     2.5310  -104.8612     0.0222     5.1175     6.9365
 2981.5000   144.2748   -35.0399   -93.3535     4.9963     0.3119    10.0147   144.6622     2.5356   -97.7904     0.0085     5.0115     6.8409
 2982.0000   145.1773   -34.8913   -93.5045     4.9622     0.3051    10.0145   145.5612     2.5302   -97.9020    -0.0037     4.9421     6.7466
 2982.5000   146.0756   -34.8942   -93.6556     4.8942     0.2991    10.0295   147.4588     2.5272   -97.9913     0.0099     4.8737     6.6074
 2983.0000   147.0365   -34.8971   -93.8312     4.8611     0.2988    10.0316   149.1725     2.5287   -90.5505     0.0205     4.8737     6.4712
 2983.5000   149.3894   -34.9000   -93.9755     4.8617     0.2982    10.0443   148.2561     2.5325   -90.6438     0.0234     4.8737     6.3376
 2984.0000   149.3807   -34.9036   -94.1198     4.8625     0.2982    10.0526   145.5243     2.5356   -98.2815     0.0173     4.9078     6.2068
 2984.5000   145.4326   -34.9065   -94.2642     4.8971     0.2973    10.0592   141.8847     2.5378   -98.3622     0.0203     4.9421     6.6093
 2985.0000   140.8784   -34.9094   -94.4109     4.9320     0.2945    10.0590   139.1318     2.5386   -98.4601     0.0218     4.9767     6.8442
 2985.5000   138.4455   -35.0638   -94.5889     4.9671     0.3024    10.0588   138.5369     2.5340   -98.5504     0.0233     5.0115     6.7971
 2986.0000   139.6467   -35.2182   -94.7130     5.0025     0.3063    10.0587   140.9487     2.5257   -98.6610     0.0217     5.0466     6.7976
 2986.5000   140.8502   -35.2212   -94.8775     5.0758     0.2972    10.0585   139.4272     2.5189   -98.7502     0.0383     5.1175     6.8457
 2987.0000   136.2960   -35.2247   -95.0218     5.1096     0.2933    10.0584   135.4851     2.5136   -98.8328     0.0473     5.1915     6.8461
 2987.5000   133.2570   -35.3792   -95.1662     5.1819     0.2923    10.0582   133.3584     2.5098   -91.3968     0.0321     5.2622     6.9427
 2988.0000   132.3392   -35.3821   -95.3466     5.2188     0.3017    10.0581   133.9548     2.5136   -91.4910     0.0215     5.2990     7.0901
 2988.5000   134.7899   -35.5365   -95.4909     5.2560     0.3005    10.0579   133.9440     2.5174   -91.5996    -0.0150     5.3734     7.2404
 2989.0000   133.8348   -35.5453   -95.6352     5.2934     0.2976    10.0426   132.4224     2.5144   -91.6889    -0.0088     5.4110     7.2915
 2989.5000   132.3110   -35.6945   -95.7795     5.3313     0.2890    10.0425   130.5983     2.5083   -99.3083     0.0032     5.4489     7.2920
 2990.0000   131.0902   -35.6974   -95.9239     5.4067     0.2875    10.0424   129.6819     2.5053  -106.9277     0.0017     5.5254     7.2925
 2990.5000   130.1724   -35.7003  -103.6254     5.4452     0.2893    10.0422   129.0680     2.5122  -102.7714    -0.0075     5.5640     7.2930
 2991.0000   129.2545   -35.7032  -103.8015     5.4840     0.2862    10.0269   129.0590     2.5197   -98.6446    -0.0166     5.6030     7.3446
 2991.5000   129.2437   -35.7061  -103.9458     5.5616     0.2822    10.0267   128.7459     2.5136   -90.6675    -0.0091     5.6816     7.2941
 2992.0000   128.9320   -35.7091  -104.0901     5.6013     0.2762    10.0115   128.7372     2.5113   -97.8375    -0.0182     5.7214     7.2439
 2992.5000   128.6203   -35.7126  -104.2296     5.6807     0.2747    10.0113   128.7285     2.5136  -105.0977    -0.0167     5.8017     6.9476
 2993.0000   128.0056   -35.7155  -104.3807     5.7611     0.2771    10.0112   128.4172     2.5174  -112.2677    -0.0106     5.8423     7.1499
 2993.5000   126.7847   -35.8699  -104.5591     5.8022     0.2819    10.0110   127.1871     2.5197  -119.3480    -0.0017     5.8832     7.5025
 2994.0000   125.5636   -35.8728  -112.2563     5.8029     0.2868    10.0109   125.6745     2.5250  -118.9759     0.0028     5.8423     7.5555
 2994.5000   126.4622   -35.8758  -112.4006     5.7235     0.2831    10.0107   126.2710     2.5280  -111.0693     0.0043     5.8017     7.6089
 2995.0000   130.0898   -36.0309  -112.5450     5.6451     0.2762    10.0106   129.2880     2.5227  -110.6477     0.0103     5.7614     7.5564
 2995.5000   134.0205   -36.0338  -112.6893     5.5678     0.2777    10.0104   132.3050     2.5212  -117.9079     0.0239     5.7214     7.3492
 2996.0000   137.9512   -35.8844  -120.4226     5.4534     0.2822    10.0103   135.9272     2.5242  -117.4578     0.0329     5.6422     7.0979
 2996.5000   138.2456   -35.8881  -120.5669     5.3789     0.2882    10.0101   138.6705     2.5289  -117.0933     0.0162     5.5254     7.0984
 2997.0000   138.8408   -35.8910  -128.2641     5.3052     0.2922    10.0100   138.6308     2.5325  -124.2681     0.0040     5.4489     7.0496
 2997.5000   140.6503   -35.7424  -128.4084     5.2691     0.2979    10.0098   139.5298     2.5295  -131.4381    -0.0036     5.3716     6.7612
 2998.0000   139.4294   -35.5945  -128.5527     5.2334     0.2967    10.0097   140.4310     2.5287  -130.9882     0.0055     5.2990     6.3948
 2998.5000   136.6935   -35.5974  -136.2538     5.2341     0.2831    10.0095   130.1327     2.5378  -130.6281     0.0100     5.2990     6.5096
 2999.0000   125.7757   -35.4480  -136.4303     5.2714     0.2721    10.0094   126.1906     2.5492  -130.2681    -0.0067     5.2990     7.6137
 2999.5000   115.0060   -35.2994  -136.5747     5.3460     0.2665    10.0243   118.1902     2.5727  -131.0187    -0.0476     5.3734     8.3949
 3000.0000   101.8167   -35.1515  -129.1480     5.2728     0.2627    10.0196    99.2436     2.5847  -137.0782    -0.0422     5.4870     9.2562
 3000.5000   106.3568   -35.3076  -129.0752     5.4596     0.2630    10.0098   105.2815     2.5469  -126.5869    -0.0219     5.3734     7.9400
 3001.0000   117.8661   -35.3129  -121.4495     5.6138     0.2700    10.0000   118.2812     2.5370  -114.0061     0.0068     5.4489     7.1018
 3001.5000   130.2846   -35.3172  -120.4878     5.7723     0.2664     9.9902   130.3732     2.5356  -113.7407     0.0250     5.6030     6.8585
 3002.0000   134.5211   -35.3216  -106.1800     5.8941     0.2636     9.9804   133.6907     2.5348  -113.5255     0.0174     5.6816     7.3027
 3002.5000   132.8596   -35.3260  -106.1072     5.9802     0.2639    10.0069   130.9567     2.5318  -105.7803     0.0038     5.7614     7.5670
 3003.0000   125.7202   -35.3303  -106.0344     6.1029     0.2663    10.0366   126.8611     2.5287   -98.0350     0.0008     5.8832     7.6147
 3003.5000   123.2901   -35.3349   -98.4088     6.2317     0.2697    10.0513   123.0655     2.5257   -89.7769     0.0144     6.0106     7.4052
 3004.0000   122.9827   -35.1876   -75.6773     6.3191     0.2695    10.0508   123.6598     2.5234   -74.9605     0.0159     6.1775     7.3027
 3004.5000   123.8859   -35.0404   -60.4985     6.4077     0.2515    10.0503   124.2568     2.5219   -74.7741    -0.0023     6.3522     7.3027
 3005.0000   124.4848   -35.0459   -60.4230     6.4077     0.2494    10.0499   124.5461     2.5212   -74.5302    -0.0280     6.3966     7.4052
 3005.5000   125.4051   -34.8977   -60.3350     6.3632     0.2475    10.0717   124.5348     2.5242   -74.3151    -0.0461     6.3522     7.6157
