~VERSION INFORMATION
 VERS.                2.0:   CWLS LOG ASCII STANDARD - VERSION 2.0
 WRAP.                 NO:   ONE LINE PER DEPTH STEP
~WELL INFORMATION
#MNEM.UNIT      DATA TYPE    INFORMATION
#----------   ------------   ------------------------------
 STRT.F            4.0000:   START DEPTH
 STOP.F         5696.0000:   STOP DEPTH
 STEP.F            0.5000:   STEP LENGTH
 NULL.          -999.2500:   NO VALUE
 COMP.       FLUOR DANIEL:   COMPANY
 WELL.   FLUOR "X" #72-10:   WELL
 FLD .             NPR #3:   FIELD
 LOC .      S10 T38N R78W:   LOCATION
 CNTY.            NATRONA:   COUNTY
 STAT.            WYOMING:   STATE
 CTRY. UNITED STATES OF AMERICA:   COUNTRY
 SRVC.      WESTERN ATLAS:   SERVICE COMPANY
 DATE.        26-SEP-1996:   LOGDATE
 API .     49025228080000:   API NUMBER
~CURVE INFORMATION
#MNEM.UNIT       API CODE    CURVE DESCRIPTION
#----------   ------------   ------------------------------
 DEPT.F                  :   
 GRR .GAPI   07 310 01 00:   GAMMA RAY FROM RESISTIVITY
 SPR .MV     07 010 01 00:   SPONTANEOUS POTENTIAL
 CALR.IN     07 280 01 00:   CALIPER FROM RESISTIVITY
 RD  .OHMM   07 220 10 00:   RESISTIVITY DEEP
 RS  .OHMM   07 220 09 00:   RESISTIVITY SHALLOW
 TENR.LBS    07 635 01 00:   TENSION FROM RESISTIVITY
~PARAMETER INFORMATION
#MNEM.UNIT          VALUE    DESCRIPTION
#----------   ------------   ------------------------------
 EKB .F         5178.0000:   Kelly bushing
 EGL .F         5168.0000:   Ground level
 EDF .F         5177.0000:   Drilling floor
 TD  .F         5698.0000:   Total depth
 CLNT.            A2DTECH:   Client Code
 SL  . 687' FNL & 1002' FEL:   Surface Location
 PD  .                 GL:   Permanent Datum
 EPD .F              5168:   Elevation Permanent Datum
 LMF .                 KB:   Log Measured From
 DMF .                 KB:   Drilling Measured From
 DAPD.F                10:   Feet Above Permanent Datum
 DATE.        26-SEP-1996:   Date Logged [DD-MMM-YYYY]
 DD  .F              5698:   Depth driller
 DL  .F              5697:   Depth logger
 BLI .F              5685:   Bottom log interval
 CS1 .IN            9.625:   Casing size
 CBD1.      9.625" @ 526':   Casing driller 1
 CBL1.F               526:   Casing logger 1
 BS1 .IN             8.75:   Bit size
 BSD1.F              5698:   Depth drilled with bit1
 DFT .               CHEM:   Type fluid in hole
 DFD .                9.1:   Density
 DFV .                 60:   Viscosity
 DFPH.                9.5:   pH
 DFL .                7.6:   Fluid loss
 MSS .               CIRC:   Source of sample
 RMS .OHMM           0.82:   Rm
 MST .F                64:   Rm Meas. temp.
 RMF .OHMM           0.64:   Rmf
 MFST.F                64:   Rmf Meas. temp.
 MFSS.               CALC:   Source Rmf.
 RMC .OHMM           1.08:   Rmc
 MCST.F                64:   Rmc Meas. temp.
 MCSS.               CALC:   Source Rmc.
 RMB .OHMM           0.29:   Rm. at BHT
 BHT .F               183:   BHT.
 TCS .HRS               5:   Time Circ. stopped
 MRT .F               183:   Maximum recorded temp.
 LUN .            HL-6530:   Logging unit number
 LUL .             CASPER:   Logging unit location
 ENGI.           BROWNLOW:   Recorded By
 ORIG.        2" 5" PRINT:   Origin of data
 UWI .     49025228080000:   Unique Well ID
 WITN.              HARDY:   Witnessed by
 DICO. A2D TECHNOLOGIES, INC.:   Digitizing Company
~OTHER INFORMATION
~A  DEPTH      GRR        SPR       CALR         RD         RS       TENR
# ...
  524.0000    62.9283  -999.2500  -999.2500  -999.2500  -999.2500  -999.2500
  524.5000    62.9398  -999.2500  -999.2500  -999.2500  -999.2500  -999.2500
  525.0000    62.0501  -999.2500  -999.2500  -999.2500  -999.2500  -999.2500
  525.5000    59.9529  -999.2500  -999.2500  -999.2500  -999.2500  -999.2500
  526.0000    58.4582   -32.7562     9.6836  -999.2500  -999.2500   -17.2673
  526.5000    61.6426   -33.9984     9.5635  -999.2500  -999.2500   -17.2673
  527.0000    70.8330   -37.1497     9.4734  -999.2500  -999.2500   -17.2673
  527.5000    77.7720   -41.6564     9.4438     6.1258     0.6141    -9.7598
  528.0000    80.7954   -50.0760     9.4448    14.7863     1.7717    -9.7598
  528.5000    84.1227   -55.1852     9.4305 64560.7812     4.7039    -2.2523
  529.0000    89.5557   -59.5413     9.4162 26070.5039     4.9035    -2.2523
  529.5000    91.6754   -60.5842     9.4019     8.7503     4.9719     5.2553
  530.0000    93.1928   -59.9676     9.4182     0.1986     5.0762    12.7628
  530.5000    94.4117   -58.1491     9.4344  -999.2500     5.1470    12.7628
  531.0000    95.6278   -56.6317     9.4504  -999.2500     5.2551     5.2553
  531.5000    96.2415   -55.4156     9.4664  -999.2500     5.8708    -9.7598
  532.0000    95.6305   -54.1966     9.4976  -999.2500     6.6564   -17.2673
  532.5000    93.2549   -53.4322     9.5138  -999.2500     6.7429   -24.7748
  533.0000    92.9622   -52.9691     9.5298  -999.2500     6.7898   -32.2823
  533.5000    94.4823   -52.6566     9.5458  -999.2500     6.8742   -39.7898
  534.0000    95.7390   -52.3412     9.5770  -999.2500     7.0701   -39.7898
  534.5000    96.6162   -52.0286     9.5932  -999.2500     7.2209   -24.7748
  535.0000    97.2299   -52.3214     9.6243  -999.2500     7.3239    -9.7598
  535.5000    98.1448   -52.6084     9.6252  -999.2500     7.3770    -2.2523
  536.0000    99.0625   -53.3472     9.6412  -999.2500     7.3797   -17.7678
  536.5000    99.6762   -53.9383     9.6726  -999.2500     7.4332   -32.2823
  537.0000   100.5911   -54.3788     9.7340  -999.2500     7.4354   -24.7748
  537.5000   101.2048   -54.6687     9.7652  -999.2500     7.4377   -17.2673
  538.0000   102.1226   -54.6545     9.8117  -999.2500     7.4403   -24.7748
  538.5000   101.8326   -54.6432     9.8277  -999.2500     7.4943   -32.2823
  539.0000    98.2295   -54.6325     9.8589  -999.2500     7.5487   -39.7898
  539.5000    91.9155   -54.6205     9.8597  -999.2500     7.6569   -47.2973
  540.0000    93.7368   -54.4558     9.8454  -999.2500     7.7124   -39.7898
  540.5000    97.6638   -54.5979     9.8616  -999.2500     7.7684   -17.2673
  541.0000    97.7550   -54.5837     9.8473  -999.2500     7.6106    -9.7598
  541.5000    95.5382   -54.5724     9.8482  -999.2500     7.5086   -17.2673
  542.0000    94.6856   -55.0100     9.8493  -999.2500     7.4067   -24.7748
  542.5000    95.0009   -55.1521     9.8347  -999.2500     7.2569   -32.2823
  543.0000    96.2171   -55.2914     9.8358  -999.2500     7.1058   -33.2861
  543.5000    98.6408   -55.2771     9.8367  -999.2500     6.9170    -9.2595
  544.0000    99.5529   -55.1125     9.8377  -999.2500     6.7766    20.2703
  544.5000    97.7598   -54.9505     9.8385  -999.2500     6.5936    27.7778
  545.0000    96.8675   -54.7886     9.8394  -999.2500     6.5047    35.2853
  545.5000    97.1828   -54.6265     9.8251  -999.2500     6.4616    12.7628
  546.0000    96.2905   -54.4619     9.8262  -999.2500     6.4193    -9.7598
  546.5000    95.6965   -54.4506     9.8271  -999.2500     6.5108    -2.2523
  547.0000    96.9357   -54.4398     9.8279  -999.2500     6.7430     5.2553
  547.5000    97.8332   -54.5785     9.8439  -999.2500     6.7920     5.2553
  548.0000    93.6276   -54.7178     9.8753  -999.2500     6.8888    -2.2523
  548.5000    90.9281   -55.0076     9.9065  -999.2500     7.0357   -25.2753
  549.0000    89.3936   -55.1469     9.9528  -999.2500     7.1863   -47.2973
  549.5000    89.1434   -55.4458    10.0154  -999.2500     7.3395   -54.8048
  550.0000    90.0612   -55.5732    10.0911  -999.2500     7.1408   -32.2823
  550.5000    91.8797   -55.8631    10.0616  -999.2500     6.9474    12.7628
  551.0000    94.6047   -56.3008    10.0322  -999.2500     6.9500    28.2780
  551.5000    96.4232   -56.7412    10.0330  -999.2500     7.0491    42.7928
  552.0000    98.2417   -57.0311    10.0795  -999.2500     7.1497    35.2853
  552.5000    99.4578   -57.3210    10.2016  -999.2500     7.2021    27.7778
  553.0000    99.1707   -57.3068    10.2479  -999.2500     7.1044    20.2703
  553.5000    97.9772   -57.2952    10.2639  -999.2500     7.0086    12.2623
  554.0000    99.1933   -57.2831    10.2801  -999.2500     6.9627     5.2553
  554.5000   101.6546   -57.1194    10.2810  -999.2500     6.9652    26.4223
  555.0000   102.8304   -56.9575    10.2818  -999.2500     6.9673    33.7896
  555.5000    96.8204   -56.7952    10.2978  -999.2500     6.9693    18.5993
  556.0000    93.5185   -56.6308    10.2835  -999.2500     7.0225    -4.0634
  556.5000    93.8715   -56.9206    10.2846  -999.2500     7.1205   -11.7117
  557.0000    95.0499   -56.9093    10.3006  -999.2500     7.1226    -4.3438
  557.5000    95.0612   -56.8976    10.3017  -999.2500     7.1743    18.0034
  558.0000    94.4699   -56.7332    10.2991  -999.2500     7.1764    32.8782
  558.5000    92.6183   -56.5713    10.3033  -999.2500     7.1790    17.6879
  559.0000    90.8775   -56.5599    10.3043  -999.2500     7.1811    10.0402
  559.5000    89.0863   -56.3976    10.3053  -999.2500     7.0843     9.9000
  560.0000    89.6999   -56.5373    10.3062  -999.2500     6.8453     9.7598
  560.5000    92.1208   -56.6765    10.3070  -999.2500     6.7530     9.5845
  561.0000    95.1468   -56.9636    10.3079  -999.2500     6.7550     1.9368
  561.5000    96.3629   -57.1000    10.3088  -999.2500     6.8992   -13.2185
  562.0000    96.0701   -57.0887    10.2947  2001.4301     7.0466   -21.8716
  562.5000    94.8546   -57.0774    10.3107 98892.2344     7.1466   -28.5490
  563.0000    92.1825   -57.0660    10.3115 99075.6953     6.9536   -21.1817
  563.5000    90.6877   -56.7507    10.3138 99259.1484     6.9076   -21.3219
  564.0000    90.3976   -56.7393    10.3286 99442.6016     7.0066   -21.4972
  564.5000    91.6165   -56.5774    10.3446  2003.1582     7.1066   -21.6374
  565.0000    94.3386   -56.4155    10.3606     0.1962     7.1581   -29.2851
  565.5000    96.4582   -56.4013    10.3617     0.1963     7.0128   -36.9369
  566.0000    99.4843   -56.3900    10.3625     0.1963     7.0642   -44.6156
  566.5000    95.2786   -56.5321    10.3633     0.1963     7.2148   -44.7559
  567.0000    93.7838   -56.6685    10.3642     0.1977     7.4199   -14.8660
  567.5000    92.8764   -56.9556    10.3653  1013.4341     7.6314    15.0238
  568.0000    90.7970   -57.0948    10.3662 97636.2734     7.6868    22.3911
  568.5000    90.8082   -57.0835    10.3516 97758.1953     7.3247    -0.3067
  569.0000    92.0243   -57.0722    10.3527 97880.1094     6.8317    -8.7079
  569.5000    93.5415   -56.9074    10.3538 98002.0312     6.4688    -0.6222
  570.0000    92.3479   -56.8961    10.3545 98123.9453     6.4260    21.7601
  570.5000    91.1571   -56.7341    10.3555 98245.8672     6.5181    29.1291
  571.0000    89.9258   -56.5722    10.3564 98382.7422     6.6619    28.9521
  571.5000    87.8691   -56.4074    10.3574   411.1949     6.8945    13.7969
  572.0000    86.0731   -56.3961    10.3583 99129.7344     7.0415    -1.3584
  572.5000    86.6867   -56.2342    10.3591 99665.9766     7.2417   -24.0240
  573.0000    88.2067   -56.2229    10.3600     0.2000     7.3456    -9.1463
  573.5000    91.8324   -56.2087    10.3610     0.2000     7.5022   -16.8291
  574.0000    92.1448   -56.3508    10.3619 99203.9844     7.5566    -1.9520
  574.5000    92.4601   -55.9836    10.3641 99413.5859     7.6644    12.9205
  575.0000    93.3749   -55.6502    10.3636 99623.1875     7.7206    -2.2698
  575.5000    94.8921   -56.2551    10.3647 99832.7969     7.7768    -2.4100
