~VERSION INFORMATION
 VERS.                2.0:   CWLS LOG ASCII STANDARD - VERSION 2.0
 WRAP.                 NO:   ONE LINE PER DEPTH STEP
~WELL INFORMATION
#MNEM.UNIT      DATA TYPE    INFORMATION
#----------   ------------   ------------------------------
 STRT.F           44.0000:   START DEPTH
 STOP.F         6166.0000:   STOP DEPTH
 STEP.F            0.5000:   STEP LENGTH
 NULL.          -999.2500:   NO VALUE
 COMP.   TESORO PETROLEUM:   COMPANY
 WELL. TESORO 11X NPR #3-23:   WELL
 FLD .             TEAPOT:   FIELD
 LOC .      S23 T38N R78W:   LOCATION
 CNTY.            NATRONA:   COUNTY
 STAT.            WYOMING:   STATE
 CTRY. UNITED STATES OF AMERICA:   COUNTRY
 SRVC.       SCHLUMBERGER:   SERVICE COMPANY
 DATE.        29-OCT-1968:   LOGDATE
 API .     49025100170000:   API NUMBER
~CURVE INFORMATION
#MNEM.UNIT       API CODE    CURVE DESCRIPTION
#----------   ------------   ------------------------------
 DEPT.F                  :   
 SN  .OHMM   05 040 18 00:   SHORT NORMAL 18"
 RES .OHMM   05 000 00 00:   RESISTIVITY
 ILD .OHMM   05 120 46 00:   INDUCTION LOG DEEP RESISTIVITY
 SPR .MV     05 010 01 00:   SPONTANEOUS POTENTIAL FROM RES.
~PARAMETER INFORMATION
#MNEM.UNIT          VALUE    DESCRIPTION
#----------   ------------   ------------------------------
 EKB .F         5283.0000:   Kelly bushing
 EGL .F         5272.0000:   Ground level
 EDF .F            0.0000:   Drilling floor
 TD  .F         6171.0000:   Total depth
 CLNT.            A2DTECH:   Client Code
 SL  . 380' FNL & 380' FWL:   Surface Location
 PD  .                 GL:   Permanent Datum
 EPD .F              5272:   Elevation Permanent Datum
 LMF .                 KB:   Log Measured From
 DMF .                 KB:   Drilling Measured From
 DAPD.F                11:   Feet Above Permanent Datum
 DATE.        29-OCT-1968:   Date Logged [DD-MMM-YYYY]
 DD  .F              6171:   Depth driller
 DL  .F              6167:   Depth logger
 BLI .F              6166:   Bottom log interval
 TLI .F               975:   Top log interval
 CS1 .IN            10.75:   Casing size
 CBD1.      10.75" @ 975':   Casing driller 1
 CBL1.F               975:   Casing logger 1
 BS1 .IN            9.125:   Bit size
 BSD1.F              6171:   Depth drilled with bit1
 DFT .           GEL-CHEM:   Type fluid in hole
 DFD .                9.6:   Density
 DFV .                 61:   Viscosity
 DFPH.                 10:   pH
 DFL .                6.8:   Fluid loss
 MSS .           FLOWLINE:   Source of sample
 RMS .OHMM           0.89:   Rm
 MST .F                80:   Rm Meas. temp.
 RMF .OHMM           0.60:   Rmf
 MFST.F                80:   Rmf Meas. temp.
 MFSS.               MEAS:   Source Rmf.
 RMB .OHMM           0.45:   Rm. at BHT
 BHT .F               160:   BHT.
 TCS .HRS               4:   Time Circ. stopped
 MRT .F               160:   Maximum recorded temp.
 LUN .               7041:   Logging unit number
 LUL .               CSPR:   Logging unit location
 ENGI.            MANGOLD:   Recorded By
 WITN.                MAY:   Witnessed by
 ORIG.         2.5" PRINT:   Origin of data
 UWI .     49025100170000:   Unique Well ID
 DICO. A2D TECHNIOLOGIES,INC.:   Digitizing Company
~OTHER INFORMATION
~A  DEPTH       SN        RES        ILD        SPR
# ...
 1285.0000     8.0665  -999.2500     8.3173   -63.1003
 1285.5000     7.9184  -999.2500     8.3129   -63.0476
 1286.0000     7.9214  -999.2500     8.3086   -62.7842
 1286.5000     7.7730  -999.2500     8.3042   -62.4742
 1287.0000     7.7764  -999.2500     8.2999   -62.4681
 1287.5000     7.7795  -999.2500     7.9924   -62.4620
 1288.0000     7.7825  -999.2500     7.9879   -62.1508
 1288.5000     7.7860  -999.2500     7.9833   -62.4489
 1289.0000     7.6375  -999.2500     7.9788   -62.4431
 1289.5000     7.4894  -999.2500     7.9124   -62.4372
 1290.0000     7.3414  -999.2500     7.8182   -62.4314
 1290.5000     7.3444  -999.2500     7.6612   -62.4255
 1291.0000     7.1961  -999.2500     7.6569   -62.4195
 1291.5000     7.1994  -999.2500     7.6525   -62.1094
 1292.0000     7.2024  -999.2500     7.6485   -62.4081
 1292.5000     7.2054  -999.2500     7.6439   -62.4012
 1293.0000     7.2085  -999.2500     7.6394   -62.5329
 1293.5000     7.2119  -999.2500     7.6348   -62.6930
 1294.0000     7.2148  -999.2500     7.6303   -62.9909
 1294.5000     7.2177  -999.2500     7.6258   -62.9840
 1295.0000     7.3716  -999.2500     7.6212   -62.9781
 1295.5000     7.3746  -999.2500     7.6167   -62.9723
 1296.0000     7.3776  -999.2500     7.6121   -62.9665
 1296.5000     7.3807  -999.2500     7.6076   -63.2646
 1297.0000     7.3837  -999.2500     7.6030   -63.2584
 1297.5000     7.3125  -999.2500     7.5985   -63.1814
 1298.0000     7.2387  -999.2500     7.5939   -62.9422
 1298.5000     7.2421  -999.2500     7.7418   -62.9362
 1299.0000     7.2450  -999.2500     7.8879   -62.9301
 1299.5000     7.3989  -999.2500     7.8833   -62.6201
 1300.0000     7.2727  -999.2500     7.8781   -62.3091
 1300.5000     7.2689  -999.2500     7.8737   -62.3032
 1301.0000     7.2652  -999.2500     7.8694   -62.2974
 1301.5000     7.2614  -999.2500     7.8650   -62.2916
 1302.0000     7.2576  -999.2500     7.8606   -62.2857
 1302.5000     7.2538  -999.2500     7.7045   -62.2796
 1303.0000     7.2500  -999.2500     7.5485   -62.2736
 1303.5000     7.2462  -999.2500     7.5439   -62.2675
 1304.0000     7.2424  -999.2500     7.5394   -62.2614
 1304.5000     7.2386  -999.2500     7.5348   -62.2827
 1305.0000     7.2348  -999.2500     7.5055   -62.2796
 1305.5000     7.2311  -999.2500     7.4119   -62.2766
 1306.0000     7.2266  -999.2500     7.3184   -62.2736
 1306.5000     7.2231  -999.2500     7.2249   -62.5745
 1307.0000     7.2195  -999.2500     7.1313   -62.7427
 1307.5000     7.2159  -999.2500     7.0637   -62.8723
 1308.0000     7.2121  -999.2500     7.0601   -63.1729
 1308.5000     7.2083  -999.2500     7.2083   -63.1701
 1309.0000     7.2045  -999.2500     7.2045   -62.8632
 1309.5000     7.1706  -999.2500     7.2008   -62.8232
 1310.0000     7.0450  -999.2500     7.1970   -62.4822
 1310.5000     7.0417  -999.2500     7.1932   -62.2462
 1311.0000     7.0373  -999.2500     7.1894   -62.2432
 1311.5000     7.0341  -999.2500     7.1856   -61.9362
 1312.0000     7.0303  -999.2500     7.1811   -61.9327
 1312.5000     7.0265  -999.2500     7.1775   -61.9298
 1313.0000     7.0227  -999.2500     7.0224   -61.9269
 1313.5000     7.0189  -999.2500     7.0188   -62.2280
 1314.0000     7.0152  -999.2500     7.0152   -62.2249
 1314.5000     6.8598  -999.2500     7.0114   -62.2219
 1315.0000     6.8561  -999.2500     7.0076   -62.2188
 1315.5000     6.8523  -999.2500     6.9495   -62.2158
 1316.0000     6.8485  -999.2500     6.8485   -62.2128
 1316.5000     6.8447  -999.2500     6.8447   -62.2093
 1317.0000     6.8409  -999.2500     6.6888   -62.2064
 1317.5000     6.8371  -999.2500     6.6852   -62.5075
 1318.0000     6.8333  -999.2500     6.6816   -62.5046
 1318.5000     6.8295  -999.2500     6.6780   -62.5015
 1319.0000     6.8258  -999.2500     6.8260   -62.4985
 1319.5000     6.8220  -999.2500     6.8220   -62.3875
 1320.0000     6.8182  -999.2500     6.8182   -62.1884
 1320.5000     6.7839  -999.2500     6.8144   -62.1848
 1321.0000     6.6586  -999.2500     6.8106   -62.1819
 1321.5000     6.5036  -999.2500     6.8062   -61.8751
 1322.0000     6.5000  -999.2500     6.6511   -61.8722
 1322.5000     6.4962  -999.2500     6.6475   -61.5654
 1323.0000     6.3949  -999.2500     6.6439   -61.5623
 1323.5000     6.3371  -999.2500     6.6402   -61.2553
 1324.0000     6.4515  -999.2500     6.6060   -61.1429
 1324.5000     6.4811  -999.2500     6.4344   -60.9453
 1325.0000     6.4770  -999.2500     6.3258   -60.9416
 1325.5000     6.4734  -999.2500     6.3220   -60.9388
 1326.0000     6.4697  -999.2500     6.0145   -60.6319
 1326.5000     6.4659  -999.2500     5.7079   -60.6291
 1327.0000     6.3106  -999.2500     5.4012   -60.6261
 1327.5000     6.1553  -999.2500     5.0946   -60.3191
 1328.0000     5.6964  -999.2500     4.7879   -60.3161
 1328.5000     5.3898  -999.2500     4.6061   -60.3131
 1329.0000     4.9317  -999.2500     4.4773   -60.3100
 1329.5000     4.9280  -999.2500     4.4735   -60.3064
 1330.0000     4.9242  -999.2500     4.4697   -59.9996
 1330.5000     4.9205  -999.2500     4.7682   -60.3006
 1331.0000     4.9167  -999.2500     5.0677   -60.2978
 1331.5000     4.9122  -999.2500     5.3671   -60.5988
 1332.0000     5.0602  -999.2500     5.5150   -60.8999
 1332.5000     5.5112  -999.2500     5.6755   -60.8967
 1333.0000     5.9651  -999.2500     5.9624   -61.1981
 1333.5000     6.1573  -999.2500     6.1490   -61.1945
 1334.0000     6.4096  -999.2500     6.2582   -61.4954
 1334.5000     6.6219  -999.2500     6.2538   -61.4920
 1335.0000     6.7045  -999.2500     6.2493   -61.7930
 1335.5000     6.7002  -999.2500     6.2457   -61.7902
 1336.0000     6.5452  -999.2500     6.2421   -62.0912
 1336.5000     6.3901  -999.2500     6.2385   -62.0882
 1337.0000     6.3864  -999.2500     6.2348   -62.0851
 1337.5000     6.3826  -999.2500     6.2311   -62.0821
 1338.0000     6.3788  -999.2500     6.2273   -62.2269
 1338.5000     6.2957  -999.2500     6.2235   -62.3799
 1339.0000     6.2191  -999.2500     6.2197   -62.3765
 1339.5000     6.2159  -999.2500     6.2159   -62.3736
 1340.0000     6.3635  -999.2500     6.2115   -62.3707
 1340.5000     6.3598  -999.2500     6.2079   -62.0638
 1341.0000     6.3561  -999.2500     6.3559   -62.0132
 1341.5000     6.3523  -999.2500     6.5038   -61.6722
 1342.0000     6.3485  -999.2500     6.5151   -61.4468
 1342.5000     6.4070  -999.2500     6.7996   -61.1398
 1343.0000     6.6435  -999.2500     6.7955   -61.1362
 1343.5000     6.6402  -999.2500     6.9205   -61.1333
 1344.0000     6.6364  -999.2500     7.0909   -61.4344
 1344.5000     6.8511  -999.2500     7.2380   -61.4315
 1345.0000     6.9318  -999.2500     7.3864   -61.4286
 1345.5000     7.1457  -999.2500     7.3823   -61.4255
 1346.0000     7.3067  -999.2500     7.6818   -61.7268
 1346.5000     7.4288  -999.2500     7.6780   -61.7234
 1347.0000     7.6740  -999.2500     7.6742   -62.0243
 1347.5000     7.8220  -999.2500     7.6705   -62.0207
 1348.0000     7.8182  -999.2500     7.6667   -62.0178
 1348.5000     7.8144  -999.2500     7.6629   -62.0150
 1349.0000     7.8106  -999.2500     7.6584   -62.0121
 1349.5000     7.5750  -999.2500     7.6548   -62.3131
 1350.0000     7.4747  -999.2500     7.4997   -62.0061
 1350.5000     7.3900  -999.2500     7.3446   -62.0030
 1351.0000     7.2697  -999.2500     7.3409   -62.0000
 1351.5000     7.1856  -999.2500     7.3131   -61.9970
 1352.0000     7.1818  -999.2500     7.1414   -61.6894
 1352.5000     7.1780  -999.2500     7.0265   -61.6865
 1353.0000     7.1742  -999.2500     7.0227   -61.3797
 1353.5000     7.1698  -999.2500     7.0182   -61.3768
 1354.0000     7.1662  -999.2500     7.0146   -61.0699
 1354.5000     7.1627  -999.2500     7.0110   -61.0669
 1355.0000     7.0808  -999.2500     7.0074   -61.0638
 1355.5000     7.0038  -999.2500     6.8523   -61.0608
 1356.0000     6.9263  -999.2500     7.0002   -61.0578
 1356.5000     6.8447  -999.2500     6.9962   -61.0542
 1357.0000     6.8409  -999.2500     6.9924   -61.0513
 1357.5000     6.8366  -999.2500     6.9886   -61.3526
