~VERSION INFORMATION
 VERS.                2.0:   CWLS LOG ASCII STANDARD - VERSION 2.0
 WRAP.                 NO:   ONE LINE PER DEPTH STEP
~WELL INFORMATION
#MNEM.UNIT      DATA TYPE    INFORMATION
#----------   ------------   ------------------------------
 STRT.F          404.0000:   START DEPTH
 STOP.F         2919.0000:   STOP DEPTH
 STEP.F            0.5000:   STEP LENGTH
 NULL.          -999.2500:   NO VALUE
 COMP.    FENIX & SCISSON:   COMPANY
 WELL. FENIX & SCISSON "AX" #27-21:   WELL
 FLD .             NPR #3:   FIELD
 LOC .      S21 T39N R78W:   LOCATION
 CNTY.            NATRONA:   COUNTY
 STAT.            WYOMING:   STATE
 CTRY. UNITED STATES OF AMERICA:   COUNTRY
 SRVC.       SCHLUMBERGER:   SERVICE COMPANY
 DATE.        21-APR-1977:   LOGDATE
 API .     49025103730000:   API NUMBER
~CURVE INFORMATION
#MNEM.UNIT       API CODE    CURVE DESCRIPTION
#----------   ------------   ------------------------------
 DEPT.F                  :   
 SPR .MV     07 010 01 00:   SPONTANEOUS POTENTIAL
 ILM .OHMM   07 120 44 00:   INDUCTION LOG MEDIUM RESISTIVITY
 ILD .OHMM   07 120 46 00:   DEEP INDUCTION RESISTIVITY
 LL8 .OHMM   07 220 08 00:   LATEROLOG-8 RES.
 GRN .GAPI   35 310 01 00:   GAMMA RAY
 CALD.IN     45 280 60 00:   CALIPER FROM DENSITY LOG
 GRD .GAPI   45 310 01 00:   GAMMA RAY FROM DENSITY LOG
 CORR.G/C3   45 356 01 00:   DENSITY CORRECTION
 RHOB.G/C3   45 350 01 00:   BULK DENSITY
~PARAMETER INFORMATION
#MNEM.UNIT          VALUE    DESCRIPTION
#----------   ------------   ------------------------------
 EKB .F         5004.0000:   Kelly bushing
 EGL .F         4994.0000:   Ground level
 TD  .F         2920.0000:   Total depth
 CLNT.            A2DTECH:   Client Code
 SL  . 991' FWL & 1090' FSL:   Surface Location
 DATE.        21-APR-1977:   Date Logged [DD-MMM-YYYY]
 DD  .F              2920:   Depth driller
 DL  .F              2920:   Depth logger
 BLI .F              2914:   Bottom log interval
 TLI .F               419:   Top log interval
 CS1 .              8.625:   Casing size
 CBD1.      8.625" @ 425':   Casing driller 1
 CBL1.IN              419:   Casing logger 1
 BS1 .IN            7.875:   Bit size
 BSD1.F              2920:   Depth drilled with bit1
 DFT .                FGM:   Type fluid in hole
 DFD .                9.0:   Density
 DFV .                 34:   Viscosity
 DFPH.                8.0:   pH
 DFL .                8.0:   Fluid loss
 MSS .                PIT:   Source of sample
 RMS .OHMM          0.158:   Rm
 MST .F                72:   Rm Meas. temp.
 RMF .OHMM          0.158:   Rmf
 MFST.F                72:   Rmf Meas. temp.
 MFSS.               MEAS:   Source Rmf.
 RMB .OHMM          0.102:   Rm. at BHT
 BHT .F               112:   BHT.
 TCS .HRS            0500:   Time Circ. stopped
 TLAB.HRS            0700:   Time logger at bottom
 MRT .F               112:   Maximum recorded temp.
 LUN .               5642:   Logging unit number
 LUL .               CSPR:   Logging unit location
 ENGI.             TAYLOR:   Recorded By
 WITN.          PETTINGIL:   Witnessed by
 ORIG.      2.5" 5" PRINT:   Origin of data
 UWI .     49025103730000:   Unique Well ID
 DICO. A2D TECHNOLOGIES, INC.:   Digitizing Company
 PD  .                 GL:   Permanent Datum
 EPD .F              4994:   Elevation Permanent Datum
 LMF .                 KB:   Log Measured From
 DMF .                 KB:   Drilling Measured From
 DAPD.F                10:   Feet Above Permanent Datum
~OTHER INFORMATION
~A   DEPT      SPR        ILM        ILD        LL8        GRN       CALD         GRD      CORR       RHOB   
# ...
 2703.5000   -68.1235     5.1403     4.4173     5.9255   127.0753     8.9408   101.2185     0.0489     2.5324
 2704.0000   -68.1190     5.2854     4.4524     6.0243   126.6055     8.9709   100.3327     0.0309     2.5252
 2704.5000   -68.1146     5.4823     4.7119     6.4538   135.2147     8.9835    93.5154     0.0324     2.5240
 2705.0000   -68.4077     5.5596     4.9115     6.7920   134.5759     9.0139    88.3335     0.0204     2.5268
 2705.5000   -68.7009     5.6963     5.1612     7.1772   133.0317     9.0316    86.0424     0.0385     2.5464
 2706.0000   -68.9940     5.8268     5.3794     7.4517   137.3341     9.0617    85.4481     0.0174     2.5376
 2706.5000   -68.9896     5.9601     5.5302     7.7669   139.6101     9.0753    84.9238     0.0280     2.5314
 2707.0000   -68.9851     5.9850     5.6853     8.0141   140.0839     9.0923    84.5559     0.0445     2.5383
 2707.5000   -68.9807     5.7211     5.6301     7.6185   136.0903     9.1360    84.3391     0.0520     2.5456
 2708.0000   -68.9762     5.1247     5.1834     7.0136   137.2452     9.1525    84.7281     0.0460     2.5509
 2708.5000   -68.9717     4.7187     4.6510     6.5464   139.5211     9.1530    86.2022     0.0355     2.5416
 2709.0000   -68.9672     4.4808     4.0524     6.2811   141.3487     9.1831    91.6589     0.0280     2.5278
 2709.5000   -68.9628     4.1772     3.6012     5.9441   143.4004     9.1835   100.0853     0.0296     2.5139
 2710.0000   -68.9583     3.8736     3.3359     5.7032   144.3226     9.1877   109.8705     0.0371     2.5195
 2710.5000   -68.9539     3.5701     3.0712     4.7021   146.6071     9.2031   124.3162     0.0416     2.5131
 2711.0000   -68.9494     3.2665     2.8666     3.8766   157.8517     9.2184   139.8755     0.0326     2.4876
 2711.5000   -68.9449     2.9630     2.7305     3.2855   165.2846     9.2338   143.8477     0.0146     2.4445
 2712.0000   -68.9405     2.7860     2.7481     2.8623   166.6553     9.2380   141.1758     0.0161     2.4560
 2712.5000   -68.9360     3.1121     3.0903     2.9021   153.2446     9.2381   128.7850     0.0161     2.4826
 2713.0000   -68.9316     3.4558     3.4511     3.4718   149.0183     9.2383   109.1236     0.0086     2.5008
 2713.5000   -68.8989     3.8301     3.7739     6.0266   142.1015     9.2384    95.0921     0.0089     2.5141
 2714.0000   -68.8530     4.2457     4.0438     6.7294   134.7362     9.2386    85.3217     0.0194     2.5279
 2714.5000   -68.8070     4.7503     4.3609     6.5464   133.8647     9.2387    80.1088     0.0160     2.5265
 2715.0000   -68.7611     5.0911     4.7072     6.3683   136.5976     9.2389    81.1719     0.0102     2.5166
 2715.5000   -68.7152     5.4983     5.0439     6.8228   131.6987     9.2390    82.8399     0.0139     2.5135
 2716.0000   -68.6693     5.8924     5.3230     7.2097   131.0514     9.2391    84.1702     0.0302     2.5475
 2716.5000   -68.6234     6.1521     5.2762     7.3098   134.6811     9.2393    85.3109     0.0423     2.5689
 2717.0000   -68.5775     6.0320     5.0623     7.1110   137.3970     9.2394    86.5023     0.0450     2.5749
 2717.5000   -68.5417     5.9504     4.8949     6.8228   133.1708     9.2099    87.6937     0.0540     2.5741
 2718.0000   -68.5357     5.8698     4.8661     6.4567   136.3453     9.2085    89.1817     0.0516     2.5650
 2718.5000   -68.5297     5.7111     4.8664     6.1103   140.3097     9.1806    90.3731     0.0428     2.5481
 2719.0000   -68.5238     5.6338     4.9742     5.7824   142.2421     9.1807    90.9710     0.0371     2.5310
 2719.5000   -68.5179     5.5575     5.1137     5.7824   141.5141     9.1809    90.6787     0.0323     2.5207
 2720.0000   -68.5119     5.4823     5.1426     6.0266   140.0421     9.1513    90.3863     0.0263     2.5269
 2720.5000   -68.2083     5.3341     5.1430     6.1951   140.1408     9.1515    92.4679     0.0173     2.5305
 2721.0000   -67.9048     5.2962     5.0730     6.4567   141.5094     9.1516    93.6593     0.0134     2.5210
 2721.5000   -68.0619     5.2286     4.9359     6.8228   144.4683     9.1518    95.1473     0.0193     2.5240
 2722.0000   -68.1904     4.8493     4.8023     7.2097   152.1530     9.1222    96.3387     0.0295     2.5329
 2722.5000   -68.4821     4.5893     4.5457     6.9175   162.4327     9.1224    93.3757     0.0330     2.5299
 2723.0000   -68.7738     4.2839     4.3624     6.5464   168.5204     9.1225    96.6443     0.0330     2.5210
 2723.5000   -69.4036     3.9703     4.0173     6.1103   172.1416     9.0930   106.2613     0.0369     2.5254
 2724.0000   -70.1230     3.7079     3.6490     5.2504   173.7450     9.0932   116.4596     0.0390     2.5284
 2724.5000   -70.7138     3.4124     3.3603     4.4497   177.8147     9.0933   129.0138     0.0172     2.4985
 2725.0000   -70.9574     3.2296     3.1373     3.9305   181.8844     9.0934   141.8144     0.0025     2.4596
 2725.5000   -70.3546     3.0356     2.9697     3.6184   188.8688     9.0936   162.8391     0.0000     2.4461
 2726.0000   -69.7521     3.1452     3.0949     3.5200   192.4901     9.0937   166.9979     0.0187     2.4371
 2726.5000   -69.1493     3.5133     3.3612     4.0404   189.3834     9.0939   154.5394     0.0196     2.4701
 2727.0000   -68.7250     3.8153     3.7010     4.9006   177.7595     9.0940   133.1788     0.0166     2.5150
 2727.5000   -68.1238     4.0888     3.9646     6.1951   150.8875     9.0942   119.5333     0.0244     2.5374
 2728.0000   -67.8203     4.4140     4.3058     6.7294   131.8631     9.0943   106.4814     0.0307     2.5509
 2728.5000   -67.5167     4.8275     4.6124     6.6372   140.8655     9.0945    89.1222     0.0303     2.5419
 2729.0000   -66.9155     5.1404     4.8735     6.7294   148.5226     9.0946    87.1456     0.0230     2.5329
 2729.5000   -66.6120     5.5092     5.0790     6.9175   147.4353     9.0948    86.0699     0.0202     2.5479
 2730.0000   -66.3084     5.8236     5.2932     7.2097   142.5365     9.0950    84.8763     0.0227     2.5449
 2730.5000   -66.6001     6.1099     5.4411     7.3098   136.0680     9.0951    83.8170     0.0220     2.5329
 2731.0000   -67.1894     6.3221     5.6706     7.2097   130.7207     9.0953    83.6588     0.0190     2.5225
 2731.5000   -67.4822     6.5005     5.8291     7.1110   129.1765     9.0954    83.8082     0.0144     2.5180
 2732.0000   -67.7738     6.6336     5.9102     7.0136   127.8321     9.0956    85.7562     0.0145     2.5195
 2732.5000   -67.4692     6.7271     5.9924     7.4113   124.7291     9.0661    88.8874     0.0190     2.5254
 2733.0000   -67.4633     6.8743     5.9928     7.9402   122.2978     9.0662    88.5083     0.0213     2.5240
 2733.5000   -67.1597     6.9180     5.9932     8.3904   123.4485     9.0663    82.6812     0.0198     2.5225
 2734.0000   -66.5586     6.9195     5.9936     8.1614   127.9575     9.0665    81.1101     0.0230     2.5315
 2734.5000   -66.2550     6.9750     5.9940     7.9389   128.6604     9.0666    83.0973     0.0329     2.5376
 2735.0000   -66.2491     7.0736     5.9945     7.7224   129.5873     9.0668    83.3985     0.0453     2.5451
 2735.5000   -65.9455     7.3742     6.0778     7.6185   131.4097     9.0669    83.5103     0.0318     2.5540
 2736.0000   -65.6419     7.4785     6.1624     7.6185   136.1425     9.0671    82.2203     0.0244     2.5570
 2736.5000   -65.3384     7.5842     6.4223     7.7277   136.6216     9.0672    79.8509     0.0199     2.5468
 2737.0000   -65.3325     7.6915     6.7858     8.0670   134.4063     9.0674    77.4814     0.0169     2.5329
 2737.5000   -65.3265     7.7376     7.0720     8.8766   136.0127     9.0675    75.7054     0.0154     2.5516
 2738.0000   -65.3206     7.6769     7.1703     9.3689   139.6261     9.0677    77.4902     0.0274     2.5635
 2738.5000   -65.6123     7.4694     6.8811     9.3689   140.3291     9.0678    76.9011     0.0379     2.5674
 2739.0000   -65.9047     7.1507     6.5134     8.9824   137.6739     9.0680    75.7186     0.0470     2.5516
 2739.5000   -66.1964     6.7292     6.1653     8.4787   137.2496     9.0681    75.6577     0.0500     2.5494
