~VERSION INFORMATION
 VERS.                2.0:   CWLS LOG ASCII STANDARD - VERSION 2.0
 WRAP.                 NO:   ONE LINE PER DEPTH STEP
~WELL INFORMATION
#MNEM.UNIT      DATA TYPE    INFORMATION
#----------   ------------   ------------------------------
 STRT.F          208.0000:   START DEPTH
 STOP.F         2980.0000:   STOP DEPTH
 STEP.F            0.5000:   STEP LENGTH
 NULL.          -999.2500:   NO VALUE
 COMP. FENIX & SCISSON INC:   COMPANY
 WELL. FENIX  32AX #28-28:   WELL
 FLD .        TEAPOT DOME:   FIELD
 LOC .      S28 T39N R78W:   LOCATION
 CNTY.            NATRONA:   COUNTY
 STAT.            WYOMING:   STATE
 CTRY. UNITED STATES OF AMERICA:   COUNTRY
 SRVC.           BIRDWELL:   SERVICE COMPANY
 DATE.        09-OCT-1977:   LOGDATE
 API .     49025104430000:   API NUMBER
~CURVE INFORMATION
#MNEM.UNIT       API CODE    CURVE DESCRIPTION
#----------   ------------   ------------------------------
 DEPT.F                  :   
 SPR .MV     05 010 01 00:   SPONTANEOUS POTENTIAL
 ILD .OHMM   05 120 46 00:   DEEP INDUCTION RESISTIVITY
 SN  .OHMM   05 040 16 00:   SHORT NORMAL
 GRD .GAPI   45 310 01 00:   GAMMA RAY FROM DENSITY LOG
 CALD.IN     45 280 60 00:   CALIPER FROM DENSITY LOG
 CORR.G/C3   45 356 01 00:   DENSITY CORRECTION
 DEN .G/C3   45 350 01 00:   BULK DENSITY
~PARAMETER INFORMATION
#MNEM.UNIT          VALUE    DESCRIPTION
#----------   ------------   ------------------------------
 EKB .F         5005.0000:   Kelly bushing
 EGL .F         4995.0000:   Ground level
 EDF .F            0.0000:   Drilling floor
 EPD .F         4995.0000:   Permanent datum
 TD  .F         2980.0000:   Total depth
 DATE.        09-OCT-1977:   Date logged
 CLNT.            A2DTECH:   Client Code
 SL  . 990' FNL & 1650' FWL:   Surface Location
 PD  .                 GL:   Permanent Datum
 DAPD.F                10:   Feet Above Permanent Datum
 DD  .F              2980:   Depth driller
 DL  .F              2979:   Depth logger
 BLI .F              2974:   Bottom log interval
 TLI .F               221:   Top log interval
 CS1 .IN            8.625:   Casing size
 CBD1.      8.625" @ 211':   Casing driller 1
 CBL1.F               221:   Casing logger 1
 BS1 .IN            7.875:   Bit size
 BSD1.F              2980:   Depth drilled with bit1
 DFT .            KCL GEL:   Type fluid in hole
 DFD .                8.8:   Density
 DFV .                 33:   Viscosity
 DFPH.                 11:   pH
 DFL .                6.4:   Fluid loss
 MSS .           FLOWLINE:   Source of sample
 RMS .OHMM            .52:   Rm
 MST .F                59:   Rm Meas. temp.
 RMF .OHMM            .67:   Rmf
 MFST.F                54:   Rmf Meas. temp.
 RMC .OHMM            .45:   Rmc
 MCST.F                56:   Rmc Meas. temp.
 MFSS.               MEAS:   Source Rmf.
 MCSS.               MEAS:   Source Rmc.
 RMB .OHMM            .35:   Rm. at BHT
 BHT .F                91:   BHT.
 TCS .HRS               3:   Time Circ. stopped
 MRT .F                91:   Maximum recorded temp.
 LUN .               2958:   Logging unit number
 LUL .             CASPER:   Logging unit location
 ENGI.                LAW:   Recorded By
 WITN.       W. PENINGELL:   Witnessed by
 ORIG.           5" PRINT:   Origin of data
 UWI .     49025104430000:   Unique Well ID
 DICO. A2D TECHNOLOGIES, INC.:   Digitizing Company
~OTHER INFORMATION
~A   DEPT      SPR        ILD         SN         GRD      CALD       CORR        DEN   
# ...
 1300.0000   -46.1920     7.1510     7.9110   119.1510     8.0710     0.0080     2.5330
 1300.5000   -46.1570     7.1510     7.9110   116.0940     8.0690     0.0040     2.5300
 1301.0000   -46.0900     7.1510     7.9110   116.2460     8.0660     0.0070     2.5300
 1301.5000   -46.0330     7.1500     7.9110   122.1440     8.0640     0.0110     2.5370
 1302.0000   -46.1990     7.1440     7.9110   120.2910     8.0610     0.0200     2.5490
 1302.5000   -46.5730     7.1390     7.9110   118.1520     8.0580     0.0210     2.5580
 1303.0000   -46.7920     7.1330     7.9110   120.7550     8.0550     0.0170     2.5510
 1303.5000   -46.6920     7.1280     7.9110   118.8590     8.0520     0.0200     2.5460
 1304.0000   -46.5940     7.1220     7.9110   122.4510     8.0490     0.0250     2.5560
 1304.5000   -46.6660     7.1170     7.9110   121.0460     8.0460     0.0300     2.5630
 1305.0000   -46.7460     7.1120     7.9110   123.2140     8.0430     0.0190     2.5480
 1305.5000   -46.8270     7.1060     7.9110   121.6570     8.0400     0.0200     2.5420
 1306.0000   -46.9070     7.1010     7.9110   119.8760     8.0370     0.0090     2.5370
 1306.5000   -46.9870     7.0950     7.9110   121.9020     8.0350     0.0130     2.5270
 1307.0000   -47.0670     7.0900     7.9140   123.3580     8.0320     0.0150     2.5300
 1307.5000   -47.1470     7.0860     7.9180   120.9060     8.0290     0.0150     2.5330
 1308.0000   -47.2280     7.1050     7.9220   123.4770     8.0260     0.0100     2.5320
 1308.5000   -47.3120     7.1240     7.9260   124.3310     8.0280     0.0090     2.5270
 1309.0000   -47.3650     7.1430     7.9300   119.7820     8.0310     0.0130     2.5310
 1309.5000   -46.8640     7.1620     7.9340   117.5700     8.0340     0.0140     2.5370
 1310.0000   -46.3990     7.1810     7.9380   118.9950     8.0370     0.0080     2.5330
 1310.5000   -46.3260     7.2000     7.9420   122.0390     8.0400     0.0050     2.5290
 1311.0000   -46.2570     7.2800     7.9460   123.0350     8.0430     0.0100     2.5340
 1311.5000   -46.1860     7.2620     7.9490   125.0350     8.0450     0.0090     2.5290
 1312.0000   -46.1140     7.2370     7.9530   122.8770     8.0420     0.0040     2.5290
 1312.5000   -46.0430     7.2120     7.9570   120.9930     8.0390     0.0070     2.5330
 1313.0000   -45.9920     7.1870     7.9610   124.1500     8.0360     0.0100     2.5350
 1313.5000   -45.9930     7.1620     7.9650   126.6690     8.0330     0.0130     2.5360
 1314.0000   -45.9930     7.1370     7.9690   121.0950     8.0300     0.0150     2.5400
 1314.5000   -46.0260     7.1120     7.9730   118.9920     8.0270     0.0110     2.5380
 1315.0000   -46.2760     7.0860     7.9770   119.7130     8.0270     0.0110     2.5380
 1315.5000   -46.5280     7.1510     7.9800   121.7960     8.0300     0.0130     2.5380
 1316.0000   -46.7760     7.2090     7.9840   126.4370     8.0330     0.0130     2.5430
 1316.5000   -46.9940     7.2710     8.0560   129.9870     8.0360     0.0060     2.5350
 1317.0000   -46.9620     7.3320     8.1310   128.6990     8.0400     0.0110     2.5410
 1317.5000   -46.9180     7.3930     8.2070   130.4620     8.0430     0.0170     2.5490
 1318.0000   -46.8750     7.4550     8.2040   123.4590     8.0460     0.0190     2.5460
 1318.5000   -46.8310     7.5160     8.2000   121.5120     8.0500     0.0200     2.5520
 1319.0000   -46.7890     7.5770     8.1960   121.0090     8.0530     0.0140     2.5460
 1319.5000   -46.7880     7.6260     8.1930   116.9820     8.0560     0.0090     2.5390
 1320.0000   -46.7890     7.5660     8.1890   114.2420     8.0590     0.0120     2.5430
 1320.5000   -46.7900     7.5760     8.1860   114.4200     8.0630     0.0160     2.5480
 1321.0000   -46.7780     7.5860     8.1820   117.0240     8.0650     0.0170     2.5390
 1321.5000   -46.4720     7.5960     8.1780   121.0570     8.0630     0.0150     2.5440
 1322.0000   -46.1640     7.6060     8.1750   117.5530     8.0620     0.0130     2.5460
 1322.5000   -45.9950     7.6160     8.1710   113.1130     8.0600     0.0120     2.5440
 1323.0000   -45.9940     7.6260     8.1680   110.9400     8.0590     0.0170     2.5480
 1323.5000   -45.9930     7.6180     8.1640   110.7150     8.0570     0.0170     2.5530
 1324.0000   -45.9930     7.6110     8.1600   108.2810     8.0560     0.0110     2.5420
 1324.5000   -45.9940     7.6030     8.1570   110.8840     8.0540     0.0060     2.5340
 1325.0000   -45.9930     7.5960     8.1530   109.6450     8.0530     0.0100     2.5330
 1325.5000   -45.9680     7.5890     8.1500   107.4170     8.0510     0.0220     2.5410
 1326.0000   -45.8740     7.5810     8.1460   108.4890     8.0500     0.0310     2.5580
 1326.5000   -45.8250     7.5740     8.1420   108.3480     8.0480     0.0300     2.5660
 1327.0000   -46.0730     7.5670     8.1390   111.8260     8.0470     0.0300     2.5640
 1327.5000   -46.3400     7.5590     8.1350   117.9930     8.0450     0.0300     2.5730
 1328.0000   -46.5510     7.5530     8.1330   115.6280     8.0470     0.0290     2.5630
 1328.5000   -46.6330     7.5440     8.1370   112.4160     8.0480     0.0240     2.5610
 1329.0000   -46.6690     7.5360     8.1420   113.3110     8.0500     0.0240     2.5610
 1329.5000   -46.7070     7.5270     8.1470   114.8020     8.0510     0.0230     2.5550
 1330.0000   -46.7480     7.5180     8.1510   121.0830     8.0530     0.0110     2.5400
 1330.5000   -46.7870     7.5090     8.1560   119.6050     8.0550     0.0110     2.5340
 1331.0000   -46.7450     7.5000     8.1610   118.6510     8.0560     0.0140     2.5370
 1331.5000   -46.6330     7.4920     8.1650   121.3860     8.0580     0.0170     2.5450
 1332.0000   -46.5220     7.4830     8.1700   124.1650     8.0590     0.0130     2.5500
 1332.5000   -46.4090     7.4740     8.1750   121.4070     8.0610     0.0090     2.5400
 1333.0000   -46.3640     7.4650     8.1790   125.6010     8.0620     0.0110     2.5390
 1333.5000   -46.3010     7.4570     8.1840   124.1090     8.0640     0.0090     2.5370
 1334.0000   -46.2390     7.4480     8.1890   121.4910     8.0650     0.0050     2.5310
 1334.5000   -46.1910     7.4390     8.1930   119.1990     8.0650     0.0090     2.5350
 1335.0000   -46.1920     7.4300     8.1980   125.5710     8.0650     0.0120     2.5330
 1335.5000   -46.1920     7.4190     8.2030   129.3000     8.0650     0.0160     2.5450
 1336.0000   -46.1930     7.4280     8.2070   128.8030     8.0650     0.0170     2.5520
 1336.5000   -46.1240     7.4490     8.2070   124.4160     8.0650     0.0140     2.5480
 1337.0000   -46.0220     7.4690     8.2070   121.8280     8.0650     0.0120     2.5510
 1337.5000   -46.1050     7.4900     8.2070   122.8050     8.0650     0.0060     2.5430
 1338.0000   -46.3270     7.5100     8.2070   124.7790     8.0650     0.0010     2.5360
 1338.5000   -46.5510     7.5310     8.2080   122.3410     8.0650     0.0080     2.5430
 1339.0000   -46.7800     7.5510     8.1850   120.3500     8.0650     0.0150     2.5540
 1339.5000   -46.7800     7.5720     8.1530   121.7720     8.0650     0.0140     2.5480
 1340.0000   -46.6260     7.5920     8.1220   121.8430     8.0650     0.0120     2.5390
 1340.5000   -46.6220     7.6130     8.0910   121.6700     8.0650     0.0160     2.5460
 1341.0000   -46.9980     7.7000     8.0580   125.8920     8.0650     0.0080     2.5340
 1341.5000   -46.9910     7.7250     8.0800   123.0040     8.0650     0.0070     2.5350
 1342.0000   -46.9800     7.7490     8.1090   117.1380     8.0650     0.0070     2.5350
 1342.5000   -46.9720     7.7740     8.1380   111.9350     8.0650     0.0100     2.5350
 1343.0000   -46.9870     7.7980     8.1670   111.8200     8.0650     0.0120     2.5450
 1343.5000   -46.9860     7.8230     8.1950   112.7180     8.0650     0.0100     2.5510
 1344.0000   -47.1560     7.8480     8.2070   116.5050     8.0650     0.0120     2.5390
 1344.5000   -46.7690     7.8720     8.2070   119.1630     8.0650     0.0200     2.5590
 1345.0000   -46.4050     7.9110     8.2070   116.2300     8.0650     0.0150     2.5550
