~VERSION INFORMATION
 VERS.                2.0:   CWLS LOG ASCII STANDARD - VERSION 2.0
 WRAP.                 NO:   ONE LINE PER DEPTH STEP
~WELL INFORMATION
#MNEM.UNIT      DATA TYPE    INFORMATION
#----------   ------------   ------------------------------
 STRT.F          514.0000:   START DEPTH
 STOP.F         4154.0000:   STOP DEPTH
 STEP.F            0.5000:   STEP LENGTH
 NULL.          -999.2500:   NO VALUE
 COMP.    FENIX & SCISSON:   COMPANY
 WELL.  FENIX "MX" #86-10:   WELL
 FLD .        TEAPOT DOME:   FIELD
 LOC .      S10 T38N R78W:   LOCATION
 CNTY.            NATRONA:   COUNTY
 STAT.            WYOMING:   STATE
 CTRY. UNITED STATES OF AMERICA:   COUNTRY
 SRVC.       SCHLUMBERGER:   SERVICE COMPANY
 DATE.        30-SEP-1978:   LOGDATE
 API .     49025107290000:   API NUMBER
~CURVE INFORMATION
#MNEM.UNIT       API CODE    CURVE DESCRIPTION
#----------   ------------   ------------------------------
 DEPT.F                  :   
 SPR .MV     07 010 01 00:   SPONTANEOUS POTENTIAL
 TENR.LBS    07 635 01 00:   TENSION FROM RESISTIVITY
 SFL .OHMM   07 220 01 00:   SHALLOW FOCUSED LOG RESISTIVITY
 ILM .OHMM   07 120 44 00:   INDUCTION LOG MEDIUM RESISTIVITY
 ILD .OHMM   07 120 46 00:   INDUCTION LOG DEEP RESISTIVITY
 CALD.IN     45 280 60 00:   CALIPER FROM DENSITY LOG
 GRD .GAPI   45 310 01 00:   GAMMA RAY FROM DENSITY LOG
 TEND.LBS    45 635 01 00:   TENSION FROM DENSITY LOG
 CORR.G/C3   45 356 01 00:   DENSITY CORRECTION
 RHOB.G/C3   45 350 01 00:   BULK DENSITY
 NPHI.DEC    42 890 03 00:   NEUTRON POROSITY SANDSTONE
~PARAMETER INFORMATION
#MNEM.UNIT          VALUE    DESCRIPTION
#----------   ------------   ------------------------------
 EKB .F         5233.0000:   Kelly bushing
 EGL .F         5222.0000:   Ground level
 EDF .F            0.0000:   Drilling floor
 TD  .F         4150.0000:   Total depth
 DATE.        30-SEP-1978:   Date logged
 CLNT.            A2DTECH:   Client Code
 SL  . 1450' FSL & 600' FEL:   Surface Location
 PD  .                 GL:   Permanent Datum
 LMF .                 KB:   Log Measured From
 DMF .                 KB:   Drilling Measured From
 DAPD.F                11:   Feet Above Permanent Datum
 DD  .F              4150:   Depth driller
 DL  .F              4141:   Depth logger
 BLI .F              4135:   Bottom log interval
 TLI .F               520:   Top log interval
 CS1 .IN            9.625:   Casing size
 CBD1.      9.625" @ 529':   Casing driller 1
 CBL1.F               529:   Casing logger 1
 BS1 .IN             8.75:   Bit size
 BSD1.F              4150:   Depth drilled with bit1
 DFT .                FGM:   Type fluid in hole
 DFD .                9.5:   Density
 DFV .                 36:   Viscosity
 DFPH.                 11:   pH
 DFL .                 60:   Fluid loss
 MSS .           MUD TANK:   Source of sample
 RMS .OHMM            .57:   Rm
 MST .F                68:   Rm Meas. temp.
 RMF .OHMM           .449:   Rmf
 MFST.F                68:   Rmf Meas. temp.
 MFSS.               MEAS:   Source Rmf.
 RMB .OHMM            .27:   Rm. at BHT
 BHT .F               142:   BHT.
 TCS .HRS            1500:   Time Circ. stopped
 TLAB.HRS            0700:   Time logger at bottom
 MRT .F               142:   Maximum recorded temp.
 LUN .               8043:   Logging unit number
 LUL .               CSPR:   Logging unit location
 ENGI.             LARSON:   Recorded By
 WITN.           DINSMORE:   Witnessed by
 ORIG.           5" PRINT:   Origin of data
 UWI .     49025107290000:   Unique Well ID
 DICO. A2D TECHNOLOGIES, INC.:   Digitizing Company
 EPD .               5222:   Elevation Permanent Datum
~OTHER INFORMATION
~A   DEPT      SPR       TENR        SFL        ILM        ILD       CALD         GRD      TEND       CORR       RHOB         NPHI 
  514.0000  -999.2500  -999.2500  -999.2500  -999.2500  -999.2500  -999.2500    63.8550  -999.2500  -999.2500  -999.2500     0.3770
  514.5000  -999.2500  -999.2500  -999.2500  -999.2500  -999.2500  -999.2500    64.8090  -999.2500  -999.2500  -999.2500     0.3770
  515.0000  -999.2500  -999.2500  -999.2500  -999.2500  -999.2500  -999.2500    64.1150  -999.2500  -999.2500  -999.2500     0.3690
  515.5000  -999.2500  -999.2500  -999.2500  -999.2500  -999.2500  -999.2500    59.8390  -999.2500  -999.2500  -999.2500     0.3610
  516.0000  -999.2500  -999.2500  -999.2500  -999.2500  -999.2500  -999.2500    59.4980  -999.2500  -999.2500  -999.2500     0.3730
  516.5000  -999.2500  -999.2500  -999.2500  -999.2500  -999.2500  -999.2500    59.0830  -999.2500  -999.2500  -999.2500     0.3930
  517.0000  -999.2500  -999.2500  -999.2500  -999.2500  -999.2500  -999.2500    58.6680  -999.2500  -999.2500  -999.2500     0.4060
  517.5000  -999.2500  -999.2500  -999.2500  -999.2500  -999.2500  -999.2500    58.4830  -999.2500  -999.2500  -999.2500     0.4030
  518.0000  -999.2500  -999.2500  -999.2500  -999.2500  -999.2500  -999.2500    58.6420  -999.2500  -999.2500  -999.2500     0.3960
  518.5000  -999.2500  -999.2500  -999.2500  -999.2500  -999.2500  -999.2500    59.7330  -999.2500  -999.2500  -999.2500     0.3920
  519.0000  -999.2500  -999.2500  -999.2500  -999.2500  -999.2500  -999.2500    60.8530  -999.2500  -999.2500  -999.2500     0.3930
  519.5000  -999.2500  -999.2500  -999.2500  -999.2500  -999.2500  -999.2500    61.3450  -999.2500  -999.2500  -999.2500     0.3950
  520.0000  -999.2500  -999.2500  -999.2500  -999.2500  -999.2500  -999.2500    60.7880  -999.2500  -999.2500  -999.2500     0.3920
  520.5000  -999.2500  -999.2500  -999.2500  -999.2500  -999.2500  -999.2500    60.3990  -999.2500  -999.2500  -999.2500     0.3840
  521.0000  -999.2500  -999.2500  -999.2500  -999.2500  -999.2500  -999.2500    59.9170  -999.2500  -999.2500  -999.2500     0.3770
  521.5000  -999.2500  -999.2500  -999.2500  -999.2500  -999.2500  -999.2500    61.1180  -999.2500  -999.2500  -999.2500     0.3800
  522.0000  -999.2500  -999.2500  -999.2500  -999.2500  -999.2500  -999.2500    62.6580  -999.2500  -999.2500  -999.2500     0.3900
  522.5000  -999.2500  -999.2500  -999.2500  -999.2500  -999.2500  -999.2500    63.7860  -999.2500  -999.2500  -999.2500     0.3850
  523.0000  -999.2500  -999.2500  -999.2500  -999.2500  -999.2500  -999.2500    63.5060  -999.2500  -999.2500  -999.2500     0.3750
  523.5000  -999.2500  -999.2500  -999.2500  -999.2500  -999.2500  -999.2500    60.1650  -999.2500  -999.2500  -999.2500     0.3600
  524.0000  -999.2500  -999.2500  -999.2500  -999.2500  -999.2500  -999.2500    58.7260  -999.2500  -999.2500  -999.2500     0.3590
  524.5000  -999.2500  -999.2500  -999.2500  -999.2500  -999.2500  -999.2500    56.8270  -999.2500  -999.2500  -999.2500     0.3590
  525.0000  -999.2500  -999.2500  -999.2500  -999.2500  -999.2500  -999.2500    60.0150  -999.2500  -999.2500  -999.2500     0.3350
  525.5000  -999.2500  -999.2500  -999.2500  -999.2500  -999.2500  -999.2500    63.3680  -999.2500  -999.2500  -999.2500     0.3270
  526.0000  -999.2500  -999.2500  -999.2500  -999.2500  -999.2500  -999.2500    67.5570  -999.2500  -999.2500  -999.2500     0.3270
  526.5000  -999.2500  -999.2500  -999.2500  -999.2500  -999.2500  -999.2500    67.9310  -999.2500  -999.2500  -999.2500     0.3340
  527.0000  -999.2500  -999.2500  -999.2500  -999.2500  -999.2500  -999.2500    66.5840  -999.2500  -999.2500  -999.2500     0.3450
  527.5000  -999.2500  -999.2500  -999.2500  -999.2500  -999.2500  -999.2500    64.0170  -999.2500  -999.2500  -999.2500     0.3580
  528.0000  -999.2500  -999.2500  -999.2500  -999.2500  -999.2500  -999.2500    61.7580  -999.2500  -999.2500  -999.2500     0.3730
  528.5000  -999.2500  -999.2500  -999.2500  -999.2500  -999.2500     9.4190    59.6870  -999.2500  -999.2500  -999.2500     0.3910
  529.0000  -999.2500   243.6614     0.3438  1976.8275  1624.5657     9.3150    57.6040  -999.2500     0.0440     2.6480     0.4070
  529.5000    -8.1670   243.6614     1.3410  1589.9839   974.3207     9.4070    62.9730   458.1670     0.0950     2.5990     0.4170
  530.0000   -14.0240   243.6614     3.7460  1213.6152   437.4241    10.2990    71.4840   458.1670     0.0830     2.5430     0.4290
  530.5000   -17.7000   243.6614     6.9140   837.2467   183.5930    11.2370    80.2130   458.1670     0.0590     2.5180     0.4040
  531.0000   -19.8660   243.6614     8.0800   378.8570     2.2850    11.9930    81.1950   458.1670     0.0340     2.4990     0.3670
  531.5000   -22.0320   243.6614     8.2360     6.6830     6.3220    12.1800    80.6770   458.1670     0.0200     2.4940     0.3300
  532.0000   -24.1980   243.6614     7.6610     7.0200    10.8210    12.2810    79.0230   458.1670     0.0160     2.5020     0.3020
  532.5000   -26.1160   243.6614     7.1450     7.6940   576.9680    12.4560    78.2300   469.6060     0.0150     2.5070     0.3150
  533.0000   -26.7720   225.8640     7.4530     8.3680   899.8240    12.6650    78.3660   475.3630     0.0140     2.5170     0.3360
  533.5000   -28.1960   226.4810     8.0700     8.5850  1003.7570    12.7010    78.3350   484.7800     0.0190     2.5220     0.3560
  534.0000   -29.5130   227.7150     8.6870    10.6560   327.8980    12.7360    78.2140   494.8950     0.0260     2.5180     0.3710
  534.5000   -30.8810   228.9490     8.9070    12.6310    17.3630    12.7640    79.3550   505.0110     0.0300     2.5070     0.3730
  535.0000   -32.2410   230.1840     8.6360    10.5910     9.5870    12.7970    81.5390   515.1270     0.0290     2.4960     0.3750
  535.5000   -33.5710   231.4180     6.8860     8.2640     8.8500    12.8650    83.6070   525.2430     0.0280     2.4920     0.3750
  536.0000   -34.5420   232.6520     7.1440     7.1440     8.1860    12.9330    85.6980   535.3590     0.0300     2.4980     0.3760
  536.5000   -35.3160   233.8860     8.1110     9.2530     7.5490    12.9610    87.2400   545.4740     0.0320     2.5020     0.3770
  537.0000   -36.0680   235.1200     8.9230    12.4010     7.4560    12.9690    86.1650   555.5900     0.0360     2.5070     0.3780
  537.5000   -36.8200   236.3540     9.7560    10.9830     7.3680    12.9790    84.0210   565.7060     0.0400     2.5090     0.3950
  538.0000   -37.5760   237.5880     9.3600     9.3900     7.2760    12.9900    81.7990   577.6890     0.0440     2.5020     0.4150
  538.5000   -38.3250   238.8220     8.5690     7.9770     7.2470    13.0000    80.9470   566.6920     0.0300     2.4950     0.4000
  539.0000   -39.0880   240.0560     7.9770     7.9660     7.1980    13.0110    82.7410   553.2040     0.0250     2.4900     0.3820
  539.5000   -39.8370   241.2900     7.8680     7.9400     7.1440    13.0210    84.9500   537.8490     0.0280     2.5010     0.3680
  540.0000   -40.4200   242.5240     7.7070     7.9150     7.3400    13.0320    84.6370   536.5450     0.0330     2.5100     0.3750
  540.5000   -40.2650   243.7590     7.5450     7.8900     7.5570    13.0420    83.1520   535.0320     0.0440     2.5200     0.3850
  541.0000   -40.1410   244.9930     7.3830     7.8650     7.7740    13.0520    81.7190   533.5190     0.0480     2.5230     0.3920
  541.5000   -40.0000   246.2270     7.2220     7.8390     7.9770    13.0630    81.5850   532.0060     0.0460     2.5170     0.3850
  542.0000   -39.8600   247.4610     7.0600     7.8310     7.8780    13.0730    84.9730   530.4930     0.0390     2.5110     0.3780
  542.5000   -39.6960   248.6950     6.8980     7.6700     7.7330    13.0840    88.5180   528.9800     0.0340     2.5040     0.3800
  543.0000   -39.8540   249.9290     6.7370     7.4940     7.5880    13.0940    89.3770   527.4680     0.0300     2.4970     0.3830
  543.5000   -40.4420   251.1630     6.5750     7.3180     7.4430    13.1040    87.9160   525.9550     0.0380     2.4950     0.3840
  544.0000   -40.9900   252.3970     6.4130     7.1420     7.2980    13.1160    86.4740   524.4420     0.0450     2.5040     0.3840
