~VERSION INFORMATION
 VERS.                2.0:   CWLS LOG ASCII STANDARD - VERSION 2.0
 WRAP.                 NO:   ONE LINE PER DEPTH STEP
~WELL INFORMATION
#MNEM.UNIT      DATA TYPE    INFORMATION
#----------   ------------   ------------------------------
 STRT.F          590.0000:   START DEPTH
 STOP.F         3123.0000:   STOP DEPTH
 STEP.F            0.5000:   STEP LENGTH
 NULL.          -999.2500:   NO VALUE
 COMP.         U. S. NAVY:   COMPANY
 WELL. U.S. NPR 3 "A" #402-33:   WELL
 FLD .             TEAPOT:   FIELD
 LOC .      S33 T39N R78W:   LOCATION
 CNTY.            NATRONA:   COUNTY
 STAT.            WYOMING:   STATE
 CTRY. UNITED STATES OF AMERICA:   COUNTRY
 SRVC.         MCCULLOUGH:   SERVICE COMPANY
 DATE.        23-OCT-1967:   LOGDATE
 API .     49025104460000:   API NUMBER
~CURVE INFORMATION
#MNEM.UNIT       API CODE    CURVE DESCRIPTION
#----------   ------------   ------------------------------
 DEPT.F                  :   
 GRN .GAPI   35 310 01 00:   GAMMA RAY FROM NEUTRON
 NEUT.NAPI   35 330 01 00:   NEUTRON
~PARAMETER INFORMATION
#MNEM.UNIT          VALUE    DESCRIPTION
#----------   ------------   ------------------------------
 EKB .F            0.0000:   Kelly bushing
 EGL .F         5160.5000:   Ground level
 EDF .F         5162.0000:   Drilling floor
 TD  .F         3123.5000:   Total depth
 CLNT.            A2DTECH:   Client Code
 PD  .                 GL:   Permanent Datum
 EPD .F            5160.5:   Elevation Permanent Datum
 LMF .                 DF:   Log Measured From
 DMF .                 DF:   Drilling Measured From
 DAPD.F               1.5:   Feet Above Permanent Datum
 DATE.        23-OCT-1967:   Date Logged [DD-MMM-YYYY]
 DL  .F            3123.5:   Depth logger
 BLI .F              3122:   Bottom log interval
 TLI .F               600:   Top log interval
 CS1 .IN           5.1875:   Casing size
 DFT .              WATER:   Type fluid in hole
 TCS .HRS             4.5:   Time Circ. stopped
 ENGI.         COWLTHORPE:   Recorded By
 WITN.           THOMASON:   Witnessed by
 ORIG.         2.5" PRINT:   Origin of data
 UWI .     49025104460000:   Unique Well ID
 DICO. A2D TECHNOLOGIES, INC.:   Digitizing Company
 LUN .               1498:   Logging unit number
~OTHER INFORMATION
~A   DEPT       GRN      NEUT   
  590.0000    18.9343  -999.2500
  590.5000    19.3522  -999.2500
  591.0000    19.5617  -999.2500
  591.5000    19.1458  -999.2500
  592.0000    18.7299  -999.2500
  592.5000    19.9816  -999.2500
  593.0000    21.0249  -999.2500
  593.5000    22.0715  -999.2500
  594.0000    22.0066  -999.2500
  594.5000    19.7530  -999.2500
  595.0000    18.1977   341.2757
  595.5000    14.9852   346.2866
  596.0000    18.4048   339.4707
  596.5000    18.7393   294.1284
  597.0000    18.8933   297.5675
  597.5000    20.3742   319.0630
  598.0000    21.0353   336.7546
  598.5000    21.0363   325.5115
  599.0000    21.0374   309.0114
  599.5000    21.0384   327.5026
  600.0000    19.7887   338.6797
  600.5000    17.0799   321.2292
  601.0000    19.5965   305.3082
  601.5000    22.8890   299.1911
  602.0000    25.5460   318.2436
  602.5000    26.9765   354.8003
  603.0000    28.2195   370.8701
  603.5000    30.6455   374.5632
  604.0000    31.6365   416.8429
  604.5000    30.3366   411.1322
  605.0000    31.3330   392.4948
  605.5000    32.7238   368.5848
  606.0000    31.0573   346.2433
  606.5000    28.5570   356.1368
  607.0000    26.2652   370.9710
  607.5000    26.0578   380.8645
  608.0000    22.9322   361.1141
  608.5000    22.7247   346.3044
  609.0000    22.9343   345.7056
  609.5000    25.4366   366.0914
  610.0000    30.6486   395.7475
  610.5000    30.2328   383.4081
  611.0000    30.4423   360.0498
  611.5000    30.8602   376.0215
  612.0000    32.1118   358.7415
  612.5000    34.4057   373.5756
  613.0000    35.2405   380.9988
  613.5000    35.0208   376.0703
  614.0000    32.7065   356.3199
  614.5000    30.8421   331.6289
  615.0000    29.7905   339.2170
  615.5000    28.9924   349.0862
  616.0000    29.5630   348.3653
  616.5000    31.9127   325.2072
  617.0000    32.7685   311.9273
  617.5000    35.2150   309.4692
  618.0000    35.4592   304.1140
  618.5000    33.9875   302.0827
  619.0000    30.5214   323.7373
  619.5000    27.1877   346.5730
  620.0000    24.6245   331.7632
  620.5000    28.0354   350.8968
  621.0000    30.0913   376.2554
  621.5000    33.5611   368.8318
  622.0000    35.9194   354.7392
  622.5000    37.7442   349.1165
  623.0000    35.7929   356.0809
  623.5000    37.0462   349.4902
  624.0000    37.4174   363.2879
  624.5000    34.4255   372.5787
  625.0000    32.7642   385.0004
  625.5000    36.1005   363.4384
  626.0000    36.8031   326.5110
  626.5000    36.5194   306.5303
  627.0000    33.3939   320.4271
  627.5000    33.6033   356.6557
  628.0000    33.1875   371.4899
  628.5000    31.5210   376.4427
  629.0000    30.4798   376.4550
  629.5000    28.6049   373.9969
  630.0000    27.7721   371.5371
  630.5000    30.0660   361.6696
  631.0000    32.9852   366.6225
  631.5000    34.2369   383.9270
  632.0000    35.0717   403.7018
  632.5000    34.0305   376.5404
  633.0000    30.4881   374.0815
  633.5000    28.1945   371.6235
  634.0000    27.9888   369.1660
  634.5000    31.3493   359.2970
  635.0000    31.7602   327.1949
  635.5000    31.9523   302.5039
  636.0000    31.3280   344.5446
  636.5000    35.5639   319.5482
  637.0000    34.9674   314.8922
  637.5000    33.4938   354.4296
  638.0000    32.6454   344.5605
  638.5000    30.7479   344.2525
  639.0000    28.2112   336.0398
  639.5000    24.8408   312.4828
  640.0000    23.2071   349.5512
  640.5000    24.4309   352.3212
  641.0000    29.3479   389.0041
  641.5000    32.2202   426.1684
  642.0000    33.2791   404.1107
  642.5000    33.8429   371.1868
  643.0000    34.4486   350.3674
  643.5000    36.1413   341.3292
  644.0000    35.9026   331.4023
  644.5000    34.1233   346.3025
  645.0000    33.3096   360.6265
  645.5000    33.0154   337.2781
  646.0000    33.0166   328.6519
  646.5000    40.3131   320.0166
  647.0000    40.7310   300.1858
  647.5000    40.5234   309.5938
  648.0000    36.1473   338.4846
  648.5000    33.0218   332.4713
  649.0000    31.7722   332.4836
  649.5000    31.5647   339.9067
  650.0000    31.7742   354.7409
  650.5000    31.9837   362.1600
  651.0000    30.1088   343.2529
  651.5000    29.4845   310.3076
  652.0000    32.8205   319.5123
  652.5000    34.4891   318.6103
  653.0000    35.1154   329.9780
  653.5000    35.5333   337.5331
  654.0000    33.6584   312.0563
  654.5000    34.7138   296.4214
  655.0000    35.3280   334.6885
  655.5000    35.5375   352.8492
  656.0000    34.5937   349.9488
  656.5000    33.6636   352.4313
  657.0000    34.1580   377.1468
  657.5000    34.2909   359.8667
  658.0000    33.8266   372.2306
  658.5000    34.2931   337.6582
  659.0000    33.7001   332.7298
  659.5000    33.2529   295.6871
  660.0000    33.1846   320.4026
  660.5000    32.8380   332.7664
  661.0000    32.9192   332.3988
  661.5000    32.0743   327.8502
  662.0000    29.0824   293.2778
  662.5000    28.1612   332.8152
  663.0000    27.9485   355.0604
  663.5000    27.8454   330.3693
  664.0000    29.9691   325.4408
  664.5000    31.9694   332.9642
  665.0000    35.5576   362.5204
  665.5000    38.2144   362.8122
  666.0000    36.3934   376.0831
  666.5000    35.1437   382.3195
  667.0000    34.3213   374.6085
  667.5000    34.7027   374.9338
  668.0000    29.7274   340.3605
  668.5000    28.2693   377.9149
  669.0000    28.8957   379.9102
  669.5000    30.1474   357.7574
  670.0000    31.6075   342.8797
  670.5000    30.1494   351.0211
  671.0000    29.5251   338.2632
  671.5000    29.3177   332.2053
  672.0000    29.3187   321.3898
  672.5000    29.7366   314.8226
  673.0000    28.6955   306.8218
  673.5000    28.4881   285.0637
  674.0000    30.5944   300.2599
  674.5000    29.3239   323.2299
  675.0000    29.0992   323.2422
  675.5000    28.3565   350.6588
  676.0000    25.9364   329.9859
  676.5000    25.3676   321.8578
  677.0000    27.7381   336.5660
  677.5000    28.2098   308.4843
  678.0000    30.7764   301.0856
  678.5000    30.3063   303.5681
  679.0000    27.3983   298.6396
  679.5000    27.2498   297.2176
  680.0000    24.1936   343.1299
  680.5000    23.0830   323.3796
  681.0000    24.6232   322.8468
  681.5000    24.2890   313.5227
  682.0000    23.1974   298.7129
  682.5000    22.5576   286.3735
  683.0000    22.5708   274.0341
  683.5000    21.9413   261.6947
  684.0000    22.1595   261.1151
  684.5000    22.2578   264.6083
  685.0000    23.2838   251.8500
  685.5000    28.3048   264.2138
  686.0000    28.3059   274.1074
  686.5000    28.9322   279.1507
  687.0000    32.2683   284.1617
  687.5000    33.7284   294.7297
  688.0000    31.4366   313.6820
  688.5000    31.8545   305.3204
  689.0000    30.6049   298.8839
  689.5000    29.7722   311.2477
  690.0000    30.1901   296.4380
  690.5000    30.4290   304.4140
  691.0000    29.7752   302.6559
  691.5000    31.2354   298.9449
  692.0000    31.2364   331.0714
  692.5000    29.7783   297.4069
  693.0000    29.7794   309.0114
  693.5000    29.8014   336.0486
  694.0000    32.9220   326.7413
  694.5000    33.3259   323.7239
  695.0000    31.6248   329.4181
  695.5000    30.8267   341.2545
  696.0000    31.4531   331.1720
  696.5000    31.4542   327.4541
  697.0000    31.4170   310.0012
  697.5000    31.2044   325.6496
  698.0000    30.5055   329.0804
  698.5000    28.3316   313.9439
  699.0000    31.0594   313.9561
  699.5000    37.0882   343.6122
  700.0000    34.3797   313.9805
  700.5000    32.1314   316.4630
  701.0000    30.8380   321.4159
  701.5000    34.6242   308.4335
  702.0000    34.5908   293.6233
  702.5000    33.1012   291.8066
  703.0000    31.6088   333.8152
  703.5000    28.1264   323.7927
  704.0000    26.8758   301.7246
  704.5000    26.8118   321.4995
  705.0000    30.6277   294.6686
  705.5000    29.7939   289.4096
  706.0000    28.3349   328.9487
  706.5000    23.5407   328.2654
  707.0000    23.9576   326.5012
  707.5000    26.4589   347.0193
  708.0000    28.1264   367.0081
  708.5000    28.3349   383.6173
  709.0000    28.3460   385.8379
  709.5000    32.2952   370.4503
  710.0000    35.8106   364.7026
  710.5000    38.3400   376.6747
  711.0000    38.1316   394.4779
