~VERSION INFORMATION
 VERS.                2.0:   CWLS LOG ASCII STANDARD - VERSION 2.0
 WRAP.                 NO:   ONE LINE PER DEPTH STEP
~WELL INFORMATION
#MNEM.UNIT      DATA TYPE    INFORMATION
#----------   ------------   ------------------------------
 STRT.F           76.0000:   START DEPTH
 STOP.F         4972.0000:   STOP DEPTH
 STEP.F            0.5000:   STEP LENGTH
 NULL.          -999.2500:   NO VALUE
 COMP.    PENIX & SCISSON:   COMPANY
 WELL. FENIX NPR 3 "LX" #85-9:   WELL
 FLD .                NPR:   FIELD
 LOC .       S9 T38N R78W:   LOCATION
 CNTY.            NATRONA:   COUNTY
 STAT.            WYOMING:   STATE
 CTRY. UNITED STATES OF AMERICA:   COUNTRY
 SRVC.       SCHLUMBERGER:   SERVICE COMPANY
 DATE.        10-OCT-1978:   LOGDATE
 API .     49025107250000:   API NUMBER
~CURVE INFORMATION
#MNEM.UNIT       API CODE    CURVE DESCRIPTION
#----------   ------------   ------------------------------
 DEPT.F                  :   
 TENR.LBS    07 635 01 00:   TENSION FROM RESISTIVITY
 SPR .MV     07 010 01 00:   SPONTANEOUS POTENTIAL
 SFL .OHMM   07 220 01 00:   SHALLOW FOCUSED LOG RESISTIVITY
 ILD .OHMM   07 120 46 00:   DEEP INDUCTION RESISTIVITY
 ILM .OHMM   07 120 44 00:   INDUCTION LOG MEDIUM RESISTIVITY
 CALD.IN     45 280 60 00:   CALIPER FROM DENSITY LOG
 GRD .GAPI   45 310 01 00:   GAMMA RAY FROM DENSITY LOG
 CORR.G/C3   45 356 01 00:   DENSITY CORRECTION
 TEND.LBS    45 635 01 00:   TENSION FROM DENSITY LOG
 RHOB.G/C3   45 350 01 00:   BULK DENSITY
 NPHI.DEC    42 890 03 00:   NEUTRON POROSITY SANDSTONE
~PARAMETER INFORMATION
#MNEM.UNIT          VALUE    DESCRIPTION
#----------   ------------   ------------------------------
 EKB .F         5288.0000:   Kelly bushing
 EGL .F         5278.0000:   Ground level
 EDF .F            0.0000:   Drilling floor
 TD  .F         4950.0000:   Total depth
 DATE.        10-OCT-1978:   Date logged
 CLNT.            A2DTECH:   Client Code
 SL  . 2310' FSL & 230' FEL:   Surface Location
 PD  .                 GL:   Permanent Datum
 EPD .F              5278:   Elevation Permanent Datum
 LMF .                 KB:   Log Measured From
 DMF .                 KB:   Drilling Measured From
 DAPD.F                10:   Feet Above Permanent Datum
 DD  .F              4950:   Depth driller
 DL  .F              4950:   Depth logger
 BLI .F              4947:   Bottom log interval
 TLI .F               499:   Top log interval
 CS1 .IN            8.625:   Casing size
 CBD1.      8.625" @ 489':   Casing driller 1
 CBL1.F               499:   Casing logger 1
 BS1 .IN            7.875:   Bit size
 BSD1.F              4950:   Depth drilled with bit1
 DFT .            GEL/MUD:   Type fluid in hole
 DFD .                9.3:   Density
 DFV .                175:   Viscosity
 DFPH.                 12:   pH
 DFL .                  4:   Fluid loss
 MSS .               TANK:   Source of sample
 RMS .OHMM           .600:   Rm
 MST .F                71:   Rm Meas. temp.
 RMF .OHMM           .804:   Rmf
 MFST.F                71:   Rmf Meas. temp.
 MFSS.               MEAS:   Source Rmf.
 RMB .OHMM           .308:   Rm. at BHT
 BHT .F               138:   BHT.
 TCS .HRS            1200:   Time Circ. stopped
 TLAB.HRS            0330:   Time logger at bottom
 MRT .F               138:   Maximum recorded temp.
 LUN .               8035:   Logging unit number
 LUL .               CSPR:   Logging unit location
 ENGI.        CRAIG/DFARR:   Recorded By
 WITN.              AMEND:   Witnessed by
 ORIG.           5" PRINT:   Origin of data
 UWI .     49025107250000:   Unique Well ID
 DICO. A2D TECHNOLOGIES, INC.:   Digitizing Company
~OTHER INFORMATION
~A   DEPT     TENR        SPR        SFL        ILD        ILM       CALD         GRD      CORR       TEND       RHOB         NPHI 
# ...
 4925.5000  2312.4419   -18.3160     9.6380     9.7560     9.1060     8.0220    83.5750     0.0220  2353.3879     2.6020     0.1620
 4926.0000  2311.7461   -17.9450     8.7240     9.4950     8.8900     8.0130    84.3750     0.0220  2351.3101     2.6050     0.1800
 4926.5000  2311.0510   -17.5860     9.3800     9.1650     8.6740     8.0200    84.2350     0.0260  2349.2319     2.6090     0.1920
 4927.0000  2310.3560   -17.2290    10.0420     8.8360     8.4580     8.0300    82.3470     0.0300  2347.1541     2.6150     0.1850
 4927.5000  2309.6609   -16.8750    10.7040     8.5070     8.2420     8.0410    80.4110     0.0340  2345.0769     2.6200     0.1780
 4928.0000  2308.9661   -16.7140    11.1170     8.1780     8.0260     8.0510    79.4020     0.0380  2342.9990     2.6180     0.1710
 4928.5000  2308.2700   -16.5580    10.5440     7.8480     7.8100     8.0610    82.6230     0.0310  2340.9209     2.6080     0.1600
 4929.0000  2307.5750   -16.4030     9.5480     7.5190     7.5940     8.0710    86.3280     0.0190  2338.8440     2.5980     0.1650
 4929.5000  2306.8799   -16.2610     8.5510     7.2400     7.3780     8.0810    90.1690     0.0090  2338.4780     2.5930     0.1770
 4930.0000  2306.1851   -16.0880     7.5150     7.2400     7.2400     8.0920    91.6230     0.0150  2342.0239     2.6000     0.1880
 4930.5000  2305.4890   -16.2880     8.2190     7.2400     7.5240     8.0800    89.7750     0.0240  2345.5710     2.6060     0.2040
 4931.0000  2304.7939   -16.5530     8.9520     7.9060     8.0320     8.0560    87.8140     0.0350  2349.1169     2.6080     0.1940
 4931.5000  2304.0991   -16.8290     9.5760     8.4820     8.5400     8.0340    85.6190     0.0440  2352.6631     2.6130     0.1740
 4932.0000  2303.4041   -17.1160    11.8430     9.0580     9.0480     8.0130    84.4560     0.0540  2356.2100     2.6200     0.1550
 4932.5000  2302.7080   -17.2230    13.8170     9.6340     9.5560     8.0120    84.6290     0.0650  2359.7561     2.6260     0.1410
 4933.0000  2302.0129   -17.0660    15.7910    10.2100    10.0650     8.0120    84.0730     0.0670  2363.3020     2.6240     0.1370
 4933.5000  2301.3181   -16.8940    17.7650    10.7100    10.5730     8.0120    82.8230     0.0620  2366.8491     2.6220     0.1320
 4934.0000  2300.6230   -17.1020    19.4480    10.5650    10.7100     8.0120    81.6630     0.0480  2370.3950     2.6100     0.1280
 4934.5000  2299.9270   -17.5330    16.7570    10.3670    10.4910     8.0120    80.5330     0.0350  2373.9419     2.5990     0.1230
 4935.0000  2299.2319   -18.0160    13.8560    10.1690    10.2560     8.0120    81.1540     0.0190  2378.0491     2.5850     0.1200
 4935.5000  2298.5371   -17.8220     9.9400     9.9720    10.0210     8.0120    83.9400     0.0160  2378.0491     2.5880     0.1190
 4936.0000  2297.8420   -17.5590    10.3650     9.7560     9.7860     8.0120    86.3940     0.0120  2378.0491     2.5970     0.1180
 4936.5000  2297.1460   -17.2700    11.7230     9.2240     9.5760     8.0120    87.3730     0.0100  2378.0491     2.6120     0.1200
 4937.0000  2296.4509   -17.2700    12.6660     8.6400     8.9970     8.0120    86.1830     0.0080  2378.0491     2.6240     0.1220
 4937.5000  2295.7561   -17.2580    12.6660     8.0560     8.4740     8.0120    85.7610     0.0140  2378.0491     2.6370     0.1200
 4938.0000  2295.0610   -17.2410    12.2310     7.4730     7.9510     8.0120    85.6270     0.0210  2378.0491     2.6500     0.1190
 4938.5000  2294.3650   -16.9900    10.7680     6.8890     7.4280     8.0120    87.0390     0.0280  2378.0491     2.6620     0.1200
 4939.0000  2293.6699   -16.7900     9.3040     6.4740     6.8460     8.0120    88.4870     0.0350  2378.0491     2.6720     0.1220
 4939.5000  2292.9751   -16.5280     7.8410     6.5110     6.7200     8.0120    89.8540     0.0350  2378.0491     2.6660     0.1230
 4940.0000  2292.2800   -16.6460     7.1060     6.5960     6.9830     8.0120    88.4290     0.0260  2378.0491     2.6570     0.1220
 4940.5000  2291.5850   -17.0040     8.0740     7.2880     7.3690     8.0120    87.3890     0.0190  2378.0491     2.6480     0.1200
 4941.0000  2290.8889   -17.2210     9.1730     8.0750     7.7540     8.0120    85.7880     0.0120  2379.7710     2.6400     0.1170
 4941.5000  2290.1941   -16.8590    11.6940     8.8620     8.1400     8.0120    85.8890     0.0130  2381.2429     2.6530     0.1180
 4942.0000  2289.4990   -16.5090    15.8170     9.7560     8.5260     8.0120    87.1130     0.0210  2382.7151     2.6750     0.1180
 4942.5000  2288.8040   -16.4680    21.3490     9.5870     8.8880     8.0020    76.1510     0.0340  2384.1870     2.6960     0.1180
 4943.0000  2288.1079   -16.4630    20.4330     9.2190     8.6500     7.9910    55.1280     0.0480  2385.6589     2.7110     0.1190
 4943.5000  2287.4490   -16.4730    15.3070     8.8520     8.3620     7.9810    33.2640     0.0500  2387.1311     2.6950     0.1190
 4944.0000  2274.1899   -16.4640     9.3990  -999.2500     8.0740     7.9710  -999.2500     0.0470  2388.6030     2.6620     0.1190
 4944.5000  2261.5891   -16.5020     8.9120  -999.2500     7.7870     7.9590  -999.2500     0.0220  2390.0750     2.6280     0.1200
 4945.0000  2246.9641   -16.5950     8.0970  -999.2500     7.4990     7.9490  -999.2500     0.0320  2391.5471     2.6350     0.1210
 4945.5000  2259.0510   -16.6850  -999.2500  -999.2500     7.2110     7.9410  -999.2500     0.0450  2393.0190     2.6430     0.1210
 4946.0000  2273.4529   -16.7740  -999.2500  -999.2500     7.0370     7.8960  -999.2500     0.0610  2394.4910     2.6410  -999.2500
 4946.5000  2287.8540   -16.8600  -999.2500  -999.2500  -999.2500     7.8200  -999.2500     0.0840  2395.9629     2.6280  -999.2500
 4947.0000  2302.2561  -999.2500  -999.2500  -999.2500  -999.2500     7.6590  -999.2500     0.1090  2397.4351  -999.2500  -999.2500
 4947.5000  2316.6570  -999.2500  -999.2500  -999.2500  -999.2500     7.4090  -999.2500     0.1410  2398.9060  -999.2500  -999.2500
 4948.0000  2327.9351  -999.2500  -999.2500  -999.2500  -999.2500     7.1660  -999.2500     0.1710  2400.3779  -999.2500  -999.2500
 4948.5000  2244.9951  -999.2500  -999.2500  -999.2500  -999.2500     6.9240  -999.2500  -999.2500  2401.8501  -999.2500  -999.2500
 4949.0000  2143.2600  -999.2500  -999.2500  -999.2500  -999.2500     6.6830  -999.2500  -999.2500  2403.3220  -999.2500  -999.2500
 4949.5000  2041.5250  -999.2500  -999.2500  -999.2500  -999.2500     6.4320  -999.2500  -999.2500  2404.7939  -999.2500  -999.2500
 4950.0000  1939.7900  -999.2500  -999.2500  -999.2500  -999.2500  -999.2500  -999.2500  -999.2500  2406.2661  -999.2500  -999.2500
 4950.5000  1838.0551  -999.2500  -999.2500  -999.2500  -999.2500  -999.2500  -999.2500  -999.2500  2407.7380  -999.2500  -999.2500
 4951.0000  1762.2340  -999.2500  -999.2500  -999.2500  -999.2500  -999.2500  -999.2500  -999.2500  2409.2100  -999.2500  -999.2500
 4951.5000  1766.7440  -999.2500  -999.2500  -999.2500  -999.2500  -999.2500  -999.2500  -999.2500  2410.6819  -999.2500  -999.2500
 4952.0000  1771.2550  -999.2500  -999.2500  -999.2500  -999.2500  -999.2500  -999.2500  -999.2500  2412.1541  -999.2500  -999.2500
 4952.5000  1775.7660  -999.2500  -999.2500  -999.2500  -999.2500  -999.2500  -999.2500  -999.2500  2413.6260  -999.2500  -999.2500
 4953.0000  1780.2760  -999.2500  -999.2500  -999.2500  -999.2500  -999.2500  -999.2500  -999.2500  2415.0979  -999.2500  -999.2500
 4953.5000  1784.7870  -999.2500  -999.2500  -999.2500  -999.2500  -999.2500  -999.2500  -999.2500  2416.5701  -999.2500  -999.2500
 4954.0000  1789.2980  -999.2500  -999.2500  -999.2500  -999.2500  -999.2500  -999.2500  -999.2500  2418.0420  -999.2500  -999.2500
 4954.5000  1793.8080  -999.2500  -999.2500  -999.2500  -999.2500  -999.2500  -999.2500  -999.2500  2412.3350  -999.2500  -999.2500
 4955.0000  1798.3190  -999.2500  -999.2500  -999.2500  -999.2500  -999.2500  -999.2500  -999.2500  2400.8379  -999.2500  -999.2500
 4955.5000  1801.6190  -999.2500  -999.2500  -999.2500  -999.2500  -999.2500  -999.2500  -999.2500  2389.3411  -999.2500  -999.2500
