~VERSION INFORMATION
 VERS.                2.0:   CWLS LOG ASCII STANDARD - VERSION 2.0
 WRAP.                 NO:   ONE LINE PER DEPTH STEP
~WELL INFORMATION
#MNEM.UNIT      DATA TYPE    INFORMATION
#----------   ------------   ------------------------------
 STRT.F          200.0000:   START DEPTH
 STOP.F         3142.0000:   STOP DEPTH
 STEP.F            0.5000:   STEP LENGTH
 NULL.          -999.2500:   NO VALUE
 COMP.    FENIX & SCISSON:   COMPANY
 WELL.  FENIX "AX" #37-10:   WELL
 FLD .              NPR-3:   FIELD
 LOC .      S10 T38N R78W:   LOCATION
 CNTY.            NATRONA:   COUNTY
 STAT.            WYOMING:   STATE
 CTRY. UNITED STATES OF AMERICA:   COUNTRY
 SRVC.              WELEX:   SERVICE COMPANY
 DATE.        19-SEP-1977:   LOGDATE
 API .     49025104190000:   API NUMBER
~CURVE INFORMATION
#MNEM.UNIT       API CODE    CURVE DESCRIPTION
#----------   ------------   ------------------------------
 DEPT.F                  :   
 CALD.IN     45 280 60 00:   CALIPER FROM DENSITY LOG
 GRD .GAPI   45 310 01 00:   GAMMA RAY FROM DENSITY LOG
 RHOB.G/C3   45 350 01 00:   BULK DENSITY
 CORR.G/C3   45 356 01 00:   DENSITY CORRECTION
 NPHI.DEC    42 890 03 00:   NEUTRON POROSITY SANDSTONE
 SPR .MV     07 010 01 00:   SPONTANEOUS POTENTIAL
 SGRD.OHMM   07 220 05 00:   SHALLOW GUARD RESISTIVITY
 ILD .OHMM   07 120 46 00:   INDUCTION LOG DEEP RESISTIVITY
 ILM .OHMM   07 120 44 00:   INDUCTION LOG MEDIUM RESISTIVITY
 TENR.LBS    07 635 01 00:   TENSION FROM RESISTIVITY
~PARAMETER INFORMATION
#MNEM.UNIT          VALUE    DESCRIPTION
#----------   ------------   ------------------------------
 EKB .F         5221.0000:   Kelly bushing
 EGL .F         5211.0000:   Ground level
 EDF .F            0.0000:   Drilling floor
 TD  .F         3150.0000:   Total depth
 DATE.        19-SEP-1977:   Date logged
 CLNT.            A2DTECH:   Client Code
 SL  . 1190' FSL & 1750' FWL:   Surface Location
 PD  .                 GL:   Permanent Datum
 DD  .F              3150:   Depth driller
 DL  .F              3146:   Depth logger
 BLI .F              3144:   Bottom log interval
 CS1 .IN            8.625:   Casing size
 CBD1.      8.625" @ 215':   Casing driller 1
 BS1 .IN            7.875:   Bit size
 DFT .            KCL/MUD:   Type fluid in hole
 DFD .                8.9:   Density
 TCS .HRS               2:   Time Circ. stopped
 MRT .F               116:   Maximum recorded temp.
 ENGI.            C. DOAK:   Recorded By
 WITN.      B. HARRINGTON:   Witnessed by
 ORIG.           5" PRINT:   Origin of data
 UWI .     49025104190000:   Unique Well ID
 DICO. A2D TECHNOLOGIES, INC.:   Digitizing Company
 DAPD.F                10:   Feet Above Permanent Datum
 BSD1.F              3150:   Depth drilled with bit1
 EPD .F              5211:   Elevation Permanent Datum
 LMF .                 KB:   Log Measured From
 DMF .                 KB:   Drilling Measured From
 TLI .F               200:   Top log interval
 CBL1.                213:   Casing logger 1
 DFV .                 37:   Viscosity
 DFPH.                 11:   pH
 DFL .                5.8:   Fluid loss
 MSS .           MEASURED:   Source of sample
 RMS .               2.82:   Rm
 MST .                 94:   Rm Meas. temp.
 RMF .               1.61:   Rmf
 MFST.                 94:   Rmf Meas. temp.
 MFSS.               MEAS:   Source Rmf.
 RMC .               3.12:   Rmc
 MCST.                 94:   Rmc Meas. temp.
 MCSS.               MEAS:   Source Rmc.
 RMB .               2.28:   Rm. at BHT
 BHT .                116:   BHT.
 LUN .               8611:   Logging unit number
 LUL .             CASPER:   Logging unit location
~OTHER INFORMATION
~A   DEPT       CALD       GRD        RHOB      CORR      NPHI        SPR       SGRD        ILD        ILM       TENR   
# ...
  970.5000    11.0220    74.3612     2.5180     0.0197     0.2471   -74.6747     8.3521     6.1688     7.0801  1188.2146
  971.0000    11.0028    74.3637     2.5140     0.0157     0.2400   -74.6710     8.3528     6.2262     7.0804  1207.9556
  971.5000    10.9833    74.3662     2.5100     0.0117     0.2400   -75.0636     8.2016     6.3423     7.0809  1207.7556
  972.0000    10.9638    74.5666     2.5041     0.0038     0.2392   -74.4655     8.1275     6.4010     7.1470  1187.6147
  972.5000    10.9443    74.5690     2.5021     0.0038     0.2369   -74.4617     8.1281     6.4610     7.2801  1207.3557
  973.0000    10.9248    74.5715     2.5001     0.0038     0.2320   -74.6562     8.1290     6.5815     7.3477  1207.1556
  973.5000    10.9053    74.5740     2.5001     0.0038     0.2305   -74.6525     8.2045     6.5819     7.4847  1194.6478
  974.0000    10.8857    74.3787     2.4981     0.0058     0.2291   -74.6487     8.4346     6.7045     7.5545  1186.8148
  974.5000    10.8859    74.5790     2.4981     0.0059     0.2277   -74.4469     8.5917     6.7670     7.7663  1186.6149
  975.0000    10.8662    74.5815     2.5081     0.0138     0.2318   -74.4432     8.6717     6.8300     7.7668  1206.3558
  975.5000    10.8579    74.3861     2.5141     0.0158     0.2362   -74.4395     8.6727     6.8305     7.7675  1206.1558
  976.0000    10.8496    74.5864     2.5141     0.0158     0.2409   -74.4357     8.7535     6.8310     7.7683  1186.0149
  976.5000    10.8413    74.7867     2.5121     0.0159     0.2426   -74.4320     8.7540     6.8318     7.7691  1185.8149
  977.0000    10.8330    74.9870     2.5081     0.0119     0.2450   -74.6264     8.7551     6.8324     7.7696  1185.6150
  977.5000    10.8247    74.9895     2.5021     0.0139     0.2466   -74.6227     8.7559     6.8329     7.7705  1185.4150
  978.0000    10.8164    75.1898     2.4962     0.0139     0.2418   -74.6190     8.7564     6.8334     7.7712  1185.2150
  978.5000    10.8092    75.3901     2.4942     0.0139     0.2402   -74.6153     8.7575     6.9611     7.7007  1185.0151
  979.0000    10.7699    75.3925     2.5022     0.0179     0.2395   -74.4135     8.7580     7.0260     7.7013  1204.7560
  979.5000    10.7504    75.5928     2.5052     0.0219     0.2396   -74.4097     8.7590     7.0266     7.7020  1184.6151
  980.0000    10.7112    75.1997     2.5141     0.0199     0.2464   -74.6041     8.7598     7.0273     7.7741  1204.3561
  980.5000    10.6719    75.5977     2.5121     0.0199     0.2489   -74.6004     8.7606     7.0278     7.7746  1204.1561
  981.0000    10.6920    75.6002     2.5052     0.0199     0.2497   -74.5967     8.6021     7.0285     7.7755  1184.0153
  981.5000    10.7319    75.9982     2.5122     0.0239     0.2497   -74.7911     8.4462     6.9649     7.8481  1203.7562
  982.0000    10.7322    76.0007     2.5171     0.0259     0.2477   -74.7874     8.2174     6.9017     7.4966  1203.5562
  982.5000    10.6931    76.0031     2.5172     0.0260     0.2466   -74.5856     7.9950     6.8393     7.3608  1183.4952
  983.0000    10.6737    76.4011     2.5172     0.0260     0.2462   -74.5819     7.8501     6.7774     7.1615  1183.2153
  983.5000    10.7333    76.4036     2.5172     0.0260     0.2458   -74.7762     7.7792     6.6547     7.0966  1202.9563
  984.0000    10.7336    76.2083     2.5251     0.0300     0.2418   -74.7725     7.7087     6.4746     7.0323  1202.7563
  984.5000    10.7339    76.4085     2.5331     0.0300     0.2434   -74.7688     7.6389     6.2995     6.9688  1202.5563
  985.0000    10.7935    76.6087     2.5361     0.0340     0.2495   -74.9632     7.6395     6.2422     6.9692  1182.4154
  985.5000    10.8729    76.4133     2.5381     0.0360     0.2543   -74.9595     7.6400     6.1858     6.9063  1202.1564
  986.0000    10.9326    76.0203     2.5351     0.0380     0.2519   -74.9557     7.6410     6.1861     6.9067  1201.9564
  986.5000    10.9526    76.0228     2.5371     0.0380     0.2471   -74.9520     7.6418     6.1304     7.0357  1201.7563
  987.0000    10.9134    76.2229     2.5441     0.0420     0.2439   -74.9483     7.6424     6.1309     7.0363  1181.6155
  987.5000    10.8741    76.2254     2.5531     0.0440     0.2471   -75.1427     7.6433     6.0755     7.0368  1201.3564
  988.0000    10.7558    76.4256     2.5590     0.0440     0.2511   -75.1390     7.6437     6.0759     7.0376  1201.1565
  988.5000    10.7361    76.2303     2.5590     0.0460     0.2552   -75.1352     7.6444     6.0764     7.0380  1200.9565
  989.0000    10.7957    76.8259     2.5640     0.0460     0.2568   -75.1315     7.6454     6.0772     7.0389  1200.7566
  989.5000    10.8553    76.8284     2.5640     0.0460     0.2552   -75.1278     7.6461     6.0776     7.0393  1200.5566
  990.0000    10.8556    77.0285     2.5640     0.0500     0.2536   -75.1241     7.6466     6.0782     7.0401  1200.3566
  990.5000    10.8559    77.6241     2.5640     0.0461     0.2464   -75.1204     7.6475     6.0787     7.0404  1200.1566
  991.0000    10.9355    78.0206     2.5640     0.0461     0.2432   -75.3147     7.6479     6.0792     7.0414  1199.9567
  991.5000    10.9952    78.2197     2.5660     0.0461     0.2416   -75.1129     7.6489     6.0799     6.9775  1199.7567
  992.0000    11.0548    78.2212     2.5680     0.0481     0.2408   -75.1092     7.5104     6.0805     6.9784  1219.4977
  992.5000    11.1737    78.2241     2.5681     0.0481     0.2417   -75.1055     7.5109     6.0811     6.9152  1199.3568
  993.0000    11.2530    78.2269     2.5621     0.0441     0.2457   -75.1018     9.8942     6.0815     6.9158  1199.1569
  993.5000    11.3522    78.2294     2.5541     0.0421     0.2490   -75.0980     8.5434     6.0822     6.9165  1198.9568
  994.0000    11.2339    78.2318     2.5502     0.0382     0.2546   -75.0943     8.1603     6.0828     6.9172  1198.7568
  994.5000    11.0957    78.2342     2.5442     0.0362     0.2611   -75.0906     6.1393     6.0833     6.8546  1198.5569
  995.0000    11.0763    78.0403     2.5422     0.0362     0.2685   -75.0869     7.2436     6.0838     6.8552  1198.3569
  995.5000    11.0371    78.2390     2.5482     0.0342     0.2628   -75.2812     6.9191     6.0844     6.7930  1198.1569
  996.0000    10.9187    78.4391     2.5522     0.0362     0.2556   -75.0794     7.3117     6.0847     6.7314  1197.9569
  996.5000    10.8991    78.6391     2.5542     0.0343     0.2560   -75.0757    12.8039     6.0852     6.7322  1197.7570
  997.0000    10.8994    78.6415     2.5522     0.0303     0.2573   -75.0720     7.1145     6.0860     6.6714  1197.5570
  997.5000    10.8997    78.8416     2.5482     0.0283     0.2597   -75.0683     7.1148     6.0865     6.6110  1197.3571
  998.0000    10.9000    78.8440     2.5462     0.0283     0.2529   -75.0646     7.1152     6.0313     6.5511  1197.1571
  998.5000    10.9200    78.8464     2.5443     0.0283     0.2473   -75.0609     7.1161     6.0320     6.5518  1216.8979
  999.0000    10.9796    78.4535     2.5443     0.0303     0.2425   -75.0571     7.2488     5.9776     6.5522  1196.7571
  999.5000    10.9405    78.0606     2.5502     0.0323     0.2389   -75.0534     7.5206     5.9780     6.6133  1196.5571
 1000.0000    10.9407    77.6677     2.5502     0.0324     0.2373   -75.2477     7.4527     5.8698     6.6748  1196.3572
 1000.5000    10.9229    77.1207     2.5503     0.0307     0.2309   -75.0717     7.0536     5.8253     6.8232  1196.1525
 1001.0000    10.9215    76.6878     2.5463     0.0285     0.2272   -75.0471     6.6148     5.8167     6.9255  1195.7972
 1001.5000    10.9416    76.8884     2.5364     0.0265     0.2220   -74.8478     6.9898     5.4051     6.9259  1195.5160
 1002.0000    10.9616    77.0890     2.5245     0.0226     0.2188   -75.0446     7.4543     5.2584     6.9261  1195.2347
 1002.5000    10.9817    77.2896     2.5205     0.0187     0.2216   -74.8453     8.4000     5.1157     6.9267  1194.9535
 1003.0000    10.9820    76.8973     2.5225     0.0187     0.2245   -74.8441     9.4656     5.0692     6.9270  1214.6154
 1003.5000    10.9823    76.9003     2.5265     0.0188     0.2341   -74.6448     8.7957     5.0231     6.9272  1194.3910
