~VERSION INFORMATION
 VERS.                2.0:   CWLS LOG ASCII STANDARD - VERSION 2.0
 WRAP.                 NO:   ONE LINE PER DEPTH STEP
~WELL INFORMATION
#MNEM.UNIT      DATA TYPE    INFORMATION
#----------   ------------   ------------------------------
 STRT.F           10.0000:   START DEPTH
 STOP.F         3234.0000:   STOP DEPTH
 STEP.F            0.5000:   STEP LENGTH
 NULL.          -999.2500:   NO VALUE
 COMP. LAWRENCE ALLISON & ASSOSCIATES:   COMPANY
 WELL. 		  38-X-10:   WELL
 FLD .             NPR #3:   FIELD
 LOC .      S10 T38N R78W:   LOCATION
 CNTY.            NATRONA:   COUNTY
 STAT.            WYOMING:   STATE
 CTRY. UNITED STATES OF AMERICA:   COUNTRY
 SRVC.      DRESSER ATLAS:   SERVICE COMPANY
 DATE.        02-AUG-1986:   LOGDATE
 API .       490251120600:   API NUMBER
~CURVE INFORMATION
#MNEM.UNIT       API CODE    CURVE DESCRIPTION
#----------   ------------   ------------------------------
 DEPT.F                  :   
 GRR .GAPI   07 310 01 00:   GAMMA RAY FROM RESISTIVITY
 SPR .MV     07 010 01 00:   SPONTANEOUS POTENTIAL
 TENR.LBS    07 635 01 00:   TENSION FROM RESISTIVITY
 RILM.OHMM   07 120 44 00:   RESISTIVITY INDUCTION LOG MEDIUM
 CNC .DEC    42 890 03 00:   NEUTRON POROSITY SANDSTONE
 CALD.IN     45 280 60 00:   CALIPER FROM DENSITY LOG
 GRD .GAPI   45 310 01 00:   GAMMA RAY FROM DENSITY LOG
 RHOB.G/C3   45 350 01 00:   BULK DENSITY
 TEND.LBS    45 635 01 00:   TENSION FORM DENSITY LOG
 CORR.G/C3   45 356 01 00:   DENSITY CORRECTION
 RILD.OHMM   07 120 46 00:   RESISTIVITY INDUCTION LOG DEEP
 RFOC.OHMM   07 220 04 00:   RESISTIVITY FOCUSED
~PARAMETER INFORMATION
#MNEM.UNIT          VALUE    DESCRIPTION
#----------   ------------   ------------------------------
 EKB .F         5224.0000:   Kelly bushing
 EGL .F         5212.0000:   Ground level
 EDF .F            0.0000:   Drilling floor
 TD  .F         3231.0000:   Total depth
 CLNT.            A2DTECH:   Client Code
 SL  . 296' FSL & 1435' FWL:   Surface Location
 PD  .                 GL:   Permanent Datum
 EPD .F              5212:   Elevation Permanent Datum
 LMF .                 KB:   Log Measured From
 DMF .                 KB:   Drilling Measured From
 DAPD.F                12:   Feet Above Permanent Datum
 DATE.        02-AUG-1986:   Date Logged [DD-MMM-YYYY]
 DD  .F              3230:   Depth driller
 DL  .F              3231:   Depth logger
 BLI .F              3229:   Bottom log interval
 TLI .F                11:   Top log interval
 CS1 .IN            8.625:   Casing size
 CBD1.      8.625" @ 626':   Casing driller 1
 CBL1.F               626:   Casing logger 1
 BS1 .IN            7.875:   Bit size
 BSD1.F              3230:   Depth drilled with bit1
 DFT .            KCL-GEL:   Type fluid in hole
 DFD .                  9:   Density
 DFV .                 36:   Viscosity
 DFPH.               10.5:   pH
 DFL .                 12:   Fluid loss
 MSS .           FLOWLINE:   Source of sample
 RMS .OHMM          0.263:   Rm
 MST .F               100:   Rm Meas. temp.
 RMF .OHMM          0.197:   Rmf
 MFST.F               100:   Rmf Meas. temp.
 MFSS.               MEAS:   Source Rmf.
 RMC .OHMM          0.329:   Rmc
 MCST.F               100:   Rmc Meas. temp.
 MCSS.               CALC:   Source Rmc.
 RMB .OHMM          0.193:   Rm. at BHT
 BHT .F               136:   BHT.
 TCS .HRS               5:   Time Circ. stopped
 MRT .F               136:   Maximum recorded temp.
 LUN .            HL-6274:   Logging unit number
 LUL .           GILLETTE:   Logging unit location
 ENGI.            PANASUK:   Recorded By
 WITN.             STRONG:   Witnessed by
 ORIG.        2" 5" PRINT:   Origin of data
 UWI .       490251120600:   Unique Well ID
 DICO. A2D TECHNOLOGIES, INC.:   Digitizing Company
~OTHER INFORMATION
~A   DEPT       GRR       SPR       TENR       RILM        CNC       CALD        GRD       RHOB       TEND       CORR       RILD       RFOC   
# ...
 2922.0000    99.7329   -36.1098   -66.3412     9.9435     0.2070     9.6931   101.3616     2.5686   -57.5301     0.0120    10.2451    10.6843
 2922.5000   102.7574   -36.2657   -66.0676     9.8044     0.2078     9.6929   103.1770     2.5723   -50.0753     0.0104    10.1026    10.7596
 2923.0000   103.3576   -36.2701   -58.2957     9.7350     0.2026     9.6926   100.5817     2.5768   -50.1506    -0.0001    10.0317    11.3766
 2923.5000    97.5928   -36.2744   -58.0768     9.6662     0.1805     9.6923    94.4024     2.5836   -50.2307     0.0045     9.7552    12.0290
 2924.0000    90.9203   -36.4303   -57.8550     9.3995     0.1671     9.6920    89.8638     2.5852   -50.3012     0.0106     9.2891    12.3706
 2924.5000    89.7023   -37.1933   -57.5843     9.1401     0.1641     9.6916    91.0741     2.5776   -50.3765     0.0030     8.8466    12.7199
 2925.0000    91.2116   -37.3492   -57.3653     8.7650     0.1674     9.6914    95.0581     2.5647   -50.4518    -0.0106     8.7235    11.9482
 2925.5000    94.2361   -37.5051   -57.1464     8.5827     0.1744     9.7063    99.5461     2.5609   -50.5355    -0.0257     8.5424    10.1104
 2926.0000    98.1697   -37.5095   -56.9274     8.5813     0.1971     9.7059   101.6641     2.5655   -50.6072     0.0046     8.4825     8.1482
 2926.5000   100.9353   -37.5138   -49.2104     8.4615     0.1998     9.7138   100.1513     2.5708   -50.6789     0.0258     8.3644     8.7364
 2927.0000   101.4914   -37.3667   -56.4955     8.4017     0.1965     9.7204    97.4281     2.5723   -46.4821     0.0137     8.3639    10.0423
 2927.5000    97.2416   -37.2206   -56.2689     8.5183     0.1916     9.7201    95.3101     2.5609   -43.2922    -0.0029     8.5401    10.8422
 2928.0000    94.2055   -37.2250   -55.9970     8.7577     0.1913     9.7349    96.2178     2.5541   -28.3216    -0.0120     8.7200    10.1139
 2928.5000    95.1088   -36.9252   -55.7782     9.1300     0.2010     9.7302    98.3359     2.5511   -28.3886    -0.0135     9.0286     9.7007
 2929.0000    96.9211   -36.6276   -55.5592     9.3863     0.2025     9.7192    99.5461     2.5511   -20.9337    -0.0059     9.2833    10.1860
 2929.5000    98.4305   -36.1775   -55.3403     9.5169     0.1964     9.7189    95.5171     2.5551   -21.0090     0.0032     9.5452    10.8453
 2930.0000    92.9686   -35.8788   -47.5685     9.5821     0.1804     9.7186    93.4989     2.5609   -21.0843     0.0107     9.7464    11.9564
 2930.5000    93.2673   -35.5213   -39.7967     9.5141     0.1810     9.7183    94.2359     2.5647   -21.1680     0.0138     9.8139    12.4672
 2931.0000    95.3812   -35.5856   -32.0241     9.5128     0.1922     9.7180    99.5298     2.5662   -21.2349     0.0108     9.7449    12.2105
 2931.5000    99.6178   -35.5899   -24.2447     9.3800     0.2070     9.7177   104.6662     2.5632   -21.3114     0.0002     9.6765    11.9590
 2932.0000   105.0665   -35.5943   -23.9795     9.2488     0.2188     9.7173   107.9872     2.5555   -21.3856    -0.0119     9.6086    11.3909
 2932.5000   108.7173   -35.7502   -38.9211     9.2475     0.2200     9.7226   107.9800     2.5541   -36.5330    -0.0154     9.4749    10.9256
 2933.0000   109.2973   -35.7545   -61.3060     9.3112     0.2200     9.7319   106.7624     2.5602   -51.6650     0.0069     9.4743    10.8505
 2933.5000   107.7749   -35.7591   -61.0870     9.3096     0.2224     9.7316   105.5120     2.5647   -66.7969     0.0139     9.4079    11.0803
 2934.0000   105.3448   -35.7644   -60.8681     9.3734     0.2218     9.7313   104.3254     2.5587   -66.8687     0.0048     9.4730    11.0812
 2934.5000   103.8253   -35.7687   -53.0963     9.4403     0.2148     9.7310   105.5285     2.5579   -50.8775     0.0033     9.6725    11.0050
 2935.0000   106.8483   -35.9246   -30.2115     9.6355     0.2115     9.7155   107.9418     2.5662   -29.3794     0.0064     9.8763    10.9294
 2935.5000   109.2753   -35.9290   -29.9451     9.9059     0.2112     9.7153   108.8440     2.5700   -29.4511     0.0079    10.0144    11.1671
 2936.0000   110.1700   -35.9333   -29.7262    10.1137     0.2057     9.7150   104.2963     2.5700   -44.5831     0.0124    10.2968    11.6379
 2936.5000   106.8294   -36.0894   -37.1148    10.3257     0.1999     9.7223   101.5302     2.5708   -48.1677     0.0246    10.5882    11.8018
 2937.0000   101.6720   -36.0947   -29.3051    10.5422     0.1951     9.7446    98.8337     2.5715   -52.2590     0.0306    10.8860    12.5658
 2937.5000    99.8480   -36.0990   -29.0694    10.8385     0.1884     9.7594    97.9187     2.5677   -44.7982     0.0185    11.2712    13.2864
 2938.0000    98.9331   -36.1034   -28.8505    11.1555     0.1802     9.7743    97.3063     2.5693   -29.8097     0.0125    11.5892    13.7577
 2938.5000    98.3212   -35.9561   -28.6254    11.6976     0.1719     9.7892    96.6938     2.5791   -14.8212     0.0089    11.8336    13.0135
 2939.0000    96.4526   -36.0364   -28.3580    11.5343     0.1708     9.7939    93.3583     2.5935    -7.3795     0.0050    11.9990    13.5169
 2939.5000    92.2475   -36.8752   -35.7466    10.9080     0.1696     9.8187    90.0129     2.6162   -22.5151    -0.0011    11.1899    15.1696
 2940.0000    87.9992   -37.4856   -43.0806     9.7569     0.1684     9.8184    87.8971     2.6215   -45.1927    -0.0177     9.6887    16.7237
 2940.5000    87.0858   -37.7930   -57.9126     8.1404     0.1717     9.8181    89.4012     2.5829   -45.2644    -0.0222     8.1184    16.1526
 2941.0000    92.5330   -38.1004   -57.6937     7.0580     0.1901     9.8330    97.5634     2.5534   -45.3361    -0.0041     7.1107    12.8381
 2941.5000   105.5575   -37.9530   -57.4748     5.9908     0.2192     9.8402   106.3307     2.5473   -45.4066     0.0141     6.4490     9.3207
 2942.0000   123.6717   -37.6545   -64.8087     5.4337     0.2635     9.8626   133.2523     2.5458   -45.4819     0.0172     5.9725     7.0738
 2942.5000   137.0595   -37.6600   -64.5351     5.1387     0.2771     9.8775   138.9939     2.5413   -38.0391     0.0005     5.4927     6.4458
 2943.0000   142.8113   -37.6640   -64.3161     5.0669     0.2841     9.8923   143.0600     2.5285   -38.1108    -0.0040     5.1549     6.2257
 2943.5000   148.2600   -37.3642   -56.5444     4.9962     0.2841     9.9222   150.1727     2.4958   -38.1825     0.0060     4.9812     5.8888
 2944.0000   154.9208   -37.0667   -56.3254     4.9609     0.2825     9.9444   153.7981     2.4928   -45.7843     0.0308     4.9808     5.3796
 2944.5000   151.8847   -36.7680   -56.1065     5.0647     0.2649     9.9670   145.6195     2.5079   -46.8635     0.0248     5.0504     5.8487
 2945.0000   141.0699   -36.4693   -48.3347     5.2071     0.2549     9.9819   135.0222     2.5291   -61.0059     0.0157     5.1211     6.7827
 2945.5000   124.9019   -36.3222   -55.6687     5.3534     0.2471     9.9967   124.4249     2.5436   -61.0776     0.0112     5.2655     7.8363
 2946.0000   114.5930   -36.3276   -55.3950     5.5423     0.2473     9.9906   116.1692     2.5503   -53.6013     0.0248     5.4560     8.4606
 2946.5000   116.1024   -36.3320   -55.1761     5.7378     0.2523     9.9809   115.3332     2.5413   -53.6909     0.0128     5.7642     8.8835
 2947.0000   121.5511   -36.4879   -54.9571     5.8990     0.2597     9.9806   121.0730     2.5322   -53.7651    -0.0024     5.8857     8.1722
 2947.5000   124.2725   -36.4924   -62.3459     5.9395     0.2540     9.9803   124.3940     2.5314   -61.3824    -0.0341     5.9265     7.7300
 2948.0000   126.1089   -36.4977   -62.0722     5.8973     0.2525     9.9649   127.4125     2.5413   -68.9843    -0.0235     5.8848     7.1580
 2948.5000   129.4109   -36.5021   -69.4108     5.8965     0.2561     9.9646   129.8258     2.5504   -76.5861    -0.0034     5.8844     6.8682
 2949.0000   131.5263   -36.5064   -77.1347     5.9371     0.2585     9.9643   131.6388     2.5534   -76.6578     0.0159     5.8840     7.0137
 2949.5000   132.7326   -36.5108   -91.6269     5.9776     0.2591     9.9640   132.8369     2.5450   -84.2620     0.0189     5.9662     7.2626
