~VERSION INFORMATION
 VERS.                2.0:   CWLS LOG ASCII STANDARD - VERSION 2.0
 WRAP.                 NO:   ONE LINE PER DEPTH STEP
~WELL INFORMATION
#MNEM.UNIT      DATA TYPE    INFORMATION
#----------   ------------   ------------------------------
 STRT.F         2290.0000:   START DEPTH
 STOP.F         2806.5000:   STOP DEPTH
 STEP.F            0.5000:   STEP LENGTH
 NULL.          -999.2500:   NO VALUE
 COMP.  FENIX AND SCISSON:   COMPANY
 WELL. FENIX & SCISSON INC "A" #405-20:   WELL
 FLD .                NPR:   FIELD
 LOC .      S20 T39N R78W:   LOCATION
 CNTY.            NATRONA:   COUNTY
 STAT.            WYOMING:   STATE
 CTRY. UNITED STATES OF AMERICA:   COUNTRY
 SRVC.         McCULLOUGH:   SERVICE COMPANY
 DATE.        23-NOV-1977:   LOGDATE
 API .     49025104440000:   API NUMBER
~CURVE INFORMATION
#MNEM.UNIT       API CODE    CURVE DESCRIPTION
#----------   ------------   ------------------------------
 DEPT.F                  :   
 GRN .GAPI   35 310 01 00:   GAMMA RAY
 NEUT.NAPI   35 330 01 00:   NEUTRON
~PARAMETER INFORMATION
#MNEM.UNIT          VALUE    DESCRIPTION
#----------   ------------   ------------------------------
 EDF .F         4974.0000:   Drilling floor
 TD  .F         2807.0000:   Total depth
 DATE.        23-NOV-1977:   Date logged
 CLNT.            A2DTECH:   Client Code
 CTRY.                USA:   Country
 PD  .                 DF:   Permanent Datum
 EPD .F              4974:   Elevation Permanent Datum
 LMF .                 GL:   Log Measured From
 DMF .                 GL:   Drilling Measured From
 DD  .F              2800:   Depth driller
 DL  .F              2807:   Depth logger
 BLI .F              2806:   Bottom log interval
 TLI .F              2300:   Top log interval
 CS1 .IN                7:   Casing size
 CBD1.         7" @ 2624':   Casing driller 1
 CBL1.F              2624:   Casing logger 1
 BSD1.F              2800:   Depth drilled with bit1
 DFT .        WATER & OIL:   Type fluid in hole
 ENGI.             CONLEY:   Recorded By
 WITN.          WOLVERTON:   Witnessed by
 ORIG.           5" PRINT:   Origin of data
 UWI .     49025104440000:   Unique Well ID
 DICO. A2D TECHNOLOGIES, INC.:   Digitizing Company
~OTHER INFORMATION
~A  DEPT        GRN      NEUT   
 2290.0000    70.6880  -999.2500
 2290.5000    68.3960  -999.2500
 2291.0000    69.7710  -999.2500
 2291.5000    68.8540  -999.2500
 2292.0000    68.2780  -999.2500
 2292.5000    68.3510  -999.2500
 2293.0000    68.5770  -999.2500
 2293.5000    68.7950  -999.2500
 2294.0000    68.6450  -999.2500
 2294.5000    68.4090  -999.2500
 2295.0000    65.1140  -999.2500
 2295.5000    61.3270  -999.2500
 2296.0000    59.8190  -999.2500
 2296.5000    60.8000  -999.2500
 2297.0000    62.2270  -999.2500
 2297.5000    63.1370   446.7760
 2298.0000    63.2130   453.1110
 2298.5000    62.5930   459.4450
 2299.0000    62.7540   463.6080
 2299.5000    64.0910   470.8230
 2300.0000    67.9960   462.9620
 2300.5000    68.8810   457.0430
 2301.0000    69.5580   455.4770
 2301.5000    71.5060   459.3300
 2302.0000    72.0130   463.2470
 2302.5000    72.0460   467.8110
 2303.0000    69.3660   474.8960
 2303.5000    68.2170   482.0690
 2304.0000    65.2940   488.2770
 2304.5000    67.9410   492.9910
 2305.0000    71.2620   495.1080
 2305.5000    70.8070   495.7540
 2306.0000    69.4830   494.6310
 2306.5000    68.3970   487.3600
 2307.0000    67.5490   480.3540
 2307.5000    67.6030   462.8590
 2308.0000    68.4510   441.3530
 2308.5000    68.5970   427.1510
 2309.0000    68.2250   429.9160
 2309.5000    67.8720   432.3310
 2310.0000    67.9140   434.6980
 2310.5000    69.5870   437.0710
 2311.0000    69.4790   439.4430
 2311.5000    68.0020   441.8170
 2312.0000    64.6800   440.6850
 2312.5000    62.7590   434.6650
 2313.0000    63.2330   424.4950
 2313.5000    64.9150   398.2190
 2314.0000    68.2100   378.8330
 2314.5000    67.5680   392.6240
 2315.0000    68.2360   410.4240
 2315.5000    67.4750   431.2000
 2316.0000    65.9550   463.9170
 2316.5000    65.6830   476.2950
 2317.0000    65.5050   481.8330
 2317.5000    65.5620   487.4490
 2318.0000    65.8580   492.5430
 2318.5000    58.5180   483.9590
 2319.0000    58.2950   465.3300
 2319.5000    59.7930   463.5170
 2320.0000    59.8660   457.3870
 2320.5000    59.8660   449.5460
 2321.0000    59.9920   442.4470
 2321.5000    60.9620   399.0650
 2322.0000    62.8740   397.1370
 2322.5000    65.1840   395.5630
 2323.0000    65.0990   394.1100
 2323.5000    65.6900   383.9310
 2324.0000    65.9610   361.4150
 2324.5000    66.5020   348.4680
 2325.0000    66.3480   327.4290
 2325.5000    66.4870   313.1220
 2326.0000    66.4080   309.0300
 2326.5000    64.1890   309.8420
 2327.0000    60.5610   324.5830
 2327.5000    58.6180   334.3170
 2328.0000    58.5820   342.6700
 2328.5000    57.7050   351.0610
 2329.0000    57.6500   357.8290
 2329.5000    58.9840   360.6160
 2330.0000    58.6340   363.4530
 2330.5000    59.8530   364.0330
 2331.0000    61.5300   364.5100
 2331.5000    63.4690   364.9820
 2332.0000    67.8060   366.8470
 2332.5000    67.4160   371.0700
 2333.0000    68.6700   373.9400
 2333.5000    67.6110   374.8400
 2334.0000    66.2970   378.8290
 2334.5000    64.0220   384.4420
 2335.0000    63.3460   390.1880
 2335.5000    62.4180   393.5850
 2336.0000    61.0630   396.3120
 2336.5000    61.8070   399.0090
 2337.0000    62.5550   401.7830
 2337.5000    62.4310   406.3460
 2338.0000    62.0590   416.2130
 2338.5000    59.6500   420.0930
 2339.0000    56.8240   419.1380
 2339.5000    56.1640   412.3680
 2340.0000    56.0310   405.6840
 2340.5000    57.4260   402.3280
 2341.0000    61.2020   401.6540
 2341.5000    65.4090   395.9720
 2342.0000    69.1710   394.0260
 2342.5000    68.1880   392.0950
 2343.0000    68.1580   390.1760
 2343.5000    70.7980   387.7490
 2344.0000    71.7830   381.5170
 2344.5000    71.4310   379.7580
 2345.0000    71.2400   383.8770
 2345.5000    74.0600   387.8740
 2346.0000    70.6070   391.3600
 2346.5000    69.4630   381.0830
 2347.0000    69.1860   378.0640
 2347.5000    68.1090   379.8130
 2348.0000    66.2620   381.6520
 2348.5000    66.3090   379.4170
 2349.0000    66.3170   372.8950
 2349.5000    66.3200   364.6250
 2350.0000    66.7180   366.3480
 2350.5000    67.4590   369.5210
 2351.0000    64.5850   367.7140
 2351.5000    60.8010   364.3640
 2352.0000    60.8990   360.9210
 2352.5000    60.2960   361.6430
 2353.0000    60.5430   363.2930
 2353.5000    63.2110   364.9850
 2354.0000    65.4640   366.6550
 2354.5000    63.7500   365.6740
 2355.0000    62.8230   364.2780
 2355.5000    64.2230   362.9990
 2356.0000    65.5560   362.5850
 2356.5000    63.2290   365.2610
 2357.0000    60.7480   369.9080
 2357.5000    58.7250   374.7570
 2358.0000    57.8590   380.6170
 2358.5000    56.9890   389.0180
 2359.0000    55.8030   390.3880
 2359.5000    53.2270   392.0180
 2360.0000    50.3130   396.7840
 2360.5000    45.2560   401.7300
 2361.0000    42.9770   411.1840
 2361.5000    40.7740   430.7920
 2362.0000    40.7180   447.4410
 2362.5000    41.7320   457.8530
 2363.0000    42.6640   462.9930
 2363.5000    40.7360   462.6350
 2364.0000    38.5270   448.2780
 2364.5000    36.9660   431.7320
 2365.0000    36.0410   427.5190
 2365.5000    34.7300   423.2880
 2366.0000    33.4170   415.5150
 2366.5000    32.5440   395.9580
 2367.0000    32.1880   393.0580
 2367.5000    32.8840   380.1800
 2368.0000    32.2600   367.1570
 2368.5000    28.5880   361.4400
 2369.0000    27.1150   347.7440
 2369.5000    22.0140   334.0860
 2370.0000    21.4850   316.0590
 2370.5000    22.6210   297.5110
 2371.0000    23.7900   300.7080
 2371.5000    25.6830   304.9210
 2372.0000    26.1010   310.2310
 2372.5000    27.5340   318.6850
 2373.0000    33.2910   325.1120
 2373.5000    34.0600   328.4980
 2374.0000    34.0950   331.9350
 2374.5000    34.1720   335.3370
 2375.0000    34.2300   342.1850
 2375.5000    34.2360   352.6410
 2376.0000    34.3690   362.9680
 2376.5000    34.8190   372.6800
 2377.0000    34.0740   375.5390
 2377.5000    33.4270   378.5550
 2378.0000    34.8460   382.4020
 2378.5000    39.8200   398.5840
 2379.0000    36.4850   406.1760
 2379.5000    37.1940   410.7220
 2380.0000    37.8990   415.2500
 2380.5000    38.6960   419.1000
 2381.0000    39.4980   421.7780
 2381.5000    39.3630   430.7310
 2382.0000    37.4200   440.3240
 2382.5000    39.0020   449.6110
 2383.0000    41.6400   451.1490
 2383.5000    42.7290   450.7250
 2384.0000    41.6540   449.4220
 2384.5000    42.9450   448.6070
 2385.0000    44.0860   455.0490
 2385.5000    44.2370   461.3760
 2386.0000    44.9170   468.4590
 2386.5000    46.6350   489.2100
 2387.0000    47.0270   502.8810
 2387.5000    45.6080   513.5970
 2388.0000    42.8540   519.6470
 2388.5000    43.4380   526.0420
 2389.0000    44.4890   525.7640
 2389.5000    45.0580   522.4430
 2390.0000    45.4040   512.3270
 2390.5000    45.0520   502.5280
 2391.0000    43.9310   485.2560
 2391.5000    42.4780   467.0270
 2392.0000    40.4140   464.0620
 2392.5000    40.4750   460.8520
 2393.0000    39.1610   450.2270
 2393.5000    38.5540   438.4560
 2394.0000    39.2990   438.0780
 2394.5000    36.3940   428.6480
 2395.0000    34.5390   429.7480
 2395.5000    36.4370   417.8290
 2396.0000    37.7180   416.1450
 2396.5000    37.2630   418.4340
 2397.0000    37.9460   424.0480
 2397.5000    37.5730   429.4760
 2398.0000    38.4290   434.8920
 2398.5000    39.2390   440.3030
 2399.0000    39.1750   447.7770
 2399.5000    38.1250   457.8410
 2400.0000    38.8610   467.8730
 2400.5000    40.0420   476.2260
 2401.0000    39.9610   480.8430
 2401.5000    40.0040   485.4550
 2402.0000    39.5600   490.0660
 2402.5000    39.1980   494.6750
 2403.0000    39.1050   499.2890
 2403.5000    39.0850   503.9090
 2404.0000    40.3560   504.6660
 2404.5000    43.0040   504.3670
 2405.0000    42.8680   497.6640
 2405.5000    41.7800   490.0110
 2406.0000    41.1760   478.5550
 2406.5000    40.4360   481.3390
 2407.0000    38.9090   484.2120
 2407.5000    38.4560   487.1490
 2408.0000    39.5820   490.0620
 2408.5000    41.0000   492.9620
 2409.0000    41.6360   495.7480
 2409.5000    44.3580   500.9250
 2410.0000    44.2490   506.3040
 2410.5000    44.9500   511.1680
 2411.0000    44.2340   510.1470
