~VERSION INFORMATION
 VERS.                2.0:   CWLS LOG ASCII STANDARD - VERSION 2.0
 WRAP.                 NO:   ONE LINE PER DEPTH STEP
~WELL INFORMATION
#MNEM.UNIT      DATA TYPE    INFORMATION
#----------   ------------   ------------------------------
 STRT.F          397.0000:   START DEPTH
 STOP.F         5516.0000:   STOP DEPTH
 STEP.F            0.5000:   STEP LENGTH
 NULL.          -999.2500:   NO VALUE
 COMP.  FENIX AND SCISSON:   COMPANY
 WELL.   FENIX TPX #54-10:   WELL
 FLD . NAVAL PETROLEUM RESERVE=3:   FIELD
 LOC .      S10 T38N R78W:   LOCATION
 CNTY.            NATRONA:   COUNTY
 STAT.            WYOMING:   STATE
 CTRY. UNITED STATES OF AMERICA:   COUNTRY
 SRVC.       SCHLUMBERGER:   SERVICE COMPANY
 DATE.        03-APR-1981:   LOGDATE
 API .     49025108690000:   API NUMBER
~CURVE INFORMATION
#MNEM.UNIT       API CODE    CURVE DESCRIPTION
#----------   ------------   ------------------------------
 DEPT.F                  :   
 SPR .MV     11 010 01 00:   SPONTANEOUS POTENTIAL FROM RES.
 TENR.LBS    11 635 01 00:   TENSION FROM RES.
 LLD .OHMM   11 220 10 00:   LATEROLOG DEEP
 LLS .OHMM   11 220 09 00:   LATEROLOG LOG SHALLOW
 TEND.LBS    45 635 01 00:   TENSION FORM DENSITY LOG
 GRD .GAPI   45 310 01 00:   GAMMA RAY FROM DENSITY LOG
 NPHI.DEC    42 890 03 00:   NEUTRON POROSITY SANDSTONE
 CALD.IN     45 280 60 00:   CALIPER FROM DENSITY LOG
 CORR.G/C3   45 356 01 00:   DENSITY CORRECTION
 RHOB.G/C3   45 350 01 00:   BULK DENSITY
~PARAMETER INFORMATION
#MNEM.UNIT          VALUE    DESCRIPTION
#----------   ------------   ------------------------------
 EKB .F         5206.0000:   Kelly bushing
 EGL .F         5196.0000:   Ground level
 EDF .F            0.0000:   Drilling floor
 TD  .F         5498.0000:   Total depth
 CLNT.            A2DTECH:   Client Code
 SL  . 2080' FNL & 2150' FEL:   Surface Location
 PD  .                 GL:   Permanent Datum
 EPD .F              5196:   Elevation Permanent Datum
 LMF .                 KB:   Log Measured From
 DMF .                 KB:   Drilling Measured From
 DAPD.F                10:   Feet Above Permanent Datum
 DATE.         3-APR-1981:   Date Logged [DD-MMM-YYYY]
 DD  .F              5485:   Depth driller
 DL  .F              5498:   Depth logger
 BLI .F              5496:   Bottom log interval
 TLI .F               397:   Top log interval
 CS1 .IN                7:   Casing size
 CBD1.         7" @ 3891':   Casing driller 1
 CBL1.F              3889:   Casing logger 1
 BS1 .IN            6.125:   Bit size
 BSD1.F              5485:   Depth drilled with bit1
 DFT .           CHEM GEL:   Type fluid in hole
 DFD .                9.1:   Density
 DFV .                 42:   Viscosity
 DFPH.                9.0:   pH
 DFL .                5.0:   Fluid loss
 MSS .           MUD TANK:   Source of sample
 RMS .OHMM           0.81:   Rm
 MST .F                62:   Rm Meas. temp.
 RMF .OHMM           0.64:   Rmf
 MFST.F                62:   Rmf Meas. temp.
 MFSS.               MEAS:   Source Rmf.
 RMB .OHMM          0.031:   Rm. at BHT
 BHT .F               174:   BHT.
 TCS .HRS            0830:   Time Circ. stopped
 TLAB.HRS            2130:   Time logger at bottom
 MRT .F               174:   Maximum recorded temp.
 LUN .               8035:   Logging unit number
 LUL .               CSPR:   Logging unit location
 ENGI.             BEATIE:   Recorded By
 WITN.              FIVAS:   Witnessed by
 ORIG.           5" PRINT:   Origin of data
 UWI .     49025108690000:   Unique Well ID
 DICO. A2D TECHNOLOGIES, INC:   Digitizing Company
~OTHER INFORMATION
~A   DEPT      SPR       TENR        LLD        LLS       TEND         GRD        NPHI     CALD       CORR       RHOB   
# ...
 4517.5000   -32.9711  1508.7803    31.6306    34.4012  1605.8560   104.0180     0.1578     7.3933     0.0274     2.6746
 4518.0000   -33.1790  1507.0654    27.1004    29.6874  1605.2352   103.9151     0.1629     7.3934     0.0360     2.6874
 4518.5000   -33.4184  1505.3506    25.0831    26.3489  1604.6146    96.4522     0.1497     7.4085     0.0345     2.6716
 4519.0000   -33.7169  1503.6356    24.9043    25.0878  1603.9213    91.6126     0.1297     7.4087     0.0307     2.6565
 4519.5000   -34.0166  1501.9208    26.8992    25.2680  1589.7727    87.6794     0.1117     7.4088     0.0307     2.6512
 4520.0000   -34.1641  1500.2058    31.1677    28.8811  1590.9092    80.4229     0.0981     7.4090     0.0344     2.6595
 4520.5000   -34.1596  1498.4910    36.3681    33.2426  1592.0452    73.3415     0.0870     7.4091     0.0381     2.6714
 4521.0000   -34.1169  1496.9167    43.6446    39.9099  1593.1818    68.9296     0.0779     7.4093     0.0321     2.6729
 4521.5000   -33.9982  1498.1292    49.6263    48.2524  1594.4315    65.9027     0.0713     7.4094     0.0231     2.6571
 4522.0000   -33.8419  1499.2496    57.3723    56.3893  1595.5098    64.9906     0.0674     7.4167     0.0133     2.6346
 4522.5000   -33.6854  1500.3702    60.2560    61.2896  1611.7429    65.2870     0.0659     7.4097     0.0080     2.6203
 4523.0000   -33.5282  1501.4907    60.2460    63.0448  1628.2395    66.4882     0.0696     7.4057     0.0083     2.6180
 4523.5000   -33.4793  1502.6112    57.3493    62.1714  1629.3179    68.5973     0.0729     7.3951     0.0192     2.6255
 4524.0000   -33.3059  1503.7317    54.1756    58.7833  1630.3961    74.3317     0.0790     7.3952     0.0214     2.6314
 4524.5000   -33.0571  1504.8522    48.1037    51.0715  1631.4745    85.2021     0.0858     7.4103     0.0237     2.6374
 4525.0000   -32.9019  1505.9727    38.1514    42.1184  1632.5759    97.8852     0.1050     7.4104     0.0289     2.6389
 4525.5000   -32.7456  1507.0933    30.0465    30.8135  1633.7120   113.2859     0.1264     7.4106     0.0382     2.6419
 4526.0000   -32.5897  1508.2137    24.1671    22.6230  1634.8480   131.7091     0.1557     7.4107     0.0409     2.6583
 4526.5000   -32.4330  1509.3342    21.5632    19.1153  1636.0579   138.0478     0.1944     7.4109     0.0273     2.6508
 4527.0000   -32.4286  1510.4547    20.5575    17.5728  1637.1211   136.5315     0.2041     7.4111     0.0206     2.6448
 4527.5000   -32.4233  1511.5752    20.1264    17.6984  1638.2577   126.5262     0.1984     7.4261     0.0205     2.6485
 4528.0000   -32.4620  1512.6957    19.4296    17.0904  1639.3937   123.5276     0.1996     7.4412     0.0377     2.6780
 4528.5000   -32.6063  1513.8163    17.9833    15.8215  1640.6412   131.3769     0.2301     7.4413     0.0685     2.6965
 4529.0000   -32.8663  1514.9368    17.1034    15.0604  1641.8092   137.1113     0.2398     7.4415     0.0535     2.6717
 4529.5000   -33.1648  1516.0573    16.8778    14.8561  1642.8030   135.8971     0.2103     7.4416     0.0287     2.6559
 4530.0000   -33.4644  1517.1777    20.3967    18.8675  1643.9658   118.8044     0.1638     7.4418     0.0197     2.6468
 4530.5000   -33.4598  1518.2982    25.7106    27.0009  1645.2246    92.6817     0.1264     7.4419     0.0148     2.6493
 4531.0000   -33.6520  1519.4188    33.0986    34.2905  1646.3029    88.1443     0.1116     7.4421     0.0211     2.6603
 4531.5000   -33.7619  1520.5393    37.1031    37.6032  1647.3485    86.9315     0.1065     7.4423     0.0241     2.6633
 4532.0000   -33.9027  1521.6598    38.8880    38.3815  1648.4851    89.0391     0.1035     7.4573     0.0203     2.6557
 4532.5000   -33.8977  1522.7803    39.4326    37.5860  1649.6211    89.6376     0.1020     7.4575     0.0166     2.6414
 4533.0000   -33.8933  1523.9008    38.3343    35.5365  1650.8864    87.5156     0.1017     7.4576     0.0139     2.6300
 4533.5000   -33.8891  1525.0212    35.2325    33.1300  1651.8939    84.4887     0.0999     7.4727     0.0120     2.6234
 4534.0000   -33.8845  1526.1418    33.3038    31.7678  1653.0430    80.2534     0.0949     7.4729     0.0112     2.6196
 4534.5000   -33.7273  1527.2623    33.2984    31.7721  1638.9697    77.2265     0.0913     7.4730     0.0112     2.6173
 4535.0000   -33.7230  1528.3828    33.2939    31.7763  1624.8966    75.3681     0.0886     7.4731     0.0112     2.6188
 4535.5000   -33.5034  1529.5033    33.7613    31.7806  1626.2450    72.9839     0.0877     7.4733     0.0179     2.6281
 4536.0000   -33.4103  1530.6238    33.9935    31.8996  1627.2727    71.1655     0.0874     7.4735     0.0229     2.6390
 4536.5000   -33.4058  1531.7444    33.7500    31.7901  1628.4016    69.6492     0.0871     7.4736     0.0254     2.6359
 4537.0000   -33.2487  1532.8649    33.7455    31.7943  1614.3284    67.8308     0.0865     7.4737     0.0261     2.6344
 4537.5000   -33.0924  1533.9854    33.7410    31.7986  1615.5303    66.3130     0.0854     7.4739     0.0268     2.6351
 4538.0000   -32.9361  1535.1058    33.5005    31.8028  1616.7551    66.9115     0.0838     7.4740     0.0283     2.6374
 4538.5000   -32.9316  1536.2263    33.7320    32.7466  1617.8334    69.3227     0.0745     7.4814     0.0316     2.6448
 4539.0000   -33.0794  1537.3468    35.4251    34.6106  1618.9395    69.9211     0.0697     7.5042     0.0395     2.6546
 4539.5000   -33.2705  1538.4674    37.9963    37.6600  1620.2590    69.3112     0.0685     7.5044     0.0508     2.6733
 4540.0000   -33.3739  1539.5879    39.0731    39.2867  1621.3374    68.6998     0.0707     7.5045     0.0560     2.6958
 4540.5000   -33.3693  1540.7084    39.6216    40.6966  1615.7236    69.6004     0.0770     7.5196     0.0552     2.6854
 4541.0000   -33.5637  1541.8289    39.3367    40.9904  1608.3336    71.1052     0.0810     7.5347     0.0537     2.6672
 4541.5000   -33.6646  1542.9493    37.1833    40.7075  1609.6909    71.7051     0.0819     7.5348     0.0522     2.6627
 4542.0000   -33.6592  1543.8070    36.9182    40.4279  1610.7693    71.6979     0.0810     7.5550     0.0507     2.6611
 4542.5000   -33.5029  1544.5623    37.7002    40.4347  1611.8475    71.6907     0.0802     7.5649     0.0484     2.6551
 4543.0000   -33.4985  1545.3175    38.2282    41.0123  1612.9259    72.2892     0.0820     7.5800     0.0469     2.6436
 4543.5000   -33.4939  1546.0729    35.8561    37.7028  1629.1669    80.4406     0.0920     7.5802     0.0359     2.6378
 4544.0000   -33.4889  1546.8281    28.4570    31.4125  1630.5042   101.8850     0.1213     7.5952     0.0310     2.6392
 4544.5000   -33.4846  1547.5834    23.7063    25.0914  1631.5824   123.0558     0.1693     7.5954     0.0310     2.6655
 4545.0000   -33.6322  1548.3386    20.5982    21.0526  1647.8124   136.3131     0.1778     7.6254     0.0333     2.6865
 4545.5000   -33.6277  1549.0939    19.4707    18.8168  1648.8907   133.8905     0.2195     7.6255     0.0347     2.6857
 4546.0000   -33.6231  1549.8491    19.9116    21.5074  1650.0001   115.1536     0.1914     7.6257     0.0359     2.6677
 4546.5000   -33.6178  1550.6045    25.0615    24.2390  1651.3175   100.0421     0.1404     7.6258     0.0242     2.6519
 4547.0000   -33.7080  1551.3597    28.8353    27.1263  1637.1210    92.0958     0.1226     7.6260     0.0159     2.6496
 4547.5000   -33.7615  1552.1150    31.8089    30.3575  1638.3225    90.6637     0.1175     7.6261     0.0114     2.6495
 4548.0000   -33.9091  1552.8702    33.8790    33.3350  1624.2426    90.3558     0.1158     7.6412     0.0091     2.6510
 4548.5000   -33.9043  1553.6255    35.1130    35.6921  1640.5302    90.3500     0.1143     7.6563     0.0110     2.6495
 4549.0000   -33.8994  1554.3807    36.5878    37.2338  1641.8275    90.6465     0.1128     7.6714     0.0128     2.6472
 4549.5000   -33.8951  1555.1361    37.1002    38.4473  1642.8030    90.6405     0.1113     7.6864     0.0135     2.6457
 4550.0000   -33.8906  1555.8914    37.3578    39.3969  1628.6533    90.1407     0.1094     7.6866     0.0120     2.6472
 4550.5000   -33.8854  1556.6466    38.4153    39.9610  1629.9243    87.2935     0.1074     7.7017     0.0112     2.6538
