~VERSION INFORMATION
 VERS.                2.0:   CWLS LOG ASCII STANDARD - VERSION 2.0
 WRAP.                 NO:   ONE LINE PER DEPTH STEP
~WELL INFORMATION
#MNEM.UNIT      DATA TYPE    INFORMATION
#----------   ------------   ------------------------------
 STRT.F           44.0000:   START DEPTH
 STOP.F         6166.0000:   STOP DEPTH
 STEP.F            0.5000:   STEP LENGTH
 NULL.          -999.2500:   NO VALUE
 COMP.   TESORO PETROLEUM:   COMPANY
 WELL. TESORO 11X NPR #3-23:   WELL
 FLD .             TEAPOT:   FIELD
 LOC .      S23 T38N R78W:   LOCATION
 CNTY.            NATRONA:   COUNTY
 STAT.            WYOMING:   STATE
 CTRY. UNITED STATES OF AMERICA:   COUNTRY
 SRVC.       SCHLUMBERGER:   SERVICE COMPANY
 DATE.        29-OCT-1968:   LOGDATE
 API .     49025100170000:   API NUMBER
~CURVE INFORMATION
#MNEM.UNIT       API CODE    CURVE DESCRIPTION
#----------   ------------   ------------------------------
 DEPT.F                  :   
 SN  .OHMM   05 040 18 00:   SHORT NORMAL 18"
 RES .OHMM   05 000 00 00:   RESISTIVITY
 ILD .OHMM   05 120 46 00:   INDUCTION LOG DEEP RESISTIVITY
 SPR .MV     05 010 01 00:   SPONTANEOUS POTENTIAL FROM RES.
~PARAMETER INFORMATION
#MNEM.UNIT          VALUE    DESCRIPTION
#----------   ------------   ------------------------------
 EKB .F         5283.0000:   Kelly bushing
 EGL .F         5272.0000:   Ground level
 EDF .F            0.0000:   Drilling floor
 TD  .F         6171.0000:   Total depth
 CLNT.            A2DTECH:   Client Code
 SL  . 380' FNL & 380' FWL:   Surface Location
 PD  .                 GL:   Permanent Datum
 EPD .F              5272:   Elevation Permanent Datum
 LMF .                 KB:   Log Measured From
 DMF .                 KB:   Drilling Measured From
 DAPD.F                11:   Feet Above Permanent Datum
 DATE.        29-OCT-1968:   Date Logged [DD-MMM-YYYY]
 DD  .F              6171:   Depth driller
 DL  .F              6167:   Depth logger
 BLI .F              6166:   Bottom log interval
 TLI .F               975:   Top log interval
 CS1 .IN            10.75:   Casing size
 CBD1.      10.75" @ 975':   Casing driller 1
 CBL1.F               975:   Casing logger 1
 BS1 .IN            9.125:   Bit size
 BSD1.F              6171:   Depth drilled with bit1
 DFT .           GEL-CHEM:   Type fluid in hole
 DFD .                9.6:   Density
 DFV .                 61:   Viscosity
 DFPH.                 10:   pH
 DFL .                6.8:   Fluid loss
 MSS .           FLOWLINE:   Source of sample
 RMS .OHMM           0.89:   Rm
 MST .F                80:   Rm Meas. temp.
 RMF .OHMM           0.60:   Rmf
 MFST.F                80:   Rmf Meas. temp.
 MFSS.               MEAS:   Source Rmf.
 RMB .OHMM           0.45:   Rm. at BHT
 BHT .F               160:   BHT.
 TCS .HRS               4:   Time Circ. stopped
 MRT .F               160:   Maximum recorded temp.
 LUN .               7041:   Logging unit number
 LUL .               CSPR:   Logging unit location
 ENGI.            MANGOLD:   Recorded By
 WITN.                MAY:   Witnessed by
 ORIG.         2.5" PRINT:   Origin of data
 UWI .     49025100170000:   Unique Well ID
 DICO. A2D TECHNIOLOGIES,INC.:   Digitizing Company
~OTHER INFORMATION
~A  DEPTH       SN        RES        ILD        SPR
# ...
 5665.0000    21.8107  -999.2500    29.0274   -23.3739
 5665.5000    21.8129  -999.2500    28.8754   -23.3739
 5666.0000    21.6634  -999.2500    28.4195   -23.3739
 5666.5000    21.5140  -999.2500    27.7803   -23.3740
 5667.0000    21.5167  -999.2500    26.9637   -23.3740
 5667.5000    21.4646  -999.2500    25.9477   -23.3740
 5668.0000    21.3030  -999.2500    24.8755   -23.3740
 5668.5000    21.2205  -999.2500    23.9068   -23.3740
 5669.0000    21.2227  -999.2500    23.1003   -23.3740
 5669.5000    21.1689  -999.2500    22.3404   -23.3740
 5670.0000    20.9950  -999.2500    21.7325   -23.3740
 5670.5000    20.9265  -999.2500    21.1076   -23.3740
 5671.0000    20.6259  -999.2500    20.6138   -23.3740
 5671.5000    20.3180  -999.2500    20.0608   -23.3740
 5672.0000    19.6366  -999.2500    19.6272   -23.3740
 5672.5000    19.0113  -999.2500    19.3693   -23.3740
 5673.0000    18.4358  -999.2500    19.1489   -23.3740
 5673.5000    18.0617  -999.2500    18.8450   -23.3740
 5674.0000    18.0638  -999.2500    18.8450   -23.3740
 5674.5000    18.3696  -999.2500    18.8516   -23.3740
 5675.0000    18.6996  -999.2500    19.1489   -23.3740
 5675.5000    19.1311  -999.2500    19.5410   -23.3740
 5676.0000    19.4364  -999.2500    20.1237   -23.3740
 5676.5000    19.7420  -999.2500    20.5982   -23.3740
 5677.0000    19.7441  -999.2500    21.2766   -23.3740
 5677.5000    19.7462  -999.2500    21.5805   -23.3740
 5678.0000    19.7485  -999.2500    21.8845   -23.3740
 5678.5000    19.7508  -999.2500    21.8845   -23.3740
 5679.0000    19.5298  -999.2500    21.8845   -23.3740
 5679.5000    19.1496  -999.2500    21.8002   -23.3740
 5680.0000    18.5457  -999.2500    21.1549   -23.3740
 5680.5000    17.9417  -999.2500    20.0469   -23.3740
 5681.0000    17.2610  -999.2500    17.3252   -23.3740
 5681.5000    16.3433  -999.2500    15.5015   -23.3740
 5682.0000    15.6898  -999.2500    14.5897   -23.3740
 5682.5000    15.0724  -999.2500    13.9767   -23.3740
 5683.0000    14.6199  -999.2500    13.3739   -23.3740
 5683.5000    14.3190  -999.2500    13.0299   -23.3740
 5684.0000    14.3212  -999.2500    12.7073   -23.3740
 5684.5000    14.3235  -999.2500    12.4620   -23.3740
 5685.0000    14.3258  -999.2500    12.4620   -23.3740
 5685.5000    14.3285  -999.2500    12.4620   -23.3740
 5686.0000    14.6336  -999.2500    12.4620   -23.3740
 5686.5000    14.6357  -999.2500    12.7663   -23.3740
 5687.0000    14.6510  -999.2500    13.0699   -23.3740
 5687.5000    14.9432  -999.2500    13.3739   -23.3740
 5688.0000    14.9455  -999.2500    13.3739   -23.3740
 5688.5000    14.9482  -999.2500    13.4494   -23.3740
 5689.0000    14.9503  -999.2500    13.5258   -23.3741
 5689.5000    14.9524  -999.2500    13.3739   -23.3740
 5690.0000    14.9545  -999.2500    13.3739   -23.3740
 5690.5000    14.9219  -999.2500    13.3739   -23.3743
 5691.0000    14.6556  -999.2500    13.3739   -23.3738
 5691.5000    14.5741  -999.2500    13.2219   -23.3731
 5692.0000    14.5091  -999.2500    13.0699   -23.3530
 5692.5000    14.5115  -999.2500    13.0699   -23.3323
 5693.0000    14.6652  -999.2500    13.0699   -23.3109
 5693.5000    14.8507  -999.2500    13.0699   -23.2898
 5694.0000    15.0293  -999.2500    13.2219   -23.2686
 5694.5000    15.2780  -999.2500    13.3739   -23.2474
 5695.0000    15.5836  -999.2500    13.8449   -23.2263
 5695.5000    15.5857  -999.2500    14.3197   -23.2051
 5696.0000    15.8992  -999.2500    14.7482   -23.1840
 5696.5000    16.2250  -999.2500    15.3404   -23.1628
 5697.0000    16.5015  -999.2500    15.9574   -23.1417
 5697.5000    16.7336  -999.2500    16.4134   -23.1205
 5698.0000    16.9609  -999.2500    16.7173   -23.0994
 5698.5000    17.4176  -999.2500    17.0213   -23.0782
 5699.0000    17.5722  -999.2500    17.3252   -23.0571
 5699.5000    18.0280  -999.2500    17.4772   -23.0359
 5700.0000    18.2323  -999.2500    17.7816   -23.0148
 5700.5000    18.6386  -999.2500    18.0885   -22.9936
 5701.0000    18.9443  -999.2500    18.2434   -22.9725
 5701.5000    19.2494  -999.2500    18.3983   -22.9513
 5702.0000    19.2515  -999.2500    18.4012   -22.9302
 5702.5000    19.2538  -999.2500    18.4043   -22.9090
 5703.0000    19.2561  -999.2500    18.3730   -22.8879
 5703.5000    19.1861  -999.2500    18.2099   -22.8667
 5704.0000    18.6549  -999.2500    17.8947   -22.8456
 5704.5000    18.3540  -999.2500    17.4275   -22.8244
 5705.0000    17.9016  -999.2500    16.5963   -22.8033
 5705.5000    17.4096  -999.2500    15.6874   -22.7821
 5706.0000    16.8451  -999.2500    14.9304   -22.7610
 5706.5000    16.7093  -999.2500    14.6294   -22.7398
 5707.0000    16.5470  -999.2500    14.6323   -22.7187
 5707.5000    16.5495  -999.2500    14.6353   -22.6975
 5708.0000    16.5516  -999.2500    14.9665   -22.6763
 5708.5000    17.0250  -999.2500    15.3263   -22.6552
 5709.0000    17.4651  -999.2500    15.8133   -22.6337
 5709.5000    17.7192  -999.2500    16.4528   -22.6129
 5710.0000    18.1971  -999.2500    17.0920   -22.5918
 5710.5000    18.3493  -999.2500    17.6936   -22.5684
 5711.0000    18.6530  -999.2500    18.0004   -22.5738
 5711.5000    18.8194  -999.2500    17.8513   -22.6040
 5712.0000    18.9899  -999.2500    17.7023   -22.6320
 5712.5000    19.2614  -999.2500    17.7052   -22.6594
 5713.0000    19.2621  -999.2500    17.7082   -22.6877
 5713.5000    19.2629  -999.2500    17.7112   -22.7156
 5714.0000    19.2637  -999.2500    17.6717   -22.7435
 5714.5000    19.4160  -999.2500    17.5648   -22.7715
 5715.0000    19.5682  -999.2500    17.6392   -22.7994
 5715.5000    19.5689  -999.2500    17.7234   -22.8273
 5716.0000    19.8727  -999.2500    18.0309   -22.8552
 5716.5000    19.9180  -999.2500    18.1858   -22.8831
 5717.0000    20.2400  -999.2500    18.4926   -22.9110
 5717.5000    20.5620  -999.2500    18.7995   -22.9389
 5718.0000    21.0880  -999.2500    19.2624   -22.9668
 5718.5000    21.6948  -999.2500    19.6015   -22.9947
 5719.0000    22.6046  -999.2500    20.0566   -23.0226
 5719.5000    23.5219  -999.2500    20.3779   -23.0505
 5720.0000    24.7875  -999.2500    20.6990   -23.0784
 5720.5000    25.7519  -999.2500    21.4739   -23.1063
 5721.0000    27.1888  -999.2500    22.3167   -23.1343
 5721.5000    29.1169  -999.2500    22.9275   -23.1622
 5722.0000    32.0032  -999.2500    23.8423   -23.1900
 5722.5000    34.1251  -999.2500    25.0610   -23.2179
 5723.0000    36.8531  -999.2500    27.3435   -23.2458
 5723.5000    38.9750  -999.2500    32.6753   -23.2735
 5724.0000    41.8301  -999.2500    38.4531   -23.3016
 5724.5000    44.5158  -999.2500    42.5306   -23.3294
 5725.0000    49.6591  -999.2500    47.1125   -23.3563
 5725.5000    66.2818  -999.2500    60.9456   -23.4063
 5726.0000    81.4341  -999.2500    77.6659   -23.4882
 5726.5000    90.9493  -999.2500    91.3466   -23.5688
 5727.0000    95.4955  -999.2500    94.3891   -23.6498
 5727.5000    97.0114  -999.2500    94.3921   -23.7310
 5728.0000    98.5273  -999.2500    92.8751   -23.8119
 5728.5000    98.5280  -999.2500    90.8717   -23.8930
 5729.0000    98.5288  -999.2500    87.6944   -23.9740
 5729.5000    94.8718  -999.2500    84.5165   -24.0550
 5730.0000    88.5265  -999.2500    76.1708   -24.1360
 5730.5000    71.2585  -999.2500    65.5354   -24.2170
 5731.0000    51.6313  -999.2500    50.3407   -24.2979
 5731.5000    47.4720  -999.2500    48.9967   -24.3789
 5732.0000    45.6395  -999.2500    46.2437   -24.4600
 5732.5000    43.3735  -999.2500    42.9031   -24.5410
 5733.0000    41.1840  -999.2500    40.6264   -24.6220
 5733.5000    39.6734  -999.2500    36.9819   -24.7037
 5734.0000    38.6154  -999.2500    34.0929   -24.7834
 5734.5000    38.0826  -999.2500    33.6121   -24.8650
 5735.0000    37.6289  -999.2500    33.8302   -24.9519
 5735.5000    37.3266  -999.2500    35.2147   -25.0051
 5736.0000    36.8727  -999.2500    35.4772   -24.9995
 5736.5000    36.4048  -999.2500    35.5592   -25.0002
 5737.0000    35.9328  -999.2500    35.2441   -25.0011
 5737.5000    35.5619  -999.2500    34.8789   -25.0001
