~VERSION INFORMATION
 VERS.                2.0:   CWLS LOG ASCII STANDARD - VERSION 2.0
 WRAP.                 NO:   ONE LINE PER DEPTH STEP
~WELL INFORMATION
#MNEM.UNIT      DATA TYPE    INFORMATION
#----------   ------------   ------------------------------
 STRT.F           70.0000:   START DEPTH
 STOP.F         2751.5000:   STOP DEPTH
 STEP.F            0.5000:   STEP LENGTH
 NULL.          -999.2500:   NO VALUE
 COMP.          INTEX OIL:   COMPANY
 WELL. INTEX N.P.R. "AX" #75-20:   WELL
 FLD .             TEAPOT:   FIELD
 LOC .      S20 T39N R78W:   LOCATION
 CNTY.            NATRONA:   COUNTY
 STAT.            WYOMING:   STATE
 CTRY. UNITED STATES OF AMERICA:   COUNTRY
 SRVC.       SCHLUMBERGER:   SERVICE COMPANY
 DATE.        06-MAY-1966:   LOGDATE
 API .     49025095120000:   API NUMBER
~CURVE INFORMATION
#MNEM.UNIT       API CODE    CURVE DESCRIPTION
#----------   ------------   ------------------------------
 DEPT.F                  :   
 CALD.IN     45 280 60 00:   CALIPER FROM DENSITY LOG
 GRD .GAPI   45 310 01 00:   GAMMA RAY FROM DENSITY LOG
 RHOB.G/C3   45 350 01 00:   BULK DENSITY
 CORR.G/C3   45 356 01 00:   DENSITY CORRECTION
 SPR .MV     05 010 01 00:   SPONTANEOUS POTENTIAL
 ILD .OHMM   05 120 46 00:   DEEP INDUCTION RESISTIVITY
 ASN .OHMM   05 041 16 00:   AMPLIFIED SHORT NORMAL 16"
~PARAMETER INFORMATION
#MNEM.UNIT          VALUE    DESCRIPTION
#----------   ------------   ------------------------------
 EKB .F         5016.3000:   Kelly bushing
 EGL .F         5006.0000:   Ground level
 EDF .F            0.0000:   Drilling floor
 TD  .F         2750.0000:   Total depth
 DATE.        06-MAY-1966:   Date logged
 CLNT.            A2DTECH:   Client Code
 PD  .                 GL:   Permanent Datum
 DD  .F              2750:   Depth driller
 DL  .F              2746:   Depth logger
 BLI .F              2745:   Bottom log interval
 CS1 .IN            10.75:   Casing size
 CBD1.       10.75" @ 30':   Casing driller 1
 BS1 .IN            7.875:   Bit size
 DFT .           OIL/EMUL:   Type fluid in hole
 DFD .                9.8:   Density
 DFV .                 43:   Viscosity
 DFPH.                  8:   pH
 DFL .               11.8:   Fluid loss
 MSS .         CIRCULATED:   Source of sample
 RMS .OHMM           1.84:   Rm
 MST .F                73:   Rm Meas. temp.
 RMF .OHMM           1.21:   Rmf
 MFST.F                74:   Rmf Meas. temp.
 MFSS.                 FP:   Source Rmf.
 RMB .OHMM           1.27:   Rm. at BHT
 BHT .F               106:   BHT.
 TCS .HRS             1.5:   Time Circ. stopped
 MRT .F               106:   Maximum recorded temp.
 LUN .               3527:   Logging unit number
 LUL .               CSPR:   Logging unit location
 ENGI.               HAUG:   Recorded By
 WITN.      TUTTLE/HUDSON:   Witnessed by
 ORIG.           5" PRINT:   Origin of data
 UWI .     49025095120000:   Unique Well ID
 DICO. A2D TECHNOLOGIES, INC.:   Digitizing Company
 DAPD.F              10.3:   Feet Above Permanent Datum
 BSD1.F              2750:   Depth drilled with bit1
 MCSS.                 FP:   Source Rmc.
 EPD .F              5006:   Elevation Permanent Datum
 LMF .                 KB:   Log Measured From
 DMF .                 KB:   Drilling Measured From
 TLI .F                88:   Top log interval
~OTHER INFORMATION
~A   DEPT     CALD        GRD       RHOB       CORR        SPR        ILD          ASN 
# ...
 2572.5000     8.0430   141.9990     2.4760     0.0050   -35.8910     4.5380     7.2830
 2573.0000     8.0460   144.3700     2.4790     0.0050   -35.7000     4.5030     7.1530
 2573.5000     8.0490   146.6830     2.4780     0.0050   -35.6960     4.4680     7.0240
 2574.0000     8.0520   149.0270     2.4760     0.0080   -35.8860     4.4330     6.9600
 2574.5000     8.0550   151.3720     2.4770     0.0150   -36.0720     4.3980     6.9060
 2575.0000     8.0580   153.6900     2.4790     0.0220   -35.8540     4.3630     6.8520
 2575.5000     8.0610   154.6880     2.4810     0.0280   -35.0540     4.3280     6.7980
 2576.0000     8.0640   152.2810     2.4830     0.0300   -35.4770     4.2930     6.7440
 2576.5000     8.0670   151.5280     2.4820     0.0260   -35.9650     4.2580     6.6900
 2577.0000     8.0690   150.7640     2.4780     0.0230   -35.7380     4.2220     6.6330
 2577.5000     8.0720   149.9600     2.4720     0.0200   -35.4580     4.2140     6.6340
 2578.0000     8.0750   146.2590     2.4770     0.0170   -35.1760     4.2490     6.7050
 2578.5000     8.0780   142.9070     2.4690     0.0130   -35.1680     4.2840     6.7740
 2579.0000     8.0810   140.1990     2.4590     0.0100   -35.5410     4.3190     6.8440
 2579.5000     8.0840   141.4690     2.4580     0.0080   -35.9170     4.3540     6.9140
 2580.0000     8.0870   141.3730     2.4540     0.0050   -35.8830     4.3890     6.9830
 2580.5000     8.0900   140.7820     2.4480     0.0030   -35.7440     4.4240     7.0530
 2581.0000     8.0930   139.9860     2.4530     0.0010   -35.6030     4.4590     7.1220
 2581.5000     8.0960   138.6540     2.4620    -0.0030   -35.4610     4.4940     7.1910
 2582.0000     8.0980   138.0620     2.4670    -0.0020   -35.3200     4.5290     7.2460
 2582.5000     8.0980   137.8280     2.4570     0.0010   -35.2060     4.5640     7.2270
 2583.0000     8.0980   138.8330     2.4510     0.0020   -35.2640     4.5980     7.2090
 2583.5000     8.0980   137.5330     2.4560    -0.0020   -35.3210     4.6330     7.2490
 2584.0000     8.0980   135.8980     2.4540    -0.0060   -35.3770     4.6680     7.3230
 2584.5000     8.0980   134.5970     2.4580    -0.0050   -35.4330     4.7030     7.3980
 2585.0000     8.0980   133.7470     2.4690     0.0040   -35.4900     4.7380     7.4720
 2585.5000     8.0980   132.9800     2.4790     0.0090   -35.5480     4.7700     7.5470
 2586.0000     8.0980   132.9410     2.4870     0.0050   -35.5870     4.7960     7.6220
 2586.5000     8.0980   136.3110     2.4860     0.0010   -35.2360     4.9080     7.6970
 2587.0000     8.0980   139.1900     2.4850    -0.0010   -35.0390     4.8280     7.7700
 2587.5000     8.0980   142.5090     2.4840    -0.0010   -35.2170     4.7030     7.8410
 2588.0000     8.0980   143.0320     2.4850    -0.0030   -35.3910     4.5780     7.7440
 2588.5000     8.0980   143.4340     2.4870    -0.0010   -35.5650     4.4520     7.5560
 2589.0000     8.0980   145.8070     2.4890     0.0050   -35.7470     4.3250     7.3270
 2589.5000     8.0980   144.9310     2.4770     0.0090   -35.7180     4.1990     7.0730
 2590.0000     8.0980   140.9690     2.4610     0.0030   -35.6040     4.0730     6.8190
 2590.5000     8.0980   137.8400     2.4500    -0.0010   -35.4880     3.9460     6.5650
 2591.0000     8.0980   136.4590     2.4560     0.0000   -35.3720     3.8210     6.4360
 2591.5000     8.0980   135.2850     2.4650     0.0050   -35.2560     3.8130     6.4070
 2592.0000     8.0990   134.1190     2.4680     0.0100   -35.1390     3.9220     6.3940
 2592.5000     8.0870   133.9250     2.4690     0.0150   -35.0260     4.0640     6.3930
 2593.0000     8.0620   134.3890     2.4660     0.0120   -35.1450     4.2060     6.3930
 2593.5000     8.0380   133.6590     2.4550     0.0050   -35.2960     4.3480     6.3940
 2594.0000     8.0130   132.8000     2.4380    -0.0010   -35.4490     4.4910     6.4280
 2594.5000     7.9890   134.3710     2.4350    -0.0060   -35.5870     4.6330     6.6030
 2595.0000     7.9650   134.1000     2.4510    -0.0070   -35.2900     4.7750     6.7790
 2595.5000     7.9410   134.4070     2.4640    -0.0060   -34.9680     4.9160     7.0030
 2596.0000     7.9160   135.7290     2.4750    -0.0050   -34.9410     5.0630     7.3890
 2596.5000     7.8930   137.6860     2.4650    -0.0030   -35.1800     4.8960     7.6410
 2597.0000     7.8660   138.2960     2.4740    -0.0010   -35.4130     4.5250     7.5140
 2597.5000     7.8830   138.5880     2.4910     0.0030   -35.5040     4.1570     7.1250
 2598.0000     7.9070   141.0050     2.4850     0.0040   -35.0080     3.7880     6.7180
 2598.5000     7.9320   145.8670     2.4780     0.0160   -34.9990     3.4190     6.3060
 2599.0000     7.9560   153.1860     2.4760     0.0260   -35.2990     3.0500     5.8920
 2599.5000     7.9800   163.1300     2.4680     0.0370   -35.6020     2.7080     5.4300
 2600.0000     8.0060   167.1610     2.4540     0.0490   -35.9180     2.6370     4.8010
 2600.5000     8.0220   165.2800     2.4400     0.0520   -35.7620     2.7280     4.4540
 2601.0000     8.0080   147.7040     2.4380     0.0460   -35.4460     2.9940     4.3900
 2601.5000     7.9870   133.5360     2.4480     0.0340   -35.4990     3.2540     4.6600
 2602.0000     7.9670   127.1770     2.4550     0.0240   -35.6030     3.5090     5.1800
 2602.5000     7.9470   125.6230     2.4690     0.0130   -35.7080     3.7650     5.7010
 2603.0000     7.9270   125.0700     2.4810     0.0130   -35.8140     4.0210     6.2220
 2603.5000     7.9070   125.2860     2.4930     0.0190   -35.9190     4.2770     6.7030
 2604.0000     7.8860   125.2010     2.4950     0.0170   -36.0230     4.5330     6.9890
 2604.5000     7.8660   125.4050     2.4970     0.0150   -36.1270     4.7910     7.2810
 2605.0000     7.8460   125.8010     2.4980     0.0150   -36.0680     5.0510     7.4380
 2605.5000     7.8260   127.3850     2.4920     0.0160   -35.8130     5.0670     7.5930
 2606.0000     7.8060   129.3040     2.4880     0.0180   -35.9520     5.0260     7.6720
 2606.5000     7.7850   133.2430     2.4850     0.0210   -36.0810     4.9830     7.5720
 2607.0000     7.7650   136.9560     2.4830     0.0240   -36.1530     4.9400     7.4000
 2607.5000     7.7470   139.7970     2.4790     0.0260   -35.8790     4.8960     7.2340
 2608.0000     7.7440   140.6510     2.4870     0.0280   -35.6080     4.8530     7.0690
 2608.5000     7.7400   140.1890     2.4950     0.0350   -35.3370     4.8090     6.8940
 2609.0000     7.7370   140.0000     2.5030     0.0450   -35.2390     4.7650     6.8460
 2609.5000     7.7340   137.2420     2.5130     0.0500   -35.2940     4.7210     6.8960
 2610.0000     7.7310   136.1680     2.5090     0.0450   -35.3490     4.7150     6.9660
 2610.5000     7.7280   135.0850     2.4770     0.0400   -35.4040     4.5130     7.0330
 2611.0000     7.7250   137.9660     2.4670     0.0390   -35.4590     4.2920     7.0640
 2611.5000     7.7220   146.5380     2.4820     0.0520   -35.5140     4.0680     7.0010
 2612.0000     7.7190   153.8780     2.4980     0.0680   -35.5700     3.8440     6.7600
 2612.5000     7.7160   158.6900     2.5020     0.0840   -35.5570     3.6210     6.3500
 2613.0000     7.7120   169.7530     2.4920     0.0990   -35.4590     3.3960     5.9410
 2613.5000     7.7100   179.5230     2.4850     0.1220   -35.3620     3.1700     5.5320
 2614.0000     7.7060   186.9020     2.4730     0.1150   -35.2650     3.1240     5.1220
 2614.5000     7.7040   180.7080     2.4510     0.1070   -35.1680     3.1220     4.7050
 2615.0000     7.6780   171.7320     2.4480     0.1200   -35.0720     3.1240     4.6770
 2615.5000     7.6500   162.9750     2.4380     0.0790   -35.0110     3.1470     4.7920
 2616.0000     7.6220   142.9010     2.4640     0.0840   -35.1640     3.4490     5.2650
 2616.5000     7.5940   139.5790     2.4920     0.0900   -35.4190     3.8310     5.7780
 2617.0000     7.5660   136.0440     2.5070     0.0830   -35.6740     4.1980     6.2920
 2617.5000     7.5370   133.4110     2.5070     0.0850   -35.9330     4.5630     6.8030
