~VERSION INFORMATION
 VERS.                2.0:   CWLS LOG ASCII STANDARD - VERSION 2.0
 WRAP.                 NO:   ONE LINE PER DEPTH STEP
~WELL INFORMATION
#MNEM.UNIT      DATA TYPE    INFORMATION
#----------   ------------   ------------------------------
 STRT.F           15.0000:   START DEPTH
 STOP.F         2952.5000:   STOP DEPTH
 STEP.F            0.5000:   STEP LENGTH
 NULL.          -999.2500:   NO VALUE
 COMP.    FENIX & SCISSON:   COMPANY
 WELL.  FENIX "AX" #64-29:   WELL
 FLD .  TEAPOT DOME NPR-3:   FIELD
 LOC .      S29 T39N R78W:   LOCATION
 CNTY.            NATRONA:   COUNTY
 STAT.            WYOMING:   STATE
 CTRY. UNITED STATES OF AMERICA:   COUNTRY
 SRVC.           BIRDWELL:   SERVICE COMPANY
 DATE.        02-MAY-1978:   LOGDATE
 API .     49025106460000:   API NUMBER
~CURVE INFORMATION
#MNEM.UNIT       API CODE    CURVE DESCRIPTION
#----------   ------------   ------------------------------
 DEPT.F                  :   
 SPR .MV     05 010 01 00:   SPONTANEOUS POTENTIAL
 IL  .OHMM   05 120 00 00:   INDUCTION RESISTIVITY
 SN  .OHMM   05 040 16 00:   SHORT NORMAL 16"
 CALD.IN     45 280 60 00:   CALIPER FROM DENSITY LOG
 GRD .GAPI   45 310 01 00:   GAMMA RAY FROM DENSITY LOG
 CORR.G/C3   45 356 01 00:   DENSITY CORRECTION
 RHOB.G/C3   45 350 01 00:   BULK DENSITY
~PARAMETER INFORMATION
#MNEM.UNIT          VALUE    DESCRIPTION
#----------   ------------   ------------------------------
 EKB .F         4993.0000:   Kelly bushing
 EGL .F         4983.0000:   Ground level
 EDF .F            0.0000:   Drilling floor
 TD  .F         2952.0000:   Total depth
 DATE.        02-MAY-1978:   Date logged
 CLNT.            A2DTECH:   Client Code
 SL  . 2150' FNL & 1560' FEL:   Surface Location
 PD  .                 GL:   Permanent Datum
 DD  .F              2950:   Depth driller
 DL  .F              2952:   Depth logger
 BLI .F              2947:   Bottom log interval
 CBL1.F               150:   Casing logger 1
 BS1 .IN            7.875:   Bit size
 DFT .                GEL:   Type fluid in hole
 DFD .                8.7:   Density
 DFV .                 30:   Viscosity
 DFPH.                 10:   pH
 DFL .                7.6:   Fluid loss
 MSS .            MUD PIT:   Source of sample
 RMS .OHMM            1.3:   Rm
 MST .F                62:   Rm Meas. temp.
 RMF .OHMM            .95:   Rmf
 MFST.F                64:   Rmf Meas. temp.
 RMC .OHMM              1:   Rmc
 MCST.F                64:   Rmc Meas. temp.
 MFSS.               MEAS:   Source Rmf.
 RMB .OHMM            .73:   Rm. at BHT
 BHT .F               110:   BHT.
 TCS .HRS               3:   Time Circ. stopped
 MRT .F               110:   Maximum recorded temp.
 LUN .               2958:   Logging unit number
 LUL .               CASP:   Logging unit location
 ENGI.             MILLER:   Recorded By
 WITN.           MCGINLEY:   Witnessed by
 ORIG.         2.5" PRINT:   Origin of data
 UWI .     49025106460000:   Unique Well ID
 DICO. A2D TECHNOLOGIES, INC.:   Digitizing Company
 DAPD.                 10:   Feet Above Permanent Datum
 BSD1.F              2950:   Depth drilled with bit1
 EPD .F              4983:   Elevation Permanent Datum
 LMF .                 KB:   Log Measured From
 DMF .                 KB:   Drilling Measured From
 TLI .F               150:   Top log interval
~OTHER INFORMATION
~A   DEPT      SPR         IL         SN       CALD        GRD       CORR       RHOB   
# ...
 2745.0000   -40.9090     4.1920     5.9640     7.1040   126.1360     0.0640     2.5790
 2745.5000   -40.8950     4.2050     5.9740     7.1060   128.8260     0.0660     2.6000
 2746.0000   -40.8810     4.2300     5.9850     7.1080   132.3750     0.0630     2.6140
 2746.5000   -40.8670     4.2560     5.9950     7.1100   131.8610     0.0600     2.6110
 2747.0000   -40.8530     4.2810     6.0060     7.1120   130.9140     0.0580     2.6090
 2747.5000   -40.8390     4.3060     6.0160     7.1130   131.5790     0.0550     2.6090
 2748.0000   -40.8250     4.3310     6.0270     7.1150   133.8830     0.0530     2.6080
 2748.5000   -40.8110     4.3570     6.0370     7.1170   132.2760     0.0510     2.6080
 2749.0000   -40.7970     4.3830     6.0480     7.1190   128.6660     0.0530     2.6070
 2749.5000   -40.7830     4.4090     6.0680     7.1200   125.3790     0.0540     2.6070
 2750.0000   -40.7690     4.4350     6.1080     7.1220   122.0440     0.0550     2.6060
 2750.5000   -40.7550     4.4620     6.1470     7.1240   118.9200     0.0570     2.6060
 2751.0000   -40.7410     4.4880     6.1860     7.1250   116.0190     0.0580     2.5880
 2751.5000   -40.7270     4.5120     6.2250     7.1280   117.9640     0.0590     2.5700
 2752.0000   -40.7130     4.1480     6.2810     7.1270   121.4860     0.0610     2.5510
 2752.5000   -40.6990     3.8190     5.9980     7.1330   129.7530     0.0620     2.5320
 2753.0000   -40.6840     3.4900     5.4940     7.1260   138.9390     0.0640     2.5130
 2753.5000   -40.6700     3.2270     4.9890     7.0990   147.9080     0.0750     2.4950
 2754.0000   -40.6560     3.1710     4.4840     7.7120   157.3180     0.0900     2.4750
 2754.5000   -40.6420     3.1140     3.9790     7.2950   170.3900     0.1060     2.4580
 2755.0000   -40.6280     3.0670     3.5520     8.0150   164.6760     0.1210     2.4450
 2755.5000   -40.6140     3.1830     3.7440     7.6140   149.9470     0.1210     2.5120
 2756.0000   -40.6000     3.3010     3.9090     7.0020   135.5360     0.0890     2.5650
 2756.5000   -40.5860     3.5950     4.0750     6.9720   114.8270     0.0570     2.5940
 2757.0000   -40.5720     3.9470     4.6080     6.9790   108.6440     0.0560     2.6080
 2757.5000   -40.5580     4.1150     5.8360     6.9830   109.8160     0.0560     2.6110
 2758.0000   -40.5440     4.6130     6.6370     6.9850   112.4750     0.0580     2.6150
 2758.5000   -40.5300     5.1310     6.6150     6.9890   115.7240     0.0590     2.6180
 2759.0000   -40.5160     5.1000     6.5760     6.9910   114.1270     0.0570     2.6210
 2759.5000   -40.5020     5.0630     6.5380     6.9950   111.1890     0.0540     2.6240
 2760.0000   -40.4880     5.0250     6.4990     6.9990   108.1760     0.0510     2.6220
 2760.5000   -40.4740     4.9880     6.4610     7.0020   112.6320     0.0540     2.6160
 2761.0000   -40.4600     4.9500     6.4220     7.0050   117.3410     0.0560     2.6100
 2761.5000   -40.4450     4.9130     6.3840     7.0080   118.5580     0.0590     2.6070
 2762.0000   -40.4440     4.8750     6.3460     7.0120   117.2080     0.0620     2.6090
 2762.5000   -40.4620     4.8560     6.3070     7.0150   117.9710     0.0650     2.6120
 2763.0000   -40.4780     4.8450     6.2810     7.0180   118.8510     0.0680     2.6150
 2763.5000   -40.4940     4.8300     6.2810     7.0210   116.1510     0.0710     2.6180
 2764.0000   -40.5100     4.8140     6.2810     7.0250   112.0080     0.0710     2.6160
 2764.5000   -40.5270     4.7990     6.2810     7.0280   107.7740     0.0720     2.6130
 2765.0000   -40.5430     4.7840     6.2810     7.0310   106.0730     0.0720     2.6110
 2765.5000   -40.5590     4.7670     6.2810     7.0340   105.8220     0.0730     2.6090
 2766.0000   -40.5750     4.5950     6.2810     7.0390   105.6550     0.0740     2.6060
 2766.5000   -40.5920     4.4080     6.1430     7.0420   105.7990     0.0740     2.6060
 2767.0000   -40.6080     4.2200     5.7740     7.0400   110.4270     0.0750     2.5770
 2767.5000   -40.6240     4.0330     5.4050     7.0570   114.3090     0.0760     2.5580
 2768.0000   -40.6400     3.8450     5.0360     7.0430   122.3250     0.0770     2.5460
 2768.5000   -40.6570     3.7450     4.6670     7.0160   135.9840     0.0900     2.5310
 2769.0000   -40.6730     3.7270     4.4290     7.5970   147.6190     0.1090     2.5480
 2769.5000   -40.6890     3.7090     4.4290     7.2750   154.3340     0.1280     2.5680
 2770.0000   -40.7050     3.6860     4.4290     6.5220   148.8610     0.1000     2.5900
 2770.5000   -40.7220     3.8280     4.4290     6.5710   137.7320     0.0660     2.6050
 2771.0000   -40.7380     4.0470     4.4290     6.5290   126.5830     0.0630     2.6170
 2771.5000   -40.7540     4.2820     5.8360     6.4720   111.0020     0.0620     2.6220
 2772.0000   -40.7700     4.5500     6.2540     6.4520   104.3860     0.0630     2.6160
 2772.5000   -40.7870     4.8180     6.5690     6.3210   105.2330     0.0630     2.6100
 2773.0000   -40.8030     5.0860     6.6970     6.1460   107.3300     0.0630     2.6050
 2773.5000   -40.8190     5.2710     6.8260     6.1430   107.8850     0.0650     2.5990
 2774.0000   -40.8350     5.3640     6.9550     6.1460   107.9980     0.0790     2.6040
 2774.5000   -40.8520     5.4570     7.0840     6.1560   110.5620     0.0890     2.6140
 2775.0000   -40.8680     5.5500     7.2120     6.1620   114.5740     0.0910     2.6140
 2775.5000   -40.8840     5.6430     7.3410     6.1680   113.1280     0.0940     2.6090
 2776.0000   -40.9000     5.7290     7.4880     6.1730   110.9350     0.0970     2.6060
 2776.5000   -40.9170     5.8260     7.6570     6.1330   104.2860     0.0990     2.6200
 2777.0000   -40.9330     5.9170     7.8260     6.0960   101.0420     0.1020     2.6100
 2777.5000   -40.9490     6.0070     7.9950     6.0560   100.4390     0.1020     2.6150
 2778.0000   -40.9650     6.0970     8.1640     6.0170    99.4380     0.1000     2.6190
 2778.5000   -40.9820     6.1880     8.3330     5.9780   101.6430     0.0990     2.6200
 2779.0000   -40.9980     6.2780     8.5020     5.9380   108.9320     0.0980     2.6150
 2779.5000   -41.0140     6.3690     8.5850     5.9010   118.1580     0.0960     2.6100
 2780.0000   -41.0300     6.4590     8.5850     5.8610   115.9550     0.0950     2.6130
 2780.5000   -41.0470     6.5500     8.5850     5.9070   107.5610     0.0970     2.6160
 2781.0000   -41.0630     6.6370     8.5850     5.9670    98.8920     0.0990     2.6200
 2781.5000   -41.0790     6.5510     8.4740     6.0250    97.8350     0.1010     2.6230
 2782.0000   -41.0950     6.4670     8.3650     6.1640    97.7600     0.1030     2.6250
 2782.5000   -41.1110     6.3830     8.2570     6.2250    89.8730     0.1020     2.6210
 2783.0000   -41.1280     6.2990     8.1480     6.0940    90.7290     0.1010     2.6170
 2783.5000   -41.1440     6.0870     8.0400     6.0800    95.7340     0.1010     2.6110
 2784.0000   -41.1600     5.8380     7.9310     6.1260   104.5950     0.1000     2.5990
 2784.5000   -41.1770     5.5900     7.8310     6.1720   103.7240     0.0990     2.5880
 2785.0000   -41.1930     5.3420     7.3780     6.2100   100.5360     0.0980     2.5760
 2785.5000   -41.2090     5.1310     6.9580     6.2490   100.2030     0.0930     2.5640
 2786.0000   -41.2260     4.6440     6.5390     6.1980    99.8670     0.0880     2.5470
 2786.5000   -41.2360     4.2210     6.1190     6.1320   112.7890     0.0910     2.5300
 2787.0000   -41.2350     3.8240     5.6990     6.1390   126.5230     0.0970     2.5170
 2787.5000   -41.2350     3.7440     5.2800     6.1840   153.9640     0.1020     2.4960
 2788.0000   -41.2350     3.6860     4.8600     6.3000   177.9820     0.1500     2.5680
 2788.5000   -41.2350     3.7440     4.4290     5.9260   154.4150     0.1590     2.5890
 2789.0000   -41.2350     3.9080     4.4820     5.8640   129.3200     0.1400     2.6080
 2789.5000   -41.2350     4.0720     4.5350     5.8840   109.4660     0.1230     2.6210
 2790.0000   -41.2350     4.1920     4.5950     5.8970    95.9450     0.1080     2.6390
