~VERSION INFORMATION
 VERS.                2.0:   CWLS LOG ASCII STANDARD - VERSION 2.0
 WRAP.                 NO:   ONE LINE PER DEPTH STEP
~WELL INFORMATION
#MNEM.UNIT      DATA TYPE    INFORMATION
#----------   ------------   ------------------------------
 STRT.F            0.5000:   START DEPTH
 STOP.F         5758.0000:   STOP DEPTH
 STEP.F            0.5000:   STEP LENGTH
 NULL.          -999.2500:   NO VALUE
 COMP.   LAWRENCE ALLISON:   COMPANY
 WELL. LAWRENCE "X" #51-10:   WELL
 FLD .          NPR NO. 3:   FIELD
 LOC .      S10 T38N R78W:   LOCATION
 CNTY.            NATRONA:   COUNTY
 STAT.            WYOMING:   STATE
 CTRY. UNITED STATES OF AMERICA:   COUNTRY
 SRVC.      DRESSER ATLAS:   SERVICE COMPANY
 DATE.        31-JAN-1987:   LOGDATE
 API .     49025111230000:   API NUMBER
~CURVE INFORMATION
#MNEM.UNIT       API CODE    CURVE DESCRIPTION
#----------   ------------   ------------------------------
 DEPT.F                  :   
 GRR .GAPI   07 310 01 00:   GAMMA RAY FROM RESISTIVITY
 TENR.LBS    07 635 01 00:   TENSION FROM RESISTIVITY
 SPR .MV     07 010 01 00:   SPONTANEOUS POTENTIAL
 RD  .OHMM   11 220 10 00:   RESISTIVITY DEEP
 RS  .OHMM   11 220 09 00:   RESISTIVITY SHALLOW
 CNC .DEC    42 890 03 00:   NEUTRON POROSITY
 CALD.IN     45 280 60 00:   CALIPER FROM DENSITY LOG
 DEN .G/C3   45 350 01 00:   BULK DENSITY
 CORR.G/C3   45 356 01 00:   DENSITY CORRECTION
 TEND.LBS    45 635 01 00:   TENSION FORM DENSITY LOG
~PARAMETER INFORMATION
#MNEM.UNIT          VALUE    DESCRIPTION
#----------   ------------   ------------------------------
 EKB .F         5227.0000:   Kelly bushing
 EGL .F         5215.0000:   Ground level
 EDF .F            0.0000:   Drilling floor
 TD  .F         5750.0000:   Total depth
 CLNT.            A2DTECH:   Client Code
 SL  . 2356' FEL & 170' FNL:   Surface Location
 PD  .                 GL:   Permanent Datum
 EPD .F              5215:   Elevation Permanent Datum
 LMF .                 KB:   Log Measured From
 DMF .                 KB:   Drilling Measured From
 DAPD.F                12:   Feet Above Permanent Datum
 DATE.        31-JAN-1987:   Date Logged [DD-MMM-YYYY]
 DD  .F              5747:   Depth driller
 DL  .F              5750:   Depth logger
 BLI .F              5748:   Bottom log interval
 CS1 .IN            9.625:   Casing size
 CBD1.      9.625" @ 511':   Casing driller 1
 CBL1.F               512:   Casing logger 1
 BS1 .IN             8.75:   Bit size
 BSD1.F              5747:   Depth drilled with bit1
 DFT .        KCL POLYMER:   Type fluid in hole
 DFD .                9.3:   Density
 DFV .                 43:   Viscosity
 DFPH.                9.5:   pH
 MSS .           FLOWLINE:   Source of sample
 RMS .OHMM          0.247:   Rm
 MST .F                74:   Rm Meas. temp.
 RMF .OHMM          0.162:   Rmf
 MFST.F                74:   Rmf Meas. temp.
 MFSS.               MEAS:   Source Rmf.
 RMC .OHMM          0.310:   Rmc
 MCST.F                74:   Rmc Meas. temp.
 MCSS.               CALC:   Source Rmc.
 RMB .OHMM          0.109:   Rm. at BHT
 BHT .F               167:   BHT.
 TCS .HRS               5:   Time Circ. stopped
 MRT .F               167:   Maximum recorded temp.
 LUN .            HL-6274:   Logging unit number
 LUL .           GILLETTE:   Logging unit location
 ORIG.        2" 5" PRINT:   Origin of data
 UWI .     49025111230000:   Unique Well ID
 DICO. A2D TECHNOLOGIES, INC.:   Digitizing Company
 ENGI.             RAUTIO:   Recorded By
 WITN.             STRONG:   Witnessed by
 DFL .                7.8:   Fluid loss
~OTHER INFORMATION
~A  DEPTH      GRR       TENR        SPR         RD         RS        CNC       CALD        DEN       CORR       TEND
# ...
 5695.5000    65.2472    21.4381  -999.2500   136.4663    80.2540     0.1171     8.6693     2.5353     0.0397    25.4924
 5696.0000    69.0035    25.0555  -999.2500   140.3208    84.8476     0.1169     8.6839     2.6026     0.0487    33.8217
 5696.5000    69.6639    28.6388  -999.2500   156.7746   105.1996     0.1129     8.7284     2.6789     0.0396    41.1875
 5697.0000    61.3561    32.0987  -999.2500   205.3419   139.7770     0.1102     8.7429     2.7492     0.0214    48.9985
 5697.5000    46.2270    35.0000  -999.2500   290.2101   176.9312     0.1117     8.7874     2.7643     0.0123    56.8095
 5698.0000    34.5035    73.7800  -999.2500   467.7397   222.4158     0.1181     8.8018     2.7718     0.0108    64.6204
 5698.5000    33.9254   104.3776  -999.2500   544.7236   264.5250     0.1178     8.8011     2.7733     0.0213    79.9505
 5699.0000    34.5961   100.1966  -999.2500   556.2227   227.2181     0.1113     8.8003     2.7727     0.0331    80.2427
 5699.5000    35.2564    96.0155  -999.2500   487.8625   202.0357     0.1054     8.7540  -999.2500  -999.2500    80.5348
 5700.0000    34.3688    91.8344  -999.2500   439.8829   189.8775     0.0988     8.7079  -999.2500  -999.2500    80.8270
 5700.5000    32.2427    87.6534  -999.2500   404.9551   173.5879     0.1043     8.6922  -999.2500  -999.2500    73.7476
 5701.0000    28.1760    84.3596  -999.2500   362.6130   159.7879     0.1040     8.6765  -999.2500  -999.2500    74.2970
 5701.5000    24.5954    82.6067  -999.2500   300.9095   139.1580     0.1022     8.6759  -999.2500  -999.2500    74.7363
 5702.0000    24.0070    80.8539  -999.2500   190.6924    83.3809     0.1013     8.6753  -999.2500  -999.2500    67.5472
 5702.5000    24.6777    79.1011  -999.2500   125.9677    65.4513     0.1013     8.6596  -999.2500  -999.2500    68.0962
 5703.0000    25.9572    77.3483  -999.2500    94.8901    55.2022     0.1026     8.6741  -999.2500  -999.2500    68.5360
 5703.5000    29.8141    75.5955  -999.2500    80.9536    47.2958     0.1050     8.7037  -999.2500  -999.2500    61.3464
 5704.0000    35.0281    73.8427  -999.2500    74.5009    42.9371     0.1102     8.7184  -999.2500  -999.2500    61.8958
 5704.5000    39.7132    72.0899  -999.2500    68.1321    42.0626     0.1178     8.6722  -999.2500  -999.2500    54.8164
 5705.0000    42.5408    70.3371  -999.2500    62.2870    41.4977     0.1190     8.6414  -999.2500  -999.2500    55.2632
 5705.5000    43.2011    68.5843  -999.2500    52.4091    38.7993     0.1148     8.6105  -999.2500  -999.2500    64.5565
 5706.0000    40.1566    66.8315  -999.2500    44.0477    30.6162     0.1124     8.5948  -999.2500  -999.2500   108.8760
 5706.5000    35.2442    65.0787  -999.2500    41.4452    28.3781     0.1209     8.5791  -999.2500  -999.2500    86.6493
 5707.0000    32.1893    63.3258  -999.2500    42.0326    27.6083     0.1276     8.5785  -999.2500  -999.2500    72.0511
 5707.5000    29.7537    61.5730  -999.2500    45.9949    29.8034     0.1385     8.5931  -999.2500  -999.2500    64.9716
 5708.0000    27.8871    59.8202  -999.2500    61.1315    36.3848     0.1428     8.6076  -999.2500  -999.2500    57.8921
 5708.5000  -999.2500    58.0674  -999.2500    96.4321    49.7829     0.1464     8.6371  -999.2500  -999.2500    58.4415
 5709.0000  -999.2500    56.3146  -999.2500   122.8602    62.5811     0.1502     8.6971  -999.2500  -999.2500    43.8345
 5709.5000  -999.2500    56.7979  -999.2500   145.0667    70.4184     0.1523     8.7721  -999.2500  -999.2500    44.4962
 5710.0000  -999.2500    63.9894  -999.2500   162.3942    71.4193     0.1471     8.8320  -999.2500  -999.2500    59.7745
 5710.5000  -999.2500    71.1809  -999.2500   177.3558    70.9452     0.1396     8.9071  -999.2500  -999.2500    67.8277
 5711.0000  -999.2500    78.3723  -999.2500   183.6306    71.4618     0.1375     8.9519  -999.2500  -999.2500    75.7858
 5711.5000  -999.2500    85.5638  -999.2500   188.8173    72.4776     0.1436     8.9008  -999.2500  -999.2500    83.7444
 5712.0000  -999.2500    92.7553  -999.2500   195.6677    73.0005     0.1524     8.7993  -999.2500  -999.2500    91.7025
 5712.5000  -999.2500    99.9468  -999.2500   201.0293    72.5159  -999.2500     8.7836  -999.2500  -999.2500    92.1419
 5713.0000  -999.2500   107.1383  -999.2500   187.6351    70.0489  -999.2500     8.7376  -999.2500  -999.2500    92.5812
 5713.5000  -999.2500   114.3298  -999.2500   176.3484    67.0921  -999.2500     8.6916  -999.2500  -999.2500   108.0581
 5714.0000  -999.2500   121.5213  -999.2500   161.2272    63.1911  -999.2500     8.6457  -999.2500  -999.2500   123.5355
 5714.5000  -999.2500   128.7128  -999.2500   148.4182    59.8013  -999.2500     8.5997  -999.2500  -999.2500   123.9850
 5715.0000  -999.2500   135.9043  -999.2500   138.5293    56.9866  -999.2500     8.5991  -999.2500  -999.2500   132.0426
 5715.5000  -999.2500   143.0957  -999.2500   132.9255    54.3044  -999.2500     8.5985  -999.2500  -999.2500   140.0012
 5716.0000  -999.2500   150.2872  -999.2500   125.8027    52.4701  -999.2500     8.5978  -999.2500  -999.2500   140.4405
 5716.5000  -999.2500   157.4787  -999.2500   122.3947    51.0535  -999.2500     8.5821  -999.2500  -999.2500   148.3986
 5717.0000  -999.2500   164.6702  -999.2500   120.4483    50.0170  -999.2500     8.5512  -999.2500  -999.2500   156.3568
 5717.5000  -999.2500   171.8617  -999.2500   119.9284    49.3388  -999.2500     8.5506  -999.2500  -999.2500   156.7961
 5718.0000  -999.2500   179.0532  -999.2500   119.9579    49.3551  -999.2500     8.5653  -999.2500  -999.2500   164.7542
 5718.5000  -999.2500   185.0000  -999.2500   123.3461    49.7641  -999.2500     8.5646  -999.2500  -999.2500   172.7128
 5719.0000  -999.2500   185.0000  -999.2500   131.2917    52.5603  -999.2500     8.5791  -999.2500  -999.2500   180.6766
 5719.5000  -999.2500   185.0000  -999.2500   145.6689    55.9552  -999.2500     8.5937  -999.2500  -999.2500   188.6467
 5720.0000  -999.2500   185.0000  -999.2500   162.7499    62.0966  -999.2500     8.6081  -999.2500  -999.2500   189.1784
 5720.5000  -999.2500   185.0000  -999.2500   181.8250    71.8357  -999.2500     8.6379  -999.2500  -999.2500   189.6178
 5721.0000  -999.2500   185.0000  -999.2500   201.7359    79.3018  -999.2500     8.6524  -999.2500  -999.2500   197.5759
 5721.5000  -999.2500   185.0000  -999.2500   216.2398    86.0585  -999.2500     8.6972  -999.2500  -999.2500   198.0152
 5722.0000  -999.2500   185.0000  -999.2500   234.9848    91.6171  -999.2500     8.7118  -999.2500  -999.2500   198.4546
 5722.5000  -999.2500   185.0000  -999.2500   238.2919    88.5225  -999.2500     8.6959  -999.2500  -999.2500   198.8943
 5723.0000  -999.2500   185.0000  -999.2500   193.6979    77.0936  -999.2500     8.6499  -999.2500  -999.2500   206.8525
 5723.5000  -999.2500   184.9427  -999.2500   156.1980    62.2719  -999.2500     8.5888  -999.2500  -999.2500   207.3837
 5724.0000  -999.2500   191.8407  -999.2500   111.4487    45.2582  -999.2500     8.5730  -999.2500  -999.2500   222.7819
 5724.5000  -999.2500   200.4888  -999.2500    97.0733    39.4150  -999.2500     8.5270  -999.2500  -999.2500   223.3181
 5725.0000  -999.2500   209.1667  -999.2500    89.3611    37.8209  -999.2500     8.4810  -999.2500  -999.2500   223.7574
 5725.5000  -999.2500   217.8333  -999.2500    82.2006    36.2912  -999.2500     8.4653  -999.2500  -999.2500   224.1968
 5726.0000  -999.2500   226.5000  -999.2500    76.7844    32.8987  -999.2500     8.4647  -999.2500  -999.2500   224.6361
 5726.5000  -999.2500   235.1667  -999.2500    60.7093    28.4968  -999.2500     8.4641  -999.2500  -999.2500   225.0759
 5727.0000  -999.2500   243.8468  -999.2500    51.0817    24.9901  -999.2500     8.4635  -999.2500  -999.2500   233.0340
 5727.5000  -999.2500   252.5528  -999.2500    46.6203    21.9149  -999.2500     8.4629  -999.2500  -999.2500   240.9922
 5728.0000  -999.2500   261.1256  -999.2500    42.9913    20.0335  -999.2500     8.5076  -999.2500  -999.2500   248.9503
 5728.5000  -999.2500   258.2885  -999.2500    43.5984    18.8280  -999.2500     8.5221  -999.2500  -999.2500   249.3984
