~VERSION INFORMATION
 VERS.                2.0:   CWLS LOG ASCII STANDARD - VERSION 2.0
 WRAP.                 NO:   ONE LINE PER DEPTH STEP
~WELL INFORMATION
#MNEM.UNIT      DATA TYPE    INFORMATION
#----------   ------------   ------------------------------
 STRT.F            0.5000:   START DEPTH
 STOP.F         4149.0000:   STOP DEPTH
 STEP.F            0.5000:   STEP LENGTH
 NULL.          -999.2500:   NO VALUE
 COMP. LAWRENCE ALLISON & ASSOSCIATES:   COMPANY
 WELL. LAWRENCE "X" #34-3:   WELL
 FLD .             NPR #3:   FIELD
 LOC .       S3 T38N R78W:   LOCATION
 CNTY.            NATRONA:   COUNTY
 STAT.            WYOMING:   STATE
 CTRY. UNITED STATES OF AMERICA:   COUNTRY
 SRVC.      DRESSER ATLAS:   SERVICE COMPANY
 DATE.        19-NOV-1983:   LOGDATE
 API .     49025109500000:   API NUMBER
~CURVE INFORMATION
#MNEM.UNIT       API CODE    CURVE DESCRIPTION
#----------   ------------   ------------------------------
 DEPT.F                  :   
 CALD.IN     45 280 60 00:   CALIPER FROM DENSITY LOG
 TEND.LBS    45 635 01 00:   TENSION FORM DENSITY LOG
 DEN .G/C3   45 350 01 00:   BULK DENSITY
 CNC .DEC    42 890 01 00:   NEUTRON POROSITY LIMESTONE
 CORR.G/C3   45 356 01 00:   DENSITY CORRECTION
 TENR.LBS    06 635 01 00:   TENSION FROM RESISTIVITY
 GRR .GAPI   07 310 01 00:   GAMMA RAY FROM RESISTIVITY
 RFOC.OHMM   07 220 04 00:   RESISTIVITY FOCUSED LOG RES.
 RILD.OHMM   07 120 46 00:   DEEP INDUCTION RESISTIVITY
 RILM.OHMM   07 120 44 00:   INDUCTION LOG MEDIUM RESISTIVITY
 SPR .MV     07 010 01 00:   SPONTANEOUS POTENTIAL
 TENS.LBS    60 635 01 00:   TENSION FROM SONIC
 DT  .US/F   60 520 00 00:   DELTA TIME
~PARAMETER INFORMATION
#MNEM.UNIT          VALUE    DESCRIPTION
#----------   ------------   ------------------------------
 EKB .F         5187.0000:   Kelly bushing
 EGL .F         5174.0000:   Ground level
 TD  .F         4140.0000:   Total depth
 CLNT.            A2DTECH:   Client Code
 SL  . 1621' FWL & 1958' FNL:   Surface Location
 PD  .                 GL:   Permanent Datum
 EPD .F              5174:   Elevation Permanent Datum
 LMF .                 KB:   Log Measured From
 DMF .                 KB:   Drilling Measured From
 DAPD.F                13:   Feet Above Permanent Datum
 DATE.        19-NOV-1983:   Date Logged [DD-MMM-YYYY]
 DD  .F              4136:   Depth driller
 DL  .F              4140:   Depth logger
 BLI .F              4138:   Bottom log interval
 TLI .F                 0:   Top log interval
 CS1 .IN            8.625:   Casing size
 CBD1.      8.625" @ 615':   Casing driller 1
 CBL1.F               615:   Casing logger 1
 BS1 .IN            7.875:   Bit size
 BSD1.F              4136:   Depth drilled with bit1
 DFT .            GEL-KCL:   Type fluid in hole
 DFD .                  9:   Density
 DFV .                 45:   Viscosity
 DFPH.                8.5:   pH
 DFL .                 12:   Fluid loss
 MSS .           FLOWLINE:   Source of sample
 RMS .OHMM          0.768:   Rm
 MST .F                74:   Rm Meas. temp.
 RMF .OHMM          0.576:   Rmf
 MFST.F                74:   Rmf Meas. temp.
 MFSS.               CALC:   Source Rmf.
 RMC .OHMM           0.96:   Rmc
 MCST.F                74:   Rmc Meas. temp.
 MCSS.               CALC:   Source Rmc.
 RMB .OHMM          0.418:   Rm. at BHT
 BHT .F               136:   BHT.
 TCS .HRS               4:   Time Circ. stopped
 MRT .F               136:   Maximum recorded temp.
 LUN .               6307:   Logging unit number
 LUL .               GLTE:   Logging unit location
 ENGI.           FAHLSING:   Recorded By
 WITN.           JENNINGS:   Witnessed by
 ORIG.      2.5" 5" PRINT:   Origin of data
 UWI .     49025109500000:   Unique Well ID
 DICO. A2D TECHNOLOGIES, INC.:   Digitizing Company
~OTHER INFORMATION
~A    DEPT    CALD       TEND        DEN        CNC       CORR       TENR         GRR      RFOC       RILD       RILM        SPR       TENS         DT   
# ...
 1092.5000     9.8304     0.0000     2.5674     0.2417     0.0681    -6.1728   103.8751     6.4507     6.5971     6.5861   -78.8054  -999.2500  -999.2500
 1093.0000     9.8310     0.0000     2.5614     0.2424     0.0545    -4.9383   106.7214     6.5414     6.5812     6.6289   -78.8156  -999.2500  -999.2500
 1093.5000     9.8316     0.0000     2.5610     0.2430     0.0513    -3.6451   107.8429     6.5380     6.5609     6.6235   -78.8259  -999.2500  -999.2500
 1094.0000     9.8619     0.0000     2.5707     0.2422     0.0604    -2.4533   108.7365     6.6292     6.6549     6.7154   -78.6837  -999.2500  -999.2500
 1094.5000     9.8625     0.0000     2.5799     0.2398     0.0785    -1.2346   108.2622     6.6258     6.7986     6.7580   -78.5412  -999.2500  -999.2500
 1095.0000     9.8631     0.0000     2.5769     0.2320     0.0906     0.2285   107.1041     6.8155     6.8961     6.8998   -78.5518  -999.2500  -999.2500
 1095.5000     9.8637     0.0000     2.5709     0.2305     0.0921   -14.0117   105.4901     7.0092     6.9949     6.9956   -78.5646  -999.2500  -999.2500
 1096.0000     9.8643     0.0000     2.5656     0.2323     0.0892   -12.8199   104.0731     7.1078     7.0448     7.0904   -78.5748  -999.2500  -999.2500
 1096.5000     9.8649     0.0000     2.5611     0.2347     0.0893   -11.6280   102.4853     7.2063     7.1458     7.1876   -78.5851  -999.2500  -999.2500
 1097.0000     9.8655     0.0000     2.5583     0.2259     0.0859   -10.4361   100.8713     7.3068     7.2481     7.2862   -78.9002  -999.2500  -999.2500
 1097.5000     9.8661     0.0000     2.5601     0.2225     0.0805    -9.2593    99.0292     7.3124     7.3520     7.2802   -78.9104  -999.2500  -999.2500
 1098.0000     9.8667     0.0000     2.5703     0.2364     0.0746   -15.7407    97.8711     7.4057     7.3514     7.3813   -79.0500  -999.2500  -999.2500
 1098.5000     9.8970     0.0000     2.5673     0.2425     0.0716   -22.2926    96.9410     7.4549     7.3580     7.3752   -79.6663  -999.2500  -999.2500
 1099.0000     9.8976     0.0000     2.5643     0.2429     0.0717   -20.8030    97.1809     7.5059     7.4563     7.4776   -80.1311  -999.2500  -999.2500
 1099.5000     9.8982     0.0000     2.5614     0.2461     0.0778   -19.6111   101.9150     7.5021     7.4557     7.4715   -80.4443  -999.2500  -999.2500
 1100.0000     9.8988     0.0000     2.5674     0.2474     0.0774   -18.7173   105.0881     7.5527     7.4551     7.5201   -80.3030  -999.2500  -999.2500
 1100.5000     9.9004     0.0000     2.5706     0.2408     0.0669   -25.2415   105.9863     7.5488     7.4546     7.5690   -80.1617  -999.2500  -999.2500
 1101.0000     9.9017     0.0000     2.5719     0.2376     0.0600   -31.6663   106.1959     7.6005     7.4541     7.3063   -80.1745  -999.2500  -999.2500
 1101.5000     9.9030     0.0000     2.5704     0.2370     0.0541   -30.2468   106.4019     7.3896     7.5610     7.3052   -80.1847  -999.2500  -999.2500
 1102.0000     9.8746     0.0000     2.5690     0.2369     0.0662   -32.6584   107.0683     7.5482     7.6693     7.3040   -79.8893  -999.2500  -999.2500
 1102.5000     9.8759     0.0000     2.5670     0.2372     0.0842   -32.3602   107.2831     7.7107     7.7793     7.4083   -79.4476  -999.2500  -999.2500
 1103.0000     9.8773     0.0000     2.5660     0.2395     0.0813   -32.0620   107.0317     7.9328     7.9473     7.6219   -79.0030  -999.2500  -999.2500
 1103.5000     9.8786     0.0000     2.5691     0.2474     0.0694   -31.7638   105.1904     8.1610     8.1191     7.8416   -78.3965  -999.2500  -999.2500
 1104.0000     9.8799     0.0000     2.5635     0.2486     0.0575   -23.7496    99.7018     8.3961     8.3541     8.0674   -78.1146  -999.2500  -999.2500
 1104.5000     9.8813     0.0000     2.5551     0.2458     0.0486   -15.7353    98.7724     8.6380     8.5959     8.2999   -77.9733  -999.2500  -999.2500
 1105.0000     9.8826     0.0000     2.5542     0.2398     0.0457   -15.4321   101.7140     8.8996     8.7817     8.5474   -78.2891  -999.2500  -999.2500
 1105.5000     9.8840     0.0000     2.5583     0.2348     0.0547   -30.4964   103.0642     9.2739     8.9887     8.9114   -78.6023  -999.2500  -999.2500
 1106.0000     9.8853     0.0000     2.5602     0.2181     0.0428   -30.1982   103.9585     9.4062     9.2972     9.1031   -78.7640  -999.2500  -999.2500
 1106.5000     9.8866     0.0000     2.5527     0.2175     0.0249   -29.9000   103.7130     9.4046     9.2303     9.1674   -78.7743  -999.2500  -999.2500
 1107.0000     9.8880     0.0000     2.5473     0.2173     0.0190   -29.6296   100.7319     9.2701     9.2298     9.1658   -78.7627  -999.2500  -999.2500
 1107.5000     9.8893     0.0000     2.5433     0.2181     0.0161   -37.0942    94.7687     9.1762     9.2291     9.0994   -78.6432  -999.2500  -999.2500
 1108.0000     9.8906     0.0000     2.5409     0.2199     0.0192   -36.7214    88.6104     9.1362     9.2947     9.0334   -78.5019  -999.2500  -999.2500
 1108.5000     9.8920     0.0000     2.5415     0.2289     0.0342   -41.6825    90.6445     9.1349     9.2278     9.0321   -78.5146  -999.2500  -999.2500
 1109.0000     9.9231     0.0000     2.5425     0.2295     0.0672   -43.8411    93.5905     9.0040     9.2934     9.0306   -78.8279  -999.2500  -999.2500
 1109.5000     9.8351     0.0000     2.5399     0.2283     0.0740   -43.4683    96.5364     9.0027     9.2264     9.0293   -79.1411  -999.2500  -999.2500
 1110.0000     9.7769     0.0000     2.5323     0.2205     0.0464   -35.4540    99.4824     9.0016     9.1600     9.0281   -79.6061  -999.2500  -999.2500
 1110.5000     9.6890     0.0000     2.5255     0.2223     0.0195   -35.1852   101.0606     9.0003     9.0941     9.0268   -79.7702  -999.2500  -999.2500
 1111.0000     9.6605     0.0000     2.5211     0.2247     0.0196   -34.8765   101.9803     8.9990     9.0935     8.9614   -80.0834  -999.2500  -999.2500
 1111.5000     9.6619     0.0000     2.5170     0.2253     0.0227   -34.5595   100.1093     8.9978     9.0928     9.0244   -80.2451  -999.2500  -999.2500
 1112.0000     9.6632     0.0000     2.5101     0.2253     0.0264   -34.2592    90.7452     8.9965     9.1575     9.0231   -80.4069  -999.2500  -999.2500
 1112.5000     9.6943     0.0000     2.5067     0.2235     0.0079   -33.9506    88.4524     9.0597     9.1568     9.0218   -80.5686  -999.2500  -999.2500
 1113.0000     9.6956     0.0000     2.5053     0.2253     0.0109   -25.8742    93.4457     9.1233     9.2219     9.0203   -80.4273  -999.2500  -999.2500
 1113.5000     9.6970     0.0000     2.5121     0.2295     0.0200   -25.6173    97.0755     9.1219     9.2211     9.0191   -80.4379  -999.2500  -999.2500
 1114.0000     9.6983     0.0000     2.5267     0.2313     0.0380   -25.2778    98.1978     9.1858     9.2205     9.1478   -80.1447  -999.2500  -999.2500
 1114.5000     9.6996     0.0000     2.5503     0.2271     0.0321   -25.0000    97.9479     9.2503     9.3526     9.1462   -79.8544  -999.2500  -999.2500
 1115.0000     9.7010     0.0000     2.5668     0.2235     0.0292   -24.6814    96.5626     9.3819     9.3520     9.1450   -79.5616  -999.2500  -999.2500
 1115.5000     9.7023     0.0000     2.5515     0.2212     0.0323   -24.3827    94.9493     9.3806     9.4184     9.1437   -79.4178  -999.2500  -999.2500
 1116.0000     9.7037     0.0000     2.5339     0.2236     0.0443   -24.0741    93.5639     9.3790     9.4854     9.1424   -79.2788  -999.2500  -999.2500
 1116.5000     9.7050     0.0000     2.5360     0.2242     0.0539   -23.7122    94.6862     9.5125     9.6213     9.2727   -78.9862  -999.2500  -999.2500
 1117.0000     9.7063     0.0000     2.5375     0.2234     0.0445   -23.4140    95.3526     9.5112     9.7591     9.2711   -78.8449  -999.2500  -999.2500
 1117.5000     9.7077     0.0000     2.5411     0.2203     0.0206   -23.1158    94.1603     9.6469     9.8284     9.4034   -78.7036  -999.2500  -999.2500
 1118.0000     9.7090     0.0000     2.5451     0.2173     0.0172   -22.8176    93.0334     9.7838     9.9150     9.5370   -78.5623  -999.2500  -999.2500
