~VERSION INFORMATION
 VERS.                2.0:   CWLS LOG ASCII STANDARD - VERSION 2.0
 WRAP.                 NO:   ONE LINE PER DEPTH STEP
~WELL INFORMATION
#MNEM.UNIT      DATA TYPE    INFORMATION
#----------   ------------   ------------------------------
 STRT.F          298.0000:   START DEPTH
 STOP.F         3084.0000:   STOP DEPTH
 STEP.F            0.5000:   STEP LENGTH
 NULL.          -999.2500:   NO VALUE
 COMP. LAWERNCE ALLISON AND ASSOCIATED:   COMPANY
 WELL. LAWERNCE "TX" #77-20:   WELL
 FLD .        TEAPOT DOME:   FIELD
 LOC .      S20 T39N R78W:   LOCATION
 CNTY.            NATRONA:   COUNTY
 STAT.            WYOMING:   STATE
 CTRY. UNITED STATES OF AMERICA:   COUNTRY
 SRVC.       SCHLUMBERGER:   SERVICE COMPANY
 DATE.        22-JAN-1982:   LOGDATE
 API .     49025108840000:   API NUMBER
~CURVE INFORMATION
#MNEM.UNIT       API CODE    CURVE DESCRIPTION
#----------   ------------   ------------------------------
 DEPT.F                  :   
 CALD.IN     45 280 60 00:   CALIPER FROM DENSITY LOG
 GRD .GAPI   45 310 01 00:   GAMMA RAY FROM DENSITY LOG
 TEND.LBS    45 635 01 00:   TENSION FROM DENSITY LOG
 RHOB.G/C3   45 350 01 00:   BULK DENSITY
 NPHI.DEC    42 890 03 00:   NEUTRON POROSITY SANDSTONE
 CORR.G/C3   45 356 01 00:   DENSITY CORRECTION
 SFLU.OHMM   07 220 01 00:   SPHERICALLY FOCUSED LOG UNAVERAGED RESISTIVITY
 ILD .OHMM   07 120 46 00:   INDUCTION LOG DEEP RESISTIVITY
 ILM .OHMM   07 120 44 00:   INDUCTION LOG MEDIUM RESISTIVITY
 TENR.LBS    07 635 01 00:   TENSION
 SPR .MV     07 010 01 00:   SPONTANEOUS POTENTIAL
~PARAMETER INFORMATION
#MNEM.UNIT          VALUE    DESCRIPTION
#----------   ------------   ------------------------------
 EKB .F         5022.0000:   Kelly bushing
 EGL .F         5012.0000:   Ground level
 EDF .F         5021.0000:   Drilling floor
 TD  .F         3079.0000:   Total depth
 DATE.        22-JAN-1982:   Date logged
 CLNT.            A2DTECH:   Client Code
 SL  . 986' FSL & 779' FEL:   Surface Location
 PD  .                 GL:   Permanent Datum
 EPD .F              5012:   Elevation Permanent Datum
 LMF .                 KB:   Log Measured From
 DMF .                 KB:   Drilling Measured From
 DAPD.F                10:   Feet Above Permanent Datum
 DD  .F              3079:   Depth driller
 DL  .F              3070:   Depth logger
 BLI .F              3064:   Bottom log interval
 TLI .F               328:   Top log interval
 CS1 .IN            9.625:   Casing size
 CBD1.      9.625" @ 300':   Casing driller 1
 CBL1.F               328:   Casing logger 1
 BS1 .IN            7.875:   Bit size
 BSD1.F              3079:   Depth drilled with bit1
 DFT .           CHEM/GEL:   Type fluid in hole
 DFD .                8.9:   Density
 DFV .                 50:   Viscosity
 DFPH.               10.5:   pH
 DFL .                  8:   Fluid loss
 MSS .           FLOWLINE:   Source of sample
 RMS .OHMM           2.53:   Rm
 MST .F                49:   Rm Meas. temp.
 RMF .OHMM           2.04:   Rmf
 MFST.F                49:   Rmf Meas. temp.
 RMC .OHMM           3.80:   Rmc
 MCST.F                49:   Rmc Meas. temp.
 MFSS.               MEAS:   Source Rmf.
 MCSS.               CALC:   Source Rmc.
 RMB .OHMM           1.04:   Rm. at BHT
 BHT .F               119:   BHT.
 TCS .HRS            0330:   Time Circ. stopped
 TLAB.HRS            0800:   Time logger at bottom
 MRT .F               119:   Maximum recorded temp.
 LUN .               8043:   Logging unit number
 LUL .               CSPR:   Logging unit location
 ENGI.            PERAKIS:   Recorded By
 WITN.              SCOTT:   Witnessed by
 ORIG.           5" PRINT:   Origin of data
 UWI .     49025108840000:   Unique Well ID
 DICO. A2D TECHNOLOGIES, INC.:   Digitizing Company
~OTHER INFORMATION
~A   DEPT       CALD       GRD      TEND         RHOB       NPHI     CORR       SFLU        ILD        ILM       TENR        SPR   
# ...
 2311.0000    11.3780    98.7970  1016.9440     2.5390     0.2350     0.0190     7.7830     7.5410     7.9200  1061.5229   -24.9060
 2311.5000    11.3540    99.9430  1025.2810     2.5450     0.2390     0.0240     8.4710     7.6520     8.0690  1066.9301   -24.9340
 2312.0000    11.3290   101.0900  1033.6190     2.5500     0.2420     0.0270     9.1680     7.7640     8.2180  1072.3380   -24.5990
 2312.5000    11.3050   101.7760  1041.9561     2.5540     0.2420     0.0290     9.2170     7.8760     8.3670  1077.7450   -23.9620
 2313.0000    11.2800   101.9870  1050.2930     2.5570     0.2340     0.0240     9.3000     7.9870     8.5160  1083.1530   -23.3270
 2313.5000    11.2560   102.1970  1058.6300     2.5560     0.2250     0.0160     9.3820     8.0990     8.7500  1088.5601   -22.9080
 2314.0000    11.2320   102.4080  1066.9680     2.5500     0.2230     0.0110     9.4290     8.2730     8.6680  1093.9670   -23.1700
 2314.5000    11.2070   102.8710  1075.3051     2.5440     0.2280     0.0140     9.2890     8.1890     8.4780  1099.3750   -23.4920
 2315.0000    11.1830   104.9720  1083.6420     2.5350     0.2350     0.0160     9.1550     8.0010     8.2870  1104.7820   -23.9290
 2315.5000    11.1580   107.1070  1063.0800     2.5270     0.2470     0.0140     8.8990     7.8120     8.0970  1088.1689   -24.1000
 2316.0000    11.1590   108.4340  1029.0360     2.5210     0.2600     0.0070     8.5040     7.6230     7.9070  1048.6530   -24.2360
 2316.5000    11.1700   107.7930  1028.8870     2.5160     0.2620     0.0010     8.1080     7.4350     7.7160  1009.1370   -24.3740
 2317.0000    11.1810   106.0730  1032.8149     2.5150     0.2540    -0.0010     7.6770     7.2460     7.5260  1012.1230   -24.5140
 2317.5000    11.1930   103.9280  1036.7430     2.5210     0.2540     0.0050     7.6770     7.1240     7.3270  1022.1960   -24.6540
 2318.0000    11.2040   100.9560  1040.6720     2.5280     0.2600     0.0130     7.8300     7.1350     7.2590  1032.2679   -24.7930
 2318.5000    11.2160    97.9680  1044.6000     2.5300     0.2600     0.0120     7.9460     7.1540     7.2970  1042.3409   -24.9310
 2319.0000    11.2270    97.6080  1050.9640     2.5250     0.2480     0.0070     8.0620     7.1740     7.3260  1052.4139   -24.9840
 2319.5000    11.2380    99.5140  1058.2600     2.5190     0.2380     0.0030     8.1780     7.1930     7.3550  1062.4860   -25.0350
 2320.0000    11.2500   102.4290  1065.5551     2.5160     0.2390     0.0010     8.2730     7.2120     7.3840  1072.5590   -25.0860
 2320.5000    11.2610   104.3180  1072.8500     2.5180     0.2550     0.0040     8.0370     7.2320     7.4130  1082.6320   -25.1300
 2321.0000    11.2730   102.8710  1080.1450     2.5250     0.2620     0.0080     7.6260     7.2590     7.4420  1092.7040   -24.9400
 2321.5000    11.2840    99.9350  1086.2939     2.5320     0.2640     0.0120     7.4650     7.2100     7.4650  1102.7770   -24.1790
 2322.0000    11.2950    98.3860  1086.2939     2.5370     0.2570     0.0110     7.6560     7.0920     7.3450  1098.6290   -23.4460
 2322.5000    11.3070    97.9500  1078.3860     2.5330     0.2470     0.0100     7.8780     6.9740     7.2270  1085.7870   -22.9430
 2323.0000    11.3180    99.0940  1056.8850     2.5290     0.2430     0.0130     8.0440     6.8560     7.1090  1072.9440   -23.4420
 2323.5000    11.3290   101.1090  1035.3831     2.5300     0.2460     0.0170     8.0440     6.7380     6.9910  1060.1021   -24.1160
 2324.0000    11.3410   103.2610  1013.8820     2.5330     0.2510     0.0220     7.9360     6.6200     6.8730  1047.2590   -24.3490
 2324.5000    11.3520   105.4020  1025.3810     2.5280     0.2570     0.0220     7.5380     6.5020     6.7550  1058.5640   -23.9380
 2325.0000    11.3640   106.3370  1025.3810     2.5150     0.2620     0.0210     7.1400     6.4050     6.6370  1073.2410   -23.5150
 2325.5000    11.3760   107.1280  1044.8630     2.5040     0.2680     0.0240     6.7420     6.3110     6.5190  1087.9189   -23.0970
 2326.0000    11.3680   106.7400  1069.1810     2.5030     0.2720     0.0270     6.5500     6.2170     6.4010  1102.5959   -22.7560
 2326.5000    11.3570   104.6620  1093.4980     2.5050     0.2760     0.0290     6.6330     6.1350     6.3690  1117.2729   -23.0470
 2327.0000    11.3450   102.0480  1117.8149     2.5080     0.2800     0.0200     6.7960     6.1060     6.4000  1123.3710   -23.7170
 2327.5000    11.3340    99.4170  1126.9041     2.5150     0.2800     0.0130     6.9580     6.0740     6.4230  1113.0959   -24.3800
 2328.0000    11.3220    96.7730  1126.9041     2.5330     0.2720     0.0180     7.1240     6.0420     6.4890  1102.8220   -24.7550
 2328.5000    11.3110    94.1600  1097.5179     2.5510     0.2610     0.0260     7.1240     5.9840     6.3460  1092.5480   -24.9250
 2329.0000    11.3000    94.6820  1069.1479     2.5500     0.2570     0.0350     6.9980     5.8850     6.2240  1082.2740   -25.1020
 2329.5000    11.2880    98.3570  1040.7780     2.5430     0.2660     0.0430     6.6730     5.7860     6.1020  1072.0000   -25.1570
 2330.0000    11.2770   102.7420  1028.9730     2.5370     0.2810     0.0460     6.2440     5.6870     5.9810  1068.9650   -24.7190
 2330.5000    11.2650   107.1680  1036.8290     2.5300     0.2910     0.0440     5.7910     5.5880     5.8590  1076.1331   -24.1110
 2331.0000    11.2540   107.8480  1044.6860     2.5230     0.2890     0.0330     5.5360     5.4880     5.7370  1083.3010   -23.5230
 2331.5000    11.2430   103.3440  1052.5420     2.5130     0.2780     0.0220     5.6830     5.4340     5.6940  1090.4690   -23.6610
 2332.0000    11.2310    99.8540  1060.3979     2.5040     0.2660     0.0100     6.2640     5.4820     5.7200  1097.6370   -24.2150
 2332.5000    11.2200    99.0690  1068.2550     2.4980     0.2600     0.0010     6.7990     5.5270     5.7500  1104.8051   -24.3520
 2333.0000    11.2090   102.9380  1076.1110     2.5000     0.2590     0.0010     6.7990     5.5730     5.7800  1111.9730   -24.1250
 2333.5000    11.1970   107.3410  1083.9670     2.5080     0.2600     0.0070     6.5080     5.6180     5.8260  1119.1410   -23.6190
 2334.0000    11.1860   110.8160  1084.4301     2.5210     0.2610     0.0150     6.1830     5.8000     6.0650  1126.9041   -22.9670
 2334.5000    11.1740   108.9550  1080.7390     2.5340     0.2700     0.0280     5.8570     6.1350     6.3050  1105.9670   -22.1320
 2335.0000    11.1340    98.1310  1077.0470     2.5370     0.2800     0.0410     5.6410     7.1200     7.3210  1083.1360   -21.2870
 2335.5000    11.0880    84.8880  1073.3560     2.5100     0.2860     0.0350     5.6940     8.1800     8.6240  1060.3051   -20.4500
 2336.0000    11.0430    71.6880  1069.6639     2.4680     0.2640     0.0220     9.0040     9.2400     9.9720  1037.4730   -19.7450
 2336.5000    11.0100    58.5120  1065.9730     2.4110     0.2310     0.0090    16.3000    10.4010    12.6700  1014.6420   -19.2720
 2337.0000    11.0140    49.8120  1062.2810     2.3870     0.1960     0.0040    27.4030    12.8650    15.4680  1023.4440   -18.7680
 2337.5000    11.0180    51.7200  1058.5900     2.3920     0.1730     0.0210    41.2510    15.8050    18.2650  1055.0570   -18.2620
 2338.0000    11.0210    57.9090  1054.8979     2.4060     0.1650     0.0260    41.2510    19.4720    21.0630  1086.2939   -18.3230
 2338.5000    11.0240    65.4030  1051.2070     2.4190     0.1690     0.0260    37.2590    23.1390    24.0680  1079.2550   -18.5210
 2339.0000    11.0270    70.0470  1047.5150     2.4290     0.1800     0.0240    32.3570    28.3900    27.3610  1067.8400   -18.7270
 2339.5000    11.0300    68.1130  1043.8240     2.4300     0.1920     0.0180    28.3900    28.3060    29.1960  1056.4240   -18.5360
 2340.0000    11.0330    64.0820  1040.1320     2.4230     0.2030     0.0130    28.3900    28.1160    29.4600  1045.6851   -18.0160
 2340.5000    11.0370    60.0600  1036.4410     2.4180     0.2150    -0.0030    28.6560    27.8640    29.7470  1058.3320   -18.1930
 2341.0000    11.0400    59.8120  1032.7490     2.4210     0.2140    -0.0050    32.1300    29.7150    35.8280  1073.0090   -18.5950
