~VERSION INFORMATION
 VERS.                2.0:   CWLS LOG ASCII STANDARD - VERSION 2.0
 WRAP.                 NO:   ONE LINE PER DEPTH STEP
~WELL INFORMATION
#MNEM.UNIT      DATA TYPE    INFORMATION
#----------   ------------   ------------------------------
 STRT.F            0.0000:   START DEPTH
 STOP.F         1165.5000:   STOP DEPTH
 STEP.F            0.5000:   STEP LENGTH
 NULL.          -999.2500:   NO VALUE
 COMP.   JOHN BROWN E & C:   COMPANY
 WELL. BROWN NPR 3 "X" 1 #63-14:   WELL
 FLD .                NPR:   FIELD
 LOC .      S14 T38N R78W:   LOCATION
 CNTY.            NATRONA:   COUNTY
 STAT.            WYOMING:   STATE
 CTRY. UNITED STATES OF AMERICA:   COUNTRY
 SRVC.     ATLAS WIRELINE:   SERVICE COMPANY
 DATE.        15-JAN-1992:   LOGDATE
 API .     49025224960000:   API NUMBER
~CURVE INFORMATION
#MNEM.UNIT       API CODE    CURVE DESCRIPTION
#----------   ------------   ------------------------------
 DEPT.F                  :   
 GRR .GAPI   07 310 01 00:   GAMMA RAY FROM RESISTIVITY
 RILD.OHMM   07 120 46 00:   INDUCTION LOG DEEP RESISTIVITY
 RILM.OHMM   07 120 44 00:   INDUCTION LOG MEDIUM RESISTIVITY
 TENR.LBS    07 635 01 00:   TENSION
~PARAMETER INFORMATION
#MNEM.UNIT          VALUE    DESCRIPTION
#----------   ------------   ------------------------------
 EKB .F         5270.0000:   Kelly bushing
 EGL .F         5260.0000:   Ground level
 EDF .F         5269.0000:   Drilling floor
 TD  .F         1160.0000:   Total depth
 DATE.        15-JAN-1992:   Date logged
 CLNT.            A2DTECH:   Client Code
 SL  . 1893' FNL & 1971' FEL:   Surface Location
 PD  .                 GL:   Permanent Datum
 EPD .F              5260:   Elevation Permanent Datum
 LMF .                 KB:   Log Measured From
 DMF .                 KB:   Drilling Measured From
 DAPD.F                10:   Feet Above Permanent Datum
 DD  .F              1160:   Depth driller
 DL  .F              1158:   Depth logger
 BLI .F              1150:   Bottom log interval
 CS1 .IN            9.625:   Casing size
 CBD1.       9.625" @ 50':   Casing driller 1
 CBL1.F                48:   Casing logger 1
 BS1 .IN             8.75:   Bit size
 BSD1.F              1160:   Depth drilled with bit1
 DFT .                AIR:   Type fluid in hole
 MRT .F                90:   Maximum recorded temp.
 LUN .            HL-6274:   Logging unit number
 LUL .             CASPER:   Logging unit location
 ENGI.             RAUTIO:   Recorded By
 WITN.        GARY STRONG:   Witnessed by
 ORIG.           5" PRINT:   Origin of data
 UWI .     49025224960000:   Unique Well ID
 DICO. A2D TECHNOLOGIES, INC.:   Digitizing Company
 TLI .F                 0:   Top log interval
~OTHER INFORMATION
~A    DEPT      GRR      RILD       RILM       TENR   
# ...
   73.0000   122.2470     5.7890     6.0050     6.7980
   73.5000   121.1620     5.6860     5.9120     6.7980
   74.0000   121.9680     5.5830     5.8250     6.7980
   74.5000   127.4930     5.4810     5.7210     6.7980
   75.0000   134.9220     5.4080     5.6130     6.7980
   75.5000   141.8050     5.4080     5.6130     6.7980
   76.0000   140.4140     5.4590     5.6690     6.7980
   76.5000   134.1870     5.5570     5.7780     6.7980
   77.0000   132.5460     5.6550     5.8860     6.7980
   77.5000   132.2060     5.7520     5.9940     6.7980
   78.0000   131.4910     5.8500     6.1020     6.7980
   78.5000   128.7570     5.9480     6.2110     6.7980
   79.0000   126.0290     6.0450     6.2930     6.7980
   79.5000   125.8370     6.1430     6.3390     6.7980
   80.0000   127.7430     6.2100     6.3840     6.7980
   80.5000   129.6860     6.2720     6.4300     6.7980
   81.0000   127.6020     6.3340     6.4760     6.7980
   81.5000   125.5860     6.3960     6.5220     6.7980
   82.0000   126.1820     6.4570     6.5710     6.7980
   82.5000   126.7380     6.5110     6.6320     6.7980
   83.0000   127.0130     6.4040     6.5750     6.7980
   83.5000   124.9090     6.2730     6.4500     6.7980
   84.0000   122.8460     6.1120     6.3300     6.7980
   84.5000   120.8100     5.9460     6.1740     6.7980
   85.0000   119.5480     5.7800     6.0180     6.7980
   85.5000   123.5400     5.6140     5.8630     6.7980
   86.0000   127.4840     5.4480     5.7070     6.7980
   86.5000   130.6970     5.3090     5.5510     6.7980
   87.0000   129.8860     5.3090     5.4080     6.7980
   87.5000   129.1360     5.3820     5.5110     6.7980
   88.0000   127.7780     5.4630     5.6270     6.7980
   88.5000   125.4460     5.5440     5.7430     6.7980
   89.0000   123.0980     5.6650     5.8590     6.7980
   89.5000   122.7370     5.6540     5.9340     6.7980
   90.0000   123.4130     5.6340     5.9100     6.7980
   90.5000   122.3250     5.6150     5.8840     6.7980
   91.0000   121.2110     5.5950     5.8590     6.7980
   91.5000   121.8560     5.5760     5.8340     6.7980
   92.0000   122.1470     5.5610     5.7970     6.7980
   92.5000   121.6180     5.5240     5.7330     6.7980
   93.0000   121.0640     5.4890     5.6690     6.7980
   93.5000   123.5200     5.4540     5.6050     6.7980
   94.0000   126.3760     5.4180     5.5410     6.7980
   94.5000   126.3150     5.4080     5.4590     6.7980
   95.0000   126.3000     5.4280     5.5190     6.7980
   95.5000   127.0700     5.4430     5.5840     6.7980
   96.0000   128.3410     5.4590     5.6130     6.7980
   96.5000   128.7470     5.4590     5.5570     6.7980
   97.0000   127.8130     5.3450     5.4850     6.7980
   97.5000   127.0950     5.2640     5.4120     6.7980
   98.0000   127.0930     5.1820     5.3400     6.7980
   98.5000   126.2910     5.1000     5.2680     6.7980
   99.0000   124.4880     5.0180     5.1960     6.7980
   99.5000   122.7000     4.9750     5.1150     6.7980
  100.0000   121.0890     5.0430     5.1850     6.7980
  100.5000   119.7640     5.1140     5.2630     6.7980
  101.0000   119.3790     5.1860     5.3420     6.7980
  101.5000   119.9290     5.2570     5.4200     6.7980
  102.0000   121.1630     5.3290     5.4980     6.7980
  102.5000   123.7070     5.4000     5.5770     6.7980
  103.0000   126.2380     5.4720     5.6550     6.7980
  103.5000   128.6530     5.5430     5.7330     6.7980
  104.0000   129.7610     5.6130     5.8250     6.7980
  104.5000   120.1390     5.5760     5.7690     6.7980
  105.0000   120.1090     5.5320     5.7030     6.7980
  105.5000   120.3910     5.4880     5.6360     6.7980
  106.0000   120.7200     5.4440     5.5690     6.7980
  106.5000   118.3250     5.4000     5.5090     6.7980
  107.0000   119.5350     5.3560     5.4890     6.7980
  107.5000   122.9900     5.3090     5.4670     6.7980
  108.0000   127.2540     5.3190     5.4440     6.7980
  108.5000   130.6970     5.3370     5.4220     6.7980
  109.0000   130.5350     5.3550     5.4080     6.7980
  109.5000   126.8730     5.4110     5.5180     6.7980
  110.0000   124.5820     5.5420     5.7020     6.7980
  110.5000   124.3810     5.6740     5.8870     6.7980
  111.0000   122.5910     5.8060     6.0260     6.7980
  111.5000   121.0570     5.9250     6.1090     6.7980
  112.0000   121.0750     6.0410     6.1920     6.7980
  112.5000   120.7410     6.1580     6.2750     6.7980
  113.0000   120.0590     6.2160     6.3320     6.7980
  113.5000   119.8370     6.1830     6.3320     6.7980
  114.0000   122.7740     6.1010     6.2310     6.7980
  114.5000   125.0820     5.9090     6.0450     6.7980
  115.0000   126.0810     5.7050     5.8580     6.7980
  115.5000   127.1230     5.5020     5.6720     6.7980
  116.0000   126.2890     5.2990     5.4770     6.7980
  116.5000   121.9160     5.0960     5.2720     6.7980
  117.0000   116.2170     5.0210     5.1150     6.7980
  117.5000   113.0630     4.9290     5.0610     6.7980
  118.0000   114.6920     4.9290     5.0490     6.7980
  118.5000   118.2160     4.9290     5.0370     6.7980
  119.0000   121.7460     4.9290     5.0210     6.7980
  119.5000   125.3600     5.0590     5.1410     6.7980
  120.0000   127.1550     5.2020     5.3090     6.7980
  120.5000   128.0250     5.3450     5.4760     6.7980
  121.0000   127.0860     5.4880     5.6440     6.7980
  121.5000   125.8800     5.6320     5.8120     6.7980
  122.0000   124.4580     5.7590     5.9800     6.7980
  122.5000   124.8740     5.8610     6.0670     6.7980
  123.0000   127.1620     5.9640     6.1030     6.7980
  123.5000   128.4980     6.0660     6.1400     6.7980
  124.0000   128.9260     6.1170     6.1760     6.7980
  124.5000   130.2770     6.1510     6.2120     6.7980
  125.0000   132.7500     6.1850     6.2480     6.7980
  125.5000   133.4380     6.2160     6.2730     6.7980
  126.0000   128.6550     6.1140     6.2080     6.7980
  126.5000   123.2120     5.9800     6.1410     6.7980
  127.0000   122.3530     5.8460     6.0200     6.7980
  127.5000   122.2420     5.7110     5.9000     6.7980
  128.0000   123.4230     5.5770     5.7800     6.7980
  128.5000   127.5770     5.4430     5.6590     6.7980
  129.0000   129.4090     5.3090     5.5390     6.7980
  129.5000   128.0730     5.1740     5.4190     6.7980
  130.0000   121.5210     5.0400     5.2980     6.7980
  130.5000   115.4250     5.0210     5.1630     6.7980
  131.0000   114.5010     5.0920     5.2410     6.7980
  131.5000   119.2960     5.1630     5.3300     6.7980
  132.0000   125.2240     5.2620     5.4180     6.7980
  132.5000   131.4160     5.3700     5.5070     6.7980
  133.0000   132.6860     5.4790     5.5960     6.7980
  133.5000   127.8140     5.5870     5.6840     6.7980
  134.0000   120.3950     5.6950     5.7730     6.7980
  134.5000   117.0910     5.8040     5.8620     6.7980
  135.0000   117.5200     5.8610     5.9500     6.7980
  135.5000   120.9750     5.9210     6.0390     6.7980
  136.0000   125.2490     5.9800     6.1280     6.7980
  136.5000   126.3760     6.0450     6.2160     6.7980
  137.0000   124.1740     6.0310     6.0960     6.7980
  137.5000   120.4520     6.0200     6.0250     6.7980
  138.0000   239.6710     6.0090     5.9540     6.7980
  138.5000   400.6020     5.9980     5.9340     6.7980
  139.0000   401.0040     5.9340     5.9850     6.7980
  139.5000   401.0040     5.9340     6.0400     6.7980
  140.0000   401.0040     5.9970     6.0950     6.7980
  140.5000   323.0920     6.0510     6.1500     6.7980
  141.0000   122.1070     6.1050     6.2050     6.7980
  141.5000   121.2320     6.1580     6.2990     6.7980
  142.0000   120.3580     6.2250     6.4350     6.7980
  142.5000   118.9430     6.3300     6.5710     6.7980
  143.0000   116.8560     6.4340     6.7060     6.7980
  143.5000   118.4450     6.5390     6.8830     6.7980
  144.0000   120.4870     6.5710     6.8340     6.7980
  144.5000   122.5370     6.5480     6.7360     6.7980
  145.0000   124.5810     6.5280     6.6320     6.7980
  145.5000   126.6690     6.5110     6.7550     6.7980
