~VERSION INFORMATION
 VERS.                2.0:   CWLS LOG ASCII STANDARD - VERSION 2.0
 WRAP.                 NO:   ONE LINE PER DEPTH STEP
~WELL INFORMATION
#MNEM.UNIT      DATA TYPE    INFORMATION
#----------   ------------   ------------------------------
 STRT.F           81.0000:   START DEPTH
 STOP.F          910.0000:   STOP DEPTH
 STEP.F            0.5000:   STEP LENGTH
 NULL.          -999.2500:   NO VALUE
 COMP.         U. S. NAVY:   COMPANY
 WELL. US NAVY NPR 3 "S" #37-35:   WELL
 FLD .             TEAPOT:   FIELD
 LOC .      S35 T39N R78W:   LOCATION
 CNTY.            NATRONA:   COUNTY
 STAT.            WYOMING:   STATE
 CTRY. UNITED STATES OF AMERICA:   COUNTRY
 SRVC.       SCHLUMBERGER:   SERVICE COMPANY
 DATE.        22-JUL-1963:   LOGDATE
 API .     49025065040000:   API NUMBER
~CURVE INFORMATION
#MNEM.UNIT       API CODE    CURVE DESCRIPTION
#----------   ------------   ------------------------------
 DEPT.F                  :   
 SPR .MV     05 010 01 00:   SPONTANEOUS POTENTIAL FROM RES.
 ASN .OHMM   05 041 16 00:   AMPLIFIED SHORT NORMAL 16"
 ILD .OHMM   05 120 46 00:   INDUCTION LOG DEEP
~PARAMETER INFORMATION
#MNEM.UNIT          VALUE    DESCRIPTION
#----------   ------------   ------------------------------
 EKB .F         5113.0000:   Kelly bushing
 EGL .F         5108.0000:   Ground level
 TD  .F          900.0000:   Total depth
 DATE.        22-JUL-1963:   Date logged
 CLNT.            A2DTECH:   Client Code
 PD  .                 GL:   Permanent Datum
 EPD .F              5108:   Elevation Permanent Datum
 LMF .                 KB:   Log Measured From
 DMF .                 KB:   Drilling Measured From
 DAPD.F                 5:   Feet Above Permanent Datum
 DD  .F               900:   Depth driller
 DL  .F               900:   Depth logger
 BLI .F               899:   Bottom log interval
 TLI .F                81:   Top log interval
 BS1 .IN            7.875:   Bit size
 BSD1.F               900:   Depth drilled with bit1
 DFT .                GEL:   Type fluid in hole
 DFD .                9.6:   Density
 DFV .                 67:   Viscosity
 DFPH.                  9:   pH
 DFL .                4.8:   Fluid loss
 MSS .           FLOWLINE:   Source of sample
 RMS .OHMM            3.4:   Rm
 MST .F                77:   Rm Meas. temp.
 RMF .OHMM            3.3:   Rmf
 MFST.F                77:   Rmf Meas. temp.
 RMC .OHMM            3.8:   Rmc
 MCST.F                77:   Rmc Meas. temp.
 MFSS.                 FP:   Source Rmf.
 TCS .HRS               1:   Time Circ. stopped
 LUN .               2523:   Logging unit number
 LUL .               CSPR:   Logging unit location
 ENGI.            GIFFORD:   Recorded By
 WITN.          JORGENSON:   Witnessed by
 ORIG.           5" PRINT:   Origin of data
 UWI .     49025065040000:   Unique Well ID
 DICO. A2D TECHNOLOGIES, INC.:   Digitizing Company
~OTHER INFORMATION
~A   DEPT      SPR        ASN        ILD   
# ...
  809.0000   -37.6870     9.7570     9.9540
  809.5000   -39.0430    10.2740    11.1230
  810.0000   -40.5530    11.3060    12.2910
  810.5000   -43.6020    12.4530    13.4610
  811.0000   -46.6860    13.5950    14.7640
  811.5000   -49.8150    14.7400    16.3140
  812.0000   -50.4280    15.8880    17.8440
  812.5000   -48.7360    17.0300    19.2620
  813.0000   -47.3470    18.1370    19.5230
  813.5000   -47.7480    19.1720    19.8200
  814.0000   -50.0710    20.4350    20.1290
  814.5000   -52.5750    23.1850    20.3660
  815.0000   -55.1260    25.2490    20.7190
  815.5000   -55.0910    23.7320    21.0650
  816.0000   -53.9370    22.0820    21.0930
  816.5000   -52.7020    21.2650    20.7640
  817.0000   -52.1280    22.0580    20.4360
  817.5000   -52.8650    22.9580    20.2980
  818.0000   -53.5740    23.5530    20.8310
  818.5000   -54.2850    24.1000    21.3490
  819.0000   -54.6480    24.6430    21.8640
  819.5000   -54.3960    25.0370    22.3720
  820.0000   -54.2920    24.9370    22.6790
  820.5000   -54.8550    24.8510    22.3030
  821.0000   -55.4130    24.7780    21.9730
  821.5000   -55.9690    24.3270    22.0730
  822.0000   -56.5270    23.8390    22.1510
  822.5000   -56.7950    23.2990    21.8490
  823.0000   -55.5120    22.6970    20.8190
  823.5000   -54.4240    22.0960    19.7060
  824.0000   -55.6400    21.4990    18.5860
  824.5000   -57.5420    20.5390    17.4670
  825.0000   -59.3910    19.3480    16.4850
  825.5000   -58.6000    18.1560    15.7220
  826.0000   -55.3040    16.9670    14.9580
  826.5000   -51.6530    15.7770    14.1980
  827.0000   -47.9910    14.5780    13.4370
  827.5000   -48.6280    13.4890    12.6670
  828.0000   -49.1010    13.5020    12.5650
  828.5000   -49.0620    13.8560    12.7100
  829.0000   -50.8480    13.9200    12.7340
  829.5000   -53.1040    13.7950    12.7620
  830.0000   -55.3880    13.6670    12.7910
  830.5000   -56.2900    13.5400    12.8200
  831.0000   -54.2180    13.4120    12.8490
  831.5000   -52.0900    13.2840    12.8760
  832.0000   -49.9610    13.1740    12.8490
  832.5000   -48.7010    13.0990    12.6670
  833.0000   -48.9090    13.0230    12.4920
  833.5000   -49.1730    12.9480    12.3070
  834.0000   -49.3070    12.8730    12.0510
  834.5000   -49.2650    12.7980    11.7760
  835.0000   -48.4710    12.7250    11.5000
  835.5000   -47.7030    12.4740    11.2240
  836.0000   -47.2700    12.1450    10.9480
  836.5000   -47.9540    11.8150    10.6720
  837.0000   -48.6010    11.4860    10.3950
  837.5000   -48.0850    11.1560    10.1170
  838.0000   -46.3300    10.8230     9.8230
  838.5000   -44.5930    10.6900     9.7220
  839.0000   -42.8580    10.6580     9.6380
  839.5000   -41.1200    10.6260     9.5540
  840.0000   -39.3830    10.5960     9.4690
  840.5000   -37.6490    10.5650     9.3840
  841.0000   -35.9200    10.5340     9.3000
  841.5000   -34.8210    10.5030     9.2150
  842.0000   -34.5590    10.4730     9.1310
  842.5000   -34.4300    10.4420     9.0960
  843.0000   -34.3570    10.4120     9.0730
  843.5000   -34.2390    10.3810     9.0500
  844.0000   -34.1230    10.3500     9.0270
  844.5000   -34.0230    10.3200     9.0040
  845.0000   -33.7710    10.2890     8.9820
  845.5000   -33.3280    10.2580     8.9590
  846.0000   -33.0330    10.2280     8.9360
  846.5000   -33.0900    10.1970     8.9130
  847.0000   -33.4510    10.1660     8.8910
  847.5000   -33.8130    10.1360     8.8680
  848.0000   -34.1710    10.1050     8.8450
  848.5000   -34.4280    10.0740     8.8220
  849.0000   -34.1160    10.0430     8.8000
  849.5000   -33.8030    10.0120     8.7770
  850.0000   -33.4890    10.0560     8.7540
  850.5000   -33.1720    10.1070     8.7320
  851.0000   -32.8530    10.1580     8.7160
  851.5000   -32.5330    10.2090     8.8010
  852.0000   -32.2510    10.2600     8.9750
  852.5000   -32.0230    10.3100     9.1490
  853.0000   -32.1140    10.3600     9.3230
  853.5000   -32.2270    10.4340     9.5090
  854.0000   -32.3370    10.9830     9.9630
  854.5000   -32.4410    11.5340    10.7100
  855.0000   -32.4480    12.2950    11.4550
  855.5000   -32.4390    13.1880    12.2000
  856.0000   -32.6630    14.8790    13.5450
  856.5000   -34.6510    16.9910    15.6330
  857.0000   -37.1930    19.1030    17.7140
  857.5000   -39.7720    21.2150    19.7910
  858.0000   -40.5240    23.3270    21.8620
  858.5000   -38.3060    25.4390    23.9320
  859.0000   -37.7740    26.9420    25.3170
  859.5000   -39.8990    26.0980    24.1480
  860.0000   -44.1230    24.1140    22.2840
  860.5000   -49.8980    22.1610    20.4170
  861.0000   -49.9110    21.7500    19.6930
  861.5000   -48.6260    21.3000    19.2160
  862.0000   -47.3210    19.2290    18.7440
  862.5000   -46.7020    19.1380    18.2780
  863.0000   -45.6640    18.9030    17.8160
  863.5000   -43.5570    18.7000    17.3670
  864.0000   -43.7250    18.4910    16.9170
  864.5000   -43.9610    18.2910    16.4680
  865.0000   -43.8220    18.3610    16.1730
  865.5000   -42.9170    17.9540    16.1500
  866.0000   -42.0010    17.6910    16.1220
  866.5000   -41.5150    17.4270    16.0950
  867.0000   -40.8400    17.1620    15.8880
  867.5000   -39.5180    16.8970    15.5480
  868.0000   -37.7370    16.6310    15.2070
  868.5000   -36.9510    16.3660    14.8660
  869.0000   -39.4560    16.1020    14.5250
  869.5000   -38.3880    15.8360    14.1820
  870.0000   -37.1650    15.5700    13.7850
  870.5000   -36.0570    15.2990    13.9310
  871.0000   -35.8010    15.3890    14.2350
  871.5000   -35.5220    15.5240    14.5440
  872.0000   -35.7360    15.6590    14.7560
  872.5000   -36.1620    15.7940    14.8800
  873.0000   -36.5960    15.9290    15.0040
  873.5000   -37.0330    16.0640    15.1280
  874.0000   -37.4700    16.1690    15.2570
  874.5000   -37.9040    16.0520    15.2430
  875.0000   -38.0950    15.9310    15.1820
  875.5000   -37.5930    15.8110    15.1200
  876.0000   -36.0400    15.6910    14.9650
  876.5000   -35.0730    15.5700    14.7130
  877.0000   -34.4880    15.4500    14.4630
  877.5000   -33.8890    15.2330    14.2120
  878.0000   -34.1430    14.9110    13.9610
  878.5000   -35.0280    14.5900    13.7090
  879.0000   -35.0460    14.2690    13.4580
  879.5000   -34.6600    13.9480    13.2070
  880.0000   -34.8460    13.6260    12.9560
  880.5000   -34.1880    13.3050    12.7040
  881.0000   -34.1300    12.9830    12.4530
  881.5000   -34.8500    12.6620    12.2020
  882.0000   -34.5600    12.3420    11.9510
  882.5000   -33.7110    12.0170    11.7000
  883.0000   -32.8590    11.8850    11.4480
  883.5000   -32.0010    11.8090    11.2110
  884.0000   -31.1540    11.7990    11.1890
  884.5000   -31.0540    11.7930    11.1750
  885.0000   -31.0520    11.7890    11.1600
  885.5000   -31.0510    11.7840    11.1450
  886.0000   -31.0460    11.7800    11.1310
  886.5000   -30.9130    11.7750    11.1160
  887.0000   -30.3240    11.7700    11.1010
  887.5000   -29.7490    11.7660    11.0860
  888.0000   -29.6510    11.7610    11.0710
  888.5000   -29.5860    11.7570    11.0570
  889.0000   -29.5250    11.7520    11.0420
  889.5000   -29.4550    11.7480    11.0270
  890.0000   -29.1890    11.7430    11.0120
  890.5000   -28.9200    11.7380    11.0100
  891.0000   -28.6510    11.7340    11.0160
  891.5000   -28.3810    11.7290    11.0230
  892.0000   -28.2760    11.7250    11.0290
  892.5000   -28.2760    11.7200    11.0350
  893.0000   -28.3180    11.7150    11.0420
  893.5000   -28.3630    11.7110    11.0480
  894.0000   -28.4080    11.7060    11.0550
  894.5000   -28.4530    11.7040    11.0610
  895.0000   -28.4720    11.7130    11.0670
  895.5000   -28.4730    11.7220    11.0740
  896.0000   -28.4850    11.7310    11.0800
  896.5000   -28.7360    11.7400    11.0870
  897.0000   -29.6240    11.7490    11.0930
  897.5000   -29.6510    11.7580    11.0990
  898.0000   -29.5080    11.7670    11.1060
  898.5000   -29.4950    11.7760    11.1120
  899.0000   -30.4180    11.7840    11.1190
  899.5000   -32.8370    11.7930    11.1250
