~VERSION INFORMATION
 VERS.                2.0:   CWLS LOG ASCII STANDARD - VERSION 2.0
 WRAP.                 NO:   ONE LINE PER DEPTH STEP
~WELL INFORMATION
#MNEM.UNIT      DATA TYPE    INFORMATION
#----------   ------------   ------------------------------
 STRT.F          540.0000:   START DEPTH
 STOP.F         4100.0000:   STOP DEPTH
 STEP.F            0.5000:   STEP LENGTH
 NULL.          -999.2500:   NO VALUE
 COMP. LAWRENCE ALISON & ASSOC.,WEST:   COMPANY
 WELL. LAWRENCE "X" #15-11:   WELL
 FLD .              N P R:   FIELD
 LOC .      S11 T38N R78W:   LOCATION
 CNTY.            NATRONA:   COUNTY
 STAT.            WYOMING:   STATE
 CTRY. UNITED STATES OF AMERICA:   COUNTRY
 SRVC.      DRESSER ATLAS:   SERVICE COMPANY
 DATE.        18-MAY-1985:   LOGDATE
 API .     49025110220000:   API NUMBER
~CURVE INFORMATION
#MNEM.UNIT       API CODE    CURVE DESCRIPTION
#----------   ------------   ------------------------------
 DEPT.F                  :   
 NPHI.DEC    42 890 03 00:   NEUTRON POROSITY SANDSTONE
 RHOB.G/C3   45 350 01 00:   BULK DENSITY
 CORR.G/C3   45 356 01 00:   DENSITY CORRECTION
 TEND.LBS    45 635 01 00:   TENSION FROM DENSITY LOG
 GRD .GAPI   45 310 01 00:   GAMMA RAY FROM DENSITY LOG
 CALD.IN     45 280 60 00:   CALIPER FROM DENSITY LOG
 SPR .MV     07 010 01 00:   SPONTANEOUS POTENTIAL
 RILD.OHMM   07 120 46 00:   DEEP INDUCTION RESISTIVITY
 RILM.OHMM   07 120 44 00:   INDUCTION LOG MEDIUM RESISTIVITY
 RFOC.OHMM   07 220 04 00:   RESISTIVITY FOCUSED LOG RES.
 TENR.LBS    07 635 01 00:   TENSION FROM RESISTIVITY
~PARAMETER INFORMATION
#MNEM.UNIT          VALUE    DESCRIPTION
#----------   ------------   ------------------------------
 EKB .F         5201.0000:   Kelly bushing
 EGL .F         5189.0000:   Ground level
 EDF .F         5200.0000:   Drilling floor
 TD  .F         4095.0000:   Total depth
 DATE.        18-MAY-1985:   Date logged
 CLNT.            A2DTECH:   Client Code
 SL  . 2203' FSL & 377' FWL:   Surface Location
 PD  .                 GL:   Permanent Datum
 EPD .F              5189:   Elevation Permanent Datum
 LMF .                 KB:   Log Measured From
 DMF .                 KB:   Drilling Measured From
 DAPD.F                12:   Feet Above Permanent Datum
 DD  .F              4095:   Depth driller
 DL  .F              4093:   Depth logger
 BLI .F              4091:   Bottom log interval
 TLI .F                 0:   Top log interval
 CS1 .IN            8.625:   Casing size
 CBD1.      8.625" @ 565':   Casing driller 1
 CBL1.F               565:   Casing logger 1
 BS1 .IN            7.875:   Bit size
 BSD1.F              4095:   Depth drilled with bit1
 DFT .            GEL KCL:   Type fluid in hole
 DFD .                9.2:   Density
 DFV .                 40:   Viscosity
 DFPH.                8.0:   pH
 DFL .                9.0:   Fluid loss
 MSS .            MUDTANK:   Source of sample
 RMS .OHMM            .57:   Rm
 MST .F                69:   Rm Meas. temp.
 RMF .OHMM            .49:   Rmf
 MFST.F                69:   Rmf Meas. temp.
 RMC .OHMM            .71:   Rmc
 MCST.F                69:   Rmc Meas. temp.
 MFSS.               MEAS:   Source Rmf.
 MCSS.               CALC:   Source Rmc.
 RMB .OHMM            .30:   Rm. at BHT
 BHT .F               139:   BHT.
 TCS .HRS               4:   Time Circ. stopped
 MRT .F               139:   Maximum recorded temp.
 LUN .            HL 6302:   Logging unit number
 LUL .               CODY:   Logging unit location
 ENGI.              GETTY:   Recorded By
 WITN.              FIVAS:   Witnessed by
 ORIG.           5" PRINT:   Origin of data
 UWI .     49025110220000:   Unique Well ID
 DICO. A2D TECHNOLOGIES, INC.:   Digitizing Company
~OTHER INFORMATION
~A   DEPT     NPHI       RHOB       CORR        TEND        GRD      CALD        SPR       RILD       RILM       RFOC       TENR   
# ...
 3590.0000     0.2680     2.4090    -0.0160   -66.6090   122.3930     8.7990    -8.4340     6.1960     5.7360     5.7740   -58.0650
 3590.5000     0.2730     2.4030    -0.0090   -69.9180   121.5840     8.7990    -8.9610     6.1640     5.6950     5.6750   -58.7370
 3591.0000     0.2770     2.4010    -0.0060   -78.5870   121.8510     8.7990    -9.4890     6.1310     5.6540     5.8850   -66.3760
 3591.5000     0.2810     2.4000    -0.0100   -87.2570   123.2200     8.7990   -10.0170     6.0990     5.5720     5.9940   -74.0150
 3592.0000     0.2800     2.3970    -0.0150   -95.9270   124.9740     8.7990   -10.5470     6.0660     5.5720     6.3520   -81.6540
 3592.5000     0.2760     2.3920    -0.0190  -104.5970   128.1180     8.7990   -11.0180     6.0010     5.6090     6.7640   -89.2930
 3593.0000     0.2740     2.3920    -0.0200  -103.0920   129.5910     8.7990   -10.8010     5.8230     5.6630     7.0650   -96.3830
 3593.5000     0.2850     2.3930    -0.0160  -100.0710   129.1410     8.8000   -10.5760     5.6460     5.7170     6.8900   -91.5440
 3594.0000     0.2960     2.3920    -0.0120   -97.0500   130.3470     8.7420   -10.3540     5.6110     5.7710     6.5220   -87.0300
 3594.5000     0.2810     2.3850    -0.0050   -94.0280   132.3140     8.7930   -10.1330     5.5970     5.8260     6.1530   -82.5160
 3595.0000     0.2640     2.3780     0.0180   -91.0070   133.8740     8.8450    -9.9120     5.5820     5.4890     5.7840   -78.0030
 3595.5000     0.2490     2.3720     0.0440   -87.9860   127.1910     8.8820    -9.6900     5.5340     5.2090     5.4160   -73.4890
 3596.0000     0.2490     2.3800     0.0520   -85.8210   118.2250     8.9140    -9.4690     5.3990     4.9280     5.3720   -68.9750
 3596.5000     0.2700     2.3970     0.0430   -85.8210   109.5470     8.9290    -9.2480     5.2750     4.4980     7.3480   -67.7440
 3597.0000     0.2920     2.4100     0.0470   -85.8210   121.2010     8.8980    -9.0260     4.1990     3.7290     9.1720   -70.0000
 3597.5000     0.3030     2.3360     0.0700   -85.8210   143.2380     8.9660    -8.8050     4.2060     4.0170     9.3750   -72.2550
 3598.0000     0.3040     2.2340     0.1040   -85.8210   166.1970     9.2860    -8.5850     4.2190     4.5990     6.1260   -74.5110
 3598.5000     0.2870     2.1800     0.1340   -85.8210   173.3900     9.4850    -8.3640     4.2330     5.1790     3.6050   -76.7670
 3599.0000     0.2710     2.2200     0.1000   -85.8210   143.4280     8.7440    -8.3530     4.2470     5.5570     2.8360   -79.0220
 3599.5000     0.2550     2.3080     0.0370   -85.8210   115.0460     8.7430    -8.5560     4.2610     5.7300     3.7480   -81.2780
 3600.0000     0.2440     2.3990     0.0100   -85.8210   100.1850     8.7530    -8.7590     4.2760     5.8860     7.5090   -83.5340
 3600.5000     0.2530     2.4990     0.0440   -85.8210   103.0350     8.7590    -8.9630     4.5850     5.7950     9.5480   -85.7890
 3601.0000     0.2600     2.4890     0.0700   -85.8210   111.7200     8.7580    -9.1660     5.2040     5.6940     8.3780   -83.1340
 3601.5000     0.2680     2.4690     0.0860   -85.8210   122.5540     8.7570    -9.3700     5.8230     5.6230     7.1700   -78.3480
 3602.0000     0.2720     2.4210     0.0970   -85.8210   128.5640     8.7560    -9.5740     6.4420     6.0790     5.8320   -73.5620
 3602.5000     0.2640     2.3750     0.1090   -85.8210   124.0270     8.7550    -9.7780     7.0610     6.4320     5.9120   -68.7760
 3603.0000     0.2590     2.3590     0.1110   -85.8210   117.2280     8.7540   -10.1350     7.1300     6.7840     6.5640   -63.9900
 3603.5000     0.2580     2.3620     0.1070   -85.8210   110.7570     8.7530   -10.5600     7.1300     7.1360     7.7280   -59.2040
 3604.0000     0.2620     2.3740     0.0530   -82.7220   105.3590     8.7520   -10.9820     7.0650     7.4880     8.7950   -53.7410
 3604.5000     0.2730     2.4160     0.0030   -75.8710   103.5950     8.7510   -11.4050     7.1530     7.6700     9.0100   -47.5590
 3605.0000     0.2770     2.4580     0.0010   -22.1390   105.4900     8.7500   -11.4770     7.2210     7.6050     9.0390   -41.3780
 3605.5000     0.2690     2.4760     0.0150    30.1170   115.8650     8.7490   -11.1640     7.2900     7.5310     8.0100    -7.0700
 3606.0000     0.2630     2.4690     0.0420    82.3730   126.2120     8.7480   -10.8530     7.3580     7.4620     7.0250    91.9230
 3606.5000     0.2600     2.4540     0.0700   103.2340   136.3430     8.7470   -10.5400     7.4260     7.6660     5.5220   102.2050
 3607.0000     0.2650     2.4310     0.0980     4.9250   136.3380     8.7460   -10.2260     7.4620     7.9550     5.7440    29.6830
 3607.5000     0.2690     2.4130     0.1110   -55.9700   131.3800     8.7450    -9.9130     7.1340     7.4400     6.2130    -8.7620
 3608.0000     0.2730     2.4200     0.0810   -11.3180   122.8100     8.7440    -9.6020     6.3360     6.3470     8.8960    58.6760
 3608.5000     0.2780     2.4330     0.0510   103.2340   112.3670     8.7430    -9.2860     5.1890     5.2540    12.6400   121.6550
 3609.0000     0.2760     2.4340     0.0780    54.0570   120.9470     8.7420    -8.4520     4.0430     4.1620    13.1420    67.4230
 3609.5000     0.2810     2.4040     0.1150   -33.6820   136.3180     8.7410    -7.5370     2.8960     3.0690     9.5110     4.7800
 3610.0000     0.3130     2.3900     0.1440   -63.9740   156.7300     8.7400    -6.6220     2.2760     2.0230     6.4320   -57.8630
 3610.5000     0.3170     2.3850     0.0890   -74.7030   181.4800     8.7390    -5.7060     2.2680     2.1390     3.3540   -71.6520
 3611.0000     0.3000     2.3880     0.0480   -85.4320   196.3070     8.7390    -4.7510     2.2600     2.3930     1.8800   -77.4700
 3611.5000     0.2870     2.3920     0.0510   -96.1610   185.5660     8.7390    -4.6040     2.2570     2.6470     1.9690   -83.2890
 3612.0000     0.2710     2.4070     0.0590  -105.1370   163.2060     8.7390    -4.7790     2.4780     2.8880     2.1170   -84.0500
 3612.5000     0.2740     2.4250     0.0540   -99.7730   131.1320     8.7390    -4.9660     2.6880     3.8360     5.1830   -78.7040
 3613.0000     0.2800     2.4330     0.0430   -94.4080   105.8670     8.7390    -5.1530     2.8880     4.9190     8.0970   -73.3570
 3613.5000     0.2670     2.4420     0.0320   -89.0440    99.1330     8.7390    -5.3380     4.3500     6.0020    11.0110   -68.0110
 3614.0000     0.2610     2.4420     0.0220   -83.6790    95.1890     8.7390    -5.5280     5.7450     7.0840    11.8760   -62.6640
 3614.5000     0.2660     2.4380     0.0110   -78.3150    93.3760     8.7390    -5.8500     7.1410     8.1670    12.1060   -57.3180
 3615.0000     0.2800     2.4340     0.0030   -72.9500    96.7280     8.7390    -6.6670     8.4800     9.2060    10.9380   -51.9710
 3615.5000     0.2880     2.4330    -0.0010   -67.5860   102.9080     8.7390    -7.4700     9.2060     9.4410     9.9980   -46.8290
 3616.0000     0.2880     2.4340    -0.0060   -62.2220   107.9100     8.7390    -8.2750     8.7620     9.1920     8.7150   -48.4860
 3616.5000     0.2890     2.4410    -0.0060   -56.8570   110.6810     8.7390    -9.4800     8.3350     8.7690     8.8290   -50.4640
 3617.0000     0.2820     2.4440    -0.0010   -55.9700   111.6620     8.7390   -10.6800     7.9070     8.3460     9.0890   -52.4420
 3617.5000     0.2680     2.4430     0.0130   -55.9700   111.9350     8.7390   -11.8090     7.4800     7.9230     9.3750   -54.4200
 3618.0000     0.2600     2.4230     0.0330   -55.9700   119.7840     8.7390   -11.6810     7.0650     7.5000     8.4930   -56.3980
 3618.5000     0.2660     2.3930     0.0950   -55.9700   128.0750     8.7390   -11.4930     6.7970     7.0780     7.4280   -54.8590
 3619.0000     0.2720     2.3810     0.0850   -55.9700   133.5480     8.7390   -11.3070     6.4730     6.6880     6.3900   -51.8620
 3619.5000     0.2780     2.3930     0.0710   -55.9700   127.3380     8.7390   -11.1220     6.1500     6.3620     7.0790   -48.8650
 3620.0000     0.2810     2.4090     0.0550   -55.9700   125.7580     8.7390   -10.9380     5.8320     6.0490     8.4030   -45.8670
