~VERSION INFORMATION
 VERS.                2.0:   CWLS LOG ASCII STANDARD - VERSION 2.0
 WRAP.                 NO:   ONE LINE PER DEPTH STEP
~WELL INFORMATION
#MNEM.UNIT      DATA TYPE    INFORMATION
#----------   ------------   ------------------------------
 STRT.F          206.0000:   START DEPTH
 STOP.F         3218.0000:   STOP DEPTH
 STEP.F            0.5000:   STEP LENGTH
 NULL.          -999.2500:   NO VALUE
 COMP.    FENIX & SCISSON:   COMPANY
 WELL.     FENIX AX #16-2:   WELL
 FLD .              NPR 3:   FIELD
 LOC .       S2 T38N R78W:   LOCATION
 CNTY.            NATRONA:   COUNTY
 STAT.            WYOMING:   STATE
 CTRY. UNITED STATES OF AMERICA:   COUNTRY
 SRVC.       SCHLUMBERGER:   SERVICE COMPANY
 DATE.        10-OCT-1977:   LOGDATE
 API .     49025105780000:   API NUMBER
~CURVE INFORMATION
#MNEM.UNIT       API CODE    CURVE DESCRIPTION
#----------   ------------   ------------------------------
 DEPT.F                  :   
 GRD .GAPI   45 310 01 00:   GAMMA RAY FROM DENSITY LOG
 CALD.IN     45 280 60 00:   CALIPER FROM DENSITY LOG
 RHOB.G/C3   45 350 01 00:   BULK DENSITY
 CORR.G/C3   45 356 01 00:   DENSITY CORRECTION
 SPR .MV     07 010 01 00:   SPONTANEOUS POTENTIAL FROM RES.
 RILD.OHMM   07 120 46 00:   DEEP INDUCTION RESISTIVITY
 RILM.OHMM   07 120 44 00:   INDUCTION LOG MEDIUM RESISTIVITY
 RLL8.OHMM   07 220 08 00:   LATEROLOG-8 RES.
~PARAMETER INFORMATION
#MNEM.UNIT          VALUE    DESCRIPTION
#----------   ------------   ------------------------------
 EKB .F         5123.0000:   Kelly bushing
 EGL .F         5113.0000:   Ground level
 EDF .F            0.0000:   Drilling floor
 TD  .F         3220.0000:   Total depth
 CLNT.            A2DTECH:   Client Code
 SL  . 1772' FSL & 576' FWL:   Surface Location
 PD  .                 GL:   Permanent Datum
 EPD .F              5113:   Elevation Permanent Datum
 LMF .                 KB:   Log Measured From
 DMF .                 KB:   Drilling Measured From
 DAPD.F                10:   Feet Above Permanent Datum
 DATE.        10-OCT-1977:   Date Logged [DD-MMM-YYYY]
 DD  .F              3220:   Depth driller
 DL  .F              3218:   Depth logger
 BLI .F              3212:   Bottom log interval
 TLI .F               223:   Top log interval
 CS1 .IN            8.625:   Casing size
 CBD1.      8.625" @ 222':   Casing driller 1
 CBL1.F               223:   Casing logger 1
 BS1 .IN            7.875:   Bit size
 BSD1.F              3220:   Depth drilled with bit1
 DFT .                KCL:   Type fluid in hole
 DFD .                8.6:   Density
 DFV .                 32:   Viscosity
 DFPH.                 11:   pH
 MSS .            MUD PIT:   Source of sample
 RMS .OHMM           0.29:   Rm
 MST .F                82:   Rm Meas. temp.
 RMF .OHMM          0.228:   Rmf
 MFST.F                81:   Rmf Meas. temp.
 MFSS.               MEAS:   Source Rmf.
 RMB .OHMM           0.21:   Rm. at BHT
 BHT .F               122:   BHT.
 TCS .HRS            0600:   Time Circ. stopped
 MRT .F               122:   Maximum recorded temp.
 LUN .               5642:   Logging unit number
 ENGI. CHALUPSKY PETERSON:   Recorded By
 WITN.     WES PETTINGILL:   Witnessed by
 ORIG.           5" PRINT:   Origin of data
 UWI .     49025105780000:   Unique Well ID
 DICO. A2D TECHNOLOGIES, INC.:   Digitizing Company
 TLAB.HRS            1000:   Time logger at bottom
 LUL .               CSPR:   Logging unit location
~OTHER INFORMATION
~A   DEPT       GRD      CALD       RHOB       CORR        SPR       RILD       RILM       RLL8   
# ...
  813.5000   123.5736    10.6503     2.5239     0.0133   -62.9804     7.7627     6.8537     8.0957
  814.0000   122.6687    10.6661     2.5097     0.0080   -61.7073     7.6586     6.7240     8.0449
  814.5000   123.1231    10.6523     2.5082     0.0103   -60.3727     7.5528     6.5879     7.9419
  815.0000   122.9730    10.6388     2.5135     0.0134   -59.4033     7.4093     6.4085     7.8381
  815.5000   123.2733    10.6399     2.5188     0.0187   -59.1031     7.2597     6.1897     7.5695
  816.0000   124.0240    10.6411     2.5256     0.0225   -58.4466     7.0626     6.0643     7.3084
  816.5000   124.6246    10.6423     2.5347     0.0225   -57.8653     6.7733     5.8572     7.0175
  817.0000   124.0240    10.6437     2.5287     0.0218   -58.0554     6.4495     5.7387     6.8276
  817.5000   124.6246    10.6449     2.5152     0.0202   -58.7754     6.2297     5.6211     6.5955
  818.0000   125.9821    10.6460     2.4987     0.0135   -59.2604     6.1902     5.5086     6.4170
  818.5000   127.6276    10.6472     2.4987     0.0022   -60.3173     6.2428     5.4747     6.3313
  819.0000   126.5766    10.6484     2.5011     0.0136   -61.2037     6.2493     5.4396     6.2933
  819.5000   125.5255    10.6495     2.4995     0.0166   -61.7443     6.1627     5.4077     6.3022
  820.0000   125.3754    10.6507     2.4876    -0.0044   -62.5935     6.0442     5.3375     6.2180
  820.5000   125.3754    10.6417     2.4839    -0.0037   -63.9280     5.9222     5.2669     6.1368
  821.0000   125.2252    10.6079     2.4832    -0.0021   -64.7320     5.7614     5.0508     5.9723
  821.5000   125.2252    10.5941     2.4900    -0.0013   -65.4653     5.6049     4.8436     5.8107
  822.0000   126.9330    10.5956     2.4893     0.0077   -66.5942     5.4527     4.5790     5.6101
  822.5000   130.3303    10.5967     2.4773     0.0131   -66.5570     5.3426     4.4852     5.3369
  823.0000   126.7267    10.5979     2.4788     0.0108   -65.7677     5.3866     4.5880     5.0559
  823.5000   125.5255    10.5841     2.4813     0.0176   -65.2976     5.4698     4.6920     5.1343
  824.0000   124.1742    10.5855     2.4857     0.0199   -64.3168     5.5148     4.7984     5.2890
  824.5000   123.1231    10.5867     2.4917     0.0222   -63.0406     5.6029     4.9423     5.5267
  825.0000   123.4234    10.5879     2.5023     0.0222   -61.5424     5.7345     5.0184     5.6932
  825.5000   123.1231    10.5890     2.5173     0.0079   -60.3127     5.9011     5.1352     5.9067
  826.0000   120.5146    10.5902     2.5188     0.0216   -59.7114     6.0353     5.2143     6.0846
  826.5000   119.3694    10.5764     2.5091     0.0110   -59.1802     6.1286     5.2962     6.2233
  827.0000   121.0210    10.5775     2.5069     0.0080   -59.1896     6.2233     5.4126     6.2303
  827.5000   126.1261    10.5937     2.5046     0.0051   -58.9613     6.2745     5.4179     6.2373
  828.0000   130.3303    10.5951     2.5010     0.0111   -59.1885     6.2811     5.4621     6.1999
  828.5000   128.8288    10.5963     2.4958     0.0134   -59.9318     6.2426     5.4272     6.1627
  829.0000   125.9760    10.5975     2.4981     0.0112   -60.7196     6.2048     5.4339     6.1698
  829.5000   125.0751    10.5986     2.5011     0.0022   -61.5263     6.1672     5.4005     6.1782
  830.0000   125.0751    10.5998     2.5019     0.0112   -62.2902     6.1297     5.3660     6.2295
  830.5000   124.6246    10.6009     2.4824    -0.0046   -63.1163     6.1377     5.3726     6.2365
  831.0000   124.0240    10.6021     2.4712    -0.0008   -63.7021     6.1441     5.3778     6.2882
  831.5000   124.4745    10.6033     2.4767     0.0038   -64.6943     6.1506     5.4606     6.2944
  832.0000   127.9279    10.6047     2.4863    -0.0060   -65.2745     6.2012     5.4661     6.3023
  832.5000   129.8799    10.6209     2.4908    -0.0007   -66.0864     6.2522     5.5119     6.3094
  833.0000   130.3303    10.6220     2.5021     0.0077   -66.5475     6.3488     5.5569     6.3165
  833.5000   129.2533    10.6232     2.5194     0.0186   -66.3062     6.4469     5.6424     6.4145
  834.0000   127.3273    10.6244     2.5157     0.0266   -65.7557     6.5466     5.6479     6.5607
  834.5000   127.4775    10.6255     2.5060     0.0153   -65.1690     6.6478     5.6940     6.7103
  835.0000   128.0781    10.6267     2.4917    -0.0020   -63.9541     6.6549     5.6576     6.8157
  835.5000   128.2282    10.6129     2.4805     0.0040   -62.4598     6.5515     5.6646     6.7247
  836.0000   127.1772    10.6143     2.4821     0.0063   -60.8075     6.5120     5.5897     6.5445
  836.5000   125.6757    10.6155     2.4851    -0.0035   -59.9860     6.4296     5.5952     6.3674
  837.0000   125.6687    10.6009     2.4889    -0.0004   -59.3780     6.3467     5.5211     6.1951
  837.5000   128.9037    10.5972     2.4897     0.0005   -59.1496     6.3071     5.4482     6.1562
  838.0000   131.5315    10.5935     2.4890     0.0027   -58.7963     6.2703     5.3761     6.1206
  838.5000   132.4324    10.5897     2.4853     0.0118   -59.1303     6.2327     5.3431     6.1276
  839.0000   133.1832    10.5860     2.4860     0.0050   -59.7246     6.2383     5.3497     6.1347
  839.5000   133.9339    10.5822     2.4923     0.0005   -60.4142     6.2439     5.3168     6.2300
  840.0000   134.2342    10.5787     2.5079     0.0149   -61.1140     6.2505     5.3220     6.2431
  840.5000   128.8288    10.5801     2.5072     0.0171   -61.8075     6.2560     5.3272     6.2456
  841.0000   123.7237    10.5813     2.5012     0.0117   -62.7521     6.2169     5.2945     6.2526
  841.5000   119.6326    10.5824     2.4945    -0.0039   -63.6926     6.1808     5.2606     6.2140
  842.0000   118.4685    10.5836     2.4930    -0.0046   -64.6773     6.1863     5.2671     6.1339
  842.5000   118.3183    10.5848     2.5126     0.0060   -65.4684     6.1476     5.2335     6.0953
  843.0000   119.5195    10.5859     2.5036     0.0150   -65.9197     6.0698     5.2024     6.0157
  843.5000   120.5706    10.5871     2.5037     0.0090   -66.2570     6.0751     5.1706     6.0224
  844.0000   119.2192    10.5885     2.5067     0.0128   -66.1240     6.0806     5.1757     5.9863
  844.5000   116.0661    10.5897     2.5060     0.0091   -65.9508     6.0451     5.1809     5.9947
  845.0000   115.7658    10.5909     2.5015     0.0038   -66.3561     6.0087     5.1489     6.0014
  845.5000   117.0160    10.5920     2.4918     0.0167   -64.8165     6.0140     5.1552     6.0081
  846.0000   118.4685    10.5932     2.4948     0.0182   -63.4661     6.0193     5.1223     6.0149
  846.5000   119.9700    10.5791     2.4994     0.0122   -61.4351     5.9817     5.0908     6.0246
  847.0000   120.8709    10.5805     2.5062     0.0183   -60.0016     5.9883     5.0964     6.0719
  847.5000   121.6216    10.5967     2.5053     0.0161   -59.5013     5.9935     5.0645     6.0801
  848.0000   121.7718    10.5979     2.4867    -0.0065   -59.0246     5.9988     5.0334     6.0425
  848.5000   121.4715    10.5993     2.4703    -0.0057   -59.1339     6.0041     5.0395     6.0073
  849.0000   121.3213    10.6005     2.4575    -0.0111   -59.1194     6.0095     5.0445     6.0132
  849.5000   121.7718    10.6016     2.4643    -0.0102   -59.7870     6.0159     5.0494     6.0201
  850.0000   122.2222    10.6028     2.4741     0.0147   -59.7536     6.0212     5.0544     6.0712
  850.5000   122.6350    10.6040     2.4862     0.0253   -60.6860     6.0265     5.1338     6.0776
  851.0000   123.1273    10.6051     2.5072     0.0185   -61.5609     6.0736     5.2135     6.0839
  851.5000   123.5831    10.6078     2.5237     0.0238   -62.4323     6.0790     5.2194     6.0903
  852.0000   122.8353    10.6150     2.5182     0.0224   -63.3033     6.0410     5.2252     6.0967
  852.5000   122.2376    10.6222     2.5058     0.0149   -64.1693     6.0476     5.2311     6.1031
  853.0000   122.3907    10.6294     2.4926     0.0103   -65.0909     6.0529     5.1996     6.1095
  853.5000   122.9942    10.6366     2.4829     0.0013   -65.6713     6.0583     5.2054     6.1158
