~VERSION INFORMATION
 VERS.                2.0:   CWLS LOG ASCII STANDARD - VERSION 2.0
 WRAP.                 NO:   ONE LINE PER DEPTH STEP
~WELL INFORMATION
#MNEM.UNIT      DATA TYPE    INFORMATION
#----------   ------------   ------------------------------
 STRT.F          407.0000:   START DEPTH
 STOP.F         3228.0000:   STOP DEPTH
 STEP.F            0.5000:   STEP LENGTH
 NULL.          -999.2500:   NO VALUE
 COMP.    FENIX & SCISSON:   COMPANY
 WELL.   FENIX "A" #21-34:   WELL
 FLD .             N.P.R.:   FIELD
 LOC .      S34 T39N R78W:   LOCATION
 CNTY.            NATRONA:   COUNTY
 STAT.            WYOMING:   STATE
 CTRY. UNITED STATES OF AMERICA:   COUNTRY
 SRVC.       SCHLUMBERGER:   SERVICE COMPANY
 DATE.        05-MAY-1977:   LOGDATE
 API .     49025103710000:   API NUMBER
~CURVE INFORMATION
#MNEM.UNIT       API CODE    CURVE DESCRIPTION
#----------   ------------   ------------------------------
 DEPT.F                  :   
 SPR .MV     11 010 01 00:   SPONTANEOUS POTENTIAL FROM RES.
 LLS .OHMM   11 220 09 00:   LATEROLOG LOG SHALLOW
 LLD .OHMM   11 220 10 00:   LATEROLOG DEEP
 MSFL.OHMM   11 270 04 00:   MICRO SPHERICALLY FOCUSED
 CALD.IN     45 280 60 00:   CALIPER FROM DENSITY LOG
 NPHI.DEC    42 890 03 00:   NEUTRON POROSITY SANDSTONE
 GRD .GAPI   45 310 01 00:   GAMMA RAY FROM DENSITY LOG
 CORR.G/C3   45 356 01 00:   DENSITY CORRECTION
 RHOB.G/C3   45 350 01 00:   BULK DENSITY
~PARAMETER INFORMATION
#MNEM.UNIT          VALUE    DESCRIPTION
#----------   ------------   ------------------------------
 EKB .F         5086.0000:   Kelly bushing
 EGL .F         5074.0000:   Ground level
 TD  .F         3226.0000:   Total depth
 CLNT.            A2DTECH:   Client Code
 SL  . 990' FWL & 330' FNL:   Surface Location
 PD  .                 GL:   Permanent Datum
 EPD .F              5074:   Elevation Permanent Datum
 LMF .                 KB:   Log Measured From
 DMF .                 KB:   Drilling Measured From
 DAPD.F                12:   Feet Above Permanent Datum
 DATE.        05-MAY-1977:   Date Logged [DD-MMM-YYYY]
 DD  .F              3226:   Depth driller
 DL  .F              3229:   Depth logger
 BLI .F              3227:   Bottom log interval
 TLI .F               430:   Top log interval
 CS1 .IN            8.625:   Casing size
 CBD1.      8.625" @ 424':   Casing driller 1
 CBL1.F               430:   Casing logger 1
 BS1 .IN            7.875:   Bit size
 BSD1.F              3226:   Depth drilled with bit1
 DFT .                KCL:   Type fluid in hole
 DFD .                9.4:   Density
 DFV .                 31:   Viscosity
 DFPH.                  8:   pH
 DFL .                9.6:   Fluid loss
 MSS .           MUD TANK:   Source of sample
 RMS .OHMM          0.202:   Rm
 MST .F                78:   Rm Meas. temp.
 RMF .OHMM          0.191:   Rmf
 MFST.F                76:   Rmf Meas. temp.
 MFSS.               MEAS:   Source Rmf.
 RMC .OHMM           0.30:   Rmc
 MCST.F                78:   Rmc Meas. temp.
 MCSS.               CALC:   Source Rmc.
 RMB .OHMM          0.123:   Rm. at BHT
 BHT .F               128:   BHT.
 TCS .HRS            1400:   Time Circ. stopped
 TLAB.HRS            0300:   Time logger at bottom
 MRT .F               128:   Maximum recorded temp.
 LUN .               5642:   Logging unit number
 LUL .               CSPR:   Logging unit location
 ENGI.                FIX:   Recorded By
 WITN.         HARRINGTON:   Witnessed by
 ORIG.           5" PRINT:   Origin of data
 UWI .     49025103710000:   Unique Well ID
 DICO. A2D TECHNOLOGIES, INC.:   Digitizing Company
~OTHER INFORMATION
~A   DEPT      SPR        LLS        LLD       MSFL       CALD       NPHI         GRD      CORR       RHOB   
# ...
 2816.0000   -63.3684     6.8600     4.9891     7.9056     8.9306     0.3793   147.1654     0.0172     2.5157
 2816.5000   -62.5022     6.8680     5.0292     7.8066     8.9416     0.3590   140.5985     0.0316     2.5361
 2817.0000   -62.3340     6.5932     5.3217     7.6029     8.9527     0.3360   140.1638     0.0355     2.5452
 2817.5000   -61.5739     6.7539     5.4004     7.5076     8.9637     0.3274   141.5391     0.0366     2.5288
 2818.0000   -60.8359     7.2799     5.2585     7.5233     8.9748     0.3295   135.9274     0.0198     2.5145
 2818.5000   -60.7064     7.5960     5.1917     7.7393     8.9858     0.3236   134.1393     0.0138     2.5124
 2819.0000   -60.6190     7.3444     5.2714     8.0770     8.9969     0.3093   136.1968     0.0200     2.5260
 2819.5000   -60.0168     7.0035     5.4254     8.4294     9.0079     0.3023   141.6322     0.0193     2.5186
 2820.0000   -59.9364     6.8186     5.5840     8.6764     9.0190     0.3003   142.3308     0.0172     2.5337
 2820.5000   -59.2581     6.7764     5.7075     8.8079     9.0300     0.3063   139.7669     0.0150     2.5188
 2821.0000   -58.8707     6.8315     5.8338     8.6975     9.0410     0.3110   135.3877     0.0189     2.5271
 2821.5000   -57.2483     7.0300     5.8401     8.4706     9.0521     0.3097   133.5996     0.0092     2.5182
 2822.0000   -55.8364     7.3421     5.5711     8.3068     9.0632     0.3038   136.1082     0.0059     2.5100
 2822.5000   -53.1092     7.5487     5.3872     8.0900     9.0742     0.3037   139.2880     0.0245     2.5282
 2823.0000   -53.6396     7.4019     5.1734     7.7172     9.0849     0.3057   142.6934     0.0344     2.5222
 2823.5000   -55.6307     7.1568     5.0375     7.2032     9.0856     0.3062   147.0010     0.0242     2.5316
 2824.0000   -54.1949     6.7307     4.8712     6.6615     9.0925     0.3055   152.4364     0.0187     2.5337
 2824.5000   -54.2815     6.0724     4.7761     5.4831     9.0997     0.3078   161.0754     0.0204     2.5248
 2825.0000   -54.6547     5.3658     4.6506     4.6183     9.1070     0.3263   170.5263     0.0274     2.5346
 2825.5000   -55.7227     4.0714     4.4352     3.9714     9.1142     0.3437   180.0265     0.0356     2.5106
 2826.0000   -55.0657     3.4038     3.5569     3.5353     9.1214     0.3499   191.7777     0.0115     2.4871
 2826.5000   -53.2523     3.0922     2.6432     3.2130     9.1287     0.3613   199.6944     0.0238     2.4686
 2827.0000   -53.4594     2.8668     2.1493     2.9608     9.1359     0.3783   202.8742     0.0420     2.4525
 2827.5000   -53.5105     2.8313     1.9117     3.4040     9.1431     0.3951   197.9337     0.0527     2.4387
 2828.0000   -53.0119     3.2333     2.0149     4.8829     9.1503     0.4094   179.4594     0.0656     2.4335
 2828.5000   -51.9084     3.8748     3.6524     7.1018     9.1578     0.4199   151.2858     0.0741     2.4276
 2829.0000   -50.9615     4.8743     5.0994     8.0529     9.1652     0.4174   130.7850     0.0480     2.4254
 2829.5000   -51.5152     5.7611     5.3587     8.1189     9.1548     0.3420   124.9423     0.0067     2.4677
 2830.0000   -52.8331     6.3977     5.3275     8.1310     9.1278     0.2945   124.0565     0.0108     2.5325
 2830.5000   -53.2672     6.7219     5.1875     7.9188     9.1283     0.2920   126.1140     0.0245     2.5416
 2831.0000   -53.2803     6.7750     5.1559     7.6591     9.1303     0.2922   130.8727     0.0352     2.5346
 2831.5000   -53.0832     6.6881     5.3449     7.3061     9.1323     0.2960   130.4110     0.0300     2.5479
 2832.0000   -51.7189     6.5056     5.5011     6.9693     9.1342     0.2923   130.2399     0.0233     2.5265
 2832.5000   -51.9887     6.2525     5.4691     6.6943     9.1361     0.2801   139.5154     0.0174     2.5149
 2833.0000   -52.9562     6.0468     5.1798     6.7489     9.1380     0.2800   143.5975     0.0099     2.5180
 2833.5000   -54.6553     5.9267     4.8693     6.8988     9.1399     0.2934   144.0705     0.0085     2.5031
 2834.0000   -53.9613     5.8521     4.5160     7.1009     9.1419     0.3078   143.6358     0.0195     2.5092
 2834.5000   -55.8625     5.8576     4.5568     7.2586     9.1438     0.3194   142.7609     0.0291     2.5078
 2835.0000   -56.6823     5.9039     4.7885     7.4233     9.1457     0.3205   138.7227     0.0209     2.5041
 2835.5000   -57.3416     6.0755     4.9627     7.5407     9.1476     0.3198   135.3612     0.0240     2.5237
 2836.0000   -57.9344     6.2089     4.9681     7.6488     9.1495     0.3197   136.8567     0.0438     2.5396
 2836.5000   -58.6243     6.3452     4.9735     7.6581     9.1514     0.3172   140.5930     0.0272     2.5406
 2837.0000   -59.0850     6.3955     5.0484     7.4069     9.1533     0.2948   139.4926     0.0182     2.5240
 2837.5000   -59.6722     6.3134     5.0891     6.8728     9.1552     0.2790   143.8002     0.0153     2.5135
 2838.0000   -60.3868     5.9389     4.8533     6.2462     9.1572     0.2822   152.6173     0.0124     2.4986
 2838.5000   -60.6423     5.3580     4.3789     5.5603     9.1591     0.2990   163.4663     0.0072     2.4941
 2839.0000   -59.8902     4.8675     3.8428     4.8817     9.1610     0.3009   177.2509     0.0096     2.5086
 2839.5000   -59.1582     4.1261     3.3030     4.3757     9.1629     0.3077   201.4103     0.0225     2.5207
 2840.0000   -58.4198     3.2863     3.0598     3.9222     9.1644     0.3200   213.3871     0.0370     2.5050
 2840.5000   -57.6745     3.1121     2.7975     3.6627     9.1742     0.3343   214.7569     0.0515     2.5269
 2841.0000   -56.9213     3.4085     2.6739     3.4716     9.1853     0.3547   210.7242     0.0615     2.5330
 2841.5000   -56.2421     3.7331     2.8098     4.8455     9.1965     0.3766   206.6859     0.0729     2.5211
 2842.0000   -54.6007     4.3018     3.4153     6.8552     9.2032     0.3867   197.9109     0.0798     2.5334
 2842.5000   -56.5215     5.0736     4.0098     7.0560     9.1741     0.3825   174.6997     0.0783     2.5340
 2843.0000   -57.1269     5.8735     4.5161     7.2127     9.1118     0.3491   149.4253     0.0383     2.4995
 2843.5000   -58.2790     6.2139     4.9131     7.3729     9.0856     0.3192   143.5398     0.0014     2.4951
 2844.0000   -57.6073     6.4837     5.1272     7.5889     9.0852     0.3049   136.1995     0.0234     2.5409
 2844.5000   -57.4286     6.4898     5.2771     7.7574     9.0852     0.3021   132.6124     0.0401     2.5563
 2845.0000   -57.2455     6.5411     5.3566     7.8750     9.0821     0.3068   133.7621     0.0289     2.5639
 2845.5000   -57.2553     6.5928     5.4750     8.0499     9.0681     0.3076   135.5886     0.0214     2.5504
 2846.0000   -57.5616     6.6449     5.5586     8.1719     9.0547     0.3015   135.8306     0.0153     2.5324
 2846.5000   -58.3908     6.7908     5.6065     8.2388     9.0413     0.2929   132.2489     0.0088     2.5152
 2847.0000   -58.4276     7.0368     5.6881     8.3063     9.0278     0.2883   130.2406     0.0051     2.4965
 2847.5000   -58.1184     6.8909     5.8140     8.3763     9.0144     0.2858   131.6910     0.0021     2.4852
 2848.0000   -58.0090     6.9547     5.8608     8.5033     9.0009     0.2824   134.3448     0.0023     2.4929
 2848.5000   -57.6410     7.1074     5.8671     8.5728     8.9876     0.2792   126.2519     0.0054     2.5081
 2849.0000   -57.6283     7.2134     5.8735     8.7631     8.9861     0.2752   118.8302     0.0108     2.5190
 2849.5000   -57.7177     7.1209     5.8799     8.3592     8.9861     0.2721   119.3032     0.0154     2.5112
 2850.0000   -58.2029     6.5592     5.8457     7.7030     8.9861     0.2690   122.2575     0.0208     2.5090
 2850.5000   -58.9582     6.0419     5.7300     6.9046     8.9861     0.2661   123.1816     0.0285     2.5242
 2851.0000   -60.3243     5.9231     5.6586     6.5864     8.9861     0.2632   118.2411     0.0263     2.5318
 2851.5000   -61.6440     6.0533     5.5869     7.0010     8.9861     0.2608   122.1163     0.0309     2.5335
 2852.0000   -63.2205     6.3217     5.4412     7.9883     8.9861     0.2709   128.4586     0.0386     2.5411
