~VERSION INFORMATION
 VERS.                2.0:   CWLS LOG ASCII STANDARD - VERSION 2.0
 WRAP.                 NO:   ONE LINE PER DEPTH STEP
~WELL INFORMATION
#MNEM.UNIT      DATA TYPE    INFORMATION
#----------   ------------   ------------------------------
 STRT.F            0.0000:   START DEPTH
 STOP.F         3040.0000:   STOP DEPTH
 STEP.F            0.5000:   STEP LENGTH
 NULL.          -999.2500:   NO VALUE
 COMP.    FENIX & SCISSON:   COMPANY
 WELL.  FENIX "AX" #43-28:   WELL
 FLD .             TEAPOT:   FIELD
 LOC .      S28 T39N R78W:   LOCATION
 CNTY.            NATRONA:   COUNTY
 STAT.            WYOMING:   STATE
 CTRY. UNITED STATES OF AMERICA:   COUNTRY
 SRVC.              WELEX:   SERVICE COMPANY
 DATE.        20-JUL-1980:   LOGDATE
 API .     49025108450000:   API NUMBER
~CURVE INFORMATION
#MNEM.UNIT       API CODE    CURVE DESCRIPTION
#----------   ------------   ------------------------------
 DEPT.F                  :   
 GRD .GAPI   45 310 01 00:   GAMMA RAY FROM DENSITY LOG
 CALD.IN     45 280 60 00:   CALIPER FROM DENSITY LOG
 RHOB.G/C3   45 350 01 00:   BULK DENSITY
 CORR.G/C3   45 356 01 00:   DENSITY CORRECTION
 SPR .MV     07 010 01 00:   SPONTANEOUS POTENTIAL
 ILD .OHMM   07 120 46 00:   DEEP INDUCTION RESISTIVITY
 ILM .OHMM   07 120 44 00:   INDUCTION LOG MEDIUM RESISTIVITY
 SGRD.OHMM   07 220 05 00:   SHALLOW SHORT GUARD RESISTIVITY
 NEUT.CPS    35 330 30 00:   NEUTRON
~PARAMETER INFORMATION
#MNEM.UNIT          VALUE    DESCRIPTION
#----------   ------------   ------------------------------
 EKB .F         5042.0000:   Kelly bushing
 EGL .F         5032.0000:   Ground level
 EDF .F            0.0000:   Drilling floor
 TD  .F         3038.0000:   Total depth
 DATE.        20-JUL-1980:   Date logged
 CLNT.            A2DTECH:   Client Code
 SL  . 1500' FNL & 2500' FWL:   Surface Location
 PD  .                 GL:   Permanent Datum
 EPD .F              5032:   Elevation Permanent Datum
 LMF .                 KB:   Log Measured From
 DMF .                 KB:   Drilling Measured From
 DD  .F              3000:   Depth driller
 DL  .F              3038:   Depth logger
 BLI .F              3036:   Bottom log interval
 TLI .F               432:   Top log interval
 CS1 .IN            8.625:   Casing size
 CBD1.      8.625" @ 443':   Casing driller 1
 CBL1.F               432:   Casing logger 1
 BS1 .IN            7.875:   Bit size
 BSD1.F              3000:   Depth drilled with bit1
 DFT .     WATER BASE MUD:   Type fluid in hole
 DFD .                9.3:   Density
 DFV .                 45:   Viscosity
 DFPH.                  9:   pH
 DFL .                  8:   Fluid loss
 MSS .                PIT:   Source of sample
 RMS .OHMM           0.85:   Rm
 MST .F                75:   Rm Meas. temp.
 RMF .OHMM           0.68:   Rmf
 MFST.F                75:   Rmf Meas. temp.
 RMC .OHMM           1.02:   Rmc
 MCST.F                75:   Rmc Meas. temp.
 MFSS.               MEAS:   Source Rmf.
 MCSS.               MEAS:   Source Rmc.
 RMB .OHMM           0.57:   Rm. at BHT
 BHT .F               112:   BHT.
 TCS .HRS               3:   Time Circ. stopped
 MRT .F               112:   Maximum recorded temp.
 LUN .               9865:   Logging unit number
 LUL .             CASPER:   Logging unit location
 ENGI.            TOTHILL:   Recorded By
 WITN.           DINSMORE:   Witnessed by
 ORIG.     2.5", 5" PRINT:   Origin of data
 UWI .     49025108450000:   Unique Well ID
 DICO. A2D TECHNOLOGIES, INC.:   Digitizing Company
~OTHER INFORMATION
~A    DEPT     GRD       CALD       RHOB       CORR        SPR        ILD        ILM       SGRD        NEUT  
# ...
 2299.5000    85.1180     9.0040     2.5280     0.0030   -15.6680     3.7840     4.0110     5.4580   332.5870
 2300.0000    84.4670     9.0050     2.5220     0.0020   -16.2150     3.8030     4.0390     4.8130   342.0780
 2300.5000    83.9030     9.0070     2.5190     0.0000   -16.7800     3.8220     4.0680     4.1740   351.4740
 2301.0000    83.5530     9.0080     2.5230     0.0020   -17.1940     3.8410     4.0970     3.9180   360.8700
 2301.5000    83.2030     9.0090     2.5270     0.0070   -17.5950     3.8600     4.1250     5.0630   346.8420
 2302.0000    82.8510     9.0110     2.5310     0.0110   -17.9770     3.8800     4.1540     6.2090   325.2930
 2302.5000    82.5500     9.0120     2.5300     0.0110   -18.3460     3.8990     4.1830     5.9450   340.1140
 2303.0000    82.9180     9.0140     2.5290     0.0090   -18.1860     3.9180     4.2170     5.2840   353.6650
 2303.5000    83.4190     9.0150     2.5290     0.0070   -18.0110     3.9370     4.1940     4.8870   358.9360
 2304.0000    84.0730     9.0160     2.5310     0.0050   -17.8140     3.9560     4.1640     5.3730   357.2100
 2304.5000    84.7260     9.0180     2.5330     0.0030   -17.6330     3.9750     4.1350     5.7680   352.3560
 2305.0000    85.3760     9.0190     2.5360     0.0020   -17.4440     3.9910     4.1060     5.7680   338.4940
 2305.5000    85.5630     9.0200     2.5410     0.0060   -17.2570     3.9900     4.0760     5.6630   302.6390
 2306.0000    85.6630     9.0220     2.5460     0.0110   -17.0710     3.9900     4.0270     5.6630   279.3090
 2306.5000    85.7740     9.0290     2.5510     0.0160   -16.8840     3.9910     4.0890     5.1210   299.1020
 2307.0000    85.3720     9.0370     2.5530     0.0180   -16.6970     3.9910     4.2110     4.6690   318.8770
 2307.5000    84.8880     9.0450     2.5530     0.0210   -16.5110     3.9910     4.3340     4.2170   346.8150
 2308.0000    84.4040     9.0530     2.5520     0.0190   -16.3210     3.9910     4.4570     6.5620   340.6040
 2308.5000    83.9770     9.0600     2.5470     0.0170   -16.1420     3.9910     4.5790     6.5280   325.4880
 2309.0000    83.4390     9.0680     2.5430     0.0120   -15.9420     4.0280     4.7020     6.4430   310.4760
 2309.5000    82.8680     9.0760     2.5380     0.0050   -15.7650     4.1770     4.8250     6.3580   298.7160
 2310.0000    82.2970     9.0830     2.5380     0.0000   -15.6630     4.3160     4.9480     6.1000   305.2020
 2310.5000    81.9010     9.0910     2.5400     0.0010   -16.2250     4.4560     5.0700     5.8750   300.1530
 2311.0000    81.7050     9.0990     2.5420     0.0030   -16.6870     4.6240     5.1050     5.8750   285.4540
 2311.5000    81.5040     9.1000     2.5490     0.0050   -17.1880     4.6720     5.1390     6.9350   311.4930
 2312.0000    81.3040     9.1000     2.5550     0.0120   -17.4710     4.7320     5.1730     6.6200   323.4430
 2312.5000    81.0970     9.1000     2.5560     0.0170   -17.7620     4.7910     5.2070     6.0960   326.5950
 2313.0000    81.1280     9.1000     2.5570     0.0170   -17.9980     4.8510     5.2420     6.1520   333.6500
 2313.5000    81.2240     9.1000     2.5570     0.0170   -18.1780     4.8940     5.2760     6.4510   345.4740
 2314.0000    81.3220     9.1000     2.5570     0.0170   -18.3600     4.9130     5.3100     6.7530   335.7400
 2314.5000    81.4200     9.1000     2.5570     0.0170   -18.3080     4.9320     5.3580     6.9350   304.4650
 2315.0000    81.5180     9.1000     2.5570     0.0160   -18.2190     4.9510     5.3080     6.9350   309.1520
 2315.5000    81.6070     9.1000     2.5570     0.0160   -18.1240     4.9780     5.2240     6.9030   316.9510
 2316.0000    82.1220     9.1000     2.5570     0.0160   -18.0430     4.9250     5.1390     6.8250   328.1790
 2316.5000    82.7860     9.1070     2.5560     0.0150   -17.8550     4.8360     5.0550     6.7470   322.1550
 2317.0000    83.4520     9.1140     2.5600     0.0170   -17.5200     4.7470     4.9710     6.6840   309.8830
 2317.5000    84.1200     9.1210     2.5690     0.0270   -17.1940     4.6590     4.8870     6.3340   298.1190
 2318.0000    84.7400     9.1280     2.5810     0.0390   -16.8700     4.5700     4.9330     5.9850   326.6240
 2318.5000    85.2570     9.1350     2.5920     0.0460   -16.5250     4.4820     4.9790     5.4810   352.1830
 2319.0000    85.7710     9.1420     2.5970     0.0520   -16.4340     4.3760     5.0240     4.9780   326.5310
 2319.5000    86.2800     9.1490     2.5970     0.0540   -16.5310     4.3760     5.0700     5.6730   300.2370
 2320.0000    86.6340     9.1560     2.5940     0.0530   -16.6000     4.3760     5.0700     6.5420   339.8710
 2320.5000    86.4580     9.1670     2.5880     0.0480   -16.6750     4.3760     4.8400     7.0640   335.1320
 2321.0000    86.2940     9.1850     2.5810     0.0410   -16.7670     4.3760     4.6490     6.8420   337.3410
 2321.5000    86.1280     9.2030     2.5710     0.0330   -16.7730     4.3760     4.4570     6.4720   326.0610
 2322.0000    86.2000     9.2200     2.5700     0.0290   -17.1300     4.3760     4.4570     5.6970   288.2640
 2322.5000    86.3940     9.2380     2.5680     0.0270   -17.7870     4.3760     4.9980     5.0700   302.6480
 2323.0000    86.5890     9.2550     2.5620     0.0250   -18.4420     4.3760     5.3580     4.9780   316.6460
 2323.5000    86.6560     9.2730     2.5560     0.0200   -18.8030     4.4890     5.3580     4.9780   320.2860
 2324.0000    86.1750     9.2900     2.5500     0.0150   -18.7660     4.6320     5.5100     5.9160   316.5790
 2324.5000    84.9800     9.3070     2.5440     0.0080   -18.7750     4.7740     5.6620     7.3250   296.8880
 2325.0000    83.7910     9.3220     2.5400     0.0030   -18.7760     4.9170     5.8140     7.9330   305.2140
 2325.5000    82.6150     9.3380     2.5380     0.0000   -18.7730     5.0590     5.9660     8.0060   313.7000
 2326.0000    81.6150     9.3530     2.5370    -0.0030   -18.7750     5.2020     6.1180     8.0360   273.8930
 2326.5000    81.6410     9.3530     2.5420    -0.0020   -18.7720     5.3440     6.2090     7.7560   280.9040
 2327.0000    82.0340     9.3490     2.5490     0.0040   -18.7810     5.4580     6.0960     7.1950   296.5460
 2327.5000    82.9610     9.3450     2.5570     0.0090   -18.6940     5.5460     6.0960     7.1950   278.9850
 2328.0000    84.2180     9.3410     2.5630     0.0150   -18.4750     5.6630     6.0680     7.2330   293.5760
 2328.5000    85.4910     9.3360     2.5600     0.0130   -18.2700     5.6600     6.0400     7.2970   285.9970
 2329.0000    85.9470     9.3320     2.5560     0.0110   -18.0490     5.6540     6.0120     7.3610   269.0050
 2329.5000    86.1860     9.3280     2.5520     0.0090   -17.8520     5.6470     5.9850     7.4250   291.0380
 2330.0000    86.4210     9.3240     2.5490     0.0070   -17.6140     5.6400     5.9850     7.4890   305.9520
 2330.5000    86.6440     9.3200     2.5510     0.0120   -17.7770     5.6340     5.9850     7.5530   319.1930
 2331.0000    86.0850     9.3200     2.5550     0.0170   -18.0090     5.6270     5.9850     7.6040   310.8790
 2331.5000    85.4610     9.3290     2.5600     0.0230   -18.2510     5.6200     5.9850     7.6890   302.4750
 2332.0000    84.8370     9.3380     2.5630     0.0250   -18.4810     5.6140     5.9850     7.7610   294.0410
 2332.5000    84.2140     9.3470     2.5630     0.0250   -18.7200     5.6070     5.9850     7.8320   285.2040
 2333.0000    83.5910     9.3560     2.5630     0.0240   -18.9530     5.6010     5.9850     7.8890   263.1500
 2333.5000    82.9720     9.3650     2.5590     0.0230   -19.1850     5.5940     5.9840     7.7520   235.3650
 2334.0000    82.5270     9.3750     2.5550     0.0230   -19.4400     5.5880     5.9840     7.5800   258.9260
 2334.5000    82.7070     9.3840     2.5560     0.0220   -19.5550     5.5810     5.9840     7.4080   301.8440
 2335.0000    82.8690     9.3930     2.5570     0.0220   -19.4790     5.5750     5.9860     7.2360   294.1350
 2335.5000    83.0280     9.3960     2.5570     0.0250   -19.4240     5.5680     5.9820     7.0640   272.0180
