~VERSION INFORMATION
 VERS.                2.0:   CWLS LOG ASCII STANDARD - VERSION 2.0
 WRAP.                 NO:   ONE LINE PER DEPTH STEP
~WELL INFORMATION
#MNEM.UNIT      DATA TYPE    INFORMATION
#----------   ------------   ------------------------------
 STRT.F          200.5000:   START DEPTH
 STOP.F         3164.0000:   STOP DEPTH
 STEP.F            0.5000:   STEP LENGTH
 NULL.          -999.2500:   NO VALUE
 COMP. FENIX & SCISSON U.S NAVY:   COMPANY
 WELL. FENIX & SCISSON "A" #83-4:   WELL
 FLD .              NPR-3:   FIELD
 LOC .       S4 T38N R78W:   LOCATION
 CNTY.            NATRONA:   COUNTY
 STAT.            WYOMING:   STATE
 CTRY. UNITED STATES OF AMERICA:   COUNTRY
 SRVC.       SCHLUMBERGER:   SERVICE COMPANY
 DATE.        25-MAY-1977:   LOGDATE
 API .     49025103660000:   API NUMBER
~CURVE INFORMATION
#MNEM.UNIT       API CODE    CURVE DESCRIPTION
#----------   ------------   ------------------------------
 DEPT.F                  :   
 CALD.IN     45 280 60 00:   CALIPER FROM DENSITY LOG
 GRD .GAPI   45 310 01 00:   GAMMA RAY FROM DENSITY LOG
 RHOB.G/C3   45 350 01 00:   BULK DENSITY
 CORR.G/C3   45 356 01 00:   DENSITY CORRECTION
 SPR .MV     07 010 01 00:   SPONTANEOUS POTENTIAL
 SFLU.OHMM   07 220 01 00:   SPHERICALLY FOCUSED LOG UNAVERAGED RESISTIVITY
 ILD .OHMM   07 120 46 00:   DEEP INDUCTION RESISTIVITY
 ILM .OHMM   07 120 44 00:   INDUCTION LOG MEDIUM RESISTIVITY
~PARAMETER INFORMATION
#MNEM.UNIT          VALUE    DESCRIPTION
#----------   ------------   ------------------------------
 EKB .F         5163.0000:   Kelly bushing
 EGL .F         5149.0000:   Ground level
 EDF .F            0.0000:   Drilling floor
 EPD .F            0.0000:   Permanent datum
 TD  .F         3173.0000:   Total depth
 DATE.        25-MAY-1977:   Date logged
 CLNT.            A2DTECH:   Client Code
 SL  . 1650' FNL & 330 ' FEL:   Surface Location
 PD  .                 GL:   Permanent Datum
 DAPD.F                14:   Feet Above Permanent Datum
 DD  .F              3173:   Depth driller
 DL  .F              3157:   Depth logger
 BLI .F              3165:   Bottom log interval
 TLI .F               200:   Top log interval
 CS1 .IN            8.625:   Casing size
 CBD1.      8.625" @ 204':   Casing driller 1
 CBL1.F               220:   Casing logger 1
 BS1 .IN            7.875:   Bit size
 BSD1.F              3173:   Depth drilled with bit1
 DFT .            KCL MUD:   Type fluid in hole
 DFD .                8.8:   Density
 DFV .                 37:   Viscosity
 DFPH.                7.5:   pH
 DFL .                4.4:   Fluid loss
 MSS .           FLOWLINE:   Source of sample
 RMS .OHMM            .39:   Rm
 MST .F                79:   Rm Meas. temp.
 RMF .OHMM            .31:   Rmf
 MFST.F                79:   Rmf Meas. temp.
 RMC .OHMM            .63:   Rmc
 MCST.F                79:   Rmc Meas. temp.
 MFSS.           FANN KIT:   Source Rmf.
 MCSS.           FANN KIT:   Source Rmc.
 RMB .OHMM            .27:   Rm. at BHT
 BHT .F               112:   BHT.
 TCS .HRS             2.5:   Time Circ. stopped
 MRT .F               112:   Maximum recorded temp.
 LUN .               8611:   Logging unit number
 LUL .             CASPER:   Logging unit location
 ENGI.            C. DOAK:   Recorded By
 WITN.      B. HARRINGTON:   Witnessed by
 ORIG.       2.5"5" PRINT:   Origin of data
 UWI .     49025103660000:   Unique Well ID
 DICO. A2D TECHNOLOGIES, INC.:   Digitizing Company
~OTHER INFORMATION
~A   DEPT     CALD        GRD         RHOB     CORR        SPR       SFLU        ILD        ILM   
# ...
  605.5000     8.8626    97.2841     2.5002     0.0380   -29.4144    17.1320    15.6537     9.7787
  606.0000     8.8633    94.9621     2.4939     0.0341   -29.4170    16.5219    15.3719     9.7777
  606.5000     8.8644    93.4143     2.4884     0.0342   -29.4210    15.3666    15.0946     9.6016
  607.0000     8.9042    92.6545     2.4869     0.0381   -29.4237    15.3660    15.0935     9.6013
  607.5000     8.9053    92.6686     2.4914     0.0382   -29.4277    14.8177    15.0919     9.2672
  608.0000     8.9451    93.4708     2.5017     0.0461   -29.4303    14.5510    14.8201     9.4247
  608.5000     8.9462    94.2658     2.5135     0.0462   -29.4343    14.2885    14.5528     9.0891
  609.0000     8.9860    95.0679     2.5194     0.0462   -29.8275    14.0312    14.2908     9.0884
  609.5000     8.9871    96.6439     2.5224     0.0463   -29.8314    13.7781    14.2892     8.7663
  610.0000     9.0268    96.6650     2.5121     0.0424   -29.8341    13.7771    13.7803     8.7659
  610.5000     8.9889    96.6791     2.5047     0.0386   -29.8381    13.5286    13.2890     8.7653
  611.0000     8.9506    98.2619     2.5003     0.0386   -29.8407    13.5276    13.0498     8.3009
  611.5000     8.9517    99.0568     2.4959     0.0387   -29.8447    13.2836    12.8144     8.4513
  612.0000     8.9905   100.6395     2.4900     0.0270   -29.8473    13.0445    12.8134     8.2994
  612.5000     9.0306   101.4344     2.4841     0.0231   -29.8513    12.3539    12.3566     8.2985
  613.0000     9.0314   101.4554     2.4753     0.0193   -29.8540    12.3530    12.3558     8.2721
  613.5000     9.0715   101.4694     2.4827     0.0193   -29.8579    12.3517    11.9153     8.2458
  614.0000     9.1113   103.6135     2.4916     0.0194   -30.2510    12.3512    11.9144     8.2195
  614.5000     9.1124   103.6274     2.4975     0.0233   -30.2550    12.8045    11.4897     8.1933
  615.0000     9.1521   100.7447     2.4975     0.0273   -30.2576    12.8036    11.4888     8.1672
  615.5000     9.1532    99.9780     2.4946     0.0195   -30.2615    13.0360    11.2816     7.9992
  616.0000     9.1930   100.7797     2.4901     0.0196   -30.2642    13.2735    11.6935     7.9987
  616.5000     9.2721   101.5744     2.4872     0.0197   -30.2681    13.1393    11.6927     7.9978
  617.0000     9.2729   103.9375     2.4902     0.0197   -30.2708    13.0064    11.6918     7.9972
  617.5000     9.2740   104.7321     2.4990     0.0276   -30.2747    12.8749    11.6906     7.9963
  618.0000     9.2370   104.7531     2.5035     0.0277   -30.2774    12.7962    11.6897     7.7116
  618.5000     9.3158   104.7670     2.5050     0.0312   -30.6717    12.7957    11.4788     7.8515
  619.0000     9.3165   101.6654     2.5050     0.0317   -30.6743    12.3392    11.2722     7.8510
  619.5000     9.3566   100.8988     2.5050     0.0318   -30.6783    12.3383    11.0688     7.8501
  620.0000     9.4358   100.9198     2.5050     0.0358   -30.6809    12.1161    11.0680     7.8490
  620.5000     9.4361   101.7144     2.5080     0.0319   -31.0752    11.6842    11.0668     7.8487
  621.0000     9.5156   104.0771     2.5095     0.0359   -31.4681    11.6830    11.0660     7.8481
  621.5000     9.5554   104.8716     2.5095     0.0359   -31.4721    11.6821    11.2669     7.4323
  622.0000     9.5955   104.1120     2.5080     0.0360   -31.4747    11.4714    11.0640     7.4321
  622.5000     9.6353   101.7844     2.5007     0.0360   -31.4786    11.4705    10.8645     7.1671
  623.0000     9.6360   104.1469     2.4904     0.0361   -31.4813    11.4693    10.2919     7.1666
  623.5000     9.6761   104.9413     2.4830     0.0322   -31.4852    11.4685    10.2911     7.0373
  624.0000     9.7162   104.9623     2.4815     0.0362   -31.4878    11.4676    10.1055     7.0368
  624.5000     9.7169   104.9762     2.4845     0.0402   -31.4917    11.4668    10.1044     6.9099
  625.0000     9.7180   104.2167     2.4830     0.0363   -31.4944    11.4652     9.9225     6.9094
  625.5000     9.7577   101.8894     2.4801     0.0364   -31.4983    11.4643     9.5687     6.9086
  626.0000     9.7588   100.3495     2.4786     0.0325   -31.5009    10.0993     9.3964     7.1627
  626.5000     9.7595   100.3636     2.4742     0.0326   -31.5048     9.7396     9.0615     6.9074
  627.0000     9.7606   100.3846     2.4713     0.0287   -31.5074     9.9164     9.0611     6.9069
  627.5000     9.8004   100.9593     2.4743     0.0288   -31.5114     9.9157     9.2253     7.0322
  628.0000     9.8014   104.1087     2.4876     0.0249   -31.5140    11.2539     9.7389     7.0317
  628.5000     9.7631   101.7677     2.4994     0.0211   -31.5179    11.2526    10.0971     7.2901
  629.0000     9.7252   101.0153     2.5038     0.0251   -31.5206    12.0960    10.8539     7.5582
  629.5000     9.7259    99.6883     2.5008     0.0251   -31.5245    12.3164    11.0199     7.8359
  630.0000     9.6880    98.1488     2.4965     0.0252   -31.5271    12.7689    11.4573     8.1241
  630.5000     9.6497    98.1628     2.4920     0.0252   -31.5310    13.0012    11.8787     8.1233
  631.0000     9.6508    98.1839     2.4965     0.0214   -31.5337    13.2366    12.3152     8.1227
  631.5000     9.6515    98.1979     2.5054     0.0253   -31.5376    13.4774    12.3143     8.4211
  632.0000     9.8083    98.2190     2.5098     0.0293   -31.5402    13.7220    12.7667     8.8900
  632.5000     9.6923    98.2331     2.5113     0.0294   -31.5441    13.7210    13.2328     8.7299
  633.0000     9.6934    99.0343     2.5083     0.0294   -31.5468    13.9705    12.9950     8.7290
  633.5000     9.7331    99.8285     2.5025     0.0256   -31.5507    13.9690    12.9936     8.7283
  634.0000     9.7342    99.8496     2.4951     0.0256   -31.5533    13.9675    13.2295     8.7274
  634.5000     9.7739   100.6507     2.4877     0.0178   -31.5573    13.7160    13.2290     8.7267
  635.0000     9.7750   101.4449     2.4804     0.0179   -31.5599    13.7145    13.2271     8.7258
  635.5000     9.7757   101.4659     2.4789     0.0219   -31.5638    13.7135    13.2261     8.7252
  636.0000     9.8158   101.4799     2.4893     0.0298   -31.5664    13.4662    13.2247     8.7242
  636.5000     9.7775   100.7208     2.4996     0.0298   -31.5703    13.4652    13.2237     8.5671
  637.0000     9.8176    99.9547     2.5011     0.0299   -31.5729    13.4637    13.2228     8.7226
  637.5000     9.8963    99.1957     2.4893     0.0300   -31.1868    13.4632    13.2213     8.7220
  638.0000     9.8974    99.2097     2.4790     0.0339   -31.1894    13.7071    12.9828     8.7211
  638.5000     9.8981    99.2307     2.4775     0.0340   -31.1934    13.7061    12.9819     8.7204
  639.0000     9.8992    99.2448     2.4805     0.0341   -31.5860    13.7046    12.7477     8.7195
  639.5000     9.8999    97.7058     2.4908     0.0381   -31.5900    13.4579    12.7468     8.7189
  640.0000     9.9400    96.7269     2.4982     0.0420   -31.5926    13.2151    12.2956     8.7179
  640.5000     9.9017    96.7409     2.5027     0.0420   -31.5965    12.7445    12.0738     8.7173
  641.0000     9.9028    96.7550     2.5042     0.0343   -31.5991    12.2902    11.6434     8.2558
  641.5000     9.9425    96.7760     2.4939     0.0344   -31.6031    11.8525    11.4337     8.1071
  642.0000     9.9436    96.7901     2.4850     0.0423   -31.9957    11.4304    11.0261     7.9609
  642.5000     9.9053    96.8111     2.4806     0.0345   -31.9996    11.2242    10.8276     7.8175
  643.0000     9.9064    97.6051     2.4772     0.0345   -32.0022    10.4394    10.2544     7.5388
  643.5000     9.9071    98.4060     2.4747     0.0346   -32.0061    10.0676     9.7118     7.1400
  644.0000     9.9472    99.1999     2.4733     0.0347   -32.0087     9.3636     8.4023     6.7622
  644.5000     9.9089   100.0008     2.4703     0.0347   -31.6227     9.0302     7.0201     6.4044
  645.0000     9.9100   101.5744     2.4689     0.0426   -31.6253     8.5521     5.8653     5.5406
  645.5000     9.9110   102.3753     2.4659     0.0505   -31.6292     8.0996     4.9004     4.5727
