~VERSION INFORMATION
 VERS.                2.0:   CWLS LOG ASCII STANDARD - VERSION 2.0
 WRAP.                 NO:   ONE LINE PER DEPTH STEP
~WELL INFORMATION
#MNEM.UNIT      DATA TYPE    INFORMATION
#----------   ------------   ------------------------------
 STRT.F          218.0000:   START DEPTH
 STOP.F         2860.0000:   STOP DEPTH
 STEP.F            0.5000:   STEP LENGTH
 NULL.          -999.2500:   NO VALUE
 COMP.    FENIX & SCISSON:   COMPANY
 WELL.  FENIX "AX" #76-20:   WELL
 FLD . TEAPOT DOME NPR -3:   FIELD
 LOC .      S20 T39N R78W:   LOCATION
 CNTY.            NATRONA:   COUNTY
 STAT.            WYOMING:   STATE
 CTRY. UNITED STATES OF AMERICA:   COUNTRY
 SRVC.           BIRDWELL:   SERVICE COMPANY
 DATE.        21-AUG-1978:   LOGDATE
 API .     49025106920000:   API NUMBER
~CURVE INFORMATION
#MNEM.UNIT       API CODE    CURVE DESCRIPTION
#----------   ------------   ------------------------------
 DEPT.F                  :   
 SPR .MV     05 010 01 00:   SPONTANEOUS POTENTIAL FROM RES.
 ILD .OHMM   05 120 46 00:   INDUCTION LOG DEEP
 SN  .OHMM   05 040 16 00:   SHORT NORMAL 16"
 RHOB.G/C3   45 350 01 00:   BULK DENSITY
 CALD.IN     45 280 60 00:   CALIPER FROM DENSITY LOG
 DCOR.G/C3   45 356 01 00:   DENSITY CORRECTION
 GRD .GAPI   45 310 01 00:   GAMMA RAY FROM DENSITY LOG
~PARAMETER INFORMATION
#MNEM.UNIT          VALUE    DESCRIPTION
#----------   ------------   ------------------------------
 EKB .F         5062.0000:   Kelly bushing
 EGL .F         5052.0000:   Ground level
 EDF .F            0.0000:   Drilling floor
 EPD .F            0.0000:   Permanent datum
 TD  .F         2854.0000:   Total depth
 DATE.        21-AUG-1978:   Date logged
 CLNT.            A2DTECH:   Client Code
 SL  . 1500' FNL & 1200' FEL:   Surface Location
 PD  .                 GL:   Permanent Datum
 DD  .F              2850:   Depth driller
 DL  .F              2854:   Depth logger
 BLI .F              2848:   Bottom log interval
 CS1 .IN            8.625:   Casing size
 CBD1.      8.625" @ 200':   Casing driller 1
 CBL1.F               235:   Casing logger 1
 BS1 .IN            7.875:   Bit size
 DFT .                KCL:   Type fluid in hole
 DFD .                9.2:   Density
 DFV .                 30:   Viscosity
 DFL .                8.4:   Fluid loss
 MSS .           FLOWLINE:   Source of sample
 RMS .OHMM            1.2:   Rm
 MST .F                86:   Rm Meas. temp.
 RMF .OHMM            0.8:   Rmf
 MFST.F                68:   Rmf Meas. temp.
 RMC .OHMM            1.6:   Rmc
 MCST.F                70:   Rmc Meas. temp.
 MFSS.              PRESS:   Source Rmf.
 BHT .F               102:   BHT.
 TCS .HRS               3:   Time Circ. stopped
 MRT .F               102:   Maximum recorded temp.
 LUN .               2968:   Logging unit number
 LUL .             CASPER:   Logging unit location
 ENGI.           REYNOLDS:   Recorded By
 ORIG.           5" PRINT:   Origin of data
 UWI .     49025106920000:   Unique Well ID
 DICO. A2D TECHNOLOGIES, INC.:   Digitizing Company
 DAPD.                 12:   Feet Above Permanent Datum
 BSD1.               2850:   Depth drilled with bit1
 MCSS.               MEAS:   Source Rmc.
 TLI .                230:   Top log interval
~OTHER INFORMATION
~A   DEPT      SPR        ILD         SN       RHOB       CALD       DCOR          GRD 
# ...
 1264.5000   -78.8580     8.6880     9.9500     2.5520     8.8110     0.1200    69.4850
 1265.0000   -78.9560     8.6670     9.9450     2.5410     8.8180     0.1300    67.7060
 1265.5000   -79.1810     8.6470     9.9420     2.5290     8.8240     0.1410    80.4260
 1266.0000   -79.4090     8.6260     9.9350     2.5250     8.8310     0.1440    85.2170
 1266.5000   -79.6360     8.6050    10.0470     2.5350     8.8370     0.1430    82.4260
 1267.0000   -79.8640     8.5840    10.0400     2.5490     8.8440     0.1430    80.6360
 1267.5000   -80.0950     8.5640    10.0380     2.5630     8.8490     0.1420    81.1570
 1268.0000   -80.2390     8.5430    10.0390     2.5620     8.8490     0.1420    81.7380
 1268.5000   -80.0200     8.5220     9.9290     2.5590     8.8280     0.1410    79.1510
 1269.0000   -80.0430     8.5020     9.8250     2.5590     8.8030     0.1410    76.5080
 1269.5000   -79.8180     8.4810     9.7210     2.5590     8.7770     0.1400    73.8810
 1270.0000   -79.8060     8.4600     9.6160     2.5580     8.7520     0.1400    71.5460
 1270.5000   -79.6900     8.4390     9.5120     2.5540     8.7240     0.1410    71.4520
 1271.0000   -79.5760     8.4190     9.4080     2.5490     8.7100     0.1480    74.9540
 1271.5000   -79.4620     8.4000     9.3030     2.5390     8.7350     0.1550    80.0370
 1272.0000   -79.3490     8.3990     9.1990     2.5320     8.7620     0.1600    84.3270
 1272.5000   -79.2350     8.3990     9.1320     2.5380     8.7890     0.1400    81.7750
 1273.0000   -79.1210     8.3990     9.1160     2.5440     8.8150     0.1120    79.1850
 1273.5000   -79.0080     8.3990     9.0990     2.5380     8.8280     0.1090    76.9010
 1274.0000   -78.8940     8.3990     9.0830     2.5260     8.8130     0.1130    79.7230
 1274.5000   -78.7800     8.3990     9.0660     2.5240     8.7950     0.1090    83.2570
 1275.0000   -78.6670     8.3990     9.0500     2.5260     8.7890     0.1030    83.5140
 1275.5000   -78.5530     8.3990     9.0330     2.5270     8.7890     0.1090    83.8660
 1276.0000   -78.4400     8.3990     9.0170     2.5260     8.7880     0.1200    83.8790
 1276.5000   -78.3250     8.3990     9.0000     2.5260     8.8110     0.1300    81.8720
 1277.0000   -78.2210     8.3910     8.9840     2.5350     8.8150     0.1410    78.4370
 1277.5000   -78.3650     8.3830     8.9670     2.5440     8.8280     0.1460    74.8830
 1278.0000   -78.5170     8.3750     8.9510     2.5450     8.8420     0.1470    79.6850
 1278.5000   -78.6700     8.3670     8.9340     2.5460     8.8550     0.1470    83.5600
 1279.0000   -78.8220     8.3590     8.9180     2.5500     8.8680     0.1480    82.7470
 1279.5000   -78.9740     8.3510     8.9010     2.5550     8.8710     0.1560    81.3240
 1280.0000   -79.1260     8.3430     8.8860     2.5600     8.8730     0.1510    91.0970
 1280.5000   -79.2780     8.3350     8.8860     2.5630     8.8750     0.1450    88.4010
 1281.0000   -79.4300     8.3270     8.8860     2.5630     8.8770     0.1390    82.0440
 1281.5000   -79.5820     8.3190     8.8860     2.5580     8.8790     0.1370    75.8110
 1282.0000   -79.7340     8.3110     8.8860     2.5540     8.8810     0.1480    70.4790
 1282.5000   -79.8860     8.3030     8.8860     2.5490     8.8830     0.1540    69.0860
 1283.0000   -80.0220     8.2950     8.8860     2.5450     8.8850     0.1500    67.1900
 1283.5000   -79.8640     8.2870     8.8950     2.5480     8.8880     0.1470    65.5380
 1284.0000   -79.6480     8.2790     8.9130     2.5610     8.8910     0.1550    67.3060
 1284.5000   -79.4300     8.2710     8.9310     2.5520     8.8680     0.1750    69.1120
 1285.0000   -79.2120     8.2630     8.9500     2.5450     8.8560     0.1850    70.8680
 1285.5000   -78.9970     8.2540     8.9680     2.5470     8.8420     0.1930    69.3700
 1286.0000   -78.8100     8.2430     8.9860     2.5500     8.8300     0.2000    67.3890
 1286.5000   -78.8160     8.2870     9.0040     2.5470     8.9680     0.2070    68.0040
 1287.0000   -78.8410     8.3220     9.0230     2.5430     9.0080     0.2140    73.9680
 1287.5000   -78.8670     8.3210     9.0410     2.5390     9.0010     0.2200    79.8120
 1288.0000   -78.8930     8.3210     9.0540     2.5480     8.9640     0.2070    81.6900
 1288.5000   -78.9200     8.3210     9.1390     2.5620     8.9270     0.1890    79.3450
 1289.0000   -78.9460     8.3210     9.2250     2.5710     8.8910     0.1820    76.3790
 1289.5000   -78.9730     8.3210     9.1800     2.5560     8.8540     0.1910    73.3750
 1290.0000   -78.9990     8.3210     9.1060     2.5360     8.8280     0.1990    70.3570
 1290.5000   -79.0160     8.3210     9.0320     2.5330     8.8290     0.1870    67.3590
 1291.0000   -79.0160     8.3210     8.9590     2.5390     8.8260     0.1630    67.0600
 1291.5000   -79.0160     8.3210     8.8850     2.5520     8.8160     0.1380    69.5300
 1292.0000   -79.0150     8.3210     8.8030     2.5580     8.8070     0.1350    72.0320
 1292.5000   -79.0030     8.3210     8.8230     2.5520     8.7970     0.1400    74.5220
 1293.0000   -78.9910     8.3210     8.8660     2.5500     8.7870     0.1460    77.0070
 1293.5000   -78.9790     8.3210     8.9090     2.5490     8.7770     0.1480    79.4840
 1294.0000   -78.9670     8.3210     8.9510     2.5510     8.7680     0.1410    81.8130
 1294.5000   -78.9550     8.3210     8.9940     2.5600     8.7580     0.1300    82.4830
 1295.0000   -78.9430     8.3210     9.0370     2.5610     8.7480     0.1200    80.1580
 1295.5000   -78.9310     8.3210     9.0800     2.5660     8.7480     0.1090    77.0400
 1296.0000   -78.9190     8.3210     9.1230     2.5710     8.7480     0.1120    73.9010
 1296.5000   -78.9070     8.3210     9.1660     2.5540     8.7480     0.1190    70.7770
 1297.0000   -78.8960     8.4120     9.2090     2.5400     8.7560     0.1190    68.0340
 1297.5000   -78.8840     8.5500     9.2520     2.5450     8.7670     0.1060    70.8180
 1298.0000   -78.8720     8.6890     9.2940     2.5420     8.7780     0.1060    77.1850
 1298.5000   -78.8600     8.8030     9.3370     2.5350     8.7900     0.1130    83.4570
 1299.0000   -78.8480     8.7680     9.4000     2.5420     8.8010     0.1190    88.8880
 1299.5000   -78.8360     8.7380     9.3830     2.5410     8.8120     0.1250    85.5610
 1300.0000   -78.8240     8.7080     9.3510     2.5360     8.8230     0.1270    80.9190
 1300.5000   -78.8140     8.6780     9.3190     2.5520     8.8340     0.1190    78.4530
 1301.0000   -78.8190     8.6480     9.2860     2.5660     8.8460     0.1090    82.3900
 1301.5000   -78.8350     8.6180     9.2540     2.5660     8.8570     0.1120    85.8410
 1302.0000   -78.6120     8.5880     9.2220     2.5600     8.8680     0.1180    84.8280
 1302.5000   -78.6240     8.5580     9.1900     2.5570     8.8790     0.1180    83.8880
 1303.0000   -78.6290     8.5280     9.1580     2.5610     8.8910     0.1120    82.9580
 1303.5000   -78.6360     8.4990     9.1260     2.5650     8.9020     0.1060    82.5460
 1304.0000   -78.6440     8.4700     9.0940     2.5680     8.9090     0.1030    87.1040
 1304.5000   -78.6520     8.4450     9.0620     2.5700     8.9090     0.1120    92.1790
 1305.0000   -78.6600     8.4200     9.0300     2.5500     8.9130     0.1250    92.7500
 1305.5000   -78.6680     8.3940     8.9980     2.5450     8.9170     0.1380    91.7630
 1306.0000   -78.6750     8.3690     8.9660     2.5460     8.9210     0.1490    86.0420
 1306.5000   -78.6830     8.3440     8.9330     2.5480     8.9260     0.1480    78.5570
 1307.0000   -78.6910     8.3180     8.9010     2.5510     8.9290     0.1420    71.1130
 1307.5000   -78.6990     8.2930     8.8690     2.5510     9.0340     0.1370    67.2840
 1308.0000   -78.7070     8.2680     8.8370     2.5480     9.2130     0.1320    75.5260
 1308.5000   -78.7150     8.2420     8.8030     2.5450     9.2010     0.1370    79.7510
 1309.0000   -78.7220     8.2170     8.8860     2.5390     9.1370     0.1450    78.7860
 1309.5000   -78.7300     8.1920     8.6390     2.5360     9.0720     0.1370    77.9800
