~VERSION INFORMATION
 VERS.                2.0:   CWLS LOG ASCII STANDARD - VERSION 2.0
 WRAP.                 NO:   ONE LINE PER DEPTH STEP
~WELL INFORMATION
#MNEM.UNIT      DATA TYPE    INFORMATION
#----------   ------------   ------------------------------
 STRT.F           34.0000:   START DEPTH
 STOP.F         2909.0000:   STOP DEPTH
 STEP.F            0.5000:   STEP LENGTH
 NULL.          -999.2500:   NO VALUE
 COMP.   TESORO PETROLEUM:   COMPANY
 WELL. TESORO NPR "A" #3-28:   WELL
 FLD .             TEAPOT:   FIELD
 LOC .      S28 T39N R78W:   LOCATION
 CNTY.            NATRONA:   COUNTY
 STAT.            WYOMING:   STATE
 CTRY. UNITED STATES OF AMERICA:   COUNTRY
 SRVC.              WELEX:   SERVICE COMPANY
 DATE.        22-JUL-1968:   LOGDATE
 API .     49025102620000:   API NUMBER
~CURVE INFORMATION
#MNEM.UNIT       API CODE    CURVE DESCRIPTION
#----------   ------------   ------------------------------
 DEPT.F                  :   
 GRD .GAPI   45 310 01 00:   GAMMA RAY FROM DENSITY LOG
 SPR .MV     05 010 01 00:   SPONTANEOUS POTENTIAL FROM RES.
 ASN .OHMM   05 041 16 00:   AMPLIFIED SHORT NORMAL 16"
 ILD .OHMM   05 120 46 00:   INDUCTION LOG DEEP
~PARAMETER INFORMATION
#MNEM.UNIT          VALUE    DESCRIPTION
#----------   ------------   ------------------------------
 EKB .F         5050.0000:   Kelly bushing
 EGL .F         5039.0000:   Ground level
 EDF .F            0.0000:   Drilling floor
 EPD .F         5039.0000:   Permanent datum
 TD  .F         2906.0000:   Total depth
 CLNT.            A2DTECH:   Client Code
 DATE.       22-JULY-1968:   Date Logged [DD-MMM-YYYY]
 DD  .F              2906:   Depth driller
 DL  .F              2906:   Depth logger
 BLI .F              2901:   Bottom log interval
 TLI .F               356:   Top log interval
 CS1 .              10.75:   Casing size
 CBD1.      10.75" @ 356':   Casing driller 1
 CBL1.IN              356:   Casing logger 1
 BS1 .IN                9:   Bit size
 DFT .     WATER BASE MUD:   Type fluid in hole
 DFD .                9.6:   Density
 DFV .                 60:   Viscosity
 DFPH.                9.0:   pH
 DFL .                  6:   Fluid loss
 MSS .               CTRC:   Source of sample
 RMS .OHMM            2.1:   Rm
 MST .F                74:   Rm Meas. temp.
 RMF .OHMM            1.6:   Rmf
 MFST.F                71:   Rmf Meas. temp.
 MFSS.               MEAS:   Source Rmf.
 RMC .OHMM            3.0:   Rmc
 MCST.F                66:   Rmc Meas. temp.
 RMB .OHMM            1.3:   Rm. at BHT
 BHT .F               120:   BHT.
 MRT .F               120:   Maximum recorded temp.
 LUN .               6869:   Logging unit number
 ORIG.         2.5" PRINT:   Origin of data
 UWI .     49025102620000:   Unique Well ID
 DICO. A2D TECHNOLOGIES, INC.:   Digitizing Company
 LUL .          NEWCASTLE:   Logging unit location
~OTHER INFORMATION
~A   DEPT      GRD        SPR         ASN         ILD 
# ...
 1494.0000  -999.2500   -29.7429    10.3614     9.6191
 1494.5000  -999.2500   -30.6867    10.0553     9.3024
 1495.0000  -999.2500   -31.2832     9.7491     9.3001
 1495.5000  -999.2500   -31.2135     9.7162     9.1406
 1496.0000  -999.2500   -31.1437     9.6532     9.1384
 1496.5000  -999.2500   -31.0739     9.6206     9.1360
 1497.0000  -999.2500   -31.0042     9.5576     9.1336
 1497.5000  -999.2500   -30.9344     9.4946     9.1313
 1498.0000  -999.2500   -30.8647     9.4924     9.1289
 1498.5000  -999.2500   -30.7949     9.6249     9.1265
 1499.0000  -999.2500   -30.7252     9.7310     9.1242
 1499.5000  -999.2500   -30.6554     9.7680     9.1214
 1500.0000  -999.2500   -30.5857    10.0811     9.3149
 1500.5000  -999.2500   -30.5159    10.2421     9.4318
 1501.0000  -999.2500   -30.4462    10.4032     9.5487
 1501.5000  -999.2500   -30.2622    10.5643     9.6656
 1502.0000  -999.2500   -30.1317    10.7808     9.7826
 1502.5000  -999.2500   -30.4559    10.7786     9.8995
 1503.0000  -999.2500   -30.7785    10.7764    10.0164
 1503.5000  -999.2500   -30.7875    10.6222    10.0673
 1504.0000  -999.2500   -30.7966    10.2755     9.7161
 1504.5000  -999.2500   -31.1192    10.1306     9.1864
 1505.0000  -999.2500   -31.1285    10.0795     8.6881
 1505.5000  -999.2500   -31.4514     9.9803     8.3162
 1506.0000  -999.2500   -31.3938     9.8300     8.3123
 1506.5000  -999.2500   -30.7535     9.8059     8.3925
 1507.0000  -999.2500   -30.2241    10.0034     8.4622
 1507.5000  -999.2500   -30.2351    10.2548     8.6159
 1508.0000  -999.2500   -30.4033    10.5528     8.7697
 1508.5000  -999.2500   -31.0627    10.9266     9.0808
 1509.0000  -999.2500   -31.5188    10.9257     9.3925
 1509.5000  -999.2500   -31.6124    10.9248     9.3887
 1510.0000  -999.2500   -31.5361    10.3160     9.5426
 1510.5000  -999.2500   -31.2319    10.6191     9.7069
 1511.0000  -999.2500   -30.9281    11.2261     9.8504
 1511.5000  -999.2500   -30.6237    12.1371     9.8462
 1512.0000  -999.2500   -30.2904    11.9437    10.0005
 1512.5000  -999.2500   -29.7014    11.4956     9.9961
 1513.0000  -999.2500   -29.3970    11.0274     9.9921
 1513.5000  -999.2500   -29.7210    10.5592     9.9882
 1514.0000  -999.2500   -29.9728    11.6563     9.8265
 1514.5000  -999.2500   -30.8246    11.9049     9.8218
 1515.0000  -999.2500   -31.3166    11.9787     9.8180
 1515.5000  -999.2500   -31.3278    11.6737     9.6564
 1516.0000  -999.2500   -31.0220    11.6728     9.4949
 1516.5000  -999.2500   -30.7179    11.5200     9.4911
 1517.0000  -999.2500   -30.4138    11.5191     9.4873
 1517.5000  -999.2500   -30.1097    11.5182     9.4834
 1518.0000  -999.2500   -29.8057    11.5173     9.4795
 1518.5000  -999.2500   -29.1879    11.5329     9.4755
 1519.0000  -999.2500   -29.1975    11.6676     9.4716
 1519.5000  -999.2500   -29.2675    11.7058     9.4677
 1520.0000  -999.2500   -29.8433    11.8178     9.4638
 1520.5000  -999.2500   -30.5862    11.4507     9.6183
 1521.0000  -999.2500   -31.2455    10.6836     9.6136
 1521.5000  -999.2500   -31.5915    10.2103     9.6096
 1522.0000  -999.2500   -31.5863    10.2941     9.6049
 1522.5000  -999.2500   -31.4576    10.9011     9.6011
 1523.0000  -999.2500   -31.1536    11.3561     9.7550
 1523.5000  -999.2500   -30.5370    11.5073     9.7512
 1524.0000  -999.2500   -30.2326    11.8103     9.7474
 1524.5000  -999.2500   -29.9282    11.9614     9.7436
 1525.0000  -999.2500   -29.9373    12.1125     9.7397
 1525.5000  -999.2500   -29.9697    12.1115     9.7358
 1526.0000  -999.2500   -30.3156    12.1106     9.7529
 1526.5000  -999.2500   -30.9749    12.0629     9.8860
 1527.0000  -999.2500   -31.2288    11.7466     9.9237
 1527.5000  -999.2500   -31.5518    11.3606    10.1939
 1528.0000  -999.2500   -31.2477    10.8912    10.1892
 1528.5000  -999.2500   -31.2571    11.0421    10.1853
 1529.0000  -999.2500   -30.6414    11.4971    10.1814
 1529.5000  -999.2500   -30.0235    11.8003    10.0190
 1530.0000  -999.2500   -28.7786    11.4954    10.0151
 1530.5000  -999.2500   -28.7877    11.0386    10.0113
 1531.0000  -999.2500   -28.7968    11.0377    10.0075
 1531.5000  -999.2500   -28.8059    11.0368    10.0037
 1532.0000  -999.2500   -29.1368    11.0358     9.8421
 1532.5000  -999.2500   -29.7963    11.0349     9.8383
 1533.0000  -999.2500   -30.1966    11.1861     9.8344
 1533.5000  -999.2500   -31.1922    11.2396     9.8304
 1534.0000  -999.2500   -32.7148    11.3362     9.8265
 1534.5000  -999.2500   -33.2490    11.3352     9.8226
 1535.0000  -999.2500   -32.4870    11.3344     9.8712
 1535.5000  -999.2500   -31.5329    11.0293     9.9732
 1536.0000  -999.2500   -30.4594    10.8765     9.9684
 1536.5000  -999.2500   -30.1550    10.8756     9.9645
 1537.0000  -999.2500   -29.8506    10.8747     9.9598
 1537.5000  -999.2500   -30.1732    10.8738     9.9560
 1538.0000  -999.2500   -30.4957    10.8730     9.9522
 1538.5000  -999.2500   -30.5048    10.8885     9.9484
 1539.0000  -999.2500   -31.1577    11.0232     9.9445
 1539.5000  -999.2500   -31.8965    11.1743     9.9407
 1540.0000  -999.2500   -33.6867    11.1733     9.9369
 1540.5000  -999.2500   -35.0000    11.3245     9.9330
 1541.0000  -999.2500   -34.5624    11.3234     9.9290
 1541.5000  -999.2500   -32.3592    11.4073    10.0832
 1542.0000  -999.2500   -30.8127    11.4735    10.0789
 1542.5000  -999.2500   -30.0000    11.6246    10.0749
 1543.0000  -999.2500   -29.6875    11.9276    10.0709
 1543.5000  -999.2500   -29.3750    12.0787    10.0670
 1544.0000  -999.2500   -29.5000    12.0778     9.9054
 1544.5000  -999.2500   -29.8281    12.3821     9.9007
 1545.0000  -999.2500   -30.1562    12.5320     9.8968
 1545.5000  -999.2500   -30.7969    11.8509     9.8930
 1546.0000  -999.2500   -31.8750    11.1624     9.8892
 1546.5000  -999.2500   -32.8125    11.7110    10.0431
 1547.0000  -999.2500   -32.8125    12.1888    10.0393
 1547.5000  -999.2500   -32.1875    12.2360    10.0355
 1548.0000  -999.2500   -31.2500    11.6753    10.0316
 1548.5000  -999.2500   -30.6250    10.8536     9.8698
 1549.0000  -999.2500   -30.0000    11.4607     9.7082
 1549.5000  -999.2500   -30.0000    11.7637     9.6622
 1550.0000  -999.2500   -30.0000    11.4589     9.3323
 1550.5000  -999.2500   -30.3280    10.6981     9.0023
 1551.0000  -999.2500   -30.4272    10.3933     8.6725
 1551.5000  -999.2500   -30.7497    10.0883     8.5844
 1552.0000  -999.2500   -31.3858     9.9051     8.5797
 1552.5000  -999.2500   -32.3354     9.7218     8.7342
 1553.0000  -999.2500   -32.3448     9.6298     8.8880
 1553.5000  -999.2500   -31.9842     9.7528     9.0414
 1554.0000  -999.2500   -31.6572     9.9380     9.0376
 1554.5000  -999.2500   -31.1176    10.0275     9.0338
 1555.0000  -999.2500   -30.8132    10.0518     9.0300
 1555.5000  -999.2500   -30.8244    10.0409     9.0261
 1556.0000  -999.2500   -30.8339     9.9769     9.0220
 1556.5000  -999.2500   -31.1585     9.8233     8.9866
 1557.0000  -999.2500   -31.4810     9.7274     8.8565
 1557.5000  -999.2500   -31.8036     9.6214     8.8526
 1558.0000  -999.2500   -32.1261     9.7421     8.8485
 1558.5000  -999.2500   -31.8217     9.7482     8.8446
 1559.0000  -999.2500   -31.8308     9.6796     8.7566
 1559.5000  -999.2500   -31.5078     9.6179     8.6783
 1560.0000  -999.2500   -30.8674     9.6170     8.6744
 1560.5000  -999.2500   -30.2906     9.7095     8.6706
 1561.0000  -999.2500   -29.9862     9.7368     8.6668
 1561.5000  -999.2500   -29.9969     9.7290     8.6630
 1562.0000  -999.2500   -30.0063     9.6863     8.6592
 1562.5000  -999.2500   -30.3292     9.6011     8.6554
 1563.0000  -999.2500   -30.5183     9.5067     8.6514
 1563.5000  -999.2500   -31.2900     9.4268     8.6474
 1564.0000  -999.2500   -31.9260     9.3056     8.6435
 1564.5000  -999.2500   -31.9351     9.1831     8.6396
 1565.0000  -999.2500   -31.9442     9.1444     8.6357
 1565.5000  -999.2500   -31.3263     9.3638     8.6317
 1566.0000  -999.2500   -30.7084     9.6060     8.6278
 1566.5000  -999.2500   -30.4040     9.7267     8.6238
