~VERSION INFORMATION
 VERS.                2.0:   CWLS LOG ASCII STANDARD - VERSION 2.0
 WRAP.                 NO:   ONE LINE PER DEPTH STEP
~WELL INFORMATION
#MNEM.UNIT      DATA TYPE    INFORMATION
#----------   ------------   ------------------------------
 STRT.F          700.5000:   START DEPTH
 STOP.F         3060.0000:   STOP DEPTH
 STEP.F            0.5000:   STEP LENGTH
 NULL.          -999.2500:   NO VALUE
 COMP.    FENIX & SCISSON:   COMPANY
 WELL.   FENIX "A" #23-34:   WELL
 FLD .           N P R #3:   FIELD
 LOC .      S34 T39N R78W:   LOCATION
 CNTY.            NATRONA:   COUNTY
 STAT.            WYOMING:   STATE
 CTRY. UNITED STATES OF AMERICA:   COUNTRY
 SRVC.       SCHLUMBERGER:   SERVICE COMPANY
 DATE.        23-APR-1977:   LOGDATE
 API .     49025103590000:   API NUMBER
~CURVE INFORMATION
#MNEM.UNIT       API CODE    CURVE DESCRIPTION
#----------   ------------   ------------------------------
 DEPT.F                  :   
 ILD .OHMM   07 120 46 00:   DEEP INDUCTION RESISTIVITY
 ILM .OHMM   07 120 44 00:   INDUCTION LOG MEDIUM RESISTIVITY
 LL8 .OHMM   07 220 08 00:   LATEROLOG-8 RES.
 SPR .MV     07 010 01 00:   SPONTANEOUS POTENTIAL
 GRD .GAPI   45 310 01 00:   GAMMA RAY FROM DENSITY LOG
 CALD.IN     45 280 60 00:   CALIPER FROM DENSITY LOG
 RHOB.G/C3   45 350 01 00:   BULK DENSITY
 CORR.G/C3   45 356 01 00:   DENSITY CORRECTION
~PARAMETER INFORMATION
#MNEM.UNIT          VALUE    DESCRIPTION
#----------   ------------   ------------------------------
 EKB .F         5094.0000:   Kelly bushing
 EGL .F         5082.0000:   Ground level
 EDF .F            0.0000:   Drilling floor
 EPD .F            0.0000:   Permanent datum
 TD  .F         3051.0000:   Total depth
 DATE.        23-APR-1977:   Date logged
 CLNT.            A2DTECH:   Client Code
 SL  . 990' FWL & 1650' FNL:   Surface Location
 PD  .                 GL:   Permanent Datum
 DD  .F              3050:   Depth driller
 DL  .F              3051:   Depth logger
 BLI .F              3045:   Bottom log interval
 CS1 .IN            8.625:   Casing size
 CBD1.      8.625" @ 718':   Casing driller 1
 CBL1.F               717:   Casing logger 1
 BS1 .IN            7.875:   Bit size
 DFT .                FGM:   Type fluid in hole
 DFD .                8.8:   Density
 DFV .                 34:   Viscosity
 DFPH.                8.5:   pH
 DFL .                8.2:   Fluid loss
 MSS .           FLOWLINE:   Source of sample
 RMS .OHMM           .155:   Rm
 MST .F                66:   Rm Meas. temp.
 RMF .OHMM           .152:   Rmf
 MFST.F                66:   Rmf Meas. temp.
 MFSS.               MEAS:   Source Rmf.
 RMB .OHMM           .085:   Rm. at BHT
 BHT .F               120:   BHT.
 TCS .HRS            0230:   Time Circ. stopped
 MRT .F               120:   Maximum recorded temp.
 LUN .               5642:   Logging unit number
 LUL .               CSPR:   Logging unit location
 ENGI.             TAYLOR:   Recorded By
 WITN.         HARRINGTON:   Witnessed by
 ORIG.           5" PRINT:   Origin of data
 UWI .     49025103590000:   Unique Well ID
 DICO. A2D TECHNOLOGIES, INC.:   Digitizing Company
 DAPD.                 12:   Feet Above Permanent Datum
 BSD1.               3050:   Depth drilled with bit1
 TLI .                717:   Top log interval
 TLAB.               0530:   Time logger at bottom
~OTHER INFORMATION
~A   DEPT      ILD        ILM        LL8        SPR         GRD      CALD       RHOB       CORR   
# ...
 2685.0000     8.8120     7.6730     9.1660   -72.8820   113.6500     9.1790     2.5240     0.0130
 2685.5000     8.5680     7.5660     9.7620   -72.9040   111.1820     9.1920     2.5220     0.0080
 2686.0000     8.3230     7.4580    10.4250   -72.9620   109.1840     9.2050     2.5280     0.0150
 2686.5000     8.0550     7.3500    10.9460   -73.1320   109.2830     9.2170     2.5420     0.0260
 2687.0000     7.9320     7.2430    11.4380   -73.3110   109.8710     9.2300     2.5490     0.0220
 2687.5000     7.7570     7.2100    11.5440   -73.7890   110.9230     9.2430     2.5470     0.0210
 2688.0000     7.5820     6.5140    10.5260   -74.3150   114.8700     9.2560     2.5440     0.0290
 2688.5000     7.4070     6.4050     9.0720   -74.8420   118.9990     9.2820     2.5250     0.0250
 2689.0000     7.2320     6.1640     7.9440   -75.3690   120.2690     9.3160     2.5090     0.0110
 2689.5000     7.0230     5.9950     7.7520   -75.8950   119.4820     9.3500     2.5100     0.0190
 2690.0000     6.6190     5.7330     7.6340   -76.4210   119.5220     9.3830     2.5170     0.0310
 2690.5000     6.2150     5.4950     7.4960   -76.7620   121.5540     9.4170     2.5270     0.0400
 2691.0000     5.8110     5.2560     7.3150   -76.9170   125.4520     9.4510     2.5120     0.0360
 2691.5000     5.3670     5.0180     7.1330   -77.0720   130.3990     9.4850     2.4960     0.0140
 2692.0000     5.0620     4.7790     6.7650   -77.2270   133.9230     9.5190     2.5070     0.0430
 2692.5000     4.5500     4.5410     6.3180   -77.3810   137.3580     9.5530     2.5140     0.0340
 2693.0000     4.0380     4.2810     5.8700   -77.5350   142.2650     9.5860     2.4870     0.0200
 2693.5000     3.5260     3.8130     5.4670   -77.6900   151.8510     9.6200     2.4770     0.0370
 2694.0000     3.0140     3.3450     4.7800   -77.8430   159.9480     9.6540     2.4820     0.0760
 2694.5000     2.5020     2.8770     4.0910   -77.9970   175.8700     9.7220     2.4790     0.0700
 2695.0000     1.9900     2.4090     3.4010   -78.0750   191.1320     9.7950     2.4260     0.0600
 2695.5000     1.6050     1.9410     2.8020   -78.0750   206.1830     9.8680     2.3820     0.0500
 2696.0000     1.5150     1.4730     2.2940   -78.0750   215.5890     9.9400     2.3350     0.0460
 2696.5000     1.4260     1.3080     1.7850   -78.0750   215.3740    10.0130     2.3280     0.0850
 2697.0000     1.3360     1.2930     1.6020   -78.0740   213.3820    10.0860     2.3190     0.1170
 2697.5000     1.2370     1.2440     2.0660   -78.0740   201.4670    10.1580     2.2550     0.0780
 2698.0000     1.2150     1.1950     2.8130   -77.9090   189.1890    10.1730     2.2600     0.0420
 2698.5000     1.2720     1.1530     2.7870   -77.5790   190.5740    10.1250     2.2410     0.1170
 2699.0000     1.4780     1.1280     2.0580   -77.2490   194.9140    10.0860     2.2060     0.1850
 2699.5000     1.7380     1.5090     1.4540   -76.9190   185.6490    10.5190     2.1710     0.2450
 2700.0000     1.9980     2.0160     2.1120   -76.5880   153.8510    11.2340     2.1490     0.0890
 2700.5000     2.2580     2.6920     3.8130   -76.2930   132.8540    10.7670     2.2780     0.0120
 2701.0000     2.4950     3.1720     6.1640   -76.2890   118.2410     9.7590     2.5110     0.0310
 2701.5000     3.4190     3.1910     6.0510   -76.2900   118.9020     9.6950     2.5040     0.0440
 2702.0000     4.3540     3.2610     5.1720   -76.2900   119.5020     9.6820     2.4900     0.0350
 2702.5000     5.2890     3.5430     5.1250   -76.2890   119.8950     9.6990     2.4850     0.0410
 2703.0000     6.1640     3.8860     5.5260   -76.2880   118.3280     9.7380     2.5180     0.0540
 2703.5000     7.2770     5.0180     5.8420   -76.1810   115.8260     9.7780     2.5250     0.0540
 2704.0000     7.4480     6.9120     6.1580   -75.9460   112.6090     9.8180     2.5320     0.0540
 2704.5000     7.8090     8.8070     6.5140   -75.7110   108.6800     9.8320     2.5400     0.0600
 2705.0000     8.1700    10.7010     7.9080   -75.4790   104.7500     9.8100     2.5360     0.0590
 2705.5000     8.5320    12.5950     9.9140   -75.3000   100.7670     9.7530     2.5330     0.0430
 2706.0000    10.2160    14.4900    15.1000   -75.3410    96.4060     9.5950     2.5460     0.0100
 2706.5000    12.1660    16.3840    21.1820   -75.3770    90.4720     9.4370     2.5620     0.0150
 2707.0000    14.1150    17.4860    23.9300   -75.4120    84.7300     9.4030     2.5790     0.0180
 2707.5000    15.6530    17.1660    22.8510   -75.4470    80.4860     9.4060     2.5690     0.0160
 2708.0000    15.5090    15.4050    21.1100   -75.4820    84.7610     9.4110     2.5550     0.0240
 2708.5000    14.3360    13.6620    19.3860   -75.4970    92.0690     9.4150     2.5340     0.0190
 2709.0000    12.8750    11.9190    17.6480   -75.4880    99.4850     9.4190     2.5270     0.0140
 2709.5000    11.4150    10.1750    16.2270   -75.2010   103.7100     9.4230     2.5200     0.0080
 2710.0000     9.9540     8.4320    13.7110   -74.9010   107.0780     9.4280     2.5370     0.0500
 2710.5000     9.2020     7.2490    11.1960   -74.6020   109.2680     9.4320     2.5390     0.0430
 2711.0000     8.9680     6.8850    10.3240   -74.3040   110.9380     9.4360     2.5470     0.0540
 2711.5000     8.7350     7.1120     9.9360   -74.0050   111.0560     9.4400     2.5790     0.0680
 2712.0000     8.5020     7.5130     9.5100   -73.7010   108.8990     9.4440     2.5360     0.0260
 2712.5000     8.2690     7.6920    10.3190   -73.3190   104.2740     9.4480     2.5190     0.0100
 2713.0000     8.0360     7.3360    11.3910   -72.6860   100.6490     9.4530     2.5450     0.0200
 2713.5000     7.7630     7.0280    12.4280   -72.0740    99.3000     9.4570     2.5740     0.0280
 2714.0000     7.6980     6.7590    12.4280   -71.4660   103.9410     9.4610     2.5870     0.0350
 2714.5000     7.6100     6.6060    11.6650   -70.9400   112.7130     9.4650     2.5710     0.0500
 2715.0000     7.5230     6.4420     9.1980   -70.9790   118.3060     9.4690     2.5830     0.0660
 2715.5000     7.4350     6.2770     6.7590   -71.0240   120.2770     9.4740     2.5770     0.0710
 2716.0000     7.3470     6.1640     6.5750   -71.0650   119.1160     9.4780     2.5710     0.0510
 2716.5000     7.2590     6.3370     8.1430   -71.1070   116.7880     9.4820     2.5840     0.0570
 2717.0000     7.1710     6.3370     9.8710   -70.9270   115.2870     9.4860     2.5910     0.0550
 2717.5000     7.1440     6.3370    10.0520   -70.5250   114.8650     9.4900     2.5730     0.0460
 2718.0000     7.5820     6.4690     9.0620   -70.1230   116.6760     9.4950     2.5450     0.0250
 2718.5000     8.4120     6.9340     8.5920   -69.7200   122.5960     9.4990     2.5200     0.0150
 2719.0000     8.7060     7.3980     9.2410   -69.3440   119.2330     9.5110     2.5180     0.0200
 2719.5000     8.8310     7.8620    10.7300   -69.1690   110.7270     9.5230     2.5470     0.0230
 2720.0000     8.9560     8.2050    12.3810   -69.0060   103.5650     9.5350     2.5400     0.0150
 2720.5000     9.0810     8.1040    12.0570   -68.8430   102.0460     9.5470     2.5280     0.0130
 2721.0000     9.2060     8.0250    11.6260   -68.8250   104.5550     9.5590     2.5180     0.0200
 2721.5000     9.3310     7.9810    11.1940   -68.9910   107.8000     9.5710     2.5260     0.0270
 2722.0000     9.3130     7.7970    11.0230   -69.1520   111.0290     9.5860     2.5570     0.0480
 2722.5000     9.2760     7.6210    10.3970   -69.2970   114.2760     9.6050     2.5490     0.0420
 2723.0000     9.2390     7.4440     9.5690   -69.9700   116.9750     9.6240     2.5310     0.0370
 2723.5000     9.2020     7.2770     9.2510   -70.7120   118.1820     9.6440     2.5180     0.0280
 2724.0000     9.1660     7.4340     9.1660   -71.4610   117.2650     9.6630     2.5280     0.0260
 2724.5000     8.9980     7.6500     9.3360   -72.2100   115.2440     9.6800     2.5380     0.0460
 2725.0000     8.6300     7.7570    10.5870   -72.9600   113.5080     9.6860     2.5180     0.0220
