~VERSION INFORMATION
 VERS.                2.0:   CWLS LOG ASCII STANDARD - VERSION 2.0
 WRAP.                 NO:   ONE LINE PER DEPTH STEP
~WELL INFORMATION
#MNEM.UNIT      DATA TYPE    INFORMATION
#----------   ------------   ------------------------------
 STRT.F         2933.0000:   START DEPTH
 STOP.F         5494.0000:   STOP DEPTH
 STEP.F            0.5000:   STEP LENGTH
 NULL.          -999.2500:   NO VALUE
 COMP.    FENIX & SCISSON:   COMPANY
 WELL. FENIX "TPX" #56-10:   WELL
 FLD .        TEAPOT DOME:   FIELD
 LOC .      S10 T38N R78W:   LOCATION
 CNTY.            NATRONA:   COUNTY
 STAT.            WYOMING:   STATE
 CTRY. UNITED STATES OF AMERICA:   COUNTRY
 SRVC.       SCHLUMBERGER:   SERVICE COMPANY
 DATE.        22-MAY-1978:   LOGDATE
 API .     49025106100000:   API NUMBER
~CURVE INFORMATION
#MNEM.UNIT       API CODE    CURVE DESCRIPTION
#----------   ------------   ------------------------------
 DEPT.F                  :   
 NPHI.DEC    42 890 03 00:   NEUTRON POROSITY SANDSTONE
 GRD .GAPI   45 310 01 00:   GAMMA RAY FROM DENSITY LOG
 CALD.IN     45 280 60 00:   CALIPER FROM DENSITY LOG
 CORR.G/C3   45 356 01 00:   DENSITY CORRECTION
 RHOB.G/C3   45 350 01 00:   BULK DENSITY
 SPR .MV     07 010 01 00:   SPONTANEOUS POTENTIAL
 ILD .OHMM   07 120 46 00:   INDUCTION LOG DEEP RESISTIVITY
 ILM .OHMM   07 120 44 00:   INDUCTION LOG MEDIUM RESISTIVITY
 SFL .OHMM   07 220 01 00:   SHALLOW FOCUSED LOG RESISITIVITY
 DT  .US/F   60 520 00 00:   DELTA TIME
~PARAMETER INFORMATION
#MNEM.UNIT          VALUE    DESCRIPTION
#----------   ------------   ------------------------------
 EKB .F         5212.0000:   Kelly bushing
 EGL .F         5202.0000:   Ground level
 TD  .F         5500.0000:   Total depth
 CLNT.            A2DTECH:   Client Code
 SL  . 1270' FSL & 2130' FEL:   Surface Location
 PD  .                 GL:   Permanent Datum
 EPD .F              5202:   Elevation Permanent Datum
 LMF .                 KB:   Log Measured From
 DMF .                 KB:   Drilling Measured From
 DAPD.F                10:   Feet Above Permanent Datum
 DATE.        22-MAY-1978:   Date Logged [DD-MMM-YYYY]
 DD  .F              5500:   Depth driller
 DL  .F              5499:   Depth logger
 BLI .F              5497:   Bottom log interval
 TLI .F              2971:   Top log interval
 CS1 .IN            8.625:   Casing size
 CBD1.     8.625" @ 2972':   Casing driller 1
 CBL1.F              2971:   Casing logger 1
 BS1 .IN            7.875:   Bit size
 BSD1.F              5500:   Depth drilled with bit1
 DFT .                FGM:   Type fluid in hole
 DFD .                9.3:   Density
 DFV .                 57:   Viscosity
 DFPH.               10.5:   pH
 DFL .                  6:   Fluid loss
 MSS .           MUD TANK:   Source of sample
 RMS .OHMM           0.93:   Rm
 MST .F                58:   Rm Meas. temp.
 RMF .OHMM           0.71:   Rmf
 MFST.F                61:   Rmf Meas. temp.
 MFSS.               MEAS:   Source Rmf.
 RMB .OHMM           0.27:   Rm. at BHT
 BHT .F               198:   BHT.
 TCS .HRS            1500:   Time Circ. stopped
 TLAB.HRS            0100:   Time logger at bottom
 MRT .F               198:   Maximum recorded temp.
 LUN .               8039:   Logging unit number
 LUL .               CSPR:   Logging unit location
 ENGI.          CHALUPSKY:   Recorded By
 WITN.            RHOADES:   Witnessed by
 ORIG.      2.5" 5" PRINT:   Origin of data
 UWI .     49025106100000:   Unique Well ID
 DICO. A2D TECHNOLOGIES, INC.:   Digitizing Company
~OTHER INFORMATION
~A  DEPTH     NPHI        GRD       CALD       CORR       RHOB        SPR        ILD        ILM        SFL         DT
# ...
 4440.5000     0.0833    45.5961    10.3908     0.0298     2.6897   -53.2910    54.3347    67.0408    72.2289    62.6547
 4441.0000     0.0937    57.1754    10.3913     0.0354     2.6952   -53.4479    45.0471    54.9440    56.2287    64.0147
 4441.5000     0.1041    63.6446    10.3917     0.0381     2.6997   -53.9030    41.1493    45.1334    43.1694    64.9236
 4442.0000     0.1146    68.2412    10.4098     0.0377     2.6848   -54.2090    36.8158    38.9464    35.5253    65.0038
 4442.5000     0.1261    70.8165    10.4528     0.0342     2.6454   -54.2164    32.7114    34.3551    34.5337    64.1098
 4443.0000     0.1375    72.0390    10.4833     0.0247     2.5981   -53.7519    30.0886    29.4746    34.7560    63.7389
 4443.5000     0.1490    73.2614    10.5137     0.0088     2.5525   -53.0387    27.2954    25.9999    34.7362    64.1983
 4444.0000     0.1619    77.4960    10.5742    -0.0020     2.5310   -52.4491    24.5906    23.9108    34.0018    65.1072
 4444.5000     0.1660    85.8022    10.6047     0.0083     2.5457   -51.8594    22.9344    22.2972    31.9201    66.0161
 4445.0000     0.1675    95.9935    10.6051     0.0181     2.5664   -51.2698    21.8243    21.3783    28.8864    68.8799
 4445.5000     0.1681   106.1848    10.6356     0.0216     2.5811   -50.6801    20.0600    20.4972    23.6428    70.8414
 4446.0000     0.1705   113.7141    10.6661     0.0216     2.5855   -50.3871    18.9743    19.7895    18.5350    73.3293
 4446.5000     0.1777   114.9366    10.6965     0.0157     2.5885   -50.0959    18.4660    19.1062    16.0217    72.9206
 4447.0000     0.2044   114.9543    10.7270     0.0127     2.5900   -49.9540    18.2033    18.4465    16.1266    70.4118
 4447.5000     0.2406   110.7551    10.7305     0.0097     2.6003   -49.8121    18.0691    18.0587    17.0358    68.6140
 4448.0000     0.2554   109.5679    10.7580     0.0053     2.6239   -49.5210    17.9358    17.8021    19.9735    67.4176
 4448.5000     0.2670   111.9952    10.7584     0.0015     2.6373   -49.5302    17.9273    17.6715    24.2447    67.6498
 4449.0000     0.2561   115.6273    10.7661    -0.0001     2.6448   -49.8360    18.0454    18.0346    24.4035    69.9873
 4449.5000     0.2371   118.0546    10.7893     0.0008     2.6460   -50.1419    18.4132    18.6643    20.5021    71.9488
 4450.0000     0.2318   120.4819    10.7898     0.0007     2.6305   -50.4478    18.6633    18.7886    16.8717    73.0081
 4450.5000     0.2383   122.9096    10.7902     0.0007     2.6221   -50.7537    18.6522    19.0437    15.5149    72.4132
 4451.0000     0.2525   122.1558    10.7907     0.0022     2.6209   -50.7612    18.6433    19.0339    15.8327    70.4650
 4451.5000     0.2656   119.5129    10.7911     0.0006     2.6272   -50.7687    18.6344    18.8986    16.7275    68.5167
 4452.0000     0.2561   109.5593    10.7916     0.0006     2.6490   -50.6262    18.8853    19.1581    18.7527    66.4933
 4452.5000     0.2401   100.2707    10.7920     0.0006     2.6534   -51.0831    19.6771    19.2850    24.5046    65.8949
 4453.0000     0.2312    97.0939    10.7926     0.0006     2.6410   -51.9860    20.7943    19.5468    24.3014    66.1308
 4453.5000     0.2217    99.3161    10.7930     0.0005     2.6268   -52.2918    21.5181    20.0904    22.8190    66.4397
 4454.0000     0.2236   101.7985    10.7935    -0.0010     2.6112   -52.1498    22.8948    21.0841    21.5762    66.1456
 4454.5000     0.2241   102.3193    10.7939    -0.0040     2.6037   -51.7094    24.5675    22.1517    23.7667    65.0996
 4455.0000     0.2068    98.7743    10.7643    -0.0040     2.5988   -51.4182    26.5183    23.7938    25.8187    63.6024
 4455.5000     0.1945    92.0241    10.7347    -0.0023     2.6052   -51.1270    28.3397    26.1210    28.0479    63.1580
 4456.0000     0.1589    81.7127    10.8853     0.0007     2.6167   -50.9821    30.5704    27.4131    29.8416    63.1646
 4456.5000     0.1429    70.1067    12.0273     0.0018     2.6230   -50.8247    33.4366    28.9697    32.4181    63.2351
 4457.0000     0.1364    56.8796    12.2975     0.0003     2.6261   -50.5518    37.3393    31.2592    37.4871    62.6410
 4457.5000     0.1328    53.2445    11.8293     0.0003     2.6283   -50.5610    41.9872    34.9218    40.7465    61.8950
 4458.0000     0.1269    52.0957    10.6572     0.0003     2.6244   -50.5683    45.6069    38.4752    44.6486    61.3746
 4458.5000     0.1233    52.7928    10.5134     0.0017     2.6003   -50.5756    46.5501    40.3784    49.0648    61.1549
 4459.0000     0.1210    54.2536    10.5128     0.0002     2.5870   -50.2826    46.5264    41.5019    52.9324    61.3936
 4459.5000     0.1210    57.9691    10.5447     0.0017     2.5811   -49.9914    45.5512    41.7772    57.1048    61.7684
 4460.0000     0.1222    66.4726    10.5887     0.0069     2.5841   -49.7002    43.9831    41.7627    58.6914    61.7756
 4460.5000     0.1258    81.0830    10.5891     0.0187     2.5855   -50.0078    40.3894    41.4592    59.0721    61.6311
 4461.0000     0.1283    92.7615    10.5595     0.0222     2.5826   -50.1643    36.3266    40.5431    56.6290    61.6370
 4461.5000     0.1315   104.2040    10.4999     0.0148     2.5782   -50.3209    32.8394    37.5889    53.9178    61.7181
 4462.0000     0.1392   118.7952    10.4703     0.0103     2.5752   -50.6269    27.9928    34.3318    49.2425    64.3556
 4462.5000     0.1639   120.9337    10.5008     0.0074     2.5737   -50.7833    23.6967    26.5421    41.3786    67.1435
 4463.0000     0.1943   119.2324    10.5313     0.0029     2.5767   -50.4939    20.3398    21.5422    32.9325    71.1343
 4463.5000     0.2247   111.4191    10.6218     0.0014     2.5813   -50.3501    17.5797    16.8873    24.2061    74.2981
 4464.0000     0.2612    98.2371    10.7123     0.0029     2.5917   -50.6578    16.5108    14.7944    13.9917    75.9567
 4464.5000     0.2618    90.8134    10.8041     0.0073     2.6013   -50.9636    16.2770    14.5853    13.2297    73.2573
 4465.0000     0.2488    84.1545    10.8954     0.0131     2.6199   -51.4186    16.2704    14.6822    13.7857    70.6316
 4465.5000     0.2185    82.4880    10.9273     0.0190     2.6357   -51.5752    16.6052    15.5157    15.7216    67.5351
 4466.0000     0.1829    82.8030    10.9544     0.0263     2.6282   -51.5825    17.5440    16.8586    18.5623    64.6498
 4466.5000     0.1544    85.9096    10.9848     0.0185     2.6152   -51.2910    19.2318    18.0954    21.9164    62.7561
 4467.0000     0.1514    90.2298    10.9853     0.0090     2.6031   -51.0001    21.5034    19.7209    25.6976    61.7093
 4467.5000     0.1544    93.4068    10.9857    -0.0008     2.5973   -50.8558    23.5981    21.9266    29.7158    61.3378
 4468.0000     0.1687    92.8221    10.9862    -0.0033     2.6074   -50.7162    25.2799    24.4957    31.3975    62.6986
 4468.5000     0.1746    89.8277    10.9866     0.0059     2.6173   -50.4250    27.6501    25.8866    31.6012    63.3060
 4469.0000     0.1758    86.2309    11.0171     0.0119     2.6263   -50.4341    27.8337    25.8778    31.1144    63.8382
 4469.5000     0.1729    82.6341    11.0176     0.0169     2.6339   -50.5907    27.8195    26.0515    29.2735    64.1449
 4470.0000     0.1628    80.2421    11.0180     0.0214     2.6386   -50.4469    27.8082    26.2242    25.7999    63.9989
 4470.5000     0.1538    79.6566    11.0485     0.0239     2.6386   -50.4560    27.9929    26.3980    25.0845    63.7055
 4471.0000     0.1509    80.2775    11.0490     0.0194     2.6386   -50.1630    28.3694    27.1302    26.6856    63.1851
 4471.5000     0.1527    87.5626    11.0495     0.0156     2.6283   -50.1721    28.5546    28.0794    28.7891    62.3640
 4472.0000     0.1642    97.4080    11.0499     0.0102     2.6150   -50.1794    28.7411    29.2644    31.4925    61.3113
 4472.5000     0.1850   102.6205    11.0504     0.0009     2.6032   -50.4853    28.7292    29.4583    34.6898    60.7216
 4473.0000     0.1962   101.9482    11.0508    -0.0050     2.5944   -50.9403    28.5191    29.0080    36.9083    60.8794
 4473.5000     0.1985    99.5287    11.0512    -0.0055     2.5870   -51.5555    28.1130    28.2342    36.1306    61.6372
