~VERSION INFORMATION
 VERS.                2.0:   CWLS LOG ASCII STANDARD - VERSION 2.0
 WRAP.                 NO:   ONE LINE PER DEPTH STEP
~WELL INFORMATION
#MNEM.UNIT      DATA TYPE    INFORMATION
#----------   ------------   ------------------------------
 STRT.F          502.0000:   START DEPTH
 STOP.F         3068.0000:   STOP DEPTH
 STEP.F            0.5000:   STEP LENGTH
 NULL.          -999.2500:   NO VALUE
 COMP. LAWRENCE ALLISON AND ASSOCIATES:   COMPANY
 WELL. LAWRENCE NPR TX #85-33:   WELL
 FLD .              N P R:   FIELD
 LOC .      S33 T39N R78W:   LOCATION
 CNTY.            NATRONA:   COUNTY
 STAT.            WYOMING:   STATE
 CTRY. UNITED STATES OF AMERICA:   COUNTRY
 SRVC.       SCHLUMBERGER:   SERVICE COMPANY
 DATE.        20-JUN-1982:   LOGDATE
 API .     49025107990001:   API NUMBER
~CURVE INFORMATION
#MNEM.UNIT       API CODE    CURVE DESCRIPTION
#----------   ------------   ------------------------------
 DEPT.F                  :   
 RHOB.G/C3   45 350 01 00:   BULK DENSITY
 GRD .GAPI   45 310 01 00:   GAMMA RAY FROM DENSITY LOG
 CALD.IN     45 280 60 00:   CALIPER FROM DENSITY LOG
 CORR.G/C3   45 356 01 00:   DENSITY CORRECTION
 TEND.LBS    45 635 01 00:   TENSION FROM DENSITY LOG
 NPHI.DEC    42 890 03 00:   NEUTRON POROSITY SANDSTONE
 TENR.LBS    07 635 01 00:   TENSION FROM RESISTIVITY
 SPR .MV     07 010 01 00:   SPONTANEOUS POTENTIAL
 ILD .OHMM   07 120 46 00:   DEEP INDUCTION RESISTIVITY
 ILM .OHMM   07 120 44 00:   INDUCTION LOG MEDIUM RESISTIVITY
 SFL .OHMM   07 220 01 00:   SHALLOW FOCUSED LOG RESISTIVITY
~PARAMETER INFORMATION
#MNEM.UNIT          VALUE    DESCRIPTION
#----------   ------------   ------------------------------
 EKB .F         5123.0000:   Kelly bushing
 EGL .F         5113.0000:   Ground level
 EDF .F         5122.0000:   Drilling floor
 EPD .F         5113.0000:   Permanent datum
 TD  .F         3100.0000:   Total depth
 DATE.        20-JUN-1982:   Date logged
 CLNT.            A2DTECH:   Client Code
 SL  . 2263' FSL & 293' FEL:   Surface Location
 PD  .                 GL:   Permanent Datum
 DD  .F              3100:   Depth driller
 DL  .F              3056:   Depth logger
 BLI .F              3050:   Bottom log interval
 CS1 .IN            9.625:   Casing size
 CBD1.      9.625" @ 524':   Casing driller 1
 CBL1.F               520:   Casing logger 1
 BS1 .IN            7.875:   Bit size
 DFT .           POLY/KCL:   Type fluid in hole
 DFD .                8.4:   Density
 DFV .                 40:   Viscosity
 DFPH.                7.6:   pH
 DFL .                 10:   Fluid loss
 MSS .               TANK:   Source of sample
 RMS .OHMM            .92:   Rm
 MST .F                66:   Rm Meas. temp.
 RMF .OHMM           .603:   Rmf
 MFST.F                68:   Rmf Meas. temp.
 MFSS.               MEAS:   Source Rmf.
 RMB .OHMM           .515:   Rm. at BHT
 BHT .F               118:   BHT.
 TCS .HRS             815:   Time Circ. stopped
 MRT .F               118:   Maximum recorded temp.
 LUN .               8035:   Logging unit number
 LUL .               CSPR:   Logging unit location
 ENGI.              PENNY:   Recorded By
 WITN.           JENNINGS:   Witnessed by
 ORIG.           5" PRINT:   Origin of data
 UWI .     49025107990001:   Unique Well ID
 DICO. A2D TECHNOLOGIES, INC.:   Digitizing Company
 DAPD.                 10:   Feet Above Permanent Datum
 BSD1.               3100:   Depth drilled with bit1
 TLI .                520:   Top log interval
 TLAB.               1100:   Time logger at bottom
~OTHER INFORMATION
~A   DEPT     RHOB         GRD      CALD       CORR       TEND       NPHI       TENR        SPR        ILD        ILM        SFL   
# ...
 1203.5000     2.5170    84.6970    10.0960     0.0350   995.1910     0.3220  1306.0820   -18.1600     8.9140     8.5630     9.8250
 1204.0000     2.5250    82.9000    10.1260     0.0370   997.9700     0.3260  1306.0820   -18.1060     8.9140     8.5470     9.9530
 1204.5000     2.5230    83.7360    10.1550     0.0340  1000.7500     0.3240  1306.0820   -18.0530     8.9140     8.5320     9.8210
 1205.0000     2.5070    86.0250    10.1850     0.0280  1003.5290     0.3220  1306.0820   -17.9980     8.9140     8.5170     9.6560
 1205.5000     2.4910    90.9680    10.2160     0.0230  1006.3090     0.3210  1306.0820   -17.9410     8.9060     8.4340     9.5940
 1206.0000     2.4900    96.1640    10.1960     0.0170  1009.0890     0.3380  1306.0820   -17.9400     8.8690     8.3360     9.4540
 1206.5000     2.5040    97.2770    10.1980     0.0190  1011.8680     0.3550  1306.0820   -18.1830     8.8310     8.2390     9.2480
 1207.0000     2.5180    95.2870    10.2010     0.0180  1014.6480     0.3550  1306.0820   -18.3240     8.7940     8.1410     9.2310
 1207.5000     2.5210    96.8750    10.2040     0.0120  1017.4270     0.3500  1306.0820   -18.4560     8.7570     8.0430     9.2060
 1208.0000     2.4990    99.6050    10.2060     0.0070  1020.2070     0.3490  1306.0820   -18.5880     8.7200     7.9460     9.1810
 1208.5000     2.4720   102.2450    10.2090     0.0020  1022.9870     0.3570  1306.0820   -18.7170     8.6830     7.8390     9.1630
 1209.0000     2.4570   102.2370    10.2120     0.0000  1025.7660     0.3680  1306.0820   -18.8550     8.6210     7.8390     9.0770
 1209.5000     2.4570   100.0120    10.2150     0.0000  1028.5460     0.3630  1306.0820   -18.6480     8.5490     7.8410     8.8010
 1210.0000     2.4760    99.3830    10.2180     0.0000  1031.3250     0.3520  1306.0820   -18.5430     8.4770     7.8480     8.5930
 1210.5000     2.4920   100.3870    10.2700     0.0120  1034.1050     0.3280  1306.0820   -18.4220     8.4050     7.8550     8.7920
 1211.0000     2.5070    99.9540    10.3960     0.0240  1036.8840     0.3190  1306.0820   -18.2970     8.3560     7.8610     9.1350
 1211.5000     2.5210    97.6260    10.5190     0.0320  1039.6639     0.3240  1306.0820   -18.1740     8.3460     7.8680     9.4190
 1212.0000     2.5190    95.0430    10.6150     0.0420  1041.6670     0.3440  1306.0820   -18.1000     8.3370     7.8750     9.3330
 1212.5000     2.5020    94.5200    10.5170     0.0350  1040.5530     0.3680  1306.0820   -18.2180     8.3280     7.8820     9.1260
 1213.0000     2.4820    97.1370    10.3950     0.0180  1038.9360     0.3800  1306.0820   -18.3980     8.3180     7.8890     8.9170
 1213.5000     2.4870    99.0930    10.2710     0.0080  1037.3190     0.3740  1306.0820   -18.5780     8.3090     7.8950     8.7080
 1214.0000     2.4980   100.5630    10.1470     0.0080  1035.7020     0.3550  1306.0820   -18.7580     8.2990     7.9020     8.6720
 1214.5000     2.5100   102.0390    10.0980     0.0120  1034.0850     0.3370  1306.0820   -18.8870     8.2900     7.9090     8.7850
 1215.0000     2.5190   103.5240    10.1190     0.0180  1032.4680     0.3230  1306.0820   -18.8530     8.2830     7.9160     8.8950
 1215.5000     2.5140   104.1940    10.1170     0.0230  1030.8510     0.3310  1306.0820   -18.7930     8.3010     7.9230     8.9960
 1216.0000     2.5110   104.6300    10.1150     0.0270  1029.2340     0.3530  1306.0820   -18.7340     8.3150     7.9300     8.9960
 1216.5000     2.5080   104.2990    10.1140     0.0280  1027.6169     0.3560  1306.0820   -18.6730     8.3290     7.9360     8.6230
 1217.0000     2.5050   104.0740    10.1120     0.0260  1025.9990     0.3530  1306.0820   -18.6130     8.3430     7.9430     8.5930
 1217.5000     2.5030   104.1460    10.1100     0.0140  1024.3820     0.3550  1306.0820   -18.5530     8.3570     7.9500     8.7460
 1218.0000     2.5020   104.2120    10.1080     0.0150  1022.7650     0.3560  1306.0820   -18.4950     8.3710     7.9570     8.8280
 1218.5000     2.5140   104.2800    10.1060     0.0190  1021.1480     0.3450  1306.0820   -18.5320     8.3850     7.9640     8.9140
 1219.0000     2.5260   104.3510    10.1040     0.0220  1019.5310     0.3300  1306.0820   -18.6290     8.3990     7.9700     8.9240
 1219.5000     2.5330   103.6210    10.1030     0.0250  1017.9140     0.3110  1306.0820   -18.7250     8.4140     7.9770     8.9350
 1220.0000     2.5340   101.3750    10.1010     0.0250  1016.2970     0.3130  1306.0820   -18.8210     8.4350     7.9840     8.9460
 1220.5000     2.5270    99.5620    10.0990     0.0210  1014.6800     0.3150  1306.0820   -18.9160     8.4230     7.9660     8.9560
 1221.0000     2.5190    99.9370    10.0970     0.0170  1013.0630     0.3130  1306.0820   -19.0140     8.3870     7.9480     8.9670
 1221.5000     2.5120   103.8940    10.0950     0.0130  1011.4460     0.3120  1306.0820   -19.1010     8.3520     7.9290     8.9780
 1222.0000     2.5100   107.6560    10.0940     0.0120  1009.8290     0.3150  1306.0820   -18.8000     8.3170     7.9110     8.9880
 1222.5000     2.5150   108.6600    10.0920     0.0140  1008.2120     0.3200  1306.0820   -18.6380     8.2830     7.9250     8.9960
 1223.0000     2.5150   104.7650    10.0900     0.0160  1006.5950     0.3200  1306.0820   -18.4700     8.3070     7.9390     8.6350
 1223.5000     2.5110   101.6620    10.0880     0.0180  1004.9780     0.3200  1306.0820   -18.3000     8.3360     7.9530     8.5930
 1224.0000     2.5050    99.6610    10.0860     0.0140  1003.3610     0.3130  1306.0820   -18.1370     8.3650     7.9660     8.7300
 1224.5000     2.4990    98.7280    10.0850     0.0100  1001.7440     0.3060  1306.0820   -17.8870     8.3930     7.9800     8.9350
 1225.0000     2.4960    98.6620    10.0830     0.0160  1000.1270     0.3040  1306.0820   -18.0380     8.4220     8.0530     9.0790
 1225.5000     2.4940    98.5530    10.0810     0.0250   998.5100     0.3140  1306.0820   -18.2600     8.5140     8.1530     9.1100
 1226.0000     2.4920    98.0240    10.0550     0.0350   996.8930     0.3280  1307.0980   -18.3150     8.6180     8.2520     9.1390
 1226.5000     2.4850    95.9030    10.0160     0.0260   995.2760     0.3410  1308.5200   -18.3440     8.7310     8.3520     9.1630
 1227.0000     2.4840    94.3510     9.9760     0.0150   993.6590     0.3350  1309.9410   -18.3720     8.8440     8.4520     9.0790
 1227.5000     2.4870    95.4340     9.9360     0.0100   992.0420     0.3240  1311.3621   -18.4000     8.9570     8.5510     9.3270
 1228.0000     2.4880    99.6990     9.8950     0.0130   990.4250     0.3130  1312.7830   -18.4280     9.0710     8.6510     9.5110
 1228.5000     2.4770   103.8840     9.8850     0.0110   988.8080     0.3020  1314.2040   -18.4570     9.1630     8.7520     9.6960
 1229.0000     2.4690   103.6970     9.8840     0.0020   987.1910     0.2940  1315.6250   -18.4850     9.1390     8.6120     9.7720
 1229.5000     2.4720   100.5870     9.8840     0.0020   985.5740     0.2990  1317.0460   -18.5130     9.1190     8.4700     9.6290
 1230.0000     2.4830    99.3250     9.8840     0.0060   983.9570     0.3090  1318.4670   -18.5400     9.0990     8.3590     9.4510
 1230.5000     2.4930    98.0890     9.8850     0.0110   982.3400     0.3180  1319.8879   -18.5680     9.0780     8.3870     9.3330
 1231.0000     2.4990    96.8650     9.8890     0.0150   984.9970     0.3180  1321.3090   -18.5960     9.0580     8.4100     9.3910
 1231.5000     2.4960    95.8270     9.9130     0.0190   988.2490     0.3120  1322.7300   -18.6230     9.0380     8.4330     9.5940
 1232.0000     2.4940    96.8450     9.9360     0.0200   991.5000     0.3070  1324.1510   -18.6500     9.0170     8.3420     9.5750
 1232.5000     2.4980    99.0720     9.9590     0.0200   994.7520     0.3070  1325.5730   -18.6800     8.9970     8.2320     9.5350
 1233.0000     2.5010    99.3480     9.9820     0.0190   998.0030     0.3070  1326.9940   -18.5300     8.9770     8.1320     9.4950
 1233.5000     2.4940    98.0850    10.0050     0.0160  1001.2540     0.3050  1328.4150   -18.2750     8.9560     8.1320     9.4550
