~VERSION INFORMATION
 VERS.                2.0:   CWLS LOG ASCII STANDARD - VERSION 2.0
 WRAP.                 NO:   ONE LINE PER DEPTH STEP
~WELL INFORMATION
#MNEM.UNIT      DATA TYPE    INFORMATION
#----------   ------------   ------------------------------
 STRT.F          196.5000:   START DEPTH
 STOP.F         2376.0000:   STOP DEPTH
 STEP.F            0.5000:   STEP LENGTH
 NULL.          -999.2500:   NO VALUE
 COMP.    FENIX & SCISSON:   COMPANY
 WELL. FENIX & SCISSON NPR-3 #55-10:   WELL
 FLD .  TEAPOT DOME NPR-3:   FIELD
 LOC .      S10 T38N R78W:   LOCATION
 CNTY.            NATRONA:   COUNTY
 STAT.            WYOMING:   STATE
 CTRY. UNITED STATES OF AMERICA:   COUNTRY
 SRVC.           BIRDWELL:   SERVICE COMPANY
 DATE.        09-MAY-1979:   LOGDATE
 API .     49025107780000:   API NUMBER
~CURVE INFORMATION
#MNEM.UNIT       API CODE    CURVE DESCRIPTION
#----------   ------------   ------------------------------
 DEPT.F                  :   
 CALD.IN     45 280 60 00:   CALIPER FROM DENSITY LOG
 GRD .GAPI   45 310 01 00:   GAMMA RAY FROM DENSITY LOG
 RHOB.G/C3   45 350 01 00:   BULK DENSITY
 CORR.G/C3   45 356 01 00:   DENSITY CORRECTION
~PARAMETER INFORMATION
#MNEM.UNIT          VALUE    DESCRIPTION
#----------   ------------   ------------------------------
 EKB .F         5203.0000:   Kelly bushing
 EGL .F         5193.0000:   Ground level
 EDF .F            0.0000:   Drilling floor
 TD  .F         2376.0000:   Total depth
 CLNT.            A2DTECH:   Client Code
 SL  . 2283' FSL & 2107' FEL:   Surface Location
 PD  .                 GL:   Permanent Datum
 EPD .F              5193:   Elevation Permanent Datum
 LMF .                 KB:   Log Measured From
 DMF .                 KB:   Drilling Measured From
 DAPD.F                10:   Feet Above Permanent Datum
 DATE.        09-MAY-1979:   Date Logged [DD-MMM-YYYY]
 DD  .F              2360:   Depth driller
 DL  .F              2376:   Depth logger
 BLI .F              2376:   Bottom log interval
 TLI .F               196:   Top log interval
 CS1 .IN            9.625:   Casing size
 CBD1.             9.625":   Casing driller 1
 CBL1.F               545:   Casing logger 1
 BS1 .IN             8.75:   Bit size
 BSD1.F              2360:   Depth drilled with bit1
 DFT .                AIR:   Type fluid in hole
 TCS .HRS               3:   Time Circ. stopped
 LUN .               2959:   Logging unit number
 LUL .             CASPER:   Logging unit location
 ENGI.         B. ROLLINS:   Recorded By
 WITN.             RHODES:   Witnessed by
 ORIG.           5" PRINT:   Origin of data
 UWI .     49025107780000:   Unique Well ID
 DICO. A2D TECHNIOLOGIES,INC.:   Digitizing Company
~OTHER INFORMATION
~A  DEPTH     CALD        GRD       RHOB       CORR
# ...
 1729.5000     8.9639   157.1615     2.4440    -0.0125
 1730.0000     8.9789   159.1238     2.4733     0.0100
 1730.5000     8.9938   155.3459     2.4982     0.0341
 1731.0000     9.0087   153.9849     2.5162     0.0551
 1731.5000     9.0086   157.4577     2.5215     0.0641
 1732.0000     9.0084   162.2900     2.5071     0.0640
 1732.5000     9.0083   166.6889     2.4995     0.0624
 1733.0000     9.0081   165.7016     2.4912     0.0608
 1733.5000     9.0080   162.9644     2.4920     0.0698
 1734.0000     8.9927   159.6842     2.5017     0.0833
 1734.5000     8.9624   156.3913     2.5077     0.0938
 1735.0000     8.9471   157.7490     2.5076     0.1013
 1735.5000     8.9470   159.1070     2.4976     0.1102
 1736.0000     8.9468   160.0122     2.4895     0.0981
 1736.5000     8.9618   154.1191     2.4873     0.0724
 1737.0000     8.9767   151.3986     2.4880     0.0633
 1737.5000     8.9917   150.3397     2.5007     0.0752
 1738.0000     8.9915   154.2657     2.5150     0.0978
 1738.5000     8.9914   159.8533     2.5203     0.1098
 1739.0000     8.9912   165.8941     2.5263     0.1172
 1739.5000     8.9760   164.6842     2.5307     0.1233
 1740.0000     8.9607   153.8065     2.4803     0.1307
 1740.5000     8.9303   149.2733     2.4373     0.0917
 1741.0000     8.9000   145.3443     2.4282     0.0449
 1741.5000     8.8847   136.8836     2.4395     0.0194
 1742.0000     8.8846   134.9184     2.4598     0.0016
 1742.5000     8.8995   134.6047     2.4846     0.0172
 1743.0000     8.9145   139.3097     2.4967     0.0322
 1743.5000     8.9295   145.1064     2.4921     0.0502
 1744.0000     8.9293   149.0091     2.4702     0.0426
 1744.5000     8.9443   146.1014     2.4670     0.0320
 1745.0000     8.9441   141.8577     2.4747     0.0319
 1745.5000     8.9463   144.2731     2.4814     0.0499
 1746.0000     8.9589   142.3079     2.4905     0.0694
 1746.5000     8.9134   138.3789     2.5010     0.0859
 1747.0000     8.9284   135.6584     2.4743     0.0934
 1747.5000     8.9282   133.3910     2.4112     0.0496
 1748.0000     8.9448   131.8793     2.3960    -0.0032
 1748.5000     8.9606   141.6962     2.4398     0.0208
 1749.0000     8.9731   142.4504     2.4180     0.0253
 1749.5000     8.9881   141.5425     2.3976    -0.0125
 1750.0000     8.9879   150.7552     2.4066    -0.0231
 1750.5000     9.0029   153.3216     2.4585     0.0235
 1751.0000     9.0027   154.9818     2.4796     0.0400
 1751.5000     9.0025   154.6782     2.4811     0.0475
 1752.0000     9.0024   152.5619     2.4758     0.0429
 1752.5000     8.9871   150.5966     2.4720     0.0338
 1753.0000     8.9870   148.9335     2.4704     0.0277
 1753.5000     8.9717   150.7447     2.4734     0.0306
 1754.0000     8.9565   152.7249     2.4870     0.0351
 1754.5000     8.9412   154.3802     2.5050     0.0471
 1755.0000     8.9411   153.0765     2.5178     0.0606
 1755.5000     8.9409   150.6572     2.5238     0.0650
 1756.0000     8.9408   153.1538     2.5268     0.0589
 1756.5000     8.9406   158.5904     2.5177     0.0604
 1757.0000     8.9405   166.8970     2.5146     0.0679
 1757.5000     8.9554   177.1903     2.5342     0.0805
 1758.0000     8.9553   183.3837     2.5477     0.1030
 1758.5000     8.9551   180.3625     2.5424     0.1372
 1759.0000     8.9550   177.9456     2.5236     0.1145
 1759.5000     8.9548   181.7771     2.5167     0.1054
 1760.0000     8.9396  -999.2500     2.5416     0.1083
 1760.5000     8.9394  -999.2500     2.5536     0.1249
 1761.0000     8.9393  -999.2500     2.5532     0.1293
 1761.5000     8.9391  -999.2500     2.5129     0.1172
 1762.0000     8.9390  -999.2500     2.4782     0.0991
 1762.5000     8.9388  -999.2500     2.4827     0.0824
 1763.0000     8.9387  -999.2500     2.4533     0.0658
 1763.5000     8.9385  -999.2500     2.4179     0.0382
 1764.0000     8.9384  -999.2500     2.4291     0.0129
 1764.5000     8.9231  -999.2500     2.4351     0.0312
 1765.0000     8.9079  -999.2500     2.4283     0.0248
 1765.5000     8.9077  -999.2500     2.4200     0.0157
 1766.0000     8.9076  -999.2500     2.4147     0.0141
 1766.5000     8.9225  -999.2500     2.4199     0.0261
 1767.0000     8.9072  -999.2500     2.4199     0.0336
 1767.5000     8.9071  -999.2500     2.4154     0.0305
 1768.0000     8.9069  -999.2500     2.4107     0.0214
 1768.5000     8.9219  -999.2500     2.4078     0.0154
 1769.0000     8.9368  -999.2500     2.4085     0.0213
 1769.5000     8.9367  -999.2500     2.4152     0.0333
 1770.0000     8.9365  -999.2500     2.4265     0.0453
 1770.5000     8.9515  -999.2500     2.4204     0.0469
 1771.0000     8.9362  -999.2500     2.4106     0.0407
 1771.5000     8.9210  -999.2500     2.4174     0.0437
 1772.0000     8.9057  -999.2500     2.4219     0.0530
 1772.5000     8.8905  -999.2500     2.4203     0.0619
 1773.0000     8.8903  -999.2500     2.4173     0.0676
 1773.5000     8.9053  -999.2500     2.4180     0.0735
 1774.0000     8.9051  -999.2500     2.4263     0.0870
 1774.5000     8.9050  -999.2500     2.4360     0.1006
 1775.0000     8.9199  -999.2500     2.4450     0.1050
 1775.5000     8.9198  -999.2500     2.4351     0.1110
 1776.0000     8.9045   187.6133     2.4257     0.1004
 1776.5000     8.9195   187.6133     2.4080     0.0837
 1777.0000     8.9193   187.0091     2.3937     0.0671
 1777.5000     8.9192   185.8006     2.4035     0.0535
 1778.0000     8.9190   188.0665     2.4155     0.0429
 1778.5000     8.9038   191.5527     2.4237     0.0458
 1779.0000     8.8885   192.1592     2.4267     0.0427
 1779.5000     8.8733   195.3875     2.4086     0.0274
 1780.0000     8.8731   199.8489     2.3988     0.0185
 1780.5000     8.8578   197.4320     2.3950     0.0199
 1781.0000     8.8577   188.6707     2.4070     0.0274
 1781.5000     8.8575   176.7372     2.4258     0.0319
 1782.0000     8.8574   163.2930     2.4439     0.0333
 1782.5000     8.8723   153.1722     2.4596     0.0318
 1783.0000     8.8722   154.5317     2.4641     0.0332
 1783.5000     8.8720   156.6465     2.4716     0.0422
 1784.0000     8.8719   154.8338     2.4776     0.0572
 1784.5000     8.8717   141.0876     2.4663     0.0677
 1785.0000     8.8565   134.8943     2.4474     0.0661
 1785.5000     8.8563   132.3263     2.4467     0.0495
 1786.0000     8.8713   140.0302     2.3789     0.0163
 1786.5000     8.8711   149.8489     2.3879    -0.0094
 1787.0000     8.8710   151.6697     2.3969    -0.0140
 1787.5000     8.9162   148.9426     2.4104    -0.0201
 1788.0000     8.9311   156.2337     2.4525    -0.0143
 1788.5000     8.9310   159.8671     2.4931     0.0310
 1789.0000     8.9308   161.3468     2.4954     0.0355
 1789.5000     8.9307   169.7885     2.4758     0.0339
 1790.0000     8.9305   175.6798     2.4705     0.0369
 1790.5000     8.9455   174.4713     2.4757     0.0534
 1791.0000     8.9453   170.9970     2.4855     0.0714
 1791.5000     8.9451   167.6737     2.5013     0.0834
 1792.0000     8.9450   164.5015     2.5095     0.0909
 1792.5000     8.9448   163.4441     2.5125     0.0999
 1793.0000     8.9447   165.8610     2.4959     0.0863
 1793.5000     8.9294   160.7251     2.4846     0.0802
 1794.0000     8.9293   158.0060     2.4883     0.0771
 1794.5000     8.9140   161.1783     2.5011     0.0786
 1795.0000     8.9290   162.2357     2.4905     0.0725
 1795.5000     8.9288   156.3444     2.4822     0.0742
 1796.0000     8.9438   154.9849     2.5067     0.0849
 1796.5000     8.9437   156.9486     2.5160     0.0949
 1797.0000     8.9435   162.1060     2.5213     0.0993
 1797.5000     8.9434   167.5427     2.5250     0.1023
 1798.0000     8.9265   164.0536     2.5272     0.1053
 1798.5000     8.8802   157.2186     2.5204     0.1067
 1799.0000     8.8069   155.5891     2.4970     0.1006
 1799.5000     8.8068   162.5378     2.4646     0.0779
 1800.0000     8.8066   166.1631     2.4488     0.0417
 1800.5000     8.8216   169.6375     2.4367     0.0040
 1801.0000     8.8517   166.6163     2.4359    -0.0142
 1801.5000     8.8817   159.8187     2.4367    -0.0007
 1802.0000     8.8967   150.3021     2.4585     0.0249
