~VERSION INFORMATION
 VERS.                2.0:   CWLS LOG ASCII STANDARD - VERSION 2.0
 WRAP.                 NO:   ONE LINE PER DEPTH STEP
~WELL INFORMATION
#MNEM.UNIT      DATA TYPE    INFORMATION
#----------   ------------   ------------------------------
 STRT.F          404.0000:   START DEPTH
 STOP.F         2919.0000:   STOP DEPTH
 STEP.F            0.5000:   STEP LENGTH
 NULL.          -999.2500:   NO VALUE
 COMP.    FENIX & SCISSON:   COMPANY
 WELL. FENIX & SCISSON "AX" #27-21:   WELL
 FLD .             NPR #3:   FIELD
 LOC .      S21 T39N R78W:   LOCATION
 CNTY.            NATRONA:   COUNTY
 STAT.            WYOMING:   STATE
 CTRY. UNITED STATES OF AMERICA:   COUNTRY
 SRVC.       SCHLUMBERGER:   SERVICE COMPANY
 DATE.        21-APR-1977:   LOGDATE
 API .     49025103730000:   API NUMBER
~CURVE INFORMATION
#MNEM.UNIT       API CODE    CURVE DESCRIPTION
#----------   ------------   ------------------------------
 DEPT.F                  :   
 SPR .MV     07 010 01 00:   SPONTANEOUS POTENTIAL
 ILM .OHMM   07 120 44 00:   INDUCTION LOG MEDIUM RESISTIVITY
 ILD .OHMM   07 120 46 00:   DEEP INDUCTION RESISTIVITY
 LL8 .OHMM   07 220 08 00:   LATEROLOG-8 RES.
 GRN .GAPI   35 310 01 00:   GAMMA RAY
 CALD.IN     45 280 60 00:   CALIPER FROM DENSITY LOG
 GRD .GAPI   45 310 01 00:   GAMMA RAY FROM DENSITY LOG
 CORR.G/C3   45 356 01 00:   DENSITY CORRECTION
 RHOB.G/C3   45 350 01 00:   BULK DENSITY
~PARAMETER INFORMATION
#MNEM.UNIT          VALUE    DESCRIPTION
#----------   ------------   ------------------------------
 EKB .F         5004.0000:   Kelly bushing
 EGL .F         4994.0000:   Ground level
 TD  .F         2920.0000:   Total depth
 CLNT.            A2DTECH:   Client Code
 SL  . 991' FWL & 1090' FSL:   Surface Location
 DATE.        21-APR-1977:   Date Logged [DD-MMM-YYYY]
 DD  .F              2920:   Depth driller
 DL  .F              2920:   Depth logger
 BLI .F              2914:   Bottom log interval
 TLI .F               419:   Top log interval
 CS1 .              8.625:   Casing size
 CBD1.      8.625" @ 425':   Casing driller 1
 CBL1.IN              419:   Casing logger 1
 BS1 .IN            7.875:   Bit size
 BSD1.F              2920:   Depth drilled with bit1
 DFT .                FGM:   Type fluid in hole
 DFD .                9.0:   Density
 DFV .                 34:   Viscosity
 DFPH.                8.0:   pH
 DFL .                8.0:   Fluid loss
 MSS .                PIT:   Source of sample
 RMS .OHMM          0.158:   Rm
 MST .F                72:   Rm Meas. temp.
 RMF .OHMM          0.158:   Rmf
 MFST.F                72:   Rmf Meas. temp.
 MFSS.               MEAS:   Source Rmf.
 RMB .OHMM          0.102:   Rm. at BHT
 BHT .F               112:   BHT.
 TCS .HRS            0500:   Time Circ. stopped
 TLAB.HRS            0700:   Time logger at bottom
 MRT .F               112:   Maximum recorded temp.
 LUN .               5642:   Logging unit number
 LUL .               CSPR:   Logging unit location
 ENGI.             TAYLOR:   Recorded By
 WITN.          PETTINGIL:   Witnessed by
 ORIG.      2.5" 5" PRINT:   Origin of data
 UWI .     49025103730000:   Unique Well ID
 DICO. A2D TECHNOLOGIES, INC.:   Digitizing Company
 PD  .                 GL:   Permanent Datum
 EPD .F              4994:   Elevation Permanent Datum
 LMF .                 KB:   Log Measured From
 DMF .                 KB:   Drilling Measured From
 DAPD.F                10:   Feet Above Permanent Datum
~OTHER INFORMATION
~A   DEPT      SPR        ILM        ILD        LL8        GRN       CALD         GRD      CORR       RHOB   
# ...
 1900.5000   -60.4107     9.3168     9.5214    11.0080   156.1786     8.3744    93.7759     0.0473     2.4819
 1901.0000   -60.7023     9.1913     9.3927    10.6108   160.0232     8.3748    94.2314     0.0384     2.4252
 1901.5000   -60.9940     9.2334     9.2658    10.6580   161.6196     8.3752    94.6855     0.0155     2.4342
 1902.0000   -61.2856     9.3625     9.2670    11.3562   157.6022     8.3757    94.5955     0.0249     2.4537
 1902.5000   -61.5773     9.5851     9.2683    11.9498   155.8241     8.3878    92.9232     0.0219     2.4627
 1903.0000   -61.5713     9.5871     9.3979    12.5784   153.8338     8.4062    89.6677     0.0144     2.4403
 1903.5000   -61.8631     9.5891     9.5293    12.9309   148.6937     8.4067    86.2144     0.0100     2.4193
 1904.0000   -62.4522     9.5911     9.5306    12.4925   143.5535     8.4200    85.2329     0.0130     2.4418
 1904.5000   -62.4462     9.4265     9.5319    11.8261   147.3954     8.4372    84.9451     0.0190     2.4254
 1905.0000   -62.7381     9.1733     9.4031    11.3509   150.5636     8.4377    83.9662     0.0206     2.4329
 1905.5000   -63.0297     8.8047     9.2760    10.8947   153.2828     8.4381    81.9970     0.0221     2.4598
 1906.0000   -63.6188     8.5681     9.1506    10.6328   154.1993     8.4383    79.6319     0.0221     2.4632
 1906.5000   -63.9108     8.3379     9.0269    10.6057   150.4126     8.4385    78.9485     0.0177     2.4644
 1907.0000   -64.2021     8.1404     8.9049    10.3479   146.8382     8.4386    77.9684     0.0132     2.4764
 1907.5000   -64.1961     8.0053     8.6646    10.1829   147.3179     8.4388    76.6899     0.0132     2.4674
 1908.0000   -64.1902     7.8143     8.5475    10.0707   151.3844     8.4389    77.4916     0.0193     2.4614
 1908.5000   -64.1842     7.7926     8.5487    10.0504   153.4299     8.4391    81.3583     0.0238     2.4675
 1909.0000   -64.1782     7.7106     8.3180    10.0751   146.0442     8.4392    84.8285     0.0238     2.4750
 1909.5000   -64.1722     7.6058     8.2056    10.0771   146.0687     8.4394    88.3984     0.0208     2.4810
 1910.0000   -64.1663     7.5978     8.2067     9.9410   145.4196     8.4395    89.9901     0.0164     2.4720
 1910.5000   -63.8627     7.7044     8.0957     9.9264   141.4022     8.4397    88.2186     0.0119     2.4616
 1911.0000   -63.9197     7.8123     7.9864     9.8090   134.4656     8.4398    85.8536     0.0119     2.4706
 1911.5000   -64.0597     7.9217     7.8784     9.8111   126.3694     8.4389    85.4670     0.0330     2.5080
 1912.0000   -64.2659     8.0787     7.7719     9.8132   125.5326     8.4362    83.2011     0.0393     2.4661
 1912.5000   -64.8562     8.2580     7.7730     9.9630   130.3295     8.4335    79.0554     0.0225     2.4653
 1913.0000   -65.1487     8.4223     7.6937    10.1124   133.0688     8.4308    77.6781     0.0301     2.4886
 1913.5000   -65.3563     8.6086     7.6689    10.6661   135.2948     8.4281    78.2820     0.0406     2.5126
 1914.0000   -65.3512     8.7292     7.7761    10.9747   134.7906     8.4254    80.0711     0.0391     2.4991
 1914.5000   -65.3467     8.7824     7.8234    11.1278   130.1523     8.4227    81.8604     0.0166     2.4587
 1915.0000   -65.0446     8.8526     8.0430    11.2778   126.5779     8.4200    83.0564     0.0287     2.4917
 1915.5000   -65.0402     8.9765     8.1559    11.1222   130.4259     8.4173    83.0653     0.0335     2.4961
 1916.0000   -64.7381     9.0326     8.2702    10.8235   135.8397     8.4146    79.0187     0.0197     2.4723
 1916.5000   -64.6509     9.1035     8.5024    10.6788   136.7624     8.4119    78.6305     0.0123     2.4618
 1917.0000   -64.1339     9.1047     8.7409    10.2488   139.9306     8.4092    79.4321     0.0106     2.4529
 1917.5000   -64.0477     9.1060     8.9862    10.9849   142.4191     8.4065    79.8353     0.0093     2.4484
 1918.0000   -63.8274     9.1072     9.1808    11.5844   133.0186     8.4038    76.5816     0.0076     2.4439
 1918.5000   -63.8229     9.1085     9.1821    11.5592   130.3485     8.4011    75.9955     0.0184     2.4484
 1919.0000   -63.8185     9.0524     9.1833    11.0890   130.1423     8.3984    76.7971     0.0259     2.4754
 1919.5000   -63.8140     8.8074     9.0592    10.9354   132.4185     8.3957    78.3886     0.0350     2.4904
 1920.0000   -63.8095     8.7436     8.8799    10.5774   135.5867     8.3931    80.9693     0.0215     2.4605
 1920.5000   -63.8050     8.6886     8.6398    10.5766   134.4884     8.3904    83.2532     0.0140     2.4380
 1921.0000   -64.0988     8.5705     8.4063    10.5759   134.7375     8.3877    84.1524     0.0065     2.4545
 1921.5000   -64.1716     8.6229     8.3466    10.5752   137.6812     8.3867    84.6558     0.0035     2.4501
 1922.0000   -64.6851     8.9287     8.3477    10.7213   139.7267     8.3870    84.2690     0.0021     2.4366
 1922.5000   -64.7569     9.1796     8.5210    10.7205   142.6703     8.3873    83.0910     0.0021     2.4411
 1923.0000   -65.0496     9.4376     8.6406    10.8687   145.3895     8.3876    79.9344     0.0066     2.4561
 1923.5000   -65.5646     9.7029     8.7618    11.0189   143.1685     8.3878    77.5696     0.0127     2.4711
 1924.0000   -65.5595     9.7723     9.0077    11.4833   135.3337     8.3881    75.3041     0.0262     2.4861
 1924.5000   -65.1825     9.9774     9.1972    12.3020   132.8882     8.3884    69.7732     0.0368     2.4667
 1925.0000   -64.8809    10.1873     9.3904    12.3012   132.4636     8.3887    68.3961     0.0158     2.4517
 1925.5000   -64.2817    10.3299     9.6539    12.3003   129.1198     8.3890    69.2969     0.0233     2.4652
 1926.0000   -63.7560    10.3313     9.9248    12.6434   129.0715     8.3893    71.0862     0.0278     2.4862
 1926.5000   -63.7515    10.3327    10.1318    12.8182   133.4353     8.3896    73.1719     0.0280     2.4727
 1927.0000   -63.7470    10.2616    10.0622    12.9953   134.8072     8.3899    75.1592     0.0189     2.4668
 1927.5000   -63.7426     9.9838     9.7902    12.9942   135.5054     8.3902    76.5529     0.0204     2.4758
 1928.0000   -63.7381     9.7831     9.4583    12.5551   131.6896     8.3905    75.9679     0.0220     2.4728
 1928.5000   -63.7337     9.5135     9.1415    12.0389   123.4094     8.3908    71.1308     0.0160     2.4609
 1929.0000   -63.7292     9.1290     8.8309    11.5227   125.7653     8.3911    68.5678     0.0055     2.4549
 1929.5000   -63.7945     8.7029     8.5359    11.0064   128.4881     8.3914    69.0712    -0.0020     2.4519
 1930.0000   -64.0184     8.3515     8.3052    10.4902   128.1743     8.3917    70.3660     0.0101     2.4819
 1930.5000   -64.3799     8.0144     8.0807     9.9740   125.3231     8.3920    70.2745     0.0281     2.5208
 1931.0000   -64.9023     7.8554     7.9711     9.4577   128.0869     8.3923    70.2849     0.0311     2.4924
 1931.5000   -64.9653     8.0254     8.0918     8.9415   129.8693     8.3926    70.6893     0.0222     2.4849
 1932.0000   -65.2579     8.2510     8.2564     9.1098   129.2201     8.3929    71.1914     0.0312     2.4925
 1932.5000   -65.5506     8.4187     8.3718     9.7480   124.3045     8.3932    68.8279     0.0267     2.5269
 1933.0000   -65.7773     8.6021     8.5540    10.2866   122.9818     8.3935    61.8137     0.0147     2.5090
 1933.5000   -65.7723     8.7229     8.6075    10.4297   122.1081     8.3938    59.8448     0.0013     2.4761
 1934.0000   -65.7678     8.7101     8.6755    10.5572   121.0098     8.3941    59.3575     0.0059     2.4896
 1934.5000   -65.6984     8.5918     8.6620    10.5564   118.7888     8.3943    61.4451     0.0283     2.5060
 1935.0000   -65.1637     8.4245     8.5445    10.5556   117.2415     8.3946    63.8279     0.0209     2.5150
 1935.5000   -65.0953     8.3104     8.3136    10.5549   117.0353     8.3949    65.9141     0.0164     2.5226
 1936.0000   -64.8571     8.2465     8.1369     9.9093   117.9581     8.3948    67.1098     0.0225     2.5181
 1936.5000   -64.5550     8.0232     7.8702     8.9068   117.0844     8.3942    66.8205     0.0224     2.5106
