~VERSION INFORMATION
 VERS.                2.0:   CWLS LOG ASCII STANDARD - VERSION 2.0
 WRAP.                 NO:   ONE LINE PER DEPTH STEP
~WELL INFORMATION
#MNEM.UNIT      DATA TYPE    INFORMATION
#----------   ------------   ------------------------------
 STRT.F          728.0000:   START DEPTH
 STOP.F         3296.0000:   STOP DEPTH
 STEP.F            0.5000:   STEP LENGTH
 NULL.          -999.2500:   NO VALUE
 COMP.    FENIX & SCISSON:   COMPANY
 WELL. FENIX TX "AX" #55-34:   WELL
 FLD . N. P. R. - WILDCAT:   FIELD
 LOC .      S34 T39N R78W:   LOCATION
 CNTY.            NATRONA:   COUNTY
 STAT.            WYOMING:   STATE
 CTRY. UNITED STATES OF AMERICA:   COUNTRY
 SRVC.       SCHLUMBERGER:   SERVICE COMPANY
 DATE.        22-JUL-1981:   LOGDATE
 API .     49025108770000:   API NUMBER
~CURVE INFORMATION
#MNEM.UNIT       API CODE    CURVE DESCRIPTION
#----------   ------------   ------------------------------
 DEPT.F                  :   
 TENS.LBS    60 635 01 00:   TENSION FROM SONIC LOG
 DT  .US/F   60 520 00 00:   DELTA TIME
 RHOB.G/C3   45 350 01 00:   BULK DENSITY
 TEND.LBS    45 635 01 00:   TENSION FROM DENSITY LOG
 CORR.G/C3   45 356 01 00:   DENSITY CORRECTION
 CALD.IN     45 280 60 00:   CALIPER FROM DENSITY LOG
 NPHI.DEC    42 890 03 00:   NEUTRON POROSITY SANDSTONE
 TENR.LBS    07 635 01 00:   TENSION FROM RESISTIVITY
 SPR .MV     07 010 01 00:   SPONTANEOUS POTENTIAL
 GRR .GAPI   07 310 01 00:   GAMMA RAY FROM RESISTIVITY
 SFL .OHMM   07 220 01 00:   SHALLOW FOCUSED LOG RESISTIVITY
 ILM .OHMM   07 120 44 00:   INDUCTION LOG MEDIUM RESISTIVITY
 ILD .OHMM   07 120 46 00:   DEEP INDUCTION RESISTIVITY
~PARAMETER INFORMATION
#MNEM.UNIT          VALUE    DESCRIPTION
#----------   ------------   ------------------------------
 EKB .F         5092.0000:   Kelly bushing
 EGL .F         5082.0000:   Ground level
 EDF .F            0.0000:   Drilling floor
 TD  .F         3170.0000:   Total depth
 DATE.        22-JUL-1981:   Date logged
 CLNT.            A2DTECH:   Client Code
 SL  . 2012' FSL & 2774' FWL:   Surface Location
 PD  .                 GL:   Permanent Datum
 EPD .F              5082:   Elevation Permanent Datum
 LMF .                 KB:   Log Measured From
 DMF .                 KB:   Drilling Measured From
 DAPD.F                10:   Feet Above Permanent Datum
 DD  .F              3170:   Depth driller
 DL  .F              3110:   Depth logger
 BLI .F              3104:   Bottom log interval
 TLI .F               753:   Top log interval
 CS1 .IN            9.625:   Casing size
 CBD1.      9.625" @ 751':   Casing driller 1
 CBL1.F               753:   Casing logger 1
 BS1 .IN            7.875:   Bit size
 BSD1.F              3170:   Depth drilled with bit1
 DFT .                FGM:   Type fluid in hole
 DFD .                  9:   Density
 DFV .                  9:   Viscosity
 DFPH.                9.8:   pH
 DFL .                8.6:   Fluid loss
 MSS .           MUD/TANK:   Source of sample
 RMS .OHMM           1.72:   Rm
 MST .F                72:   Rm Meas. temp.
 RMF .OHMM           1.17:   Rmf
 MFST.F                70:   Rmf Meas. temp.
 MFSS.               MEAS:   Source Rmf.
 RMB .OHMM           0.90:   Rm. at BHT
 BHT .F               144:   BHT.
 TCS .HRS            1215:   Time Circ. stopped
 TLAB.HRS            0400:   Time logger at bottom
 MRT .F               144:   Maximum recorded temp.
 LUN .               8035:   Logging unit number
 LUL .               CSPR:   Logging unit location
 ENGI.            PURPICH:   Recorded By
 WITN.           R. SCOTT:   Witnessed by
 ORIG.           5" PRINT:   Origin of data
 UWI .     49025108770000:   Unique Well ID
 DICO. A2D TECHNOLOGIES, INC.:   Digitizing Company
~OTHER INFORMATION
~A   DEPT     TENS         DT         RHOB      TEND      CORR       CALD         NPHI     TENR        SPR         GRR       SFL        ILM        ILD   
# ...
 1222.0000  -999.2500  -999.2500     2.5390   901.2670     0.0090     7.9710     0.3090   475.6940   -70.8300   126.3800     8.6890     7.4920     8.0310
 1222.5000  -999.2500  -999.2500     2.5320   901.9980     0.0070     7.9710     0.3130   475.6270   -70.7260   128.7470     8.5840     7.3870     7.9200
 1223.0000  -999.2500  -999.2500     2.5260   902.7280     0.0050     7.9700     0.3180   475.5600   -70.6050   125.8930     8.4800     7.2830     7.8090
 1223.5000  -999.2500  -999.2500     2.5330   903.4590     0.0040     7.9690     0.3150   475.4930   -70.4590   122.3410     8.3750     7.1790     7.6980
 1224.0000  -999.2500  -999.2500     2.5390   904.1890     0.0070     7.9680     0.3060   475.4270   -70.3140   120.0500     8.2710     7.0840     7.5890
 1224.5000  -999.2500  -999.2500     2.5410   904.9200     0.0100     7.9670     0.2990   475.3600   -70.1680   118.2790     8.1670     6.9960     7.5290
 1225.0000  -999.2500  -999.2500     2.5380   905.6500     0.0130     7.9670     0.3040   475.2930   -70.0220   118.8980     8.1020     6.9130     7.3920
 1225.5000  -999.2500  -999.2500     2.5340   906.3810     0.0110     7.9660     0.3130   475.2260   -69.8770   120.4660     8.2330     6.8630     7.3390
 1226.0000  -999.2500  -999.2500     2.5250   907.1110     0.0080     7.9650     0.3210   475.1590   -69.7240   122.0150     8.2520     6.8140     7.2860
 1226.5000  -999.2500  -999.2500     2.5110   907.8420     0.0050     7.9640     0.3250   475.0920   -69.7770   123.5650     8.0430     6.7640     7.2330
 1227.0000  -999.2500  -999.2500     2.5110   908.5720     0.0030     7.9630     0.3310   475.0260   -69.9420   125.1190     7.8500     6.7140     7.1800
 1227.5000  -999.2500  -999.2500     2.5290   909.3030     0.0040     7.9620     0.3380   474.9590   -70.0670   126.2440     7.6570     6.6650     7.1270
 1228.0000  -999.2500  -999.2500     2.5460   910.0330     0.0140     7.9620     0.3440   474.8920   -70.2660   127.1070     7.4650     6.6150     7.0740
 1228.5000  -999.2500  -999.2500     2.5590   910.7640     0.0250     7.9610     0.3470   474.8250   -70.2720   127.9620     7.2580     6.5650     7.0210
 1229.0000  -999.2500  -999.2500     2.5530   910.8020     0.0260     7.9600     0.3410   474.7580   -70.2730   128.8540     7.2580     6.5160     6.9680
 1229.5000  -999.2500  -999.2500     2.5440   910.4530     0.0210     7.9590     0.3350   474.6910   -70.2730   130.4960     7.3920     6.4660     6.9150
 1230.0000  -999.2500  -999.2500     2.5310   910.1040     0.0160     7.9580     0.3320   474.6250   -70.2730   132.1920     7.3920     6.4160     6.8620
 1230.5000  -999.2500  -999.2500     2.5240   909.7550     0.0120     7.9580     0.3480   474.5580   -70.2730   133.9000     7.2940     6.3660     6.8090
 1231.0000  -999.2500  -999.2500     2.5220   909.4060     0.0070     7.9570     0.3610   474.4910   -70.2730   134.1440     7.2580     6.3170     6.7560
 1231.5000  -999.2500  -999.2500     2.5270   909.0560     0.0030     7.9560     0.3590   474.4240   -70.2730   133.1380     7.2580     6.2670     6.7030
 1232.0000  -999.2500  -999.2500     2.5330   908.7070     0.0010     7.9550     0.3560   474.3570   -70.2730   132.1010     7.2620     6.2170     6.6500
 1232.5000  -999.2500  -999.2500     2.5330   908.3580     0.0080     7.9540     0.3560   474.2900   -70.2740   132.4280     7.2830     6.1680     6.5970
 1233.0000  -999.2500  -999.2500     2.5240   908.0090     0.0140     7.9530     0.3600   474.2240   -70.2770   132.9800     7.3030     6.1530     6.5610
 1233.5000  -999.2500  -999.2500     2.5220   907.6600     0.0210     7.9530     0.3640   474.1570   -70.2250   133.4970     7.3240     6.1530     6.5610
 1234.0000  -999.2500  -999.2500     2.5270   907.3110     0.0280     7.9520     0.3670   474.0900   -70.0660   132.9070     7.3240     6.1530     6.5610
 1234.5000  -999.2500  -999.2500     2.5310   906.9620     0.0310     7.9510     0.3660   474.0230   -70.0170   130.8640     7.2140     6.1530     6.5610
 1235.0000  -999.2500  -999.2500     2.5230   906.6120     0.0210     7.9500     0.3570   473.9560   -69.9750   129.2090     7.1360     6.2140     6.6210
 1235.5000  -999.2500  -999.2500     2.5160   906.2630     0.0120     7.9490     0.3480   473.8890   -69.9330   129.8750     7.0580     6.2090     6.6210
 1236.0000  -999.2500  -999.2500     2.5080   905.9140     0.0110     7.9490     0.3390   473.8230   -69.8910   131.2950     6.9960     6.2490     6.6360
 1236.5000  -999.2500  -999.2500     2.5130   905.5650     0.0130     7.9480     0.3370   473.7560   -69.8480   133.9490     6.9960     6.3170     6.7080
 1237.0000  -999.2500  -999.2500     2.5190   905.2160     0.0160     7.9520     0.3330   473.6890   -69.8060   136.5870     7.0220     6.3850     6.7810
 1237.5000  -999.2500  -999.2500     2.5260   904.8670     0.0150     7.9560     0.3310   473.6220   -69.7650   139.2360     7.1100     6.4530     6.8530
 1238.0000  -999.2500  -999.2500     2.5300   904.5180     0.0150     7.9600     0.3250   473.5550   -69.7150   141.2400     7.1970     6.5210     6.9250
 1238.5000  -999.2500  -999.2500     2.5220   904.1680     0.0150     7.9640     0.3190   473.4880   -69.5410   136.0340     7.2850     6.5880     6.9980
 1239.0000  -999.2500  -999.2500     2.5130   903.8190     0.0170     7.9680     0.3180   473.4220   -69.4960   130.6150     7.3730     6.6560     7.0700
 1239.5000  -999.2500  -999.2500     2.5130   903.4700     0.0170     7.9720     0.3200   473.3550   -69.7010   125.1290     7.4610     6.7240     7.1420
 1240.0000  -999.2500  -999.2500     2.5250   903.1210     0.0260     7.9760     0.3210   473.2880   -69.7210   122.6450     7.5490     6.7920     7.2150
 1240.5000  -999.2500  -999.2500     2.5340   902.7720     0.0440     7.9800     0.3210   473.2210   -69.7590   122.3810     7.6370     6.8060     7.2580
 1241.0000  -999.2500  -999.2500     2.5450   902.4230     0.0480     7.9840     0.3170   473.1540   -69.8000   123.5340     7.6680     6.7650     7.2300
 1241.5000  -999.2500  -999.2500     2.5430   902.0740     0.0400     7.9870     0.3130   473.0870   -69.8410   124.6330     7.8100     6.7250     7.1880
 1242.0000  -999.2500  -999.2500     2.5350   901.7240     0.0320     7.9910     0.2980   473.0210   -69.8810   125.7190     7.7790     6.6850     7.1450
 1242.5000  -999.2500  -999.2500     2.5330   901.3750     0.0300     7.9950     0.2960   472.9540   -69.8680   126.8110     7.5800     6.6460     7.1030
 1243.0000  -999.2500  -999.2500     2.5280   901.0260     0.0250     7.9990     0.2990   472.8870   -69.8510   127.9100     7.3810     6.6060     7.0600
 1243.5000  -999.2500  -999.2500     2.5230   900.6770     0.0210     8.0030     0.3160   472.8200   -69.8350   128.9190     7.1820     6.5660     7.0180
 1244.0000  -999.2500  -999.2500     2.5180   900.3280     0.0170     8.0070     0.3360   472.7530   -69.8190   126.9060     7.0610     6.5260     6.9750
 1244.5000  -999.2500  -999.2500     2.5190   899.9790     0.0190     8.0110     0.3550   472.6860   -69.8030   124.1850     7.2140     6.4860     6.9320
 1245.0000  -999.2500  -999.2500     2.5290   899.6300     0.0250     8.0150     0.3470   472.6200   -69.7870   122.3050     7.3300     6.4460     6.8900
 1245.5000  -999.2500  -999.2500     2.5330   899.2810     0.0280     8.0190     0.3350   472.5530   -69.7700   122.9460     7.5290     6.4060     6.8470
 1246.0000  -999.2500  -999.2500     2.5260   898.9310     0.0240     8.0230     0.3260   472.4860   -69.7540   126.1910     7.5290     6.3660     6.8050
 1246.5000  -999.2500  -999.2500     2.5110   898.5820     0.0120     8.0270     0.3250   472.4190   -69.7380   129.3310     7.4480     6.3260     6.7620
 1247.0000  -999.2500  -999.2500     2.4960   898.2330    -0.0020     8.0260     0.3230   472.3520   -69.7220   132.2870     7.3920     6.2860     6.7200
 1247.5000  -999.2500  -999.2500     2.4960   897.8840    -0.0010     8.0210     0.3210   472.2850   -69.7050   133.0240     7.5200     6.2470     6.6770
