~VERSION INFORMATION
 VERS.                2.0:   CWLS LOG ASCII STANDARD - VERSION 2.0
 WRAP.                 NO:   ONE LINE PER DEPTH STEP
~WELL INFORMATION
#MNEM.UNIT      DATA TYPE    INFORMATION
#----------   ------------   ------------------------------
 STRT.F          590.0000:   START DEPTH
 STOP.F         3428.0000:   STOP DEPTH
 STEP.F            0.5000:   STEP LENGTH
 NULL.          -999.2500:   NO VALUE
 COMP.    FENIX & SCISSON:   COMPANY
 WELL. FENIX NPR 3 "AX" #25-27:   WELL
 FLD .                NPR:   FIELD
 LOC .      S27 T39N R78W:   LOCATION
 CNTY.            NATRONA:   COUNTY
 STAT.            WYOMING:   STATE
 CTRY. UNITED STATES OF AMERICA:   COUNTRY
 SRVC.       SCHLUMBERGER:   SERVICE COMPANY
 DATE.        13-AUG-1981:   LOGDATE
 API .     49025108780000:   API NUMBER
~CURVE INFORMATION
#MNEM.UNIT       API CODE    CURVE DESCRIPTION
#----------   ------------   ------------------------------
 DEPT.F                  :   
 CALD.IN     45 280 60 00:   CALIPER FROM DENSITY LOG
 GRD .GAPI   45 310 01 00:   GAMMA RAY FROM DENSITY LOG
 CORR.G/C3   45 356 01 00:   DENSITY CORRECTION
 RHOB.G/C3   45 350 01 00:   BULK DENSITY
 NPHI.DEC    42 890 03 00:   NEUTRON POROSITY SANDSTONE
 TENR.LBS    07 635 01 00:   TENSION
 SPR .MV     07 010 01 00:   SPONTANEOUS POTENTIAL
 ILD .OHMM   07 120 46 00:   INDUCTION LOG DEEP RESISTIVITY
 ILM .OHMM   07 120 44 00:   INDUCTION LOG MEDIUM RESISTIVITY
 SFL .OHMM   07 220 01 00:   SHALLOW FOCUSED LOG RESISTIVITY
 TEND.LBS    45 635 01 00:   TENSION FROM DENSITY LOG
~PARAMETER INFORMATION
#MNEM.UNIT          VALUE    DESCRIPTION
#----------   ------------   ------------------------------
 EKB .F         5057.0000:   Kelly bushing
 EGL .F         5047.0000:   Ground level
 EDF .F            0.0000:   Drilling floor
 TD  .F         3415.0000:   Total depth
 DATE.        13-AUG-1981:   Date logged
 CLNT.            A2DTECH:   Client Code
 SL  . 2100' FSL & 1050' FWL:   Surface Location
 PD  .                 GL:   Permanent Datum
 EPD .F              5047:   Elevation Permanent Datum
 LMF .                 KB:   Log Measured From
 DMF .                 KB:   Drilling Measured From
 DAPD.F                10:   Feet Above Permanent Datum
 DD  .F              3400:   Depth driller
 DL  .F              3415:   Depth logger
 BLI .F              3409:   Bottom log interval
 TLI .F               603:   Top log interval
 CS1 .IN            9.625:   Casing size
 CBD1.      9.625" @ 607':   Casing driller 1
 CBL1.F               603:   Casing logger 1
 BS1 .IN            7.875:   Bit size
 BSD1.F              3400:   Depth drilled with bit1
 DFT .                FGM:   Type fluid in hole
 DFD .                8.7:   Density
 DFV .                 36:   Viscosity
 DFPH.                  9:   pH
 DFL .                 13:   Fluid loss
 MSS .           MUD/TANK:   Source of sample
 RMS .OHMM           1.69:   Rm
 MST .F                75:   Rm Meas. temp.
 RMF .OHMM           1.34:   Rmf
 MFST.F                75:   Rmf Meas. temp.
 MFSS.               MEAS:   Source Rmf.
 RMB .OHMM           1.09:   Rm. at BHT
 BHT .F               120:   BHT.
 TCS .HRS            2145:   Time Circ. stopped
 TLAB.HRS            0200:   Time logger at bottom
 MRT .F               120:   Maximum recorded temp.
 LUN .               8039:   Logging unit number
 LUL .               CSPR:   Logging unit location
 ENGI.            PURPICH:   Recorded By
 WITN.              FIVAS:   Witnessed by
 ORIG.           5" PRINT:   Origin of data
 UWI .     49025108780000:   Unique Well ID
 DICO. A2D TECHNOLOGIES, INC.:   Digitizing Company
~OTHER INFORMATION
~A   DEPT     CALD         GRD      CORR       RHOB         NPHI     TENR        SPR        ILD        ILM        SFL       TEND   
# ...
 2633.5000     8.2540    94.8400     0.0170     2.4240     0.2330   975.0320   -75.6060    13.7350    12.2720    18.4230  1012.8500
 2634.0000     8.2530    94.3820     0.0110     2.4210     0.2330   975.2030   -75.7520    12.9050    11.9540    18.5920  1013.0110
 2634.5000     8.2520    94.8000     0.0050     2.4240     0.2320   975.3740   -75.8770    13.3420    11.7790    18.1610  1013.1720
 2635.0000     8.2510    95.6750     0.0060     2.4300     0.2310   975.5450   -75.4450    13.8600    11.8870    17.7490  1013.3330
 2635.5000     8.2500    95.0000     0.0060     2.4400     0.2250   975.7160   -74.9850    14.8370    12.8140    17.3360  1013.4940
 2636.0000     8.2490    92.4600     0.0060     2.4570     0.2110   975.8880   -74.8470    15.9190    14.2140    17.8710  1013.6550
 2636.5000     8.2490    86.3310     0.0060     2.4900     0.1850   976.0590   -74.7790    17.3180    15.4280    25.8410  1013.8160
 2637.0000     8.2480    81.8520     0.0090     2.5250     0.1600   976.2300   -74.7130    18.6190    17.1810    37.2640  1013.9770
 2637.5000     8.2470    81.3150     0.0110     2.5450     0.1340   976.4010   -74.7020    19.9190    19.1080    48.6860  1014.1380
 2638.0000     8.2460    82.9550     0.0140     2.5580     0.1220   976.5720   -74.7020    21.2200    19.8470    57.6620  1014.2990
 2638.5000     8.2450    85.7450     0.0170     2.5670     0.1280   976.7430   -74.7020    22.5210    20.6670    58.1910  1014.4600
 2639.0000     8.2440    87.5950     0.0230     2.5690     0.1330   976.9140   -74.6230    23.1450    21.4880    40.7610  1014.6200
 2639.5000     8.2430    86.1770     0.0300     2.5680     0.1360   977.0850   -74.5250    21.7460    21.7120    40.9600  1014.7810
 2640.0000     8.2420    84.8530     0.0380     2.5540     0.1400   977.2560   -74.7040    20.5010    19.2510    41.5120  1014.9420
 2640.5000     8.2410    83.8190     0.0480     2.5300     0.1520   977.4270   -74.9890    19.2550    17.3990    37.1340  1015.1030
 2641.0000     8.2410    83.4260     0.0500     2.4930     0.1850   977.5980   -75.2910    18.0100    15.5480    30.4610  1015.2640
 2641.5000     8.2400    83.1380     0.0350     2.4550     0.2180   977.7690   -75.6960    16.7640    13.6960    23.7890  1015.4250
 2642.0000     8.2390    85.1710     0.0260     2.4290     0.2370   977.9400   -76.1200    15.5190    12.9310    18.2550  1015.5860
 2642.5000     8.2380    91.7440     0.0200     2.4130     0.2340   978.1110   -76.4880    14.2730    12.4970    18.5920  1015.7470
 2643.0000     8.2370    99.3010     0.0190     2.4180     0.2340   978.2820   -76.3840    13.3840    12.0640    18.0060  1015.9080
 2643.5000     8.2500   100.3130     0.0210     2.4270     0.2370   978.4540   -76.2920    13.0110    11.6720    17.2560  1016.0690
 2644.0000     8.2770    96.1930     0.0240     2.4320     0.2430   978.6250   -76.2890    12.9510    11.6720    16.2850  1016.2300
 2644.5000     8.2970    91.6160     0.0270     2.4330     0.2410   978.7960   -76.2890    12.8900    11.6170    16.6220  1016.3910
 2645.0000     8.2920    90.6390     0.0300     2.4440     0.2370   978.9670   -76.2910    12.8300    11.5280    17.2820  1016.5520
 2645.5000     8.2870    94.7370     0.0320     2.4540     0.2350   979.1380   -76.1580    12.7700    11.4380    17.4410  1016.7120
 2646.0000     8.2830    99.9890     0.0350     2.4550     0.2380   979.3090   -75.9450    12.7090    11.3490    15.2090  1016.8650
 2646.5000     8.2790   105.4430     0.0320     2.4380     0.2370   979.4800   -75.7490    12.6490    11.2590    15.3140  1016.8650
 2647.0000     8.2750   105.1030     0.0230     2.4140     0.2340   979.6510   -75.1620    12.5890    11.1690    15.5530  1016.8650
 2647.5000     8.2700   103.7600     0.0170     2.4010     0.2310   979.8220   -74.5110    12.5560    11.0800    15.7910  1016.8650
 2648.0000     8.2660   102.8030     0.0150     2.4100     0.2270   979.9930   -73.9170    12.5560    10.9100    15.9190  1016.8650
 2648.5000     8.2620   107.3420     0.0160     2.4390     0.2300   980.1640   -73.2900    12.4760    10.6080    15.2070  1016.8650
 2649.0000     8.2570   111.3410     0.0190     2.4590     0.2360   980.3350   -73.0520    12.4000    10.3060    13.6990  1016.8650
 2649.5000     8.2530   108.3360     0.0230     2.4600     0.2430   980.5060   -72.9400    12.3250    10.1780    12.3290  1016.8650
 2650.0000     8.2490   104.0280     0.0220     2.4260     0.2490   980.6770   -73.0400    12.2500    10.4900    13.6820  1016.8650
 2650.5000     8.2450   100.6590     0.0160     2.4140     0.2430   980.8480   -73.2150    12.1740    10.8500    14.9220  1016.8650
 2651.0000     8.2400    99.7130     0.0170     2.4240     0.2380   981.0190   -73.3930    12.0990    10.8290    16.5110  1016.8650
 2651.5000     8.2370    97.1880     0.0180     2.4370     0.2360   981.1910   -73.5760    12.0240    10.7870    15.8590  1016.8650
 2652.0000     8.2370    94.1280     0.0190     2.4390     0.2370   981.3620   -73.7950    11.9480    10.7350    14.9520  1016.8650
 2652.5000     8.2380    91.4560     0.0190     2.4250     0.2360   981.5330   -74.0100    11.8730    10.6140    14.3980  1016.8650
 2653.0000     8.2390    93.2320     0.0170     2.4160     0.2340   981.7040   -74.1710    11.7980    10.4920    15.0710  1016.8650
 2653.5000     8.2400    96.5800     0.0150     2.4150     0.2320   981.8750   -74.2890    11.6720    10.3660    15.2090  1016.8650
 2654.0000     8.2410    99.8930     0.0180     2.4250     0.2320   982.0460   -74.4060    11.8190    10.2950    14.7000  1016.8650
 2654.5000     8.2410   102.5350     0.0200     2.4400     0.2330   982.2170   -74.5080    11.9460    10.5580    14.0090  1016.8650
 2655.0000     8.2420   101.3650     0.0230     2.4630     0.2270   982.3880   -74.5600    12.0730    10.7680    14.0090  1016.8650
 2655.5000     8.2430   100.2890     0.0240     2.4860     0.2160   982.5590   -74.6540    12.2010    10.9780    15.1830  1016.8650
 2656.0000     8.2440    99.3660     0.0270     2.4930     0.2060   982.7300   -74.7490    12.3280    11.1890    16.1780  1027.6050
 2656.5000     8.2450    99.3950     0.0290     2.4800     0.2040   982.9010   -74.8430    12.4550    11.3560    17.1740  1038.4750
 2657.0000     8.2450    98.5770     0.0210     2.4500     0.2170   983.0720   -74.8600    12.6710    11.0480    17.7620  1049.3440
 2657.5000     8.2460    97.1870     0.0120     2.4160     0.2310   983.2430   -74.7590    12.6070    10.9460    16.8940  1060.2140
 2658.0000     8.2470    95.8840     0.0090     2.4000     0.2370   983.4140   -74.5830    12.4520    10.8440    16.0360  1063.7460
 2658.5000     8.2480    97.1310     0.0080     2.4070     0.2370   983.5850   -74.2960    12.2970    10.7420    15.1780  1057.3361
 2659.0000     8.2490    99.8150     0.0150     2.4240     0.2350   983.7560   -74.0070    12.1420    10.6400    14.3210  1050.9260
 2659.5000     8.2490   102.4950     0.0260     2.4410     0.2340   983.9280   -73.9100    11.9880    10.5380    13.5070  1044.5160
 2660.0000     8.2500   105.2070     0.0280     2.4500     0.2290   984.0990   -73.9080    11.8330    10.4360    13.9140  1038.1050
 2660.5000     8.2510   106.0700     0.0220     2.4350     0.2210   984.2700   -73.9130    11.6780    10.3330    14.3900  1031.6949
 2661.0000     8.2520   102.8940     0.0140     2.4240     0.2190   984.4410   -73.6640    11.5660    10.2310    14.8670  1025.2850
 2661.5000     8.2530   100.8000     0.0100     2.4190     0.2210   984.6120   -73.3020    11.6000    10.1780    15.4890  1018.8750
 2662.0000     8.2530   100.2780     0.0060     2.4190     0.2250   984.7830   -72.9930    11.6520    10.2180    15.1640  1017.9050
 2662.5000     8.2540   100.6100     0.0050     2.4190     0.2300   984.9540   -72.7420    11.7030    10.2630    14.6900  1019.4200
 2663.0000     8.2550   100.3070     0.0070     2.4110     0.2360   985.1250   -72.5630    11.7540    10.3080    14.1380  1020.9360
 2663.5000     8.2560    97.1360     0.0010     2.4060     0.2330   985.2960   -72.9230    11.7790    10.3530    14.1380  1022.4510
