~VERSION INFORMATION
 VERS.                2.0:   CWLS LOG ASCII STANDARD - VERSION 2.0
 WRAP.                 NO:   ONE LINE PER DEPTH STEP
~WELL INFORMATION
#MNEM.UNIT      DATA TYPE    INFORMATION
#----------   ------------   ------------------------------
 STRT.F          200.0000:   START DEPTH
 STOP.F         3038.0000:   STOP DEPTH
 STEP.F            0.5000:   STEP LENGTH
 NULL.          -999.2500:   NO VALUE
 COMP.    FENIX & SCISSON:   COMPANY
 WELL. FENIX NPR 3 "A" #63-28:   WELL
 FLD .            WILDCAT:   FIELD
 LOC .      S28 T39N R78W:   LOCATION
 CNTY.            NATRONA:   COUNTY
 STAT.            WYOMING:   STATE
 CTRY. UNITED STATES OF AMERICA:   COUNTRY
 SRVC.              WELEX:   SERVICE COMPANY
 DATE.        29-MAY-1977:   LOGDATE
 API .     49025103740000:   API NUMBER
~CURVE INFORMATION
#MNEM.UNIT       API CODE    CURVE DESCRIPTION
#----------   ------------   ------------------------------
 DEPT.F                  :   
 SPR .MV     07 010 01 00:   SPONTANEOUS POTENTIAL
 ILM .OHMM   07 120 44 00:   INDUCTION LOG MEDIUM RESISTIVITY
 ILD .OHMM   07 120 46 00:   DEEP INDUCTION RESISTIVITY
 SGRD.OHMM   07 220 05 00:   SHALLOW SHORT GUARD RESISTIVITY
 GRD .GAPI   45 310 01 00:   GAMMA RAY FROM DENSITY LOG
 CALD.IN     45 280 60 00:   CALIPER FROM DENSITY LOG
 RHOB.G/C3   45 350 01 00:   BULK DENSITY
 CORR.G/C3   45 356 01 00:   DENSITY CORRECTION
~PARAMETER INFORMATION
#MNEM.UNIT          VALUE    DESCRIPTION
#----------   ------------   ------------------------------
 EKB .F         5040.0000:   Kelly bushing
 EGL .F         5029.0000:   Ground level
 EDF .F            0.0000:   Drilling floor
 EPD .F         5029.0000:   Permanent datum
 TD  .F         3040.0000:   Total depth
 DATE.        29-MAY-1977:   Date logged
 CLNT.            A2DTECH:   Client Code
 SL  . 1650' FNL & 1650' FEL:   Surface Location
 PD  .                 GL:   Permanent Datum
 LMF .                 KB:   Log Measured From
 DMF .                 KB:   Drilling Measured From
 DD  .F              3040:   Depth driller
 DL  .F              3038:   Depth logger
 BLI .F              3036:   Bottom log interval
 TLI .F               200:   Top log interval
 CS1 .IN            8.625:   Casing size
 BSD1.F              3040:   Depth drilled with bit1
 DFT .            KCL MUD:   Type fluid in hole
 ORIG.     2.5", 5" PRINT:   Origin of data
 UWI .     49025103740000:   Unique Well ID
 DICO. A2D TECHNOLOGIES, INC.:   Digitizing Company
 DAPD.                 11:   Feet Above Permanent Datum
 CBD1.      8.625" @ 220':   Casing driller 1
 BS1 .              7.875:   Bit size
 DFD .                8.7:   Density
 MRT .                108:   Maximum recorded temp.
 ENGI.            C. DOAK:   Recorded By
 WITN.      W. PETTINGILL:   Witnessed by
~OTHER INFORMATION
~A   DEPT      SPR        ILM          ILD     SGRD         GRD        CALD       RHOB      CORR  
# ...
 2265.5000   -64.6080     9.8570     8.5390    21.0370   141.1420     8.6130     2.3850     0.0070
 2266.0000   -64.6520     8.9340     7.9810    12.9240   141.7190     8.6060     2.3840     0.0070
 2266.5000   -64.6950     8.4680     7.4230     7.3100   142.1790     8.5950     2.3830     0.0070
 2267.0000   -64.7370     8.4680     6.8650    11.6560   142.2840     8.5860     2.3830     0.0070
 2267.5000   -64.7780     7.6740     6.3200    15.1100   141.7020     8.5870     2.3830     0.0100
 2268.0000   -64.8090     6.7970     5.8730    14.2200   140.8920     8.6160     2.3880     0.0120
 2268.5000   -64.9670     5.9710     5.4270    10.0630   139.8750     8.6460     2.4060     0.0150
 2269.0000   -65.1260     5.4880     4.9810     5.5480   136.7490     8.6550     2.4210     0.0180
 2269.5000   -65.2840     4.9640     4.5350     6.2460   133.7160     8.6560     2.4370     0.0210
 2270.0000   -65.4410     4.5270     4.2360     7.3770   130.4570     8.6610     2.4600     0.0230
 2270.5000   -65.5860     4.2500     3.9490     5.9780   127.4890     8.6990     2.4940     0.0230
 2271.0000   -65.5890     4.2130     3.9150     4.0220   123.9720     8.6930     2.4720     0.0200
 2271.5000   -65.5880     4.1720     3.8700     5.3320   123.3340     8.7230     2.4580     0.0120
 2272.0000   -65.5880     4.2400     3.8440     7.6540   122.3440     8.7590     2.4370     0.0050
 2272.5000   -65.5880     4.3100     3.8720     7.3770   121.5450     8.7960     2.4420    -0.0010
 2273.0000   -65.5880     4.3800     3.9840     6.6680   120.6140     8.8320     2.4600    -0.0010
 2273.5000   -65.5880     4.4660     4.1090     6.3280   119.7350     8.8680     2.4600    -0.0020
 2274.0000   -65.5880     4.5640     4.2340     6.0270   118.8460     8.9070     2.4590    -0.0020
 2274.5000   -65.5880     4.6620     4.3590     6.6370   117.9690     8.9300     2.4580    -0.0020
 2275.0000   -65.5880     4.7610     4.4330     7.2540   117.0510     8.9330     2.4570    -0.0020
 2275.5000   -65.5880     4.8590     4.4730     7.3770   116.2020     8.9400     2.4550    -0.0030
 2276.0000   -65.5880     4.9570     4.5130     7.0460   115.2330     8.9450     2.4540    -0.0030
 2276.5000   -65.5880     5.0300     4.5530     7.3770   115.0490     8.9500     2.4560    -0.0030
 2277.0000   -65.5970     5.0670     4.6160     7.3340   115.7540     8.9560     2.4580    -0.0040
 2277.5000   -65.7470     5.1040     4.6130     7.1810   116.2440     8.9610     2.4600    -0.0040
 2278.0000   -65.8030     5.1410     4.6060     6.9180   116.5090     8.9670     2.4630    -0.0040
 2278.5000   -65.8160     5.1550     4.5980     7.2610   116.7660     8.9720     2.4640    -0.0040
 2279.0000   -65.8310     5.0920     4.5900     7.4450   117.0620     8.9780     2.4640    -0.0050
 2279.5000   -65.8470     5.0420     4.5830     7.1770   117.3300     8.9830     2.4640    -0.0030
 2280.0000   -65.8620     5.0150     4.5750     6.7640   117.6040     8.9890     2.4610     0.0010
 2280.5000   -65.8780     5.0300     4.5740     6.3100   117.8930     8.9940     2.4580     0.0050
 2281.0000   -65.8940     5.0640     4.6630     6.5440   118.2140     9.0000     2.4550     0.0080
 2281.5000   -65.9100     5.0980     4.7330     7.4090   119.3670     9.0050     2.4540     0.0120
 2282.0000   -65.9260     5.1310     4.8030     7.5140   120.8280     9.0110     2.4570     0.0160
 2282.5000   -65.9420     5.1650     4.8740     7.1470   122.2850     9.0160     2.4640     0.0190
 2283.0000   -65.9570     5.1990     4.9440     6.6070   122.9890     9.0220     2.4780     0.0230
 2283.5000   -65.9730     5.4620     5.0160     7.3560   122.2340     9.0270     2.4910     0.0280
 2284.0000   -65.9470     5.5480     5.0870     8.2380   122.0900     9.0320     2.5060     0.0320
 2284.5000   -65.8890     5.4070     5.1080     7.7330   122.0030     9.0380     2.5100     0.0370
 2285.0000   -65.8320     5.2770     5.1080     7.1770   121.7430     9.0440     2.5080     0.0390
 2285.5000   -65.7740     5.1480     4.9780     7.1770   121.5160     9.0680     2.5050     0.0380
 2286.0000   -65.7160     5.0330     4.8200     7.3890   121.4530     9.0870     2.5000     0.0350
 2286.5000   -65.6580     4.8180     4.6620     7.5140   122.9740     9.1080     2.4940     0.0320
 2287.0000   -65.5990     4.6030     4.5030     7.1740   124.2320     9.1280     2.4900     0.0310
 2287.5000   -65.5880     4.3890     4.3320     6.5220   125.6390     9.1490     2.4780     0.0300
 2288.0000   -65.5890     4.2500     4.0890     5.4970   126.9360     9.1690     2.4680     0.0280
 2288.5000   -65.6290     4.0500     3.8450     5.1100   128.2180     9.1900     2.4570     0.0260
 2289.0000   -65.8420     3.8410     3.6020     4.9690   128.2820     9.1980     2.4510     0.0250
 2289.5000   -66.0510     3.6300     3.3590     6.0820   128.3000     9.1980     2.4480     0.0230
 2290.0000   -66.1760     3.4080     3.1670     5.4920   128.3010     9.1980     2.4460     0.0220
 2290.5000   -66.1760     3.1380     3.0810     4.5660   128.2700     9.1980     2.4470     0.0200
 2291.0000   -66.1770     3.1450     3.0530     3.7770   128.2520     9.1980     2.4480     0.0190
 2291.5000   -66.1770     3.1570     3.0600     3.4400   126.3840     9.1970     2.4490     0.0190
 2292.0000   -66.1760     3.1670     3.0680     4.3260   123.9320     9.1890     2.4500     0.0200
 2292.5000   -66.1760     3.1790     3.0770     5.2020   121.5350     9.1810     2.4510     0.0200
 2293.0000   -66.1770     3.2080     3.0940     5.0550   119.8320     9.1720     2.4520     0.0210
 2293.5000   -66.1770     3.2370     3.1170     4.8780   120.0060     9.1630     2.4530     0.0210
 2294.0000   -66.2230     3.2660     3.1390     5.0150   120.5980     9.1550     2.4540     0.0220
 2294.5000   -66.3270     3.2960     3.1620     4.3110   121.2020     9.1460     2.4540     0.0230
 2295.0000   -66.4300     3.3250     3.1840     3.9850   121.7980     9.1380     2.4550     0.0210
 2295.5000   -66.5390     3.3540     3.2060     5.3480   122.3900     9.1290     2.4550     0.0180
 2296.0000   -66.5080     3.3830     3.2290     5.3480   122.8450     9.1210     2.4550     0.0160
 2296.5000   -66.4200     3.4130     3.2510     4.5740   122.3050     9.1120     2.4560     0.0130
 2297.0000   -66.3560     3.4400     3.2740     4.4910   121.6050     9.1040     2.4560     0.0100
 2297.5000   -66.3210     3.4720     3.2960     4.9230   120.8910     9.0950     2.4560     0.0070
 2298.0000   -66.2860     3.4840     3.3170     4.7020   120.1930     9.0860     2.4570     0.0040
 2298.5000   -66.2500     3.4950     3.3390     4.8780   119.4880     9.0830     2.4560     0.0030
 2299.0000   -66.2150     3.5060     3.3610     4.5740   118.7760     9.0880     2.4540     0.0010
 2299.5000   -66.1800     3.5170     3.3830     4.8780   118.0880     9.0920     2.4460    -0.0020
 2300.0000   -66.1760     3.5280     3.4040     4.6590   117.3660     9.0970     2.4330    -0.0040
 2300.5000   -66.1760     3.5390     3.4260     5.2020   116.6170     9.1010     2.4250    -0.0060
 2301.0000   -66.1760     3.5500     3.4480     5.0610   115.1320     9.1050     2.4230    -0.0090
 2301.5000   -66.1760     3.5610     3.4690     4.3690   113.5800     9.1100     2.4220    -0.0110
 2302.0000   -66.1760     3.5690     3.4910     4.6080   112.0430     9.1140     2.4010    -0.0130
 2302.5000   -66.1760     3.5800     3.5130     4.9630   110.5820     9.1190     2.3960    -0.0160
 2303.0000   -66.1760     3.5910     3.5360     5.4470   110.5060     9.1230     2.4010    -0.0170
 2303.5000   -66.1760     3.6100     3.5270     4.8120   111.9190     9.1280     2.4050    -0.0170
 2304.0000   -66.1780     3.6780     3.5170     4.2110   113.9030     9.1320     2.4070    -0.0170
 2304.5000   -66.2650     3.7710     3.5060     5.4320   115.8260     9.1370     2.4080    -0.0170
 2305.0000   -66.3590     3.8410     3.4720     6.2520   117.7440     9.1410     2.4040    -0.0170
 2305.5000   -66.4530     3.6510     3.3960     6.0130   119.6950     9.1460     2.3990    -0.0170
