~VERSION INFORMATION
 VERS.                2.0:   CWLS LOG ASCII STANDARD - VERSION 2.0
 WRAP.                 NO:   ONE LINE PER DEPTH STEP
~WELL INFORMATION
#MNEM.UNIT      DATA TYPE    INFORMATION
#----------   ------------   ------------------------------
 STRT.F          740.0000:   START DEPTH
 STOP.F         2749.0000:   STOP DEPTH
 STEP.F            0.5000:   STEP LENGTH
 NULL.          -999.2500:   NO VALUE
 COMP.    FENIX & SCISSON:   COMPANY
 WELL.   FENIX SHX #11-10:   WELL
 FLD .                NPR:   FIELD
 LOC .      S10 T38N R78W:   LOCATION
 CNTY.            NATRONA:   COUNTY
 STAT.            WYOMING:   STATE
 CTRY. UNITED STATES OF AMERICA:   COUNTRY
 SRVC.              WELEX:   SERVICE COMPANY
 DATE.        09-APR-1980:   LOGDATE
 API .     49025108060000:   API NUMBER
~CURVE INFORMATION
#MNEM.UNIT       API CODE    CURVE DESCRIPTION
#----------   ------------   ------------------------------
 DEPT.F                  :   
 GRD .GAPI   45 310 01 00:   GAMMA RAY FROM DENSITY LOG
 CALD.IN     45 280 60 00:   CALIPER FROM DENSITY LOG
 TEND.LBS    45 635 01 00:   TENSION FROM DENSITY LOG
 RHOB.G/C3   45 350 01 00:   BULK DENSITY
 CORR.G/C3   45 356 01 00:   DENSITY CORRECTION
~PARAMETER INFORMATION
#MNEM.UNIT          VALUE    DESCRIPTION
#----------   ------------   ------------------------------
 EKB .F         5287.0000:   Kelly bushing
 EGL .F         5277.0000:   Ground level
 EDF .F            0.0000:   Drilling floor
 EPD .F         5277.0000:   Permanent datum
 TD  .F         2762.0000:   Total depth
 DATE.        09-APR-1980:   Date logged
 CLNT.            A2DTECH:   Client Code
 SL  . 474' FNL & 644' FWL:   Surface Location
 PD  .                 GL:   Permanent Datum
 LMF .                 KB:   Log Measured From
 DMF .                 KB:   Drilling Measured From
 DAPD.F                10:   Feet Above Permanent Datum
 DD  .F              2762:   Depth driller
 DL  .F            2751.5:   Depth logger
 BLI .F              2750:   Bottom log interval
 TLI .F               750:   Top log interval
 CS1 .IN            9.625:   Casing size
 CBD1.      9.625" @ 760':   Casing driller 1
 BS1 .IN             8.75:   Bit size
 BSD1.F              2762:   Depth drilled with bit1
 DFT .                AIR:   Type fluid in hole
 TCS .HRS               3:   Time Circ. stopped
 MRT .F               118:   Maximum recorded temp.
 ENGI.            BENTSEN:   Recorded By
 WITN.           DINSMORE:   Witnessed by
 ORIG.         2.5" PRINT:   Origin of data
 UWI .     49025108060000:   Unique Well ID
 DICO. A2D TECHNOLOGIES, INC.:   Digitizing Company
~OTHER INFORMATION
~A   DEPT       GRD      CALD       TEND       RHOB       CORR   
  740.0000    47.9170  -999.2500  -999.2500  -999.2500  -999.2500
  740.5000    47.9170  -999.2500  -999.2500  -999.2500  -999.2500
  741.0000    47.3210  -999.2500  -999.2500  -999.2500  -999.2500
  741.5000    47.3210  -999.2500  -999.2500  -999.2500  -999.2500
  742.0000    47.3210  -999.2500  -999.2500  -999.2500  -999.2500
  742.5000    47.9170  -999.2500  -999.2500  -999.2500  -999.2500
  743.0000    48.5120  -999.2500  -999.2500  -999.2500  -999.2500
  743.5000    48.6040  -999.2500  -999.2500  -999.2500  -999.2500
  744.0000    48.5190  -999.2500  -999.2500  -999.2500  -999.2500
  744.5000    48.5040  -999.2500  -999.2500  -999.2500  -999.2500
  745.0000    48.5170  -999.2500  -999.2500  -999.2500  -999.2500
  745.5000    48.5120  -999.2500  -999.2500  -999.2500  -999.2500
  746.0000    48.5120  -999.2500  -999.2500  -999.2500  -999.2500
  746.5000    48.5130  -999.2500  -999.2500  -999.2500  -999.2500
  747.0000    48.5120  -999.2500  -999.2500  -999.2500  -999.2500
  747.5000    48.5110  -999.2500  -999.2500  -999.2500  -999.2500
  748.0000    48.5110  -999.2500  -999.2500  -999.2500  -999.2500
  748.5000    48.5080  -999.2500  -999.2500  -999.2500  -999.2500
  749.0000    48.5090  -999.2500  -999.2500  -999.2500  -999.2500
  749.5000    48.5110  -999.2500  -999.2500  -999.2500  -999.2500
  750.0000    48.4960  -999.2500  -999.2500  -999.2500  -999.2500
  750.5000    48.5190  -999.2500  -999.2500  -999.2500  -999.2500
  751.0000    48.5390  -999.2500  -999.2500  -999.2500  -999.2500
  751.5000    49.6440  -999.2500  -999.2500  -999.2500  -999.2500
  752.0000    50.9480  -999.2500  -999.2500  -999.2500  -999.2500
  752.5000    52.2880  -999.2500  -999.2500  -999.2500  -999.2500
  753.0000    53.6020  -999.2500  -999.2500  -999.2500  -999.2500
  753.5000    54.8830     9.2250  -999.2500     2.0790  -999.2500
  754.0000    56.9300     9.1190   984.7280     2.1440    -0.1420
  754.5000    59.8830     8.9820   987.7580     2.2360     0.0380
  755.0000    62.8380     8.8370   990.7870     2.3120     0.1310
  755.5000    65.7680     8.8770   993.8170     2.2450     0.1460
  756.0000    68.0890     9.0590   996.8470     2.2580     0.1570
  756.5000    67.7840     9.2290   999.8760     2.2770     0.1790
  757.0000    67.5660     9.3310  1002.9060     2.2910     0.2050
  757.5000    67.2480     9.4850  1004.4260     2.3050     0.2250
  758.0000    66.9380     9.6550  1007.4750     2.3510     0.1560
  758.5000    66.7040     9.8390  1010.5160     2.4700     0.1330
  759.0000    66.3800     9.9700  1013.4840     2.5070     0.1170
  759.5000    66.8860     9.8310  1016.6770     2.5070     0.1080
  760.0000    66.4220     9.6030  1019.5590     2.4310     0.0570
  760.5000    65.4530     9.3760  1021.5660     2.4180     0.0450
  761.0000    64.3570     9.2680  1015.4690     2.4070     0.0550
  761.5000    63.2760     9.2840  1010.3650     2.4010     0.0630
  762.0000    68.4450     9.2890  1004.7810     2.3650     0.0720
  762.5000    68.3220     9.2930   999.3820     2.3290     0.0800
  763.0000    68.5280     9.2980   993.9780     2.3250     0.1020
  763.5000    67.9780     9.3080   988.5270     2.3170     0.1360
  764.0000    67.0850     9.3190   983.1100     2.3030     0.1700
  764.5000    65.5830     9.4920   977.7200     2.2890     0.1710
  765.0000    64.0590     9.6910   972.2930     2.2810     0.1610
  765.5000    62.5380     9.8920   966.7460     2.3040     0.1650
  766.0000    61.7280    10.0890   961.6600     2.3320     0.1920
  766.5000    61.9840    10.2950   955.7640     2.3480     0.1800
  767.0000    62.7500    10.4820   950.3360     2.3910     0.1660
  767.5000    63.4320    10.6490   946.8450     2.4490     0.1810
  768.0000    64.1820    10.5600   921.1550     2.4980     0.1230
  768.5000    64.6270    10.3410   901.1790     2.5080     0.0820
  769.0000    64.5190    10.0640   905.7020     2.5080     0.0640
  769.5000    65.2080     9.5280   907.9970     2.4970     0.0490
  770.0000    66.7930     9.3620   909.7810     2.4870     0.0380
  770.5000    68.3210     9.2220   912.4460     2.4760     0.0260
  771.0000    69.0990     9.1550   914.6110     2.4660     0.0150
  771.5000    69.5490     9.1690   916.9050     2.4290     0.0030
  772.0000    70.0040     9.1790   919.2430     2.4090    -0.0100
  772.5000    70.4720     9.1900   921.5320     2.4220    -0.0110
  773.0000    70.9250     9.2010   923.8210     2.4340     0.0020
  773.5000    71.4070     9.2120   926.1100     2.4390     0.0140
  774.0000    71.8350     9.2230   928.3990     2.4340     0.0180
  774.5000    72.2610     9.2340   930.6880     2.4310     0.0200
  775.0000    71.5000     9.2530   932.9770     2.4280     0.0250
  775.5000    70.6850     9.2720   935.2660     2.4360     0.0380
  776.0000    69.8350     9.2920   937.5550     2.4430     0.0620
  776.5000    68.9940     9.3120   939.8440     2.4520     0.0850
  777.0000    68.7300     9.3310   942.1330     2.4590     0.1080
  777.5000    68.7500     9.3510   944.4220     2.4980     0.1360
  778.0000    68.7520     9.3690   946.7110     2.4900     0.1210
  778.5000    68.7210     9.3910   949.0000     2.4760     0.0860
  779.0000    69.1360     9.3670   951.2890     2.4820     0.0630
  779.5000    70.1340     9.3360   953.5780     2.4900     0.0720
  780.0000    71.1820     9.3030   955.8670     2.5070     0.0780
  780.5000    71.4120     9.2730   958.1560     2.5070     0.0840
  781.0000    70.1750     9.2410   960.4450     2.5010     0.0650
  781.5000    70.0100     9.2370   962.7340     2.4820     0.0480
  782.0000    70.1280     9.2420   965.0230     2.4710     0.0300
  782.5000    70.2270     9.2470   967.3120     2.4690     0.0320
  783.0000    70.3270     9.2510   969.6010     2.4710     0.0350
  783.5000    70.4330     9.2550   971.8900     2.4720     0.0380
  784.0000    70.5600     9.2600   974.1790     2.4650     0.0410
  784.5000    71.3450     9.2650   976.4680     2.4580     0.0370
  785.0000    71.3280     9.2690   978.7580     2.4520     0.0340
  785.5000    70.0230     9.2730   981.0470     2.4530     0.0370
  786.0000    70.3980     9.2590   983.3360     2.4570     0.0430
  786.5000    70.8840     9.2420   985.6250     2.4530     0.0380
  787.0000    71.4270     9.2250   987.9140     2.4390     0.0280
  787.5000    72.0820     9.2070   990.2030     2.4420     0.0380
  788.0000    72.9720     9.1960   992.4920     2.4510     0.0480
  788.5000    73.8790     9.2030   994.7810     2.4440     0.0500
  789.0000    74.7410     9.2090   997.0700     2.4470     0.0590
  789.5000    75.6500     9.2160   999.3590     2.4530     0.0680
  790.0000    74.8070     9.2230  1001.6480     2.4600     0.0400
  790.5000    73.2270     9.2300  1003.9370     2.4630     0.0340
  791.0000    71.6580     9.2370  1006.2280     2.4640     0.0440
  791.5000    70.6050     9.2440  1008.5170     2.4660     0.0350
  792.0000    70.8810     9.2500  1010.8100     2.4710     0.0260
  792.5000    71.1500     9.2570  1013.1020     2.4770     0.0240
  793.0000    72.3520     9.2640  1015.3800     2.4830     0.0350
  793.5000    73.6630     9.2700  1017.6990     2.4870     0.0470
  794.0000    74.7020     9.2910  1019.9650     2.4840     0.0580
  794.5000    74.6780     9.3250  1021.9740     2.4790     0.0690
  795.0000    74.6510     9.3570  1022.0290     2.4750     0.0790
  795.5000    73.5050     9.3890  1022.0740     2.4710     0.0700
  796.0000    72.5550     9.4210  1022.0450     2.4670     0.0480
  796.5000    71.6080     9.4560  1022.0500     2.4620     0.0230
  797.0000    71.0870     9.4610  1022.0510     2.4580     0.0240
  797.5000    71.1460     9.4240  1022.0460     2.4540     0.0140
  798.0000    71.1290     9.3900  1022.0460     2.4480     0.0060
  798.5000    71.1200     9.3570  1022.0440     2.4350     0.0050
  799.0000    71.1580     9.3220  1022.0440     2.4390     0.0060
  799.5000    70.7840     9.2870  1022.0440     2.4510     0.0160
  800.0000    69.7020     9.2730  1022.0440     2.4600     0.0250
  800.5000    68.7370     9.2740  1022.0440     2.4700     0.0340
