~VERSION INFORMATION
 VERS.                2.0:   CWLS LOG ASCII STANDARD - VERSION 2.0
 WRAP.                 NO:   ONE LINE PER DEPTH STEP
~WELL INFORMATION
#MNEM.UNIT      DATA TYPE    INFORMATION
#----------   ------------   ------------------------------
 STRT.F          742.0000:   START DEPTH
 STOP.F         3406.0000:   STOP DEPTH
 STEP.F            0.5000:   STEP LENGTH
 NULL.          -999.2500:   NO VALUE
 COMP. FENIX & SCISSON - US NAVY:   COMPANY
 WELL.   FENIX "AX" #85-4:   WELL
 FLD .      NPR - WILDCAT:   FIELD
 LOC .       S4 T38N R78W:   LOCATION
 CNTY.            NATRONA:   COUNTY
 STAT.            WYOMING:   STATE
 CTRY. UNITED STATES OF AMERICA:   COUNTRY
 SRVC.              WELEX:   SERVICE COMPANY
 DATE.        03-MAY-1977:   LOGDATE
 API .     49025103520000:   API NUMBER
~CURVE INFORMATION
#MNEM.UNIT       API CODE    CURVE DESCRIPTION
#----------   ------------   ------------------------------
 DEPT.F                  :   
 SNP .DEC    41 890 00 00:   SIDEWALL NEUTRON POROSITY
 GR  .GAPI   30 310 01 00:   GAMMA RAY
 SPR .MV     07 010 01 00:   SPONTANEOUS POTENTIAL
 RXO .OHMM   11 220 01 00:   FLUSHED ZONE RESISTIVITY
 GURD.OHMM   07 220 05 00:   GUARD LOG RESISTIVITY
 CALD.IN     45 280 60 00:   CALIPER FROM DENSITY LOG
 RHOB.G/C3   45 350 01 00:   BULK DENSITY
 GRD .GAPI   45 310 01 00:   GAMMA RAY FROM DENSITY LOG
 CORR.G/C3   45 356 01 00:   DENSITY CORRECTION
~PARAMETER INFORMATION
#MNEM.UNIT          VALUE    DESCRIPTION
#----------   ------------   ------------------------------
 EKB .F         5254.0000:   Kelly bushing
 EGL .F         5240.0000:   Ground level
 EDF .F            0.0000:   Drilling floor
 TD  .F         3467.0000:   Total depth
 DATE.        03-MAY-1977:   Date logged
 CLNT.            A2DTECH:   Client Code
 SL  . 2200' FSL & 100' FEL:   Surface Location
 PD  .                 GL:   Permanent Datum
 EPD .F              5240:   Elevation Permanent Datum
 LMF .                 KB:   Log Measured From
 DMF .                 KB:   Drilling Measured From
 DAPD.F                14:   Feet Above Permanent Datum
 DD  .F              3647:   Depth driller
 DL  .F              3404:   Depth logger
 BLI .F              3402:   Bottom log interval
 TLI .F               720:   Top log interval
 CS1 .IN            8.625:   Casing size
 CBD1.      8.625" @ 720':   Casing driller 1
 CBL1.F               760:   Casing logger 1
 BS1 .IN            7.875:   Bit size
 BSD1.F              3467:   Depth drilled with bit1
 DFT .            KCL/MUD:   Type fluid in hole
 DFD .                9.1:   Density
 DFV .                 36:   Viscosity
 DFPH.                  8:   pH
 DFL .                  5:   Fluid loss
 MSS .           FLOWLINE:   Source of sample
 RMS .OHMM            .30:   Rm
 MST .F                66:   Rm Meas. temp.
 RMF .OHMM            .21:   Rmf
 MFST.F                66:   Rmf Meas. temp.
 RMC .OHMM            .49:   Rmc
 MCST.F                66:   Rmc Meas. temp.
 MFSS.               FANN:   Source Rmf.
 MCSS.                KIT:   Source Rmc.
 RMB .OHMM            .18:   Rm. at BHT
 BHT .F               107:   BHT.
 TCS .HRS             2.5:   Time Circ. stopped
 MRT .F               107:   Maximum recorded temp.
 LUN .               8611:   Logging unit number
 LUL .             CASPER:   Logging unit location
 ENGI.            C. DOAK:   Recorded By
 WITN.      B. HARRINGTON:   Witnessed by
 ORIG.     2.5", 5" PRINT:   Origin of data
 UWI .     49025103520000:   Unique Well ID
 DICO. A2D TECHNOLOGIES, INC.:   Digitizing Company
~OTHER INFORMATION
~A   DEPT        SNP       GR        SPR        RXO       GURD         CALD       RHOB       GRD       CORR  
# ...
  924.5000     0.2420  -999.2500   -32.2890     6.4160     5.8180     9.7200     2.4950    92.7630     0.0170
  925.0000     0.2480  -999.2500   -32.2220     6.3890     5.8000     9.7210     2.5060    92.1270     0.0200
  925.5000     0.2470  -999.2500   -32.1550     6.3680     5.7820     9.7210     2.5120    91.5180     0.0220
  926.0000     0.2440  -999.2500   -32.0880     6.3580     5.7640     9.7240     2.5160    90.8020     0.0240
  926.5000     0.2480  -999.2500   -32.0210     6.3330     5.7460     9.7290     2.5180    90.7480     0.0290
  927.0000     0.2530  -999.2500   -31.9540     6.3080     5.7280     9.7340     2.5250    90.7450     0.0350
  927.5000     0.2500  -999.2500   -31.8870     6.2830     5.7110     9.7390     2.5350    90.8190     0.0410
  928.0000     0.2420  -999.2500   -31.8190     6.2590     5.6930     9.7440     2.5450    91.5720     0.0470
  928.5000     0.2420  -999.2500   -31.7480     6.2340     5.6750     9.7490     2.5510    92.2380     0.0530
  929.0000     0.2380  -999.2500   -31.6780     6.2090     5.6570     9.7530     2.5560    92.9330     0.0590
  929.5000     0.2380  -999.2500   -31.6080     6.1840     5.6390     9.7580     2.5610    93.4810     0.0610
  930.0000     0.2430  -999.2500   -31.5370     6.1590     5.6210     9.7280     2.5650    92.9680     0.0630
  930.5000     0.2440  -999.2500   -31.4670     6.1410     5.5770     9.6860     2.5640    92.2780     0.0650
  931.0000     0.2410  -999.2500   -31.3970     6.1410     5.5060     9.6450     2.5630    91.5820     0.0670
  931.5000     0.2450  -999.2500   -31.3270     6.0460     5.5060     9.6440     2.5580    91.5930     0.0690
  932.0000     0.2410  -999.2500   -31.2560     5.9560     5.4330     9.6640     2.5520    92.1840     0.0700
  932.5000     0.2490  -999.2500   -31.1850     5.8660     5.2720     9.6840     2.5470    92.7300     0.0720
  933.0000     0.2590  -999.2500   -31.1190     5.7760     5.1210     9.7040     2.5400    93.3120     0.0730
  933.5000     0.2740  -999.2500   -31.0500     5.7100     5.1460     9.7220     2.5320    93.8410     0.0680
  934.0000     0.2690  -999.2500   -31.0640     5.8150     5.2430     9.7420     2.5250    94.4310     0.0610
  934.5000     0.2580  -999.2500   -31.0550     6.0340     5.3400     9.7670     2.5240    94.8100     0.0530
  935.0000     0.2600  -999.2500   -30.9790     6.1410     5.4370     9.7990     2.5380    94.7960     0.0560
  935.5000     0.2620  -999.2500   -30.6240     6.1410     5.5060     9.7800     2.5460    93.7560     0.0590
  936.0000     0.2580  -999.2500   -30.6810     6.0190     5.4750     9.7690     2.5490    92.8300     0.0610
  936.5000     0.2660  -999.2500   -30.6470     5.9210     5.4390     9.7560     2.5510    91.7400     0.0600
  937.0000     0.2590  -999.2500   -30.6390     6.0600     5.4070     9.7430     2.5540    91.0830     0.0590
  937.5000     0.2500  -999.2500   -30.6290     6.2150     5.4770     9.7290     2.5560    91.1860     0.0580
  938.0000     0.2380  -999.2500   -30.6130     6.3710     5.5780     9.7200     2.5550    91.4680     0.0570
  938.5000     0.2270  -999.2500   -30.6020     6.5260     5.8010     9.7190     2.5540    91.7520     0.0530
  939.0000     0.2200  -999.2500   -30.5900     6.6810     6.0770     9.7160     2.5530    92.0560     0.0460
  939.5000     0.2160  -999.2500   -30.5770     6.8370     6.3520     9.7130     2.5490    92.3260     0.0390
  940.0000     0.2130  -999.2500   -30.5650     6.9730     6.7690     9.7090     2.5410    92.0680     0.0320
  940.5000     0.2080  -999.2500   -30.5520     7.9860     7.3180     9.7060     2.5300    91.1870     0.0240
  941.0000     0.2020  -999.2500   -30.5400     9.4960     7.8670     9.7030     2.5190    90.3160     0.0170
  941.5000     0.1940  -999.2500   -30.5270     9.4820     8.4160     9.7000     2.5070    89.4090     0.0100
  942.0000     0.1830  -999.2500   -30.5150     9.4400     8.6720     9.6970     2.5040    88.7870     0.0010
  942.5000     0.1760  -999.2500   -30.5020     9.3970     8.6380     9.6940     2.5110    88.8080     0.0030
  943.0000     0.1830  -999.2500   -30.4900     9.3550     8.6070     9.6910     2.5190    89.0530     0.0060
  943.5000     0.1890  -999.2500   -30.4780     9.3120     8.5770     9.6870     2.5270    89.3110     0.0100
  944.0000     0.1970  -999.2500   -30.4650     9.2700     8.5470     9.6840     2.5350    89.5690     0.0130
  944.5000     0.2000  -999.2500   -30.4530     9.2270     8.5160     9.6830     2.5360    89.8280     0.0170
  945.0000     0.2040  -999.2500   -30.4400     9.1850     8.5160     9.7050     2.5360    90.0840     0.0200
  945.5000     0.2080  -999.2500   -30.4280     9.1580     8.6720     9.7270     2.5400    90.3340     0.0240
  946.0000     0.2030  -999.2500   -30.4150     9.2860     8.7430     9.7510     2.5450    90.6340     0.0250
  946.5000     0.2060  -999.2500   -30.4030     9.4190     8.8690     9.7710     2.5440    90.5340     0.0250
  947.0000     0.2000  -999.2500   -30.3900     9.5530     8.9960     9.7970     2.5410    89.9350     0.0250
  947.5000     0.1910  -999.2500   -30.3780     9.6860     9.1220     9.7670     2.5380    89.3930     0.0250
  948.0000     0.1890  -999.2500   -30.3650     9.8480     9.2480     9.7280     2.5370    88.8170     0.0250
  948.5000     0.1880  -999.2500   -30.3530     9.8290     9.3250     9.6890     2.5420    88.2820     0.0250
  949.0000     0.1880  -999.2500   -30.3410     9.7800     9.3250     9.6370     2.5440    87.6510     0.0250
  949.5000     0.1840  -999.2500   -30.3280     9.7320     9.2560     9.6010     2.5440    87.6070     0.0250
  950.0000     0.1790  -999.2500   -30.3160     9.6830     9.1680     9.5830     2.5400    87.5970     0.0260
  950.5000     0.1810  -999.2500   -30.3030     9.6340     9.0810     9.5750     2.5360    87.8400     0.0280
  951.0000     0.1870  -999.2500   -30.2910     9.5850     8.9930     9.6160     2.5330    88.1390     0.0300
  951.5000     0.1920  -999.2500   -30.2780     9.5370     8.9050     9.6530     2.5340    88.4410     0.0320
  952.0000     0.1970  -999.2500   -30.2730     9.4880     8.8180     9.6900     2.5370    88.7300     0.0330
  952.5000     0.2010  -999.2500   -30.2750     9.4390     8.7300     9.7280     2.5400    89.0670     0.0300
  953.0000     0.2020  -999.2500   -30.2550     9.3910     8.6420     9.7580     2.5370    89.1440     0.0250
  953.5000     0.1990  -999.2500   -30.1780     9.3420     8.5550     9.7350     2.5350    89.4860     0.0210
  954.0000     0.1970  -999.2500   -30.1020     9.1570     8.4670     9.7190     2.5300    89.5680     0.0170
  954.5000     0.1900  -999.2500   -30.0240     8.9020     8.3800     9.7370     2.5320    89.5160     0.0130
  955.0000     0.1840  -999.2500   -29.9470     8.5160     8.2920     9.7680     2.5380    89.4190     0.0100
  955.5000     0.1920  -999.2500   -29.8690     8.6720     8.2120     9.8020     2.5420    89.3450     0.0160
  956.0000     0.1990  -999.2500   -29.7920     9.0300     8.5160     9.7880     2.5370    89.2640     0.0210
  956.5000     0.2070  -999.2500   -29.7140     9.6160     8.6720     9.6680     2.5320    89.1850     0.0190
  957.0000     0.2040  -999.2500   -29.6370     9.4840     8.6720     9.5680     2.5220    89.1570     0.0160
  957.5000     0.1990  -999.2500   -29.5600     9.2190     8.6220     9.5800     2.5200    89.2120     0.0130
  958.0000     0.1940  -999.2500   -29.4830     8.9550     8.5270     9.6390     2.5230    88.8570     0.0130
  958.5000     0.1990  -999.2500   -29.4010     8.8310     8.4310     9.6780     2.5240    88.7810     0.0140
  959.0000     0.1960  -999.2500   -29.3350     8.8190     8.3350     9.6320     2.5170    88.7610     0.0150
  959.5000     0.1880  -999.2500   -29.2410     8.7860     8.2400     9.5710     2.5110    88.8940     0.0160
  960.0000     0.1910  -999.2500   -29.1720     8.7530     8.1440     9.6150     2.5150    89.0820     0.0180
  960.5000     0.1880  -999.2500   -29.1800     8.7190     8.0640     9.6730     2.5230    89.2640     0.0200
