~VERSION INFORMATION
 VERS.                2.0:   CWLS LOG ASCII STANDARD - VERSION 2.0
 WRAP.                 NO:   ONE LINE PER DEPTH STEP
~WELL INFORMATION
#MNEM.UNIT      DATA TYPE    INFORMATION
#----------   ------------   ------------------------------
 STRT.F          172.0000:   START DEPTH
 STOP.F         3376.0000:   STOP DEPTH
 STEP.F            0.5000:   STEP LENGTH
 NULL.          -999.2500:   NO VALUE
 COMP.    FENIX & SCISSON:   COMPANY
 WELL. FENIX NPR 3 "AX" #23-2:   WELL
 FLD .                NPR:   FIELD
 LOC .       S2 T38N R78W:   LOCATION
 CNTY.            NATRONA:   COUNTY
 STAT.            WYOMING:   STATE
 CTRY. UNITED STATES OF AMERICA:   COUNTRY
 SRVC.              WELEX:   SERVICE COMPANY
 DATE.        02-DEC-1980:   LOGDATE
 API .     49025108740000:   API NUMBER
~CURVE INFORMATION
#MNEM.UNIT       API CODE    CURVE DESCRIPTION
#----------   ------------   ------------------------------
 DEPT.F                  :   
 CALD.IN     45 280 60 00:   CALIPER FROM DENSITY LOG
 CORR.G/C3   45 356 01 00:   DENSITY CORRECTION
 GRD .GAPI   45 310 01 00:   GAMMA RAY FROM DENSITY LOG
 RHOB.G/C3   45 350 01 00:   BULK DENSITY
 TENR.LBS    07 635 01 00:   TENSION
 SPR .MV     07 010 01 00:   SPONTANEOUS POTENTIAL
 SGRD.OHMM   07 220 05 00:   SHALLOW GUARD
 ILD .OHMM   07 120 46 00:   INDUCTION LOG DEEP RESISTIVITY
 ILM .OHMM   07 120 44 00:   INDUCTION LOG MEDIUM RESISTIVITY
~PARAMETER INFORMATION
#MNEM.UNIT          VALUE    DESCRIPTION
#----------   ------------   ------------------------------
 EKB .F         5133.0000:   Kelly bushing
 EGL .F         5123.0000:   Ground level
 EDF .F            0.0000:   Drilling floor
 TD  .F         3375.0000:   Total depth
 DATE.        02-DEC-1980:   Date logged
 CLNT.            A2DTECH:   Client Code
 SL  . 3800' FSL & 827' FWL:   Surface Location
 PD  .                 GL:   Permanent Datum
 EPD .F              5123:   Elevation Permanent Datum
 LMF .                 KB:   Log Measured From
 DMF .                 KB:   Drilling Measured From
 DAPD.F                10:   Feet Above Permanent Datum
 DD  .F              3375:   Depth driller
 DL  .F              3373:   Depth logger
 BLI .F              3371:   Bottom log interval
 TLI .F               181:   Top log interval
 CS1 .IN            8.625:   Casing size
 CBD1.      8.625" @ 181':   Casing driller 1
 CBL1.F               181:   Casing logger 1
 BS1 .IN            7.875:   Bit size
 BSD1.F              3375:   Depth drilled with bit1
 DFT .           CHEM/GEL:   Type fluid in hole
 DFD .                8.8:   Density
 DFV .                 45:   Viscosity
 DFPH.                  9:   pH
 DFL .                 16:   Fluid loss
 MSS .           FLOWLINE:   Source of sample
 RMS .OHMM           1.25:   Rm
 MST .F                64:   Rm Meas. temp.
 RMF .OHMM           1.17:   Rmf
 MFST.F                64:   Rmf Meas. temp.
 RMC .OHMM            1.1:   Rmc
 MCST.F                64:   Rmc Meas. temp.
 MFSS.               MEAS:   Source Rmf.
 MCSS.               MEAS:   Source Rmc.
 RMB .OHMM            .67:   Rm. at BHT
 BHT .F               120:   BHT.
 TCS .HRS               2:   Time Circ. stopped
 MRT .F               120:   Maximum recorded temp.
 LUN .               1892:   Logging unit number
 LUL .             CASPER:   Logging unit location
 ENGI.  PFRIMMER/MONNAHAN:   Recorded By
 WITN.              FIVAS:   Witnessed by
 ORIG.           5" PRINT:   Origin of data
 UWI .     49025108740000:   Unique Well ID
 DICO. A2D TECHNOLOGIES, INC.:   Digitizing Company
~OTHER INFORMATION
~A   DEPT     CALD       CORR         GRD      RHOB       TENR        SPR       SGRD        ILD        ILM   
# ...
 2508.0000     8.9840     0.0420   115.7990     2.5320   483.9360   -17.0120    14.7580     8.0700     8.5290
 2508.5000     8.9840     0.0420   117.5050     2.5200   502.3060   -17.1610    12.9650     7.9290     8.4070
 2509.0000     8.9840     0.0370   120.1190     2.5030   520.6750   -17.3070    10.8780     7.7880     8.2850
 2509.5000     8.9840     0.0310   123.3200     2.4860   539.0450   -17.4580     8.7920     7.6470     8.1630
 2510.0000     8.9840     0.0250   128.9800     2.4680   557.4150   -17.6060     7.4650     7.5060     8.0360
 2510.5000     8.9840     0.0200   135.7000     2.4540   575.7850   -17.7530    11.6150     7.3650     8.0360
 2511.0000     8.9840     0.0210   137.0550     2.4460   594.1540   -17.9070    11.4030     7.2080     8.0360
 2511.5000     8.9840     0.0220   138.3670     2.4460   612.5240   -18.0490    12.9730     7.0450     7.8890
 2512.0000     8.9830     0.0240   140.2690     2.4520   632.5300   -18.1810    12.5030     6.8820     7.6680
 2512.5000     8.9780     0.0250   143.4500     2.4580   636.0060   -18.0170    10.0740     6.7200     7.4720
 2513.0000     8.9720     0.0270   145.6750     2.4650   639.8210   -17.8460     8.1850     6.5570     7.2750
 2513.5000     8.9660     0.0280   151.0700     2.4710   643.6360   -17.6620     8.7540     6.3940     6.9800
 2514.0000     8.9600     0.0300   156.3110     2.4650   647.4510   -17.4870     9.4850     6.2090     6.9990
 2514.5000     8.9540     0.0290   161.5540     2.4530   651.2670   -17.3080     8.5530     6.2090     7.2390
 2515.0000     8.9490     0.0280   166.7570     2.4400   648.5940   -17.1300     7.4720     6.3810     7.4800
 2515.5000     8.9430     0.0260   171.5420     2.4290   632.0620   -16.9520     5.9850     6.6460     7.7200
 2516.0000     8.9370     0.0250   170.7620     2.4300   615.5290   -16.7740    10.1440     6.9110     7.9610
 2516.5000     8.9320     0.0270   168.4250     2.4390   598.9960   -16.5960    16.7890     7.1760     8.2010
 2517.0000     8.9260     0.0290   166.2860     2.4480   582.4630   -16.4180    18.6630     7.4410     8.4420
 2517.5000     8.9230     0.0310   169.4780     2.4550   565.9300   -16.2410    17.3680     7.6260     8.3440
 2518.0000     8.9200     0.0320   175.9200     2.4500   549.3980   -16.0610    14.6600     7.6840     8.1560
 2518.5000     8.9130     0.0290   182.3310     2.4420   532.1290   -15.8850    11.8310     7.7450     7.9660
 2519.0000     8.9070     0.0250   188.8720     2.4310   512.0480   -15.7070    12.2750     7.5440     7.7720
 2519.5000     8.9010     0.0250   193.4860     2.4200   568.8760   -15.5200    11.8310     7.3340     7.5780
 2520.0000     8.8950     0.0260   197.5530     2.4290   618.4740   -15.4750    10.4040     7.1230     7.3840
 2520.5000     8.8880     0.0270   199.8560     2.4310   668.0720   -15.7400     7.8890     6.9350     7.1950
 2521.0000     8.8810     0.0300   198.6360     2.4280   717.6710   -15.9940     9.2560     6.5980     6.8450
 2521.5000     8.9070     0.0340   197.4790     2.4330   767.2690   -16.2560    10.8920     6.2260     6.4590
 2522.0000     8.9400     0.0380   197.2180     2.4440   816.8670   -16.5190     9.8350     5.8540     6.0740
 2522.5000     8.9720     0.0420   196.8160     2.4630   865.2790   -16.7800     5.7680     5.4820     5.6880
 2523.0000     9.0040     0.0460   192.7500     2.4810   910.3690   -17.0330     5.5080     5.1100     5.3020
 2523.5000     9.0360     0.0490   184.3210     2.4990   955.4580   -17.3180     5.2040     4.8590     5.1350
 2524.0000     9.0670     0.0490   175.9880     2.4710  1000.5480   -17.2770     4.9010     4.6760     5.0700
 2524.5000     9.0970     0.0340   167.6630     2.4350  1054.2170   -17.0170     4.5400     4.4570     5.1100
 2525.0000     9.1280     0.0220   161.7710     2.4260  1054.2170   -16.7870     6.2090     4.4740     5.1730
 2525.5000     9.1590     0.0210   158.3340     2.4540  1054.2170   -16.5560     5.8830     4.4960     5.2370
 2526.0000     9.1900     0.0200   156.9840     2.4840  1054.2170   -16.3220     5.6510     4.5180     5.3010
 2526.5000     9.2210     0.0190   155.5660     2.4690  1054.2170   -16.0840     5.4580     4.5400     5.3640
 2527.0000     9.2220     0.0190   153.7810     2.4530  1049.3979   -15.8660     5.8630     4.5610     5.4280
 2527.5000     9.2130     0.0180   154.2130     2.4520  1035.8710   -15.7980     6.2100     4.5830     5.4910
 2528.0000     9.2040     0.0210   151.7980     2.4740  1022.3440   -15.7220     6.4420     4.6050     5.5550
 2528.5000     9.1960     0.0230   148.7420     2.5080  1008.8170   -15.3620     6.3250     4.6240     5.6190
 2529.0000     9.1870     0.0250   148.4080     2.5360   995.2900   -15.4620     6.1670     4.7190     5.6630
 2529.5000     9.1790     0.0280   148.3570     2.5370   981.7630   -15.4870     6.0960     4.8040     5.6630
 2530.0000     9.1700     0.0280   147.2430     2.5310   968.2370   -15.5380     6.2090     4.8880     5.6630
 2530.5000     9.1610     0.0280   146.1060     2.5220   954.7100   -15.5890     6.2090     4.9730     5.6630
 2531.0000     9.1530     0.0270   145.9800     2.5120   941.1830   -15.6310     6.2090     5.0700     5.6630
 2531.5000     9.1440     0.0260   146.2270     2.5070   932.4970   -15.6810     6.2090     5.0770     5.6840
 2532.0000     9.1350     0.0250   146.4830     2.5040   929.7410   -15.7330     6.0960     5.0910     5.7310
 2532.5000     9.1260     0.0240   147.4710     2.5000   926.9860   -15.7590     6.1300     5.1060     5.7770
 2533.0000     9.1290     0.0240   148.3570     2.5010   924.2300   -16.0200     6.2110     5.1200     5.8240
 2533.5000     9.1340     0.0230   149.0910     2.5050   921.4750   -16.5380     6.2920     5.1350     5.8710
 2534.0000     9.1380     0.0240   152.0690     2.5100   918.7190   -17.0270     6.5360     5.1500     5.9180
 2534.5000     9.1420     0.0250   154.9310     2.5110   915.9640   -17.5210     6.8950     5.1650     5.9850
 2535.0000     9.1460     0.0260   155.1520     2.5100   913.6550   -18.0210     7.1950     5.1650     5.8870
 2535.5000     9.1510     0.0280   155.2600     2.5080   930.0830   -18.2020     6.6290     5.1310     5.7150
 2536.0000     9.1550     0.0290   155.4710     2.5060   951.7820   -17.7500     5.9850     5.1020     5.5430
 2536.5000     9.1590     0.0300   157.5140     2.5130   973.4810   -17.2110     6.4420     5.0700     5.3580
 2537.0000     9.1630     0.0310   159.5550     2.5170   995.1810   -16.6740     6.0960     4.9780     5.3580
 2537.5000     9.1680     0.0330   160.4410     2.5170  1016.8800   -16.0970     5.5640     4.8380     5.2900
 2538.0000     9.1720     0.0350   160.1410     2.5170  1038.5790   -15.7650     5.1650     4.7120     5.2290
 2538.5000     9.1760     0.0380   159.8430     2.5250  1065.6630   -15.8870     5.1650     4.5870     5.1680
 2539.0000     9.1800     0.0420   159.5350     2.5280  1106.6350   -16.0330     5.1650     4.4610     5.1060
 2539.5000     9.1850     0.0460   159.4000     2.5320  1147.6080   -16.1760     5.1650     4.3360     5.0450
 2540.0000     9.1920     0.0500   159.4030     2.5500  1188.5800   -16.3250     5.1650     4.2100     4.9840
 2540.5000     9.2200     0.0540   159.4030     2.5690  1229.5530   -16.4690     5.1650     4.0850     4.9220
 2541.0000     9.2350     0.0560   160.1130     2.5580  1270.5260   -16.6150     5.1650     3.9590     4.7950
 2541.5000     9.3050     0.0580   161.4870     2.5440  1311.4980   -16.7610     5.1400     3.8340     4.5780
 2542.0000     9.3740     0.0580   162.8690     2.5060  1352.4709   -16.9070     4.8870     3.7080     4.3600
 2542.5000     9.4430     0.0530   164.2750     2.4660  1393.4430   -17.0530     4.7100     3.5830     4.1420
 2543.0000     9.4380     0.0490   166.8300     2.4280  1435.7430   -17.1990     4.1560     3.4570     3.9180
 2543.5000     9.4220     0.0390   169.3330     2.3880  1435.7430   -17.3440     3.5540     3.3320     3.9180
 2544.0000     9.4050     0.0290   170.1750     2.3550  1435.7430   -17.4910     2.9180     3.1990     3.9810
