~VERSION INFORMATION
 VERS.                2.0:   CWLS LOG ASCII STANDARD - VERSION 2.0
 WRAP.                 NO:   ONE LINE PER DEPTH STEP
~WELL INFORMATION
#MNEM.UNIT      DATA TYPE    INFORMATION
#----------   ------------   ------------------------------
 STRT.F           50.0000:   START DEPTH
 STOP.F         3270.0000:   STOP DEPTH
 STEP.F            0.5000:   STEP LENGTH
 NULL.          -999.2500:   NO VALUE
 COMP.   LAWRENCE ALLISON:   COMPANY
 WELL. LAWRENCE NPR 3 "AX" #12-11:   WELL
 FLD .                NPR:   FIELD
 LOC .      S11 T38N R78W:   LOCATION
 CNTY.            NATRONA:   COUNTY
 STAT.            WYOMING:   STATE
 CTRY. UNITED STATES OF AMERICA:   COUNTRY
 SRVC.      DRESSER ATLAS:   SERVICE COMPANY
 DATE.        18-JUL-1985:   LOGDATE
 API .     49025110460000:   API NUMBER
~CURVE INFORMATION
#MNEM.UNIT       API CODE    CURVE DESCRIPTION
#----------   ------------   ------------------------------
 DEPT.F                  :   
 TEND.LBS    45 635 01 00:   TENSION FROM DENSITY LOG
 RHOB.G/C3   45 350 01 00:   BULK DENSITY
 CORR.G/C3   45 356 01 00:   DENSITY CORRECTION
 NPHI.DEC    42 890 03 00:   NEUTRON POROSITY SANDSTONE
 TENR.LBS    07 635 01 00:   TENSION
 GRR .GAPI   07 310 01 00:   GAMMA RAY FROM RESISTIVITY
 RFOC.OHMM   07 220 01 00:   RESISTIVITY FOCUSED LOG RES.
 RILD.OHMM   07 120 46 00:   INDUCTION LOG DEEP RESISTIVITY
 RILM.OHMM   07 120 44 00:   INDUCTION LOG MEDIUM RESISTIVITY
 SN  .OHMM   01 040 00 00:   SHORT NORMAL
 ILD .OHMM   07 120 46 00:   INDUCTION LOG DEEP RESISTIVITY
 TENS.LBS    60 635 01 00:   TENSION FROM SONIC LOG
 DT  .US/F   60 520 00 00:   DELTA TIME
 SPR .MV     07 010 01 00:   SPONTANEOUS POTENTIAL
~PARAMETER INFORMATION
#MNEM.UNIT          VALUE    DESCRIPTION
#----------   ------------   ------------------------------
 EKB .F         5152.0000:   Kelly bushing
 EGL .F         5140.0000:   Ground level
 EDF .F            0.0000:   Drilling floor
 TD  .F         3271.0000:   Total depth
 DATE.        18-JUL-1985:   Date logged
 CLNT.            A2DTECH:   Client Code
 SL  . 1050' FNL & 150' FWL:   Surface Location
 PD  .                 GL:   Permanent Datum
 EPD .F              5140:   Elevation Permanent Datum
 LMF .                 KB:   Log Measured From
 DMF .                 KB:   Drilling Measured From
 DAPD.F                12:   Feet Above Permanent Datum
 DD  .F              3271:   Depth driller
 DL  .F              3262:   Depth logger
 BLI .F              3259:   Bottom log interval
 CS1 .IN            8.625:   Casing size
 CBD1.      8.625" @ 560':   Casing driller 1
 CBL1.F               560:   Casing logger 1
 BS1 .IN            7.875:   Bit size
 BSD1.F              3271:   Depth drilled with bit1
 DFT .            GEL/KCL:   Type fluid in hole
 DFD .                8.8:   Density
 DFV .                 40:   Viscosity
 DFPH.                  8:   pH
 DFL .                  8:   Fluid loss
 MSS .           MUD/TANK:   Source of sample
 RMS .OHMM            .31:   Rm
 MST .F                82:   Rm Meas. temp.
 RMF .OHMM            .25:   Rmf
 MFST.F                82:   Rmf Meas. temp.
 RMC .OHMM            .39:   Rmc
 MCST.F                82:   Rmc Meas. temp.
 MFSS.               MEAS:   Source Rmf.
 MCSS.               CALC:   Source Rmc.
 RMB .OHMM           .198:   Rm. at BHT
 BHT .F               128:   BHT.
 TCS .HRS               3:   Time Circ. stopped
 MRT .F               128:   Maximum recorded temp.
 LUN .            HL-6274:   Logging unit number
 LUL .           GILLETTE:   Logging unit location
 ENGI.             RAUTIO:   Recorded By
 WITN.             STRONG:   Witnessed by
 ORIG.           5" PRINT:   Origin of data
 UWI .     49025110460000:   Unique Well ID
 DICO. A2D TECHNOLOGIES, INC.:   Digitizing Company
~OTHER INFORMATION
~A   DEPT     TEND       RHOB       CORR       NPHI       TENR        GRR       RFOC       RILD       RILM           SN        ILD     TENS         DT         SPR  
# ...
 2622.5000   -56.4980     2.4330     0.0470     0.2010   -35.6430    83.8440    16.9530    26.2100    20.8300  -999.2500  -999.2500   -65.7370    76.3000    34.1060
 2623.0000   -63.1340     2.4180     0.0510     0.1990   -35.6430    78.6170    17.6720    26.3430    21.9240  -999.2500  -999.2500   -65.7370    75.6920    35.3910
 2623.5000   -54.4780     2.4000     0.0240     0.1980   -35.6430    73.2200    19.5100    25.9870    21.2720  -999.2500  -999.2500   -65.7370    75.0850    36.6970
 2624.0000   -39.7570     2.3860     0.0270     0.1980   -35.6430    67.8420    21.7230    25.6880    20.1730  -999.2500  -999.2500   -65.7370    75.1990    38.0100
 2624.5000   -25.0370     2.3980     0.0320     0.1980   -35.6430    66.6140    20.7500    25.3930    19.0740  -999.2500  -999.2500   -65.7370    75.6630    39.3180
 2625.0000   -19.7870     2.4130     0.0360     0.2000   -35.6430    70.2850    19.1200    25.1610    18.2450  -999.2500  -999.2500   -65.7370    76.3880    40.0640
 2625.5000   -28.8870     2.4290     0.0290     0.2060   -35.6430    75.2450    17.4900    24.5550    17.8810  -999.2500  -999.2500   -65.7370    76.7030    39.9200
 2626.0000   -37.9870     2.4240     0.0140     0.2140   -35.6430    78.0740    16.1920    23.6170    17.5160  -999.2500  -999.2500   -65.7370    76.3610    39.5080
 2626.5000   -47.0870     2.4160     0.0230     0.2130   -35.6430    77.6710    16.3210    22.6800    17.1520  -999.2500  -999.2500   -65.7370    75.9850    39.0900
 2627.0000   -55.9700     2.4160     0.0340     0.2090   -35.6430    77.2190    16.3420    21.7420    16.7870  -999.2500  -999.2500   -65.7370    75.6080    38.6690
 2627.5000   -48.9020     2.4200     0.0400     0.2060   -35.6430    81.6100    16.0060    20.8040    16.4720  -999.2500  -999.2500   -65.7370    75.2320    38.6440
 2628.0000   -41.9990     2.4140     0.0290     0.2070   -35.6430    85.6070    15.5580    19.8670    16.1920  -999.2500  -999.2500   -65.7370    74.9350    38.7480
 2628.5000   -35.0950     2.3990     0.0190     0.2040   -35.6430    86.8130    15.3240    18.7550    16.0790  -999.2500  -999.2500   -65.7370    75.1100    39.1980
 2629.0000   -28.1920     2.3770     0.0110     0.2000   -35.6430    84.9790    14.9130    18.8210    15.7830  -999.2500  -999.2500   -65.7370    75.6300    38.8110
 2629.5000   -21.2880     2.3600     0.0030     0.1960   -35.6430    84.2420    14.4720    18.9290    15.5080  -999.2500  -999.2500   -65.7370    76.1730    38.4710
 2630.0000   -19.1090     2.3590    -0.0050     0.1920   -35.6430    86.6790    14.0310    19.0360    15.1840  -999.2500  -999.2500   -65.7370    76.3220    38.6330
 2630.5000   -30.4840     2.3850    -0.0080     0.1880   -35.6430    87.0560    13.4750    19.1440    15.4380  -999.2500  -999.2500   -65.7370    76.0370    39.5220
 2631.0000   -41.8590     2.3960    -0.0110     0.1920   -35.6430    82.3850    14.1420    19.2520    15.8480  -999.2500  -999.2500   -65.7370    75.1330    40.4490
 2631.5000   -53.2340     2.4000    -0.0180     0.1980   -35.6430    76.0110    15.2130    19.3590    16.4920  -999.2500  -999.2500   -65.7370    74.3220    41.3720
 2632.0000   -64.6090     2.3910    -0.0150     0.2030   -35.6430    72.0240    16.2840    19.4670    16.3650  -999.2500  -999.2500   -65.7370    73.8760    42.2870
 2632.5000   -65.9200     2.3800    -0.0180     0.2080   -35.6430    70.5140    17.1090    19.5750    16.0670  -999.2500  -999.2500   -65.7370    73.8150    43.2000
 2633.0000   -68.0190     2.3750    -0.0090     0.2070   -35.6430    71.6180    15.8550    19.6360    15.7520  -999.2500  -999.2500   -65.7370    74.2930    43.7560
 2633.5000   -71.0520     2.3800     0.0000     0.2050   -35.6430    73.2450    14.8350    19.2030    15.6080  -999.2500  -999.2500   -65.7370    74.7710    43.4690
 2634.0000   -74.0860     2.3860     0.0010     0.2020   -35.6430    77.0100    13.8520    18.8510    15.5770  -999.2500  -999.2500   -65.7370    75.2490    43.1450
 2634.5000   -77.1190     2.3860    -0.0040     0.1960   -35.6430    79.8270    13.7250    18.4650    15.5390  -999.2500  -999.2500   -67.4920    75.5920    42.8100
 2635.0000   -80.1520     2.3850    -0.0110     0.1940   -35.6430    80.7870    14.1310    17.9660    15.5020  -999.2500  -999.2500   -70.2060    75.5290    42.3660
 2635.5000   -83.1860     2.3870    -0.0130     0.1920   -35.6430    80.9160    14.6140    17.4680    15.4660  -999.2500  -999.2500   -72.9190    75.3420    41.5140
 2636.0000   -85.8210     2.3920    -0.0130     0.1910   -35.6430    81.0290    15.0980    16.9690    15.1620  -999.2500  -999.2500   -75.6330    75.0910    40.6700
 2636.5000   -76.4880     2.3930    -0.0130     0.1970   -35.6430    81.2220    15.5810    16.4700    14.6900  -999.2500  -999.2500   -78.3460    74.9580    39.8270
 2637.0000   -66.4780     2.3860    -0.0130     0.2040   -35.6430    83.0860    15.7520    15.9720    14.2180  -999.2500  -999.2500   -81.0600    75.1250    38.9850
 2637.5000   -56.4680     2.3780    -0.0130     0.2100   -35.6430    82.7590    14.7910    15.4730    13.7460  -999.2500  -999.2500   -83.7730    75.4780    38.1420
 2638.0000   -46.0200     2.3730    -0.0140     0.2100   -35.6430    83.3820    14.0200    14.9740    13.2730  -999.2500  -999.2500   -95.6180    76.3820    37.2640
 2638.5000   -57.9850     2.3890    -0.0170     0.2120   -35.6430    86.2060    13.2490    14.5030    12.9890  -999.2500  -999.2500   -95.6180    77.1790    36.9720
 2639.0000   -70.4980     2.3980    -0.0210     0.2150   -35.6430    88.2220    12.4070    14.3160    13.0680  -999.2500  -999.2500   -95.1900    77.7440    36.9010
 2639.5000   -83.0100     2.4000    -0.0180     0.2190   -35.6430    87.5280    12.6140    14.0980    13.2410  -999.2500  -999.2500   -94.7240    77.7990    36.8420
 2640.0000   -95.7710     2.3980    -0.0160     0.2060   -35.6430    85.7200    12.9290    13.9800    13.4140  -999.2500  -999.2500   -94.2580    77.2530    36.7820
 2640.5000   -88.4130     2.3870    -0.0140     0.1980   -35.6430    81.4890    13.2440    14.2390    13.5870  -999.2500  -999.2500   -93.7920    76.6670    36.7210
 2641.0000   -80.9050     2.3860    -0.0090     0.2020   -35.6430    79.7790    13.5590    14.2160    13.7590  -999.2500  -999.2500   -93.3260    76.0810    36.6600
 2641.5000   -73.3980     2.3890    -0.0020     0.2040   -35.6430    75.5420    13.8750    14.1650    13.8520  -999.2500  -999.2500   -92.8600    75.4960    36.5990
 2642.0000   -65.9200     2.3980     0.0050     0.2040   -35.6430    73.7610    14.1090    14.1150    13.4870  -999.2500  -999.2500   -92.3940    75.0710    36.5380
 2642.5000   -61.5510     2.4060     0.0070     0.2060   -35.6430    74.8030    13.3830    13.9060    13.1990  -999.2500  -999.2500   -91.9270    75.4270    36.4800
 2643.0000   -57.1990     2.4210     0.0030     0.2100   -35.6430    79.8560    12.8240    13.4750    12.9890  -999.2500  -999.2500   -91.4610    75.7830    36.4140
 2643.5000   -52.8470     2.4270    -0.0030     0.2120   -35.6430    86.3970    12.7530    13.0440    12.8190  -999.2500  -999.2500   -90.9950    76.1400    35.6210
 2644.0000   -48.4940     2.4250    -0.0210     0.2060   -35.6430    90.1820    12.7530    12.9890    12.6230  -999.2500  -999.2500   -90.5290    76.4960    34.7070
 2644.5000   -46.3370     2.4190    -0.0250     0.1990   -35.6430    90.3890    12.8350    13.1720    12.5210  -999.2500  -999.2500   -90.0630    76.8520    34.0180
 2645.0000   -47.0730     2.4190    -0.0060     0.2030   -35.6430    88.9570    13.0050    13.2440    12.6190  -999.2500  -999.2500   -89.5970    77.2010    34.0970
 2645.5000   -47.8090     2.4190    -0.0020     0.2080   -35.6430    85.6370    13.1760    13.3150    12.7310  -999.2500  -999.2500   -89.1310    77.1650    34.1600
 2646.0000   -48.5450     2.4190    -0.0010     0.2120   -35.6430    82.3530    13.3520    13.4750    12.8430  -999.2500  -999.2500   -88.6650    77.1290    34.2560
 2646.5000   -49.2810     2.4160    -0.0010     0.2000   -35.6430    78.4250    13.5440    13.7020    12.9540  -999.2500  -999.2500   -88.1990    76.9730    34.9790
