~VERSION INFORMATION
 VERS.                2.0:   CWLS LOG ASCII STANDARD - VERSION 2.0
 WRAP.                 NO:   ONE LINE PER DEPTH STEP
~WELL INFORMATION
#MNEM.UNIT      DATA TYPE    INFORMATION
#----------   ------------   ------------------------------
 STRT.F          199.0000:   START DEPTH
 STOP.F         2951.0000:   STOP DEPTH
 STEP.F            0.5000:   STEP LENGTH
 NULL.          -999.2500:   NO VALUE
 COMP.    FENIX & SCISSON:   COMPANY
 WELL. FENIX & SCISSON "A" #3-21:   WELL
 FLD .              XPR-3:   FIELD
 LOC .      S21 T39N R78W:   LOCATION
 CNTY.            NATRONA:   COUNTY
 STAT.            WYOMING:   STATE
 CTRY. UNITED STATES OF AMERICA:   COUNTRY
 SRVC.              WELEX:   SERVICE COMPANY
 DATE.        27-JUN-1977:   LOGDATE
 API .     49025103880000:   API NUMBER
~CURVE INFORMATION
#MNEM.UNIT       API CODE    CURVE DESCRIPTION
#----------   ------------   ------------------------------
 DEPT.F                  :   
 CALD.IN     45 280 60 00:   CALIPER FROM DENSITY LOG
 GRD .GAPI   45 310 01 00:   GAMMA RAY FROM DENSITY LOG
 CORR.G/C3   45 356 01 00:   DENSITY CORRECTION
 RHOB.G/C3   45 350 01 00:   BULK DENSITY
 SPR .MV     07 010 01 00:   SPONTANEOUS POTENTIAL
 ILD .OHMM   07 120 46 00:   DEEP INDUCTION RESISTIVITY
 ILM .OHMM   07 120 44 00:   INDUCTION LOG MEDIUM RESISTIVITY
 SGRD.OHMM   07 220 05 00:   SHALLOW SHORT GUARD RESISTIVITY
~PARAMETER INFORMATION
#MNEM.UNIT          VALUE    DESCRIPTION
#----------   ------------   ------------------------------
 EKB .F         4981.0000:   Kelly bushing
 EGL .F         4971.0000:   Ground level
 TD  .F         2953.0000:   Total depth
 CLNT.            A2DTECH:   Client Code
 SL  . 330' FSL & 1650' FWL:   Surface Location
 DATE.        27-JUN-1977:   Date Logged [DD-MMM-YYYY]
 DD  .F              2930:   Depth driller
 DL  .F              2953:   Depth logger
 BLI .F              2951:   Bottom log interval
 TLI .F               200:   Top log interval
 CS1 .              8.625:   Casing size
 CBD1.      8.625" @ 217':   Casing driller 1
 BS1 .IN            7.875:   Bit size
 BSD1.F              2930:   Depth drilled with bit1
 DFT .            KCL MUD:   Type fluid in hole
 DFD .                9.4:   Density
 DFV .                 37:   Viscosity
 DFPH.                9.0:   pH
 DFL .               16.0:   Fluid loss
 MSS .           FLOWLINE:   Source of sample
 RMS .OHMM           1.10:   Rm
 MST .F                92:   Rm Meas. temp.
 RMF .OHMM           0.85:   Rmf
 MFST.F                92:   Rmf Meas. temp.
 MFSS.           FANN KIT:   Source Rmf.
 RMC .OHMM           1.44:   Rmc
 MCST.F                92:   Rmc Meas. temp.
 MCSS.           FANN KIT:   Source Rmc.
 RMB .OHMM           0.93:   Rm. at BHT
 BHT .F               109:   BHT.
 TCS .HRS            0230:   Time Circ. stopped
 MRT .F               109:   Maximum recorded temp.
 LUN .               8611:   Logging unit number
 LUL .             CASPER:   Logging unit location
 ENGI.         G. BENTSEN:   Recorded By
 WITN.  MR. W. PETTINGILL:   Witnessed by
 ORIG.      2.5" 5" PRINT:   Origin of data
 UWI .     49025103880000:   Unique Well ID
 DICO. A2D TECHNOLOGIES, INC.:   Digitizing Company
 PD  .                 GL:   Permanent Datum
 EPD .               4971:   Elevation Permanent Datum
 LMF .                 KB:   Log Measured From
 DMF .                 KB:   Drilling Measured From
 DAPD.                 10:   Feet Above Permanent Datum
~OTHER INFORMATION
~A   DEPT       CALD       GRD       CORR        RHOB      SPR        ILD        ILM       SGRD   
# ...
 1090.0000     9.3901    90.4644     0.0099     2.5628   -39.0240     7.9184     8.9517    11.8569
 1090.5000     9.4203    93.5573     0.0130     2.5701   -39.1553     7.9279     8.9734    11.9447
 1091.0000     9.4194    92.9350     0.0192     2.5748   -39.2781     8.0926     8.9970    12.1163
 1091.5000     9.4187    92.3127     0.0223     2.5809   -39.5530     8.1529     9.0252    12.3753
 1092.0000     9.4179    91.6904     0.0284     2.5855   -39.5321     8.1575     9.0282    12.6399
 1092.5000     9.4172    92.9257     0.0346     2.5897   -39.8077     8.1620     8.9697    11.9665
 1093.0000     9.4164    94.7802     0.0377     2.5831   -39.7862     8.1665     8.9736    11.6469
 1093.5000     9.4156    96.6347     0.0377     2.5746   -39.7382     8.1148     8.9773    11.5726
 1094.0000     9.4149    95.3932     0.0283     2.5738   -39.7496     8.0083     8.9811    11.9031
 1094.5000     9.4141    94.1517     0.0252     2.5803   -39.5755     7.9580     8.9210    11.5853
 1095.0000     9.4133    92.9102     0.0220     2.5850   -39.5546     7.9624     8.8046    11.3524
 1095.5000     9.4125    91.6687     0.0282     2.5880   -39.6869     7.9669     8.8083    11.7574
 1096.0000     9.4118    90.4272     0.0344     2.5907   -39.6608     7.9155     8.8729    12.0088
 1096.5000     9.4110    89.8049     0.0375     2.5906   -39.6399     7.8116     8.8155    12.0962
 1097.0000     9.4412    88.5635     0.0375     2.5922   -39.6190     7.7624     8.8193    11.6605
 1097.5000     9.4404    87.9412     0.0343     2.5937   -39.5981     7.8214     8.8230    11.2892
 1098.0000     9.4396    87.9381     0.0312     2.5885   -39.4292     7.8258     8.8267    11.3963
 1098.5000     9.4389    87.9350     0.0249     2.5869   -39.4083     7.8842     8.8303    11.4700
 1099.0000     9.4381    87.3127     0.0249     2.5853   -39.2395     7.8886     8.8340    11.3967
 1099.5000     9.4373    87.3096     0.0218     2.5843   -38.9227     7.8930     8.8377    11.4863
 1100.0000     9.4365    87.3065     0.0186     2.5842   -39.5002     7.8405     8.7798    12.0541
 1100.5000     9.4358    87.3034     0.0186     2.5842   -39.4763     7.8212     8.8073    11.9021
 1101.0000     9.4350    87.3003     0.0186     2.5764   -39.4571     7.7991     8.8364    11.1920
 1101.5000     9.4342    88.5356     0.0185     2.5671   -39.4380     7.8039     8.8593    11.3590
 1102.0000     9.4334    91.6285     0.0185     2.5583   -39.4188     7.7539     8.8044    11.1358
 1102.5000     9.4324    94.1022     0.0185     2.5521   -39.3997     7.6538     8.8107    10.9170
 1103.0000     9.4009    97.8142     0.0184     2.5516   -39.3805     7.5538     8.8167    10.7742
 1103.5000     9.4002   100.2879     0.0184     2.5583   -39.3614     7.5054     8.8228    10.7853
 1104.0000     9.3684    99.6656     0.0184     2.5635   -39.3422     7.4585     8.8911    11.1724
 1104.5000     9.3672    97.8050     0.0184     2.5670   -39.3231     7.4119     8.8972    11.4940
 1105.0000     9.3359    95.9443     0.0214     2.5648   -39.3039     7.4176     8.9033    11.5830
 1105.5000     9.3345    94.0836     0.0214     2.5638   -39.1369     7.4734     8.7875    11.3554
 1106.0000     9.3034    92.8421     0.0245     2.5638   -38.9698     7.4256     8.4360    10.9800
 1106.5000     9.2717    92.2198     0.0244     2.5637   -38.9506     7.3803     8.3838    10.5440
 1107.0000     9.2709    92.2167     0.0244     2.5643   -38.9315     7.3331     8.3320    10.4062
 1107.5000     9.2701    92.8328     0.0213     2.5702   -39.0603     7.3387     8.3391    10.7079
 1108.0000     9.2384    92.8297     0.0181     2.5766   -39.0411     7.2928     8.3448    10.1400
 1108.5000     9.2376    94.0650     0.0212     2.5813   -39.0219     7.3477     8.2918    10.1504
 1109.0000     9.2369    95.3003     0.0274     2.5837   -39.1507     7.3522     8.2989    10.5875
 1109.5000     9.2361    95.9164     0.0336     2.5852   -39.1316     7.3062     8.2461    11.0433
 1110.0000     9.2043    97.1517     0.0366     2.5852   -39.1124     7.3108     8.2532    10.7520
 1110.5000     9.2036    97.7678     0.0366     2.5836   -39.0932     7.2651     8.2021    10.4680
 1111.0000     9.2028    99.0031     0.0366     2.5820   -39.0739     7.2696     8.2645    10.4047
 1111.5000     9.2330    95.2848     0.0366     2.5797   -39.0548     7.2740     8.2120    10.4856
 1112.0000     9.2632    91.5666     0.0241     2.5766   -39.0355     7.2286     8.2190    10.7133
 1112.5000     9.2624    89.0867     0.0179     2.5719   -39.0163     7.1794     8.2246    10.7963
 1113.0000     9.2616    87.2260     0.0116     2.5687   -38.9970     7.1385     7.9516    10.9550
 1113.5000     9.2623    85.3653     0.0023     2.5725   -38.9778     7.0871     7.7943    11.0426
 1114.0000     9.2910    84.1238    -0.0060     2.5787   -38.9586     7.0496     7.9625     9.1107
 1114.5000     9.2903    83.5015    -0.0011     2.5901   -38.9394     7.0550     8.0785    10.3240
 1115.0000     9.2895    82.8793     0.0082     2.6048   -38.9201     7.0593     8.0840    10.2549
 1115.5000     9.2887    82.8762     0.0163     2.6157   -38.9009     7.0637     8.0895     9.9164
 1116.0000     9.2895    82.8731     0.0281     2.6219   -38.8778     7.1169     8.2641    10.1472
 1116.5000     9.3181    82.8700     0.0343     2.6168   -38.5628     7.1212     8.2128    10.5723
 1117.0000     9.3174    84.1053     0.0373     2.6136   -38.3957     7.2244     8.0505    10.8862
 1117.5000     9.3166    84.7214     0.0373     2.6101   -38.3766     7.2788     7.8912    11.5025
 1118.0000     9.3158    86.5759     0.0404     2.6054   -38.3574     7.3336     7.8966    11.0443
 1118.5000     9.3150    87.8111     0.0403     2.6011   -38.3383     7.2866     7.9021     9.9693
 1119.0000     9.3143    90.2848     0.0403     2.5965   -38.1712     7.2411     8.0172    10.5449
 1119.5000     9.3219    91.5201     0.0433     2.5918   -37.8562     7.2466     8.1341    10.8485
 1120.0000     9.3292    93.3746     0.0464     2.5871   -37.6891     7.2511     8.1997    10.9324
 1120.5000     9.3310    93.1774     0.0557     2.5819   -37.6700     7.2556     8.3153    11.5613
 1121.0000     9.3307    92.9802     0.0588     2.5752   -37.5029     7.2600     8.0816    11.1023
 1121.5000     9.3303    92.7830     0.0618     2.5664   -37.1879     7.2135     7.8724    10.0878
 1122.0000     9.3610    92.5858     0.0627     2.5586   -37.0208     7.1193     7.8130    10.6703
 1122.5000     9.3770    92.3886     0.0555     2.5473   -37.0016     6.9781     7.7295    10.1065
 1123.0000     9.4079    92.1914     0.0461     2.5176   -36.9825     6.9345     7.5258     9.0592
 1123.5000     9.4390    91.9941     0.0336     2.4901   -36.9633     6.8922     7.4793     9.7804
 1124.0000     9.4526    91.7969     0.0305     2.5008   -37.0969     6.8491     7.4318     9.9908
 1124.5000     9.4700    91.5997     0.0242     2.5092   -37.0730     6.7596     7.3858     9.3353
 1125.0000     9.5139    91.4025     0.0179     2.5072   -37.0538     6.7638     7.4432     8.8402
 1125.5000     9.5630    91.4872     0.0085     2.5038   -37.3353     6.7679     7.5516     8.4309
 1126.0000     9.6371    91.9389    -0.0040     2.5038   -37.3114     6.6337     7.7146     8.8565
 1126.5000     9.6987    92.1085    -0.0134     2.5103   -37.2922     6.5921     7.6142     9.3641
 1127.0000     9.8222    92.5458    -0.0134     2.5258   -37.2731     6.5510     7.3109     8.8102
 1127.5000     9.8640    92.5387    -0.0010     2.5398   -37.5546     6.5551     7.1651     8.5778
 1128.0000     9.6049    93.1527     0.0083     2.5529   -37.6786     6.4694     7.1712     8.6442
 1128.5000     9.5117    93.7657     0.0145     2.5565   -37.9553     6.4290     6.9811     9.0164
 1129.0000     9.4495    94.3788     0.0144     2.5515   -37.9361     6.3856     6.7960     9.2759
 1129.5000     9.4182    92.0742     0.0144     2.5453   -37.9170     6.3053     6.7528     9.0312
 1130.0000     9.3870    89.3498     0.0081     2.5406   -37.7499     6.2659     6.7110     8.9131
