~VERSION INFORMATION
 VERS.                2.0:   CWLS LOG ASCII STANDARD - VERSION 2.0
 WRAP.                 NO:   ONE LINE PER DEPTH STEP
~WELL INFORMATION
#MNEM.UNIT      DATA TYPE    INFORMATION
#----------   ------------   ------------------------------
 STRT.F          648.0000:   START DEPTH
 STOP.F         3196.0000:   STOP DEPTH
 STEP.F            0.5000:   STEP LENGTH
 NULL.          -999.2500:   NO VALUE
 COMP.    FENIX & SCISSON:   COMPANY
 WELL.   FENIX "AX" #18-2:   WELL
 FLD .             NPR #3:   FIELD
 LOC .       S2 T38N R78W:   LOCATION
 CNTY.            NATRONA:   COUNTY
 STAT.            WYOMING:   STATE
 CTRY. UNITED STATES OF AMERICA:   COUNTRY
 SRVC.              WELEX:   SERVICE COMPANY
 DATE.        05-OCT-1980:   LOGDATE
 API .     49025108500000:   API NUMBER
~CURVE INFORMATION
#MNEM.UNIT       API CODE    CURVE DESCRIPTION
#----------   ------------   ------------------------------
 DEPT.F                  :   
 GRD .GAPI   45 310 01 00:   GAMMA RAY FROM DENSITY LOG
 CALD.IN     45 280 60 00:   CALIPER FROM DENSITY LOG
 CORR.G/C3   45 356 01 00:   DENSITY CORRECTION
 RHOB.G/C3   45 350 01 00:   BULK DENSITY
 SPR .MV     07 010 01 00:   SPONTANEOUS POTENTIAL FROM RES.
 ILD .OHMM   07 120 46 00:   INDUCTION LOG DEEP RESISTIVITY
 ILM .OHMM   07 120 44 00:   INDUCTION LOG MEDIUM RESISTIVITY
 SGRD.OHMM   07 220 05 00:   SHORT GUARD RESISTIVITY
~PARAMETER INFORMATION
#MNEM.UNIT          VALUE    DESCRIPTION
#----------   ------------   ------------------------------
 EKB .F         5162.0000:   Kelly bushing
 EGL .F         5152.0000:   Ground level
 EDF .F            0.0000:   Drilling floor
 TD  .F         3200.0000:   Total depth
 CLNT.            A2DTECH:   Client Code
 PD  .                 GL:   Permanent Datum
 EPD .F              5152:   Elevation Permanent Datum
 LMF .                 KB:   Log Measured From
 DMF .                 KB:   Drilling Measured From
 DAPD.F                10:   Feet Above Permanent Datum
 DATE.        05-OCT-1980:   Date Logged [DD-MMM-YYYY]
 DD  .F              3200:   Depth driller
 DL  .F              3198:   Depth logger
 BLI .F              3196:   Bottom log interval
 TLI .F               646:   Top log interval
 CS1 .IN            8.625:   Casing size
 CBD1.      8.625" @ 647':   Casing driller 1
 CBL1.F               650:   Casing logger 1
 BS1 .IN            7.875:   Bit size
 BSD1.F              3200:   Depth drilled with bit1
 DFT .           CHEM GEL:   Type fluid in hole
 DFD .                8.6:   Density
 DFV .                 38:   Viscosity
 DFPH.                9.5:   pH
 MSS .           FLOWLINE:   Source of sample
 MFSS.               MEAS:   Source Rmf.
 MCSS.               MEAS:   Source Rmc.
 RMB .OHMM           1.24:   Rm. at BHT
 BHT .F               118:   BHT.
 TCS .HRS               5:   Time Circ. stopped
 MRT .F               118:   Maximum recorded temp.
 LUN .               1892:   Logging unit number
 LUL .             CASPER:   Logging unit location
 ORIG.           5" PRINT:   Origin of data
 UWI .     49025108500000:   Unique Well ID
 DICO. A2D TECHNOLOGIES, INC.:   Digitizing Company
 SL  . 313' FSL & 565' FWL:   Surface Location
 RMS .               2.34:   Rm
~OTHER INFORMATION
~A   DEPT       GRD      CALD       CORR       RHOB        SPR        ILD        ILM       SGRD   
# ...
 2470.5000    93.7421     8.7488     0.0974     2.5397   -38.2966     4.6734     5.7609     5.2582
 2471.0000    94.4328     8.7789     0.0840     2.5173   -38.1690     4.6432     5.9679     5.5983
 2471.5000    94.4957     8.7794     0.0585     2.4785   -38.0414     4.7100     6.0992     6.0426
 2472.0000    92.4835     8.7947     0.0418     2.4584   -37.9137     4.8770     6.2660     6.7045
 2472.5000    90.2313     8.7804     0.0302     2.4891   -37.7861     5.0848     6.3995     7.8612
 2473.0000    87.2616     8.7812     0.0288     2.5229   -37.6585     5.2651     6.4464     7.8108
 2473.5000    85.5222     8.7817     0.0305     2.5454   -37.5308     5.4518     6.5838     8.0897
 2474.0000    84.8875     8.7806     0.0352     2.5568   -37.4031     5.6147     6.6779     7.9826
 2474.5000    84.9155     8.7682     0.0413     2.5635   -37.2756     5.8459     6.7268     7.9864
 2475.0000    85.3853     8.7983     0.0445     2.5591   -37.1478     5.9294     6.7295     7.4062
 2475.5000    85.8550     8.8284     0.0431     2.5547   -37.1330     6.0141     6.6859     7.3073
 2476.0000    86.3248     8.8584     0.0373     2.5495   -37.2309     6.1000     6.5971     7.3622
 2476.5000    87.0156     8.8884     0.0299     2.5429   -37.3286     6.0599     6.5544     7.4680
 2477.0000    87.7069     8.9037     0.0239     2.5355   -37.4266     6.0630     6.5120     7.5753
 2477.5000    88.6249     8.9337     0.0241     2.5258   -37.5245     6.0654     6.4699     7.5268
 2478.0000    89.0947     8.9490     0.0303     2.5132   -37.6223     6.0262     6.5179     7.8012
 2478.5000    89.5645     8.9650     0.0395     2.5234   -37.7202     6.0287     6.5657     7.9614
 2479.0000    89.5925     8.9798     0.0487     2.5381   -37.8180     5.9896     6.6138     7.8020
 2479.5000    89.1786     9.0098     0.0534     2.5352   -37.9159     6.0341     6.5703     7.6987
 2480.0000    88.1020     9.0399     0.0475     2.5300   -38.0138     6.0365     6.5285     8.0288
 2480.5000    88.3509     9.0552     0.0431     2.5301   -38.1118     6.0389     6.4862     7.8680
 2481.0000    88.3789     9.0852     0.0387     2.5317   -38.2090     6.0413     6.4443     7.5006
 2481.5000    87.5120     9.1005     0.0374     2.5325   -38.2184     6.0855     6.4469     7.6611
 2482.0000    85.9705     9.1158     0.0345     2.5318   -38.0767     6.0880     6.4501     7.8250
 2482.5000    84.9352     9.1164     0.0332     2.5300   -37.9369     6.0905     6.5423     7.4083
 2483.0000    84.3004     9.1169     0.0318     2.5290   -37.7970     6.0930     6.6358     7.2951
 2483.5000    85.2120     9.1197     0.0320     2.5268   -37.6573     6.0959     6.6844     7.0171
 2484.0000    88.5537     9.1329     0.0337     2.5224   -37.5175     6.0984     6.8269     7.4196
 2484.5000    89.4653     9.1483     0.0383     2.5173   -37.3777     6.0590     7.0206     7.8443
 2485.0000    89.2654     9.1636     0.0445     2.5121   -37.2377     6.0614     7.0720     7.9023
 2485.5000    88.6376     9.1641     0.0462     2.5092   -37.0981     6.0638     7.0263     7.9608
 2486.0000    88.0014     9.1647     0.0433     2.5130   -36.9582     6.1082     6.9329     8.1311
 2486.5000    87.5633     9.1653     0.0404     2.5243   -36.9830     6.1529     6.8407     8.4788
 2487.0000    86.8655     9.1658     0.0391     2.5282   -37.1725     6.1980     6.7893     8.1951
 2487.5000    86.1056     9.1811     0.0377     2.5035   -37.3617     6.2434     6.7525     8.0866
 2488.0000    85.4708     9.1980     0.0363     2.5156   -37.5514     6.2029     6.8026     7.4485
 2488.5000    84.8360     9.2265     0.0395     2.5277   -37.7409     6.1211     6.8998     7.1490
 2489.0000    84.1943     9.2419     0.0412     2.5367   -37.9296     6.1236     6.9985     7.3019
 2489.5000    83.7804     9.2572     0.0429     2.5435   -38.0746     6.0834     7.0497     7.2052
 2490.0000    85.1408     9.2725     0.0445     2.5481   -38.1051     6.0864     7.1014     7.9406
 2490.5000    85.6167     9.2878     0.0446     2.5422   -38.1377     6.0889     7.1042     8.8105
 2491.0000    83.8364     9.3031     0.0448     2.5303   -38.1703     6.0930     7.1107     8.6341
 2491.5000    81.9181     9.3332     0.0450     2.5334   -38.2031     6.0938     7.1100     8.8188
 2492.0000    85.4806     9.3485     0.0466     2.5402   -38.2357     6.0968     7.0040     8.5787
 2492.5000    88.8223     9.3647     0.0483     2.5455   -38.2490     6.0158     6.5514     8.0081
 2493.0000    90.8385     9.3964     0.0515     2.5493   -38.1563     5.9763     6.2453     7.2808
 2493.5000    91.9710     9.4092     0.0576     2.5532   -38.0627     5.8975     6.0772     6.9888
 2494.0000    92.2129     9.4245     0.0608     2.5570   -37.9694     5.7792     6.0379     7.1878
 2494.5000    91.8049     9.4546     0.0610     2.5580   -37.8762     5.6244     6.1248     7.4951
 2495.0000    91.8340     9.4699     0.0581     2.5429   -37.7831     5.5116     6.1697     7.6554
 2495.5000    92.5339     9.4704     0.0613     2.5468   -37.6898     5.4010     6.2149     7.5013
 2496.0000    92.9946     9.4857     0.0765     2.5545   -37.5965     5.3627     6.2219     7.1026
 2496.5000    92.3668     9.5010     0.0872     2.5746   -37.4997     5.3314     6.1772     6.8178
 2497.0000    90.4065     9.5163     0.0979     2.5889   -37.6025     5.2969     6.0915     7.1094
 2497.5000    86.6790     9.5317     0.1131     2.6054   -37.7816     5.2996     6.0140     6.9599
 2498.0000    84.0560     9.5324     0.1208     2.6175   -37.9623     5.2648     5.9751     7.4177
 2498.5000    83.1933     9.5477     0.1256     2.6220   -38.1428     5.3038     5.9365     7.4725
 2499.0000    84.9956     9.5630     0.1271     2.6206   -38.3231     5.2695     5.8581     7.4760
 2499.5000    85.2673     9.5783     0.1243     2.6155   -38.5042     5.2355     5.8202     6.9809
 2500.0000    83.5052     9.5936     0.1184     2.6043   -38.6846     5.3361     5.8921     7.1303
 2500.5000    82.2076     9.6089     0.1125     2.5944   -38.8415     5.1591     5.8152     6.1708
 2501.0000    82.0147     9.6242     0.1082     2.5675   -38.7562     5.0907     5.7791     6.5304
 2501.5000    82.7124     9.6542     0.1053     2.5458   -38.6732     5.0945     5.8240     5.9268
 2502.0000    83.4031     9.6856     0.1117     2.5429   -38.5915     5.0976     5.8279     6.1802
 2502.5000    83.2102     9.7144     0.1281     2.5557   -38.5107     5.1360     5.7123     6.0565
 2503.0000    80.9176     9.7195     0.1418     2.5654   -38.4372     5.1391     5.3682     7.5051
 2503.5000    77.2879     9.7057     0.1555     2.5775   -38.3094     5.0587     4.9378     8.2701
 2504.0000    76.8654     9.6776     0.1661     2.5745   -38.1796     4.6083     4.4958     6.9632
 2504.5000    78.6650     9.6497     0.1768     2.5776   -38.0503     4.3334     4.3462     6.0269
 2505.0000    82.2254     9.6215     0.1860     2.5806   -37.9210     4.1316     4.2599     5.8246
 2505.5000    87.9949     9.6081     0.1921     2.5605   -37.7916     3.9392     4.2327     4.9124
 2506.0000    94.4272     9.6257     0.1892     2.4625   -37.6626     3.7818     4.2363     4.8472
 2506.5000    96.2422     9.7288     0.1557     2.4251   -37.5330     3.6306     4.2981     4.2549
 2507.0000    97.5780     9.8037     0.1367     2.4206   -37.4961     3.5096     4.3608     4.7544
 2507.5000    96.2783     9.8787     0.1187     2.4342   -37.5526     3.4636     4.3965     4.3793
 2508.0000    94.3159     9.9389     0.1007     2.4642   -37.6095     3.4693     4.4897     4.8933
 2508.5000    93.8934     9.9696     0.0918     2.4666   -37.6666     3.5654     4.5551     4.8292
 2509.0000    94.3675    10.0003     0.0814     2.4674   -37.7235     3.6673     4.6216     5.2863
 2509.5000    95.2770    10.0164     0.0709     2.4822   -37.7805     3.7722     4.6567     4.9369
 2510.0000    96.1864    10.0029     0.0650     2.4981   -37.8374     3.8801     4.7246     4.8047
 2510.5000    94.2240     9.9895     0.0621     2.4929   -37.8944     3.9637     4.7606     5.4818
