~VERSION INFORMATION
 VERS.                2.0:   CWLS LOG ASCII STANDARD - VERSION 2.0
 WRAP.                 NO:   ONE LINE PER DEPTH STEP
~WELL INFORMATION
#MNEM.UNIT      DATA TYPE    INFORMATION
#----------   ------------   ------------------------------
 STRT.F          204.5000:   START DEPTH
 STOP.F         2964.0000:   STOP DEPTH
 STEP.F            0.5000:   STEP LENGTH
 NULL.          -999.2500:   NO VALUE
 COMP.    FENIX & SCISSON:   COMPANY
 WELL. FENIX NPR 3 "AX" #14-28:   WELL
 FLD .  TEAPOT DOME NPR-3:   FIELD
 LOC .      S28 T39N R78W:   LOCATION
 CNTY.            NATRONA:   COUNTY
 STAT.            WYOMING:   STATE
 CTRY. UNITED STATES OF AMERICA:   COUNTRY
 SRVC.           BIRDWELL:   SERVICE COMPANY
 DATE.        24-MAY-1978:   LOGDATE
 API .     49025106450000:   API NUMBER
~CURVE INFORMATION
#MNEM.UNIT       API CODE    CURVE DESCRIPTION
#----------   ------------   ------------------------------
 DEPT.F                  :   
 SPR .MV     05 010 01 00:   SPONTANEOUS POTENTIAL
 CORR.G/C3   45 356 01 00:   DENSITY CORRECTION
 DEN .G/C3   45 350 01 00:   DENSITY
 CALD.IN     45 280 60 00:   CALIPER FROM DENSITY LOG
 GRD .GAPI   45 310 01 00:   GAMMA RAY FROM DENSITY LOG
 SN  .OHMM   05 040 16 00:   SHORT NORMAL 16"
 ILD .OHMM   05 120 46 00:   DEEP INDUCTION RESISTIVITY
~PARAMETER INFORMATION
#MNEM.UNIT          VALUE    DESCRIPTION
#----------   ------------   ------------------------------
 EKB .F         5042.0000:   Kelly bushing
 EGL .F         5032.0000:   Ground level
 EDF .F            0.0000:   Drilling floor
 TD  .F         2957.0000:   Total depth
 DATE.        24-MAY-1978:   Date logged
 CLNT.            A2DTECH:   Client Code
 SL  . 2410' FNL & 280' FWL:   Surface Location
 PD  .                 GL:   Permanent Datum
 EPD .F              5032:   Elevation Permanent Datum
 LMF .                 KB:   Log Measured From
 DMF .                 KB:   Drilling Measured From
 DAPD.F                10:   Feet Above Permanent Datum
 DD  .F              2950:   Depth driller
 DL  .F              2957:   Depth logger
 BLI .F              2951:   Bottom log interval
 TLI .F               225:   Top log interval
 CS1 .IN            8.625:   Casing size
 CBL1.F               225:   Casing logger 1
 BS1 .IN            7.875:   Bit size
 BSD1.F              2950:   Depth drilled with bit1
 DFT .       CHEMICAL GEL:   Type fluid in hole
 DFD .                  9:   Density
 DFV .                 34:   Viscosity
 DFPH.               10.5:   pH
 DFL .                  6:   Fluid loss
 MSS .           FLOWLINE:   Source of sample
 RMS .OHMM            1.5:   Rm
 MST .F                70:   Rm Meas. temp.
 RMF .OHMM            1.1:   Rmf
 MFST.F                78:   Rmf Meas. temp.
 RMC .OHMM            2.8:   Rmc
 MCST.F                72:   Rmc Meas. temp.
 MFSS.               MEAS:   Source Rmf.
 RMB .OHMM           0.95:   Rm. at BHT
 BHT .F               110:   BHT.
 TCS .HRS               2:   Time Circ. stopped
 MRT .F               110:   Maximum recorded temp.
 LUN .               2958:   Logging unit number
 LUL .               CASP:   Logging unit location
 ENGI.             MILLER:   Recorded By
 WITN.            RHOADES:   Witnessed by
 ORIG.           5" PRINT:   Origin of data
 UWI .     49025106450000:   Unique Well ID
 DICO. A2D TECHNOLOGIES, INC.:   Digitizing Company
~OTHER INFORMATION
~A   DEPT      SPR       CORR        DEN       CALD         GRD        SN        ILD   
# ...
 1296.5000    -3.8000     0.0460     2.5320     8.6900   107.2050     6.9760     6.6400
 1297.0000    -3.8000     0.0460     2.5360     8.6900   107.0350     6.9860     6.6440
 1297.5000    -3.8000     0.0460     2.5400     8.6900   106.8990     6.9970     6.6470
 1298.0000    -3.8000     0.0490     2.5350     8.6900   108.0500     7.0080     6.6510
 1298.5000    -3.8000     0.0560     2.5280     8.6900   110.0420     7.0140     6.6540
 1299.0000    -3.8000     0.0620     2.5230     8.6900   109.6190     7.0140     6.6580
 1299.5000    -3.8000     0.0680     2.5200     8.6900   109.1890     7.0130     6.6610
 1300.0000    -3.8000     0.0750     2.5250     8.6900   111.9160     7.0140     6.6650
 1300.5000    -3.8000     0.0810     2.5420     8.6900   114.8180     7.0140     6.6680
 1301.0000    -3.8000     0.0870     2.5420     8.6900   116.4370     7.0140     6.6720
 1301.5000    -3.8000     0.0920     2.5420     8.6900   113.8270     7.0140     6.6750
 1302.0000    -3.8000     0.0960     2.5410     8.6900   111.3950     7.0140     6.6790
 1302.5000    -3.8000     0.1010     2.5410     8.6900   108.5870     7.0140     6.6820
 1303.0000    -3.8000     0.1050     2.5410     8.6900   108.5260     7.0140     6.6860
 1303.5000    -3.8000     0.1100     2.5420     8.6900   110.1560     7.0140     6.6890
 1304.0000    -3.7980     0.1090     2.5420     8.6900   111.5500     7.0140     6.6930
 1304.5000    -3.7870     0.1080     2.5410     8.6900   112.9110     7.0140     6.6960
 1305.0000    -3.7770     0.1060     2.5390     8.6900   113.9690     7.0140     6.7000
 1305.5000    -3.7670     0.1080     2.5400     8.6900   114.8240     7.0140     6.7030
 1306.0000    -3.7570     0.1150     2.5440     8.6900   115.6410     7.0140     6.7070
 1306.5000    -3.7460     0.1150     2.5470     8.6890   116.5210     7.0140     6.7100
 1307.0000    -3.7360     0.1060     2.5510     8.6890   117.1970     7.0140     6.7140
 1307.5000    -3.7260     0.0980     2.5520     8.6880   116.0260     7.0140     6.7170
 1308.0000    -3.7160     0.0900     2.5510     8.6860   113.7950     7.0140     6.7210
 1308.5000    -3.7050     0.0850     2.5490     8.6840   111.6330     7.0140     6.7240
 1309.0000    -3.6950     0.0840     2.5500     8.6810   109.5330     7.0140     6.7280
 1309.5000    -3.6850     0.0830     2.5510     8.6790   108.8490     7.0140     6.7310
 1310.0000    -3.6750     0.0820     2.5510     8.6770   111.8130     7.0140     6.7350
 1310.5000    -3.6640     0.0800     2.5500     8.6750   114.6200     7.0140     6.7380
 1311.0000    -3.6540     0.0790     2.5410     8.6730   116.7580     7.0140     6.7420
 1311.5000    -3.6440     0.0780     2.5330     8.6710   117.7300     7.0140     6.7450
 1312.0000    -3.6340     0.0830     2.5250     8.6690   117.6180     7.0140     6.7490
 1312.5000    -3.6230     0.0880     2.5260     8.6670   115.6600     7.0140     6.7520
 1313.0000    -3.6130     0.0920     2.5310     8.6650   113.9440     7.0140     6.7560
 1313.5000    -3.6030     0.0970     2.5450     8.6630   114.2070     7.0140     6.7590
 1314.0000    -3.5930     0.0910     2.5580     8.6610   112.2520     7.0140     6.7600
 1314.5000    -3.5820     0.0810     2.5710     8.6590   106.2020     7.0140     6.7600
 1315.0000    -3.5720     0.0710     2.5800     8.6570   105.9790     7.0220     6.7600
 1315.5000    -3.5620     0.0600     2.5730     8.6550   106.0740     7.0340     6.7600
 1316.0000    -3.5520     0.0570     2.5540     8.6530   106.4050     7.0460     6.7600
 1316.5000    -3.5420     0.0700     2.5420     8.6510   106.4310     7.0590     6.7600
 1317.0000    -3.5310     0.0810     2.5470     8.6490   107.8930     7.0710     6.7600
 1317.5000    -3.5210     0.0930     2.5540     8.6470   111.0730     7.0830     6.7600
 1318.0000    -3.5110     0.1040     2.5610     8.6450   114.0890     7.0950     6.7600
 1318.5000    -3.5010     0.1130     2.5660     8.6420   115.3340     7.1070     6.7600
 1319.0000    -3.4900     0.1110     2.5610     8.6400   116.1170     7.1190     6.7600
 1319.5000    -3.4800     0.1080     2.5590     8.6380   117.4690     7.1310     6.7600
 1320.0000    -3.4700     0.1050     2.5640     8.6360   118.3520     7.1430     6.7600
 1320.5000    -3.4600     0.1030     2.5730     8.6340   115.0100     7.1430     6.7600
 1321.0000    -3.4490     0.0940     2.5740     8.6320   111.9610     7.1440     6.7600
 1321.5000    -3.4390     0.0840     2.5650     8.6300   110.5430     7.1440     6.7600
 1322.0000    -3.4290     0.0740     2.5570     8.6280   109.4930     7.1440     6.7600
 1322.5000    -3.4190     0.0670     2.5490     8.6260   108.2930     7.1440     6.7600
 1323.0000    -3.4080     0.0620     2.5410     8.6240   107.4360     7.1440     6.7600
 1323.5000    -3.4000     0.0590     2.5310     8.6220   107.5830     7.1440     6.7600
 1324.0000    -3.4000     0.0700     2.5290     8.6200   110.4400     7.1440     6.7600
 1324.5000    -3.4000     0.0800     2.5350     8.6180   114.6220     7.1440     6.7600
 1325.0000    -3.4000     0.0900     2.5410     8.6160   113.4940     7.1440     6.7600
 1325.5000    -3.4000     0.1010     2.5470     8.6140   109.6070     7.1430     6.7610
 1326.0000    -3.4000     0.1040     2.5530     8.6120   109.4410     7.1440     6.7600
 1326.5000    -3.4000     0.0970     2.5560     8.6100   111.4020     7.1440     6.7600
 1327.0000    -3.4000     0.0910     2.5550     8.6100   112.3770     7.1680     6.7610
 1327.5000    -3.4000     0.0840     2.5530     8.6120   111.1160     7.1980     6.7540
 1328.0000    -3.4000     0.0780     2.5510     8.6130   111.0410     7.2290     6.8350
 1328.5000    -3.4000     0.0710     2.5530     8.6150   111.6150     7.2600     7.0340
 1329.0000    -3.4000     0.0650     2.5560     8.6160   113.0390     7.2770     7.1450
 1329.5000    -3.4000     0.0590     2.5610     8.6180   114.7130     7.2760     7.1490
 1330.0000    -3.4000     0.0520     2.5630     8.6200   113.1090     7.2760     7.1530
 1330.5000    -3.4000     0.0490     2.5610     8.6210   109.5900     7.2760     7.1560
 1331.0000    -3.4000     0.0480     2.5590     8.6230   107.4640     7.2760     7.1600
 1331.5000    -3.4000     0.0470     2.5620     8.6250   109.9720     7.2760     7.1630
 1332.0000    -3.4000     0.0470     2.5610     8.6260   112.9500     7.2760     7.1670
 1332.5000    -3.4000     0.0510     2.5550     8.6280   113.8810     7.2760     7.1710
 1333.0000    -3.4000     0.0540     2.5590     8.6300   112.6510     7.2760     7.1740
 1333.5000    -3.4000     0.0570     2.5650     8.6310   111.8420     7.2760     7.1780
 1334.0000    -3.4000     0.0600     2.5650     8.6330   112.0780     7.2760     7.1810
 1334.5000    -3.4000     0.0630     2.5590     8.6340   112.4140     7.2760     7.1850
 1335.0000    -3.4000     0.0660     2.5630     8.6360   112.4900     7.2760     7.1890
 1335.5000    -3.4000     0.0690     2.5690     8.6380   111.9000     7.2760     7.1920
 1336.0000    -3.4000     0.0720     2.5690     8.6390   111.3570     7.2760     7.1960
 1336.5000    -3.4000     0.0740     2.5650     8.6410   109.5530     7.2760     7.2000
 1337.0000    -3.4000     0.0770     2.5610     8.6430   107.6770     7.2760     7.2030
 1337.5000    -3.4000     0.0800     2.5570     8.6440   106.2220     7.2760     7.2070
 1338.0000    -3.4000     0.0820     2.5570     8.6460   106.5290     7.2760     7.2100
 1338.5000    -3.4000     0.0790     2.5610     8.6470   106.7650     7.2760     7.2140
 1339.0000    -3.4000     0.0760     2.5640     8.6460   107.0570     7.2760     7.2180
 1339.5000    -3.4000     0.0730     2.5650     8.6070   107.3360     7.2760     7.2210
 1340.0000    -3.4000     0.0710     2.5710     8.5720   106.9490     7.2760     7.2250
 1340.5000    -3.4000     0.0660     2.5770     8.5820   106.4950     7.2760     7.2280
 1341.0000    -3.4000     0.0600     2.5720     8.5940   105.8200     7.2760     7.2320
 1341.5000    -3.3990     0.0540     2.5600     8.6080   106.9430     7.2760     7.2360
