~VERSION INFORMATION
 VERS.                2.0:   CWLS LOG ASCII STANDARD - VERSION 2.0
 WRAP.                 NO:   ONE LINE PER DEPTH STEP
~WELL INFORMATION
#MNEM.UNIT      DATA TYPE    INFORMATION
#----------   ------------   ------------------------------
 STRT.F          230.0000:   START DEPTH
 STOP.F         3480.0000:   STOP DEPTH
 STEP.F            0.5000:   STEP LENGTH
 NULL.          -999.2500:   NO VALUE
 COMP.    FENIX & SCISSON:   COMPANY
 WELL. FENIX NPR 3 "AX" #33-15:   WELL
 FLD .                NPR:   FIELD
 LOC .      S15 T38N R78W:   LOCATION
 CNTY.            NATRONA:   COUNTY
 STAT.            WYOMING:   STATE
 CTRY. UNITED STATES OF AMERICA:   COUNTRY
 SRVC.       SCHLUMBERGER:   SERVICE COMPANY
 DATE.        19-MAR-1981:   LOGDATE
 API .     49025108760000:   API NUMBER
~CURVE INFORMATION
#MNEM.UNIT       API CODE    CURVE DESCRIPTION
#----------   ------------   ------------------------------
 DEPT.F                  :   
 TENR.LBS    07 635 01 00:   TENSION
 SFL .OHMM   07 220 01 00:   SHALLOW FOCUSED LOG RESISTIVITY
 ILM .OHMM   07 120 44 00:   INDUCTION LOG MEDIUM RESISTIVITY
 ILD .OHMM   07 120 46 00:   INDUCTION LOG DEEP RESISTIVITY
 SPR .MV     07 010 01 00:   SPONTANEOUS POTENTIAL
 CALD.IN     45 280 60 00:   CALIPER FROM DENSITY LOG
 GRD .GAPI   45 310 01 00:   GAMMA RAY FROM DENSITY LOG
 CORR.G/C3   45 356 01 00:   DENSITY CORRECTION
 RHOB.G/C3   45 350 01 00:   BULK DENSITY
~PARAMETER INFORMATION
#MNEM.UNIT          VALUE    DESCRIPTION
#----------   ------------   ------------------------------
 EKB .F         5286.0000:   Kelly bushing
 EGL .F         5276.0000:   Ground level
 EDF .F            0.0000:   Drilling floor
 TD  .F         3500.0000:   Total depth
 DATE.        19-MAR-1981:   Date logged
 CLNT.            A2DTECH:   Client Code
 SL  . 1545' FNL & 1467' FWL:   Surface Location
 PD  .                 GL:   Permanent Datum
 EPD .F              5276:   Elevation Permanent Datum
 LMF .                 KB:   Log Measured From
 DMF .                 KB:   Drilling Measured From
 DAPD.F                10:   Feet Above Permanent Datum
 DD  .F              3500:   Depth driller
 DL  .F              3476:   Depth logger
 BLI .F              3470:   Bottom log interval
 TLI .F               234:   Top log interval
 CS1 .IN            8.625:   Casing size
 CBD1.      8.625" @ 250':   Casing driller 1
 CBL1.F               234:   Casing logger 1
 BS1 .IN            7.875:   Bit size
 BSD1.F              3500:   Depth drilled with bit1
 DFT .                FGM:   Type fluid in hole
 DFD .                8.9:   Density
 DFV .                 39:   Viscosity
 DFPH.                9.5:   pH
 DFL .                 10:   Fluid loss
 MSS .               TANK:   Source of sample
 RMS .OHMM           2.26:   Rm
 MST .F                54:   Rm Meas. temp.
 RMF .OHMM           1.60:   Rmf
 MFST.F                54:   Rmf Meas. temp.
 MFSS.               MEAS:   Source Rmf.
 RMB .OHMM            .87:   Rm. at BHT
 BHT .F               140:   BHT.
 TCS .HRS            1030:   Time Circ. stopped
 TLAB.HRS            1300:   Time logger at bottom
 MRT .F               140:   Maximum recorded temp.
 LUN .               8039:   Logging unit number
 LUL .               CSPR:   Logging unit location
 ENGI.           C. PFARR:   Recorded By
 WITN.           R. SCOTT:   Witnessed by
 ORIG.     2.5", 5" PRINT:   Origin of data
 UWI .     49025108760000:   Unique Well ID
 DICO. A2D TECHNOLOGIES, INC.:   Digitizing Company
~OTHER INFORMATION
~A   DEPT     TENR          SFL      ILM        ILD        SPR         CALD       GRD      CORR         RHOB 
# ...
  668.0000   819.6360     7.2170     5.8160     6.6190   -46.2360     9.4920   105.8310     0.0480     2.5030
  668.5000   820.2930     7.2170     5.9960     6.7150   -46.3310     9.4920   105.2750     0.0540     2.5140
  669.0000   820.9500     7.2170     5.9960     6.7690   -46.4220     9.4920   103.8290     0.0550     2.5210
  669.5000   821.6070     7.2640     6.0460     6.8230   -46.5190     9.4920   102.4030     0.0490     2.5150
  670.0000   822.2640     7.4560     6.0940     6.8770   -46.6110     9.4920   101.6240     0.0410     2.5010
  670.5000   822.9210     7.6470     6.1410     6.9310   -46.7060     9.4920   101.7490     0.0330     2.4870
  671.0000   823.0820     7.8390     6.1880     6.9850   -46.8030     9.4920   103.4010     0.0340     2.4880
  671.5000   822.5960     8.0300     6.2360     7.0390   -46.8870     9.4920   105.6170     0.0360     2.4900
  672.0000   822.1100     8.2170     6.2830     7.0930   -47.0010     9.4920   107.1640     0.0380     2.4870
  672.5000   821.6240     8.0030     6.3390     7.1470   -47.0330     9.4920   108.4690     0.0400     2.4940
  673.0000   821.1380     7.6900     6.3390     7.2010   -47.3900     9.4920   107.0270     0.0420     2.5050
  673.5000   820.6520     7.7080     6.3670     7.2550   -47.4150     9.4920   106.4980     0.0450     2.5170
  674.0000   820.1660     8.0770     6.4120     7.3090   -47.4270     9.4920   105.6470     0.0470     2.5170
  674.5000   819.6800     8.3710     6.4570     7.3520   -47.4140     9.4950   104.7390     0.0440     2.5100
  675.0000   819.1940     8.3400     6.5020     7.3990   -47.2790     9.4990   104.5980     0.0440     2.5050
  675.5000   818.7080     8.2630     6.5470     7.4560   -47.0970     9.5030   105.8220     0.0480     2.5050
  676.0000   818.2220     8.2170     6.5920     7.5140   -46.9160     9.5070   106.9200     0.0450     2.4980
  676.5000   817.7360     8.2860     6.6370     7.5710   -46.7380     9.5110   107.3920     0.0350     2.4880
  677.0000   817.2500     8.4030     6.6820     7.6300   -46.5570     9.5150   106.7210     0.0300     2.4850
  677.5000   816.7640     8.5200     6.7270     7.6210   -46.3800     9.5190   106.8450     0.0360     2.4990
  678.0000   816.2780     8.6370     6.7720     7.6060   -46.1940     9.5230   106.9040     0.0460     2.5240
  678.5000   815.7920     8.7530     6.8170     7.5910   -46.0230     9.5270   103.8230     0.0550     2.5550
  679.0000   815.3060     8.8700     6.8270     7.5750   -45.8550     9.5320   102.3440     0.0550     2.5560
  679.5000   814.8200     8.9870     6.8270     7.5600   -46.0570     9.5360   104.1470     0.0500     2.5480
  680.0000   814.3340     8.8920     6.8270     7.5440   -46.2770     9.5400   105.1600     0.0450     2.5360
  680.5000   813.8480     8.7320     6.8270     7.5290   -46.5140     9.5440   105.8110     0.0400     2.5260
  681.0000   813.3620     8.5720     6.8270     7.5160   -46.7350     9.5480   105.1100     0.0410     2.5240
  681.5000   812.8760     8.4110     6.7310     7.4830   -46.9630     9.5520   104.1760     0.0380     2.5120
  682.0000   812.3900     8.3710     6.6290     7.4970   -47.0320     9.5560   103.8590     0.0340     2.5000
  682.5000   811.9040     8.2890     6.5280     7.3520   -46.9730     9.5600   103.5780     0.0290     2.4920
  683.0000   811.4180     8.2020     6.4270     7.2940   -46.8620     9.5640   102.6270     0.0380     2.5090
  683.5000   810.9320     8.1150     6.3390     7.2430   -46.7600     9.5690   101.6870     0.0480     2.5260
  684.0000   810.4460     8.0290     6.2230     7.1910   -46.6560     9.5720   100.7400     0.0530     2.5280
  684.5000   809.9600     7.9420     6.1090     7.1400   -46.5500     9.5820    99.7870     0.0430     2.5070
  685.0000   809.4740     7.9180     5.9960     7.0850   -46.4500     9.5950    98.8850     0.0260     2.4890
  685.5000   808.9880     7.4780     5.8860     6.9550   -46.3410     9.6080    99.4710     0.0230     2.4830
  686.0000   808.5020     6.9990     5.6070     6.5790   -46.2210     9.6210   100.8180     0.0230     2.4930
  686.5000   808.0160     6.5210     5.3570     6.3220   -45.8450     9.6340   102.5380     0.0340     2.5040
  687.0000   807.5300     5.9960     5.1070     5.8180   -45.4210     9.6470   102.9960     0.0450     2.4960
  687.5000   807.0440     5.6200     4.8910     5.3650   -44.9980     9.6600   103.2400     0.0450     2.4790
  688.0000   806.5580     5.2030     4.5210     4.7130   -44.5730     9.6720   103.4820     0.0390     2.4540
  688.5000   806.0720     4.7870     4.1690     4.3910   -44.1430     9.7310   103.8990     0.0350     2.4300
  689.0000   805.5860     4.3700     3.8170     4.0330   -43.8550     9.8080   105.3470     0.0390     2.4250
  689.5000   805.1000     3.9890     3.4650     3.6740   -44.0290     9.8860   106.7650     0.0480     2.4170
  690.0000   804.6140     3.4940     3.1130     3.3150   -44.2240     9.9640   107.7150     0.0550     2.3730
  690.5000   804.1280     3.0380     2.7610     2.9570   -44.2130    10.0420   104.5540     0.0690     2.3300
  691.0000   803.6420     2.5830     2.4090     2.5980   -43.8220    10.1340   100.0720     0.1040     2.2290
  691.5000   803.1560     2.1270     2.0570     2.2390   -43.4550    10.2880    93.9430     0.0920     2.1110
  692.0000   802.6700     1.6090     1.7650     1.8310   -43.6280    10.4370    87.2570     0.0730     1.9990
  692.5000   802.1840     1.5790     1.7650     1.7980   -43.9400    10.5260    80.4860     0.0550     1.9040
  693.0000   801.6980     1.6390     1.9360     1.8770   -44.2360    10.1980    79.9430     0.0380     1.8490
  693.5000   801.2120     2.2130     2.1390     2.0090   -44.5230     9.9410    83.5130     0.0150     1.9900
  694.0000   800.7260     2.8850     2.5060     2.5000   -44.8190     9.7320    90.5570    -0.0010     2.1080
  694.5000   800.2400     3.5560     2.8730     2.9660   -45.1120     9.5240   106.6420     0.0500     2.1890
  695.0000   799.7540     4.2270     3.2400     3.4330   -45.4040     9.4820   108.8860     0.0600     2.3340
  695.5000   799.2680     4.8990     3.6070     3.8990   -45.6950     9.4960   110.5850     0.0630     2.4110
  696.0000   798.7820     5.5700     3.9740     4.3660   -45.9950     9.5110   109.2330     0.0520     2.4460
  696.5000   798.2960     6.2230     4.3420     4.8320   -46.2760     9.5160   108.9720     0.0740     2.5270
  697.0000   797.8100     6.1650     4.7130     5.2980   -46.6010     9.5240   109.5620     0.0850     2.5210
  697.5000   797.3240     6.1080     4.8610     5.5680   -46.6220     9.5320   110.0800     0.0630     2.5060
  698.0000   796.8380     6.0520     5.0750     5.6720   -46.6450     9.5400   109.8710     0.0560     2.4880
  698.5000   796.3520     5.9960     5.0750     5.5790   -46.4650     9.5480   109.3470     0.0420     2.4720
  699.0000   795.8660     6.2060     5.0190     5.3540   -46.0450     9.5560   108.8530     0.0350     2.4710
  699.5000   795.3800     6.4130     4.7480     5.1290   -45.6410     9.5640   109.5790     0.0380     2.4640
  700.0000   794.8940     6.5790     4.4770     4.9040   -45.2300     9.5720   110.6600     0.0520     2.4050
  700.5000   794.4080     5.5600     4.2060     4.6790   -44.8190     9.5970   111.8470     0.0540     2.3420
  701.0000   793.9220     4.5410     3.9520     4.4540   -44.4160     9.6070   111.5150     0.0540     2.2780
  701.5000   793.4360     4.3760     3.8440     4.2290   -43.9930     9.5960   110.8080     0.0530     2.2630
  702.0000   792.9500     4.1780     3.7730     4.1390   -43.8710     9.5510   110.1020     0.0520     2.2900
  702.5000   792.4640     4.2990     3.8950     4.1390   -44.0280     9.5060   109.4970     0.0470     2.3590
  703.0000   791.9780     4.5060     3.9970     4.1390   -44.1650     9.4610   110.0490     0.0410     2.3740
  703.5000   791.4920     4.7130     4.0990     4.3660   -44.3110     9.4160   110.6090     0.0360     2.3970
  704.0000   791.0060     5.0750     4.1390     4.6490   -44.4530     9.3720   111.1560     0.0340     2.4350
