~VERSION INFORMATION
 VERS.                2.0:   CWLS LOG ASCII STANDARD - VERSION 2.0
 WRAP.                 NO:   ONE LINE PER DEPTH STEP
~WELL INFORMATION
#MNEM.UNIT      DATA TYPE    INFORMATION
#----------   ------------   ------------------------------
 STRT.F           60.0000:   START DEPTH
 STOP.F         3178.0000:   STOP DEPTH
 STEP.F            0.5000:   STEP LENGTH
 NULL.          -999.2500:   NO VALUE
 COMP. LAWRENCE-ALLISON & ASSOSCIATES:   COMPANY
 WELL. LAWRENCE "AX" #46-21:   WELL
 FLD .             NPR #3:   FIELD
 LOC .      S21 T39N R78W:   LOCATION
 CNTY.            NATRONA:   COUNTY
 STAT.            WYOMING:   STATE
 CTRY. UNITED STATES OF AMERICA:   COUNTRY
 SRVC.       SCHLUMBERGER:   SERVICE COMPANY
 DATE.        03-JUN-1982:   LOGDATE
 API .     49025108890000:   API NUMBER
~CURVE INFORMATION
#MNEM.UNIT       API CODE    CURVE DESCRIPTION
#----------   ------------   ------------------------------
 DEPT.F                  :   
 TEND.LBS    45 635 01 00:   TENSION FORM DENSITY LOG
 CALD.IN     45 280 60 00:   CALIPER FROM DENSITY LOG
 CORR.G/C3   45 356 01 00:   DENSITY CORRECTION
 RHOB.G/C3   45 350 01 00:   BULK DENSITY
 NPHI.DEC    42 890 03 00:   NEUTRON POROSITY SANDSTONE
 GRR .GAPI   07 310 01 00:   GAMMA RAY FROM RESISTIVITY
 SPR .MV     07 010 01 00:   SPONTANEOUS POTENTIAL
 SFL .OHMM   07 220 01 00:   SHALLOW FOCUSED LOG RESISTIVITY
 ILD .OHMM   07 120 46 00:   DEEP INDUCTION RESISTIVITY
 ILM .OHMM   07 120 44 00:   INDUCTION LOG MEDIUM RESISTIVITY
 TENR.LBS    07 635 01 00:   TENSION FROM RESISTIVITY
~PARAMETER INFORMATION
#MNEM.UNIT          VALUE    DESCRIPTION
#----------   ------------   ------------------------------
 EKB .F         5008.0000:   Kelly bushing
 EGL .F         4998.0000:   Ground level
 EDF .F         5007.0000:   Drilling floor
 TD  .F         3230.0000:   Total depth
 CLNT.            A2DTECH:   Client Code
 SL  . 1864' FSL & 2484' FWL:   Surface Location
 PD  .                 GL:   Permanent Datum
 EPD .F              4998:   Elevation Permanent Datum
 LMF .                 KB:   Log Measured From
 DMF .                 KB:   Drilling Measured From
 DAPD.F                10:   Feet Above Permanent Datum
 DATE.        03-JUN-1982:   Date Logged [DD-MMM-YYYY]
 DD  .F              3230:   Depth driller
 DL  .F              3200:   Depth logger
 BLI .F              3190:   Bottom log interval
 TLI .F               475:   Top log interval
 CS1 .IN            9.625:   Casing size
 CBD1.      9.625" @ 465':   Casing driller 1
 CBL1.F               475:   Casing logger 1
 BS1 .IN             8.75:   Bit size
 BSD1.F              3230:   Depth drilled with bit1
 DFT .   FORM WATER / AIR:   Type fluid in hole
 TCS .HRS            1530:   Time Circ. stopped
 TLAB.HRS            1900:   Time logger at bottom
 MRT .F               135:   Maximum recorded temp.
 LUN .               8035:   Logging unit number
 LUL .               CSPR:   Logging unit location
 ENGI.              PENNY:   Recorded By
 WITN.           JENNINGS:   Witnessed by
 ORIG.      2.5" 5" PRINT:   Origin of data
 UWI .     49025108890000:   Unique Well ID
 DICO. A2D TECHNOLOGIES, INC.:   Digitizing Company
~OTHER INFORMATION
~A   DEPT     TEND       CALD       CORR       RHOB       NPHI        GRR        SPR        SFL        ILD        ILM       TENR   
# ...
  670.0000  1207.2744    10.4409     0.0241     2.4777  -999.2500   165.6364  -999.2500  -999.2500    11.0016    11.1256  1206.1089
  670.5000  1197.7527    10.5495     0.0182     2.4814  -999.2500   165.6409  -999.2500  -999.2500    11.0007    11.1247  1176.3853
  671.0000  1196.7352    10.6521     0.0054     2.4537  -999.2500   165.1905  -999.2500  -999.2500    11.0000    11.1240  1176.9696
  671.5000  1225.3588    10.6392    -0.0043     2.4380  -999.2500   165.0590  -999.2500  -999.2500    10.9992    11.1232  1177.5757
  672.0000  1224.5956    10.6410     0.0018     2.4373  -999.2500   166.3816  -999.2500  -999.2500    10.9985    11.1225  1178.1818
  672.5000  1253.2191    10.5837     0.0156     2.4532  -999.2500   169.7500  -999.2500  -999.2500    10.8449    10.9674  1187.6250
  673.0000  1267.1493    10.5263     0.0261     2.4769  -999.2500   172.0281  -999.2500  -999.2500    10.8711    10.9939  1209.6970
  673.5000  1296.2816    10.4499     0.0337     2.4856  -999.2500   172.0325  -999.2500  -999.2500    10.9963    11.1203  1224.7003
  674.0000  1295.0673    10.3525     0.0368     2.4819  -999.2500   169.3095  -999.2500  -999.2500    10.9954    11.1194  1241.2122
  674.5000  1293.9921    10.3396     0.0270     2.4617  -999.2500   167.4955  -999.2500  -999.2500    11.0693    11.1939  1241.9171
  675.0000  1292.9746    10.3419     0.0218     2.4520  -999.2500   168.4091  -999.2500  -999.2500    11.3059    11.4326  1242.4966
  675.5000  1276.9806    10.3585     0.0197     2.4506  -999.2500   168.9136  -999.2500  -999.2500    11.3051    11.4319  1212.7732
  676.0000  1274.2417    10.3604     0.0213     2.4589  -999.2500   168.6909  -999.2500  -999.2500    11.4638    11.5920  1213.3527
  676.5000  1259.7723    10.3627     0.0266     2.4680  -999.2500   165.2865  -999.2500  -999.2500    11.6246    11.7542  1213.9321
  677.0000  1258.7549    10.3645     0.0289     2.4725  -999.2500   163.5183  -999.2500  -999.2500    11.7876    11.9187  1184.2086
  677.5000  1242.8999    10.3663     0.0282     2.4711  -999.2500   162.9773  -999.2500  -999.2500    11.7868    11.9178  1184.8485
  678.0000  1241.7722    10.4126     0.0238     2.4591  -999.2500   162.9827  -999.2500  -999.2500    11.7859    11.9170  1185.4545
  678.5000  1240.7546    10.4292     0.0178     2.4509  -999.2500   162.9870  -999.2500  -999.2500    11.7368    11.8675  1155.6442
  679.0000  1239.7609    10.4762     0.0149     2.4495  -999.2500   163.9004  -999.2500  -999.2500    11.5564    11.6854  1156.3636
  679.5000  1238.7145    10.4925     0.0180     2.4504  -999.2500   168.4502  -999.2500  -999.2500    11.3788    11.5062  1156.9697
  680.0000  1237.7021    10.5092     0.0226     2.4512  -999.2500   172.5455  -999.2500  -999.2500    11.2980    11.4246  1157.6724
  680.5000  1251.5695    10.4957     0.0272     2.4520  -999.2500   174.3680  -999.2500  -999.2500    11.1402    11.2654  1158.2518
  681.0000  1250.5231    10.4537     0.0318     2.4528  -999.2500   172.7362  -999.2500  -999.2500    11.1394    11.2647  1158.8313
  681.5000  1249.4768    10.4407     0.0258     2.4536  -999.2500   170.4682  -999.2500  -999.2500    10.9839    11.1077  1159.4109
  682.0000  1248.3253    10.4426     0.0206     2.4552  -999.2500   169.3810  -999.2500  -999.2500    10.9831    11.1070  1161.0060
  682.5000  1262.5098    10.4449     0.0162     2.4538  -999.2500   168.9318  -999.2500  -999.2500    10.8297    10.9521  1190.9091
  683.0000  1267.3615    10.4467     0.0110     2.4486  -999.2500   169.3918  -999.2500  -999.2500    10.8289    10.9514  1191.5151
  683.5000  1275.1869    10.4338     0.0080     2.4374  -999.2500   170.7597  -999.2500  -999.2500    10.8282    10.9506  1192.1211
  684.0000  1274.1405    10.4203     0.0066     2.4307  -999.2500   171.6732  -999.2500  -999.2500    10.8274    10.9498  1192.7273
  684.5000  1273.0942    10.4078     0.0097     2.4330  -999.2500   172.1320  -999.2500  -999.2500    10.8267    10.9491  1193.3333
  685.0000  1270.0551    10.4117     0.0158     2.4353  -999.2500   171.2273  -999.2500  -999.2500    10.8258    10.9482  1194.0601
  685.5000  1256.0537    10.4416     0.0112     2.4339  -999.2500   171.6864  -999.2500  -999.2500    10.8251    10.9474  1224.9426
  686.0000  1254.8785    10.4582     0.0047     2.4332  -999.2500   172.1454  -999.2500  -999.2500    10.8243    10.9467  1225.5222
  686.5000  1253.9611    10.4601     0.0100     2.4363  -999.2500   171.1501  -999.2500  -999.2500    10.6732    10.7942  1226.1017
  687.0000  1237.9672    10.4767     0.0154     2.4461  -999.2500   165.6087  -999.2500  -999.2500    10.6724    10.7934  1226.6812
  687.5000  1236.8784    10.4785     0.0169     2.4514  -999.2500   161.4774  -999.2500  -999.2500    10.6717    10.7927  1227.2727
  688.0000  1250.8220    10.4956     0.0027     2.4395  -999.2500   160.8909  -999.2500  -999.2500    10.6710    10.7919  1227.8788
  688.5000  1249.7758    10.4975    -0.0018     2.4343  -999.2500   163.0779  -999.2500  -999.2500    10.6702    10.7912  1228.4849
  689.0000  1248.7294    10.5141     0.0059     2.4403  -999.2500   163.9913  -999.2500  -999.2500    10.8199    10.9422  1229.0909
  689.5000  1247.6830    10.5160     0.0180     2.4652  -999.2500   163.9957  -999.2500  -999.2500    10.8191    10.9414  1229.6970
  690.0000  1246.4841    10.5326     0.0241     2.4705  -999.2500   164.9091  -999.2500  -999.2500    10.8182    10.9405  1230.3030
  690.5000  1230.5190    10.5351     0.0287     2.4668  -999.2500   168.6863  -999.2500  -999.2500    10.8175    10.9398  1231.0275
  691.0000  1229.5015    10.6107     0.0318     2.4639  -999.2500   171.3727  -999.2500  -999.2500    10.8168    10.9391  1201.2122
  691.5000  1228.4840    10.7013     0.0349     2.4655  -999.2500   171.7403  -999.2500  -999.2500    10.9685    11.0922  1201.8833
  692.0000  1227.4664    10.7327     0.0388     2.4708  -999.2500   169.8365  -999.2500  -999.2500    10.9678    11.0915  1202.4628
  692.5000  1226.4490    10.7193     0.0426     2.4716  -999.2500   167.8864  -999.2500  -999.2500    10.9670    11.0907  1172.7394
  693.0000  1240.9554    10.7364     0.0389     2.4642  -999.2500   169.4827  -999.2500  -999.2500    10.9662    11.0899  1203.6364
  693.5000  1269.2570    10.6916     0.0352     2.4582  -999.2500   173.1234  -999.2500  -999.2500    10.8130    10.9353  1204.2423
  694.0000  1283.1871    10.6074     0.0307     2.4583  -999.2500   175.4004  -999.2500  -999.2500    10.8123    10.9346  1204.8484
  694.5000  1297.1173    10.5501     0.0292     2.4765  -999.2500   175.8593  -999.2500  -999.2500    10.8115    10.9338  1205.4546
  695.0000  1295.8455    10.5224     0.0331     2.4825  -999.2500   173.1364  -999.2500  -999.2500    10.6604    10.7813  1236.3636
  695.5000  1294.9177    10.4946     0.0234     2.4668  -999.2500   168.4137  -999.2500  -999.2500    10.6597    10.7805  1236.9697
  696.0000  1288.1934    10.4669     0.0084     2.4451  -999.2500   164.9632  -999.2500  -999.2500    10.5108    10.6303  1237.6917
  696.5000  1270.8765    10.4391     0.0010     2.4474  -999.2500   168.1047  -999.2500  -999.2500    10.5101    10.6296  1238.2711
  697.0000  1261.8800    10.4415     0.0176     2.4647  -999.2500   169.7000  -999.2500  -999.2500    10.5094    10.6289  1238.8507
  697.5000  1245.8895    10.4433     0.0297     2.4871  -999.2500   169.9773  -999.2500  -999.2500    10.5086    10.6281  1239.4302
  698.0000  1229.6952    10.4451     0.0449     2.4949  -999.2500   169.5281  -999.2500  -999.2500    10.5079    10.6274  1209.7065
  698.5000  1213.7300    10.4470     0.0254     2.4882  -999.2500   167.2597  -999.2500  -999.2500    10.5072    10.6267  1208.5387
  699.0000  1212.7126    10.4488     0.0119     2.4590  -999.2500   164.5368  -999.2500  -999.2500    10.5064    10.6259  1180.5626
  699.5000  1211.6951    10.4359     0.0022     2.4440  -999.2500   162.2684  -999.2500  -999.2500    10.5057    10.6252  1181.2122
  700.0000  1210.6716    10.3938     0.0075     2.4389  -999.2500   161.8182  -999.2500  -999.2500    10.5049    10.6243  1181.7494
