~VERSION INFORMATION
 VERS.                2.0:   CWLS LOG ASCII STANDARD - VERSION 2.0
 WRAP.                 NO:   ONE LINE PER DEPTH STEP
~WELL INFORMATION
#MNEM.UNIT      DATA TYPE    INFORMATION
#----------   ------------   ------------------------------
 STRT.F           48.0000:   START DEPTH
 STOP.F         3235.5000:   STOP DEPTH
 STEP.F            0.5000:   STEP LENGTH
 NULL.          -999.2500:   NO VALUE
 COMP.    TESORO PEROLEUM:   COMPANY
 WELL. TESORO P46 T 28 N.P.R. #3-28:   WELL
 FLD .        TEAPOT DOME:   FIELD
 LOC .      S28 T39N R78W:   LOCATION
 CNTY.            NATRONA:   COUNTY
 STAT.            WYOMING:   STATE
 CTRY. UNITED STATES OF AMERICA:   COUNTRY
 SRVC.      DRESSER ATLAS:   SERVICE COMPANY
 DATE.        17-SEP-1975:   LOGDATE
 API .     49025102530000:   API NUMBER
~CURVE INFORMATION
#MNEM.UNIT       API CODE    CURVE DESCRIPTION
#----------   ------------   ------------------------------
 DEPT.F                  :   
 CALD.IN     45 280 60 00:   CALIPER FROM DENSITY LOG
 RHOB.G/C3   45 350 01 00:   BULK DENSITY
 CORR.G/C3   45 356 01 00:   DENSITY CORRECTION
 TEND.LBS    45 635 01 00:   TENSION FORM DENSITY LOG
 NPHI.DEC    42 890 03 00:   NEUTRON POROSITY SANDSTONE
 SPR .MV     07 010 01 00:   SPONTANEOUS POTENTIAL
 ILD .OHMM   07 120 46 00:   DEEP INDUCTION RESISTIVITY
 ILM .OHMM   07 120 44 00:   INDUCTION LOG MEDIUM RESISTIVITY
 SFL .OHMM   07 220 01 00:   SHALLOW FOCUSED LOG RESISTIVITY
 GRD .GAPI   45 310 01 00:   GAMMA RAY FROM DENSITY LOG
~PARAMETER INFORMATION
#MNEM.UNIT          VALUE    DESCRIPTION
#----------   ------------   ------------------------------
 EKB .F         5088.0000:   Kelly bushing
 EGL .F         5075.0000:   Ground level
 TD  .F         3218.0000:   Total depth
 CLNT.            A2DTECH:   Client Code
 SL  . 2310' FWL & 1650' FSL:   Surface Location
 PD  .                 GL:   Permanent Datum
 EPD .F              5075:   Elevation Permanent Datum
 LMF .                 KB:   Log Measured From
 DMF .                 KB:   Drilling Measured From
 DAPD.F                13:   Feet Above Permanent Datum
 DATE.        17-SEP-1975:   Date Logged [DD-MMM-YYYY]
 DD  .F              3218:   Depth driller
 DL  .F              3217:   Depth logger
 BLI .F              3215:   Bottom log interval
 TLI .F               395:   Top log interval
 CS1 .IN            8.625:   Casing size
 CBD1.      8.625" @ 393':   Casing driller 1
 CBL1.F               395:   Casing logger 1
 BS1 .IN            7.875:   Bit size
 BSD1.F              3218:   Depth drilled with bit1
 DFT .           CHEM GEL:   Type fluid in hole
 DFD .                9.5:   Density
 DFV .                 60:   Viscosity
 DFPH.                9.5:   pH
 DFL .                 11:   Fluid loss
 MSS .           FLOWLINE:   Source of sample
 RMS .OHMM           0.55:   Rm
 MST .F                60:   Rm Meas. temp.
 RMF .OHMM           0.48:   Rmf
 MFST.F                62:   Rmf Meas. temp.
 MFSS.               MEAS:   Source Rmf.
 RMC .OHMM            1.6:   Rmc
 MCST.F                62:   Rmc Meas. temp.
 MCSS.               MEAS:   Source Rmc.
 RMB .OHMM            0.3:   Rm. at BHT
 BHT .F               112:   BHT.
 TCS .HRS               5:   Time Circ. stopped
 MRT .F               112:   Maximum recorded temp.
 LUN .               6008:   Logging unit number
 LUL .              GLTTE:   Logging unit location
 ENGI.            MILHOAN:   Recorded By
 WITN.               WOLF:   Witnessed by
 ORIG.           5" PRINT:   Origin of data
 UWI .     49025102530000:   Unique Well ID
 DICO. A2DTECHNOLOGIES,INC.:   Digitizing Company
~OTHER INFORMATION
~A   DEPT     CALD       RHOB       CORR       TEND       NPHI         SPR         ILD        ILM        SFL      GRD   
# ...
 2024.5000     8.5775     2.5296     0.0104  2206.6465     0.2897   -28.2789     8.0227     8.3808     7.8600    74.8203
 2025.0000     8.5788     2.5320     0.0106  2205.3403     0.2923   -28.2731     7.9126     8.2099     7.6471    75.3233
 2025.5000     8.5799     2.5336     0.0107  2204.1689     0.2914   -28.2673     7.8039     7.9868     7.3370    74.1472
 2026.0000     8.5811     2.5344     0.0109  2202.9978     0.2920   -28.5605     7.6968     7.7697     7.2383    71.2160
 2026.5000     8.5975     2.5337     0.0110  2201.8127     0.2926   -28.7021     7.5911     7.5584     7.5555    68.2025
 2027.0000     8.5985     2.5293     0.0111  2200.6042     0.2944   -28.9939     7.5917     7.4561     7.9408    67.2663
 2027.5000     8.5997     2.5233     0.0112  2199.1907     0.2955   -29.2882     7.4874     7.3551     8.1018    66.5641
 2028.0000     8.6009     2.5159     0.0099  2198.0195     0.2922   -29.5953     7.4880     7.3572     7.3526    68.0325
 2028.5000     8.6022     2.5107     0.0085  2227.3523     0.2948   -29.7206     7.3852     7.2574     7.2027    69.2551
 2029.0000     8.6033     2.5115     0.0071  2256.0996     0.2960   -29.4157     7.3565     7.2598     7.7803    69.9980
 2029.5000     8.6045     2.5147     0.0057  2254.9282     0.2996   -29.1123     7.2842     7.1610     7.9471    69.7814
 2030.0000     8.6057     2.5200     0.0059  2268.8821     0.3017   -28.8088     7.1842     7.0640     7.6789    69.3249
 2030.5000     8.6071     2.5238     0.0063  2282.7969     0.3008   -28.8030     6.8915     6.9683     8.0100    69.1083
 2031.0000     8.6083     2.5269     0.0077  2296.7317     0.2989   -28.4996     6.6107     6.8738     7.9023    69.1374
 2031.5000     8.6243     2.5232     0.0078  2310.6660     0.2989   -28.1962     6.4175     6.6411     7.5826    67.9613
 2032.0000     8.6256     2.5180     0.0079  2309.2017     0.3007   -28.0416     5.9990     6.3272     6.7855    65.8257
 2032.5000     8.6118     2.5135     0.0096  2308.0303     0.2997   -27.8869     5.7147     6.2414     6.1574    63.4501
 2033.0000     8.6129     2.5114     0.0097  2306.9487     0.2991   -27.8810     5.5971     6.2436     6.3776    61.0746
 2033.5000     8.6141     2.5116     0.0098  2305.7402     0.3000   -27.8739     5.5203     6.2453     6.4255    61.0979
 2034.0000     8.6153     2.5183     0.0100  2304.5317     0.3018   -27.8690     5.5207     6.2036     6.3835    63.0656
 2034.5000     8.6165     2.5244     0.0101  2303.3235     0.3072   -27.8623     5.7561     6.0772     6.3353    65.4681
 2035.0000     8.6179     2.5297     0.0072  2301.8804     0.3041   -27.8565     5.9599     6.1640     6.1699    67.4104
 2035.5000     8.6190     2.5336     0.0058  2300.9065     0.3044   -27.8507     6.1749     6.3396     6.3912    66.4741
 2036.0000     8.6202     2.5351     0.0060  2299.5378     0.2998   -27.8449     6.5533     6.6116     7.0989    64.8182
 2036.5000     8.6061     2.5352     0.0046  2298.3665     0.2965   -28.1369     6.8496     6.8967     8.2207    64.1219
 2037.0000     8.6075     2.5353     0.0040  2291.9465     0.2932   -28.1309     6.7088     6.8839     8.6341    64.6249
 2037.5000     8.6087     2.5354     0.0034  2296.0728     0.2904   -28.4227     6.4354     6.5260     7.9457    64.6482
 2038.0000     8.6101     2.5324     0.0036  2294.8640     0.2901   -28.2667     5.9211     6.1744     7.3113    63.9424
 2038.5000     8.5960     2.5302     0.0037  2293.6558     0.2925   -28.2609     5.5242     5.6815     6.7157    62.9772
 2039.0000     8.5975     2.5379     0.0023  2292.4470     0.2943   -28.4053     5.3732     5.1556     6.2781    61.8394
 2039.5000     8.5833     2.5424     0.0024  2291.0454     0.3033   -28.3981     5.0831     4.9462     5.8580    62.3483
 2040.0000     8.5848     2.5403     0.0019  2289.8740     0.3066   -28.3923     5.0483     4.8789     5.3903    64.7703
 2040.5000     8.5859     2.5313     0.0012  2288.8218     0.3134   -28.5367     5.0839     4.9489     5.0291    66.2329
 2041.0000     8.5871     2.5101     0.0013  2287.5315     0.3170   -28.3807     5.1913     5.0196     5.3200    67.6954
 2041.5000     8.5883     2.5014    -0.0001  2286.4048     0.3152   -28.3749     5.3379     5.1315     5.9914    68.9181
 2042.0000     8.5895     2.5075     0.0031  2285.1965     0.3164   -28.3690     5.4886     5.3101     6.4712    70.1475
 2042.5000     8.5909     2.5166     0.0033  2283.9878     0.3091   -28.1969     5.5272     5.4235     7.1472    70.6447
 2043.0000     8.5920     2.5204     0.0049  2282.5532     0.3076   -27.9096     5.4893     5.5010     6.6602    70.4330
 2043.5000     8.5932     2.5129     0.0035  2281.3818     0.3007   -27.7560     5.5665     5.5409     5.7160    70.4563
 2044.0000     8.5943     2.5047     0.0006  2280.2102     0.3024   -27.6004     5.6448     5.6201     5.6387    71.1992
 2044.5000     8.5955     2.4958    -0.0022  2279.0388     0.3000   -27.5946     5.7641     5.7802     6.3953    71.9421
 2045.0000     8.5967     2.4959    -0.0005  2277.9458     0.3015   -27.5888     6.0099     6.0282     6.3093    71.9654
 2045.5000     8.5979     2.4960     0.0056  2276.7371     0.3033   -27.7318     6.2660     6.4199     6.0475    72.2285
 2046.0000     8.5993     2.5066     0.0102  2275.5249     0.2975   -27.7262     6.5331     6.6597     6.3144    72.2586
 2046.5000     8.6003     2.5300     0.0134  2274.3206     0.2969   -27.8690     6.7645     6.9341     6.8002    73.3010
 2047.0000     8.6165     2.5240     0.0135  2272.8892     0.2947   -28.0120     6.9074     7.1317     8.0095    74.9428
 2047.5000     8.6178     2.5211     0.0122  2271.9033     0.2938   -28.3038     7.0045     7.1835     8.6510    76.1655
 2048.0000     8.6189     2.5264     0.0093  2270.6948     0.2950   -28.2965     7.0049     7.1854     8.8372    76.9084
 2048.5000     8.6201     2.5325     0.0079  2269.4863     0.2941   -28.5898     7.0054     7.1873     8.3616    73.3335
 2049.0000     8.6063     2.5311     0.0080  2268.2036     0.2950   -28.5826     7.0059     7.1893     7.3790    72.1574
 2049.5000     8.6077     2.5387     0.0082  2267.0696     0.2955   -28.5767     6.9097     7.1414     6.8852    71.9400
 2050.0000     8.6089     2.5493     0.0083  2265.8608     0.2952   -28.7212     6.8148     7.0446     6.6060    72.9235
 2050.5000     8.6084     2.5396     0.0084  2264.6528     0.2925   -28.8642     6.7213     6.8480     6.6088    69.7996
 2051.0000     8.6070     2.5525     0.0086  2263.2253     0.2858   -28.8570     6.6290     6.6669     6.7048    68.6581
 2051.5000     8.6057     2.5623     0.0087  2262.0542     0.2816   -28.8512     6.6296     6.6692     6.6610    67.7218
 2052.0000     8.6043     2.5692     0.0088  2249.8328     0.2830   -28.5476     6.7228     6.7644     6.7103    64.1229
 2052.5000     8.6030     2.5678     0.0090  2235.4478     0.2845   -28.5405     6.8173     6.9572     6.9996    66.3052
 2053.0000     8.6016     2.5634     0.0091  2221.0627     0.2863   -28.5347     7.0098     7.1058     7.4038    65.6043
 2053.5000     8.6003     2.5590     0.0093  2206.6780     0.2900   -28.5289     7.1084     7.2576     7.6161    64.8987
 2054.0000     8.5990     2.5568     0.0094  2190.7407     0.2895   -28.3743     7.1089     7.2596     7.3058    64.9221
 2054.5000     8.5976     2.5651     0.0096  2188.9587     0.2895   -28.2197     7.1094     7.2616     7.0599    63.9808
 2055.0000     8.5963     2.5577     0.0098  2187.1777     0.2888   -28.2292     7.2094     7.2636     7.1129    63.0405
 2055.5000     8.5949     2.5518     0.0099  2185.3958     0.2879   -28.0758     7.3107     7.3167     7.0766    63.3717
 2056.0000     8.5936     2.5473     0.0101  2183.6147     0.2876   -28.0714     7.3622     7.4730     7.1310    65.2415
 2056.5000     8.5922     2.5459     0.0102  2181.8328     0.2899   -28.0661     7.4138     7.4751     7.5438    65.5001
 2057.0000     8.5909     2.5521     0.0104  2180.0518     0.2962   -28.0617     7.2970     7.3879     8.2060    67.4379
 2057.5000     8.5895     2.5567     0.0106  2193.3757     0.2950   -28.0574     7.2495     7.3380     8.3257    68.1716
