~VERSION INFORMATION
 VERS.                2.0:   CWLS LOG ASCII STANDARD - VERSION 2.0
 WRAP.                 NO:   ONE LINE PER DEPTH STEP
~WELL INFORMATION
#MNEM.UNIT      DATA TYPE    INFORMATION
#----------   ------------   ------------------------------
 STRT.F          330.0000:   START DEPTH
 STOP.F         2880.0000:   STOP DEPTH
 STEP.F            0.5000:   STEP LENGTH
 NULL.          -999.2500:   NO VALUE
 COMP.   TESORO PETROLEUM:   COMPANY
 WELL. TESORO NPR "AX" #3-21:   WELL
 FLD .        TEAPOT DOME:   FIELD
 LOC .      S21 T39N R78W:   LOCATION
 CNTY.            NATRONA:   COUNTY
 STAT.            WYOMING:   STATE
 CTRY. UNITED STATES OF AMERICA:   COUNTRY
 SRVC.       SCHLUMBERGER:   SERVICE COMPANY
 DATE.        17-AUG-1972:   LOGDATE
 API .     49025102150000:   API NUMBER
~CURVE INFORMATION
#MNEM.UNIT       API CODE    CURVE DESCRIPTION
#----------   ------------   ------------------------------
 DEPT.F                  :   
 GRD .GAPI   45 310 01 00:   GAMMA RAY FROM DENSITY LOG
 CALD.IN     45 280 60 00:   CALIPER FROM DENSITY LOG
 CORR.G/C3   45 356 01 00:   DENSITY CORRECTION
 RHOB.G/C3   45 350 01 00:   BULK DENSITY
 SPR .MV     05 010 01 00:   SPONTANEOUS POTENTIAL FROM RES.
 ILD .OHMM   05 120 46 00:   INDUCTION LOG DEEP
 ASN .OHMM   05 041 16 00:   AMPLIFIED SHORT NORMAL 16"
~PARAMETER INFORMATION
#MNEM.UNIT          VALUE    DESCRIPTION
#----------   ------------   ------------------------------
 EKB .F         4985.0000:   Kelly bushing
 EGL .F         4975.0000:   Ground level
 EDF .F            0.0000:   Drilling floor
 EPD .F         4975.0000:   Permanent datum
 TD  .F         2880.0000:   Total depth
 CLNT.            A2DTECH:   Client Code
 DATE.        17-AUG-1972:   Date Logged [DD-MMM-YYYY]
 DD  .F              2875:   Depth driller
 DL  .F              2880:   Depth logger
 BLI .F              2879:   Bottom log interval
 TLI .F               330:   Top log interval
 CS1 .              10.75:   Casing size
 CBD1.       10.75" @ 327:   Casing driller 1
 CBL1.IN              330:   Casing logger 1
 BS1 .IN                9:   Bit size
 BSD1.F              2875:   Depth drilled with bit1
 DFT .           CHEM-GEL:   Type fluid in hole
 DFD .                9.3:   Density
 DFV .                 61:   Viscosity
 DFPH.                9.0:   pH
 DFL .                 66:   Fluid loss
 MSS .           FLOWLINE:   Source of sample
 RMS .OHMM           1.86:   Rm
 MST .F                76:   Rm Meas. temp.
 RMF .OHMM           1.58:   Rmf
 MFST.F                76:   Rmf Meas. temp.
 MFSS.               MEAS:   Source Rmf.
 RMB .OHMM           1.25:   Rm. at BHT
 BHT .F               113:   BHT.
 TCS .HRS               3:   Time Circ. stopped
 MRT .F               113:   Maximum recorded temp.
 LUN .               7037:   Logging unit number
 LUL .               CSPR:   Logging unit location
 ENGI.              GOLAS:   Recorded By
 WITN.                MAY:   Witnessed by
 ORIG.      1" 2.5" PRINT:   Origin of data
 UWI .     49025102150000:   Unique Well ID
 DICO. A2D TECHNOLOGIES, INC.:   Digitizing Company
~OTHER INFORMATION
~A   DEPT      GRD       CALD       CORR       RHOB        SPR          ILD        ASN 
# ...
 1922.5000   102.6191     9.4329     0.1067     2.4887   -18.1347     7.9554    10.0170
 1923.0000   101.7648     9.4400     0.0789     2.4733   -18.1455     7.9537    10.0167
 1923.5000   100.9400     9.4640     0.0466     2.4487   -18.1564     7.9041    10.0164
 1924.0000   104.5477     9.4642     0.0296     2.4256   -18.1692     7.6420    10.0161
 1924.5000   106.4921     9.4643     0.0343     2.4356   -17.8684     7.4272    10.0157
 1925.0000   105.4232     9.4645     0.0729     2.4634   -17.8810     7.2660     9.9535
 1925.5000   105.1211     9.4646     0.1038     2.5666   -17.5821     6.9503     9.7675
 1926.0000   107.9911     9.4648     0.1764     2.5567   -17.5928     6.8642     9.5195
 1926.5000   110.8133     9.4649     0.1190     2.4889   -17.6035     6.7083     9.3644
 1927.0000   112.7738     9.4516     0.0718     2.4095   -17.6142     6.5525     9.2712
 1927.5000   109.7661     9.4200     0.0073     2.3761   -17.6249     6.3966     9.1161
 1928.0000   102.9111     9.3728    -0.0025     2.3908   -17.6356     6.2405     8.9919
 1928.5000    92.5181     9.4199     0.0108     2.4131   -17.6463     6.0846     8.8988
 1929.0000    90.4015     9.4995     0.0180     2.4268   -17.6570     6.0831     8.7737
 1929.5000    91.7943     9.5054     0.0255     2.4454   -17.6677     6.0816     8.6444
 1930.0000    94.5704     9.3611     0.0470     2.4586   -17.9880     6.2344     8.4551
 1930.5000    96.8849     9.4662     0.0735     2.4751   -17.9987     6.2329     8.2616
 1931.0000   100.1224     9.3738     0.1089     2.4754   -18.0094     6.2314     8.0817
 1931.5000    97.8216     9.2814     0.1179     2.4849   -18.0202     6.2298     8.0301
 1932.0000    94.1361     9.4358     0.0618     2.4369   -18.0432     6.2283     8.1684
 1932.5000    92.7583    10.4545     0.0425     2.4248   -18.3514     6.0725     8.2771
 1933.0000    92.3035    11.3806     0.0380     2.4340   -18.3622     5.7623     8.3078
 1933.5000    90.9257    11.3939     0.0074     2.4263   -18.3730     5.6065     8.1195
 1934.0000    89.5479    11.1031    -0.0026     2.4294   -18.3839     5.4507     7.6985
 1934.5000    88.6316    10.3316     0.0058     2.4326   -18.3947     5.2822     7.3266
 1935.0000    89.1000     9.7762     0.0027     2.4264   -18.0949     4.9846     7.0743
 1935.5000    89.0455     9.5912    -0.0065     2.3972   -18.1068     4.8053     6.8370
 1936.0000    89.3612    10.5482    -0.0076     2.4173   -17.8067     4.6729     6.6638
 1936.5000    97.7061    10.7042     0.0013     2.4358   -17.8189     4.6713     6.5546
 1937.0000   102.5119    10.6102    -0.0002     2.4497   -17.8297     4.8637     6.5588
 1937.5000   101.5194    10.4560    -0.0033     2.4590   -17.8406     5.0219     6.7569
 1938.0000   100.5877     9.4644     0.0045     2.4729   -17.8514     5.3344     7.0352
 1938.5000   100.0100     9.3143     0.0153     2.4883   -17.8622     5.4370     7.4374
 1939.0000    98.0169     9.3145     0.0092     2.4662   -17.8731     5.3739     7.7467
 1939.5000    92.3009     9.3455    -0.0047     2.4445   -17.8839     5.2127     7.9012
 1940.0000    89.6296     9.3457     0.0004     2.4538   -17.8947     5.0514     7.9938
 1940.5000    95.4385     9.3458     0.0031     2.4638   -17.9056     4.8902     7.8387
 1941.0000   100.0758     9.3518    -0.0092     2.4438   -17.9164     4.6574     7.2811
 1941.5000   101.8514     9.3770     0.0037     2.4665   -17.9273     4.4133     6.4449
 1942.0000   102.3353     9.3771     0.0212     2.4747   -17.6285     4.1911     6.1040
 1942.5000   104.4346     9.3773     0.0156     2.4641   -17.6415     4.1895     5.9180
 1943.0000   102.7494     9.3774     0.0055     2.4579   -17.6521     4.0337     5.8867
 1943.5000    97.2025     9.3875     0.0018     2.4891   -17.6628     4.0322     6.0171
 1944.0000    98.9183     9.4086     0.0034     2.4973   -17.6735     4.1850     6.3294
 1944.5000   102.6174     9.4088     0.0013     2.4776   -17.6842     4.1835     6.5394
 1945.0000   104.0088     9.4089     0.0033     2.4688   -17.6949     4.3364     6.6285
 1945.5000   105.4003     9.4091     0.0081     2.4649   -17.7056     4.3348     6.6224
 1946.0000   108.6378     9.4092     0.0113     2.4636   -17.4056     4.4877     6.5901
 1946.5000   111.8754     9.4094     0.0129     2.4716   -17.4174     4.6405     6.5656
 1947.0000   113.7284     9.4096     0.0129     2.4643   -17.4281     4.7932     6.5743
 1947.5000   112.3506     9.4098     0.0145     2.4546   -17.1292     4.9460     6.7082
 1948.0000   110.9728     9.3790     0.0114     2.4644   -17.1399     5.1029     6.9387
 1948.5000   110.0565     9.3792     0.0022     2.4583   -16.8410     5.4154     7.1519
 1949.0000   109.1402     9.3794    -0.0008     2.4460   -16.8517     5.5736     7.6923
 1949.5000   107.7624     9.3795    -0.0054     2.4645   -16.8624     5.8860     8.2723
 1950.0000   101.3077     9.3797    -0.0074     2.4630   -16.8731     6.1730     8.5913
 1950.5000    98.0527     9.4107    -0.0054     2.4554   -16.8839     6.1713     8.6043
 1951.0000    96.6447     9.4108    -0.0038     2.4908   -16.8948     6.0154     8.4604
 1951.5000    94.7748     9.4110     0.0132     2.5047   -16.9055     5.8596     8.2033
 1952.0000    92.9048     9.4111     0.0256     2.5125   -16.9164     5.6564     8.0482
 1952.5000    93.2655     9.4113     0.0272     2.5171   -16.9272     5.5478     7.9551
 1953.0000    95.9955     9.4114     0.0257     2.5046   -16.9381     5.7009     7.9238
 1953.5000    96.7400     9.4116     0.0352     2.4937   -16.9489     5.9169     7.9854
 1954.0000    92.9323     9.4117     0.0152     2.4861   -17.0258     6.0751     8.2018
 1954.5000    92.4622     9.4119     0.0008     2.4814   -17.2802     6.1590     8.3873
 1955.0000    92.1450     9.4120    -0.0057     2.4770   -17.2910     6.1574     8.5108
 1955.5000    93.0761     9.4122    -0.0081     2.4720   -17.3019     6.3102     8.7272
 1956.0000    92.8986     9.4123     0.0010     2.4804   -17.3127     6.4629     8.6960
 1956.5000    91.9669     9.4125     0.0064     2.4992   -17.4308     6.7698     8.5718
 1957.0000    91.6816     9.4127     0.0098     2.5036   -17.6440     6.7683     8.6334
 1957.5000    94.4884     9.4128     0.0068     2.4942   -17.6548     6.9211     9.0379
 1958.0000    96.5877     9.4130     0.0047     2.4837   -17.6657     6.7652     9.1920
 1958.5000    97.5331     9.4131     0.0184     2.4905   -17.6764     6.4551     9.1161
 1959.0000   101.4337     9.4133     0.0114     2.5022   -17.6873     6.1449     8.8638
 1959.5000   103.2866     9.4081     0.0044     2.4784   -17.5413     5.6804     8.4723
 1960.0000   104.6407     9.3827    -0.0046     2.4706   -17.2342     5.5246     7.9690
 1960.5000   107.4197     9.3829    -0.0061     2.4654   -17.1006     5.2144     7.5732
 1961.0000   111.4410     9.3830    -0.0015     2.4833   -16.9299     4.9043     7.2186
 1961.5000   112.2923     9.3832     0.0078     2.5001   -16.8127     4.9028     6.8995
 1962.0000   112.7467     9.3524     0.0187     2.5086   -16.5140     4.7469     6.7728
 1962.5000   110.5067     9.3526     0.0236     2.4771   -16.5266     4.7454     6.8460
 1963.0000   115.0823     9.3527     0.0080     2.4643   -16.8468     4.7438     6.9340
 1963.5000   114.2853     9.3220     0.0060     2.4736   -17.1671     4.7423     7.0918
 1964.0000   111.6616     9.3222     0.0204     2.4850   -17.1778     4.7408     7.4464
 1964.5000   109.9625     9.3223     0.0127     2.4678   -17.4981     4.7672     7.5903
 1965.0000   114.9875     9.3225     0.0066     2.4570   -17.5088     4.8921     7.2910
 1965.5000   120.9976     9.3226     0.0239     2.4730   -17.5195     4.8904     7.1240
 1966.0000   123.5694     9.3229     0.0486     2.5028   -17.5302     4.8889     7.0489
 1966.5000   118.1727     9.3230     0.0408     2.4812   -17.5409     5.0419     7.0176
 1967.0000   114.5995     9.3232     0.0200     2.4582   -17.5516     5.1947     7.0173
 1967.5000   114.1561     9.3233     0.0121     2.4397   -17.5623     5.3475     7.1408
