~VERSION INFORMATION
 VERS.                2.0:   CWLS LOG ASCII STANDARD - VERSION 2.0
 WRAP.                 NO:   ONE LINE PER DEPTH STEP
~WELL INFORMATION
#MNEM.UNIT      DATA TYPE    INFORMATION
#----------   ------------   ------------------------------
 STRT.F          466.5000:   START DEPTH
 STOP.F         3184.0000:   STOP DEPTH
 STEP.F            0.5000:   STEP LENGTH
 NULL.          -999.2500:   NO VALUE
 COMP. LAWRENCE ALLISON AND ASSOCIATES:   COMPANY
 WELL. LAWRENCE 66 "X" #3-28:   WELL
 FLD .              N P R:   FIELD
 LOC .      S28 T39N R78W:   LOCATION
 CNTY.            NATRONA:   COUNTY
 STAT.            WYOMING:   STATE
 CTRY. UNITED STATES OF AMERICA:   COUNTRY
 SRVC.      DRESSER ATLAS:   SERVICE COMPANY
 DATE.        16-APR-1986:   LOGDATE
 API .     49025111340000:   API NUMBER
~CURVE INFORMATION
#MNEM.UNIT       API CODE    CURVE DESCRIPTION
#----------   ------------   ------------------------------
 DEPT.F                  :   
 RHOB.G/C3   45 350 01 00:   BULK DENSITY
 CORR.G/C3   45 356 01 00:   DENSITY CORRECTION
 TEND.LBS    45 635 01 00:   TENSION FROM DENSITY LOG
 NPHI.DEC    42 890 03 00:   NEUTRON POROSITY SANDSTONE
 DT  .US/F   60 520 00 00:   DELTA TIME
 TENS.LBS    51 635 01 00:   TENSION
 CALR.IN     07 280 01 00:   CALIPER FROM RESISTIVITY
 SPR .MV     07 010 01 00:   SPONTANEOUS POTENTIAL
 TENR.LBS    07 635 01 00:   TENSION FROM RESISTIVITY
 RFOC.OHMM   07 220 04 00:   RESISTIVITY FOCUSED LOG RES.
 GRR .GAPI   07 310 01 00:   GAMMA RAY FROM RESISTIVITY
 RILD.OHMM   07 120 46 00:   DEEP INDUCTION RESISTIVITY
 RILM.OHMM   07 120 44 00:   INDUCTION LOG MEDIUM RESISTIVITY
~PARAMETER INFORMATION
#MNEM.UNIT          VALUE    DESCRIPTION
#----------   ------------   ------------------------------
 EKB .F         5071.0000:   Kelly bushing
 EGL .F         5059.0000:   Ground level
 TD  .F         3176.0000:   Total depth
 DATE.        16-APR-1986:   Date logged
 CLNT.            A2DTECH:   Client Code
 SL  . 1685' FEL & 1915'FSL:   Surface Location
 PD  .                 GL:   Permanent Datum
 EPD .F              5059:   Elevation Permanent Datum
 LMF .                 KB:   Log Measured From
 DD  .F              3176:   Depth driller
 DL  .F              3176:   Depth logger
 BLI .F              3174:   Bottom log interval
 TLI .F               480:   Top log interval
 CS1 .IN            8.625:   Casing size
 BS1 .IN            7.875:   Bit size
 DFT .        POLYMER KCL:   Type fluid in hole
 DFD .                  9:   Density
 DFV .                 40:   Viscosity
 DFPH.                8.5:   pH
 DFL .               10.2:   Fluid loss
 MSS .           FLOWLINE:   Source of sample
 RMS .OHMM           .226:   Rm
 MST .F                65:   Rm Meas. temp.
 RMF .OHMM           .169:   Rmf
 MFST.F                65:   Rmf Meas. temp.
 RMC .OHMM           .283:   Rmc
 MCST.F                65:   Rmc Meas. temp.
 MFSS.               CALC:   Source Rmf.
 MCSS.               CALC:   Source Rmc.
 RMB .OHMM           .118:   Rm. at BHT
 BHT .F               125:   BHT.
 TCS .HRS               5:   Time Circ. stopped
 MRT .F               125:   Maximum recorded temp.
 LUN .               6264:   Logging unit number
 LUL .           GILLETTE:   Logging unit location
 ENGI.             MILLER:   Recorded By
 WITN.             STRONG:   Witnessed by
 ORIG.           5" PRINT:   Origin of data
 UWI .     49025111340000:   Unique Well ID
 DICO. A2D TECHNOLOGIES, INC.:   Digitizing Company
 DMF .                 KB:   Drilling Measured From
 DAPD.F                12:   Feet Above Permanent Datum
 CBD1.      8.625" @ 475':   Casing driller 1
 CBL1.F               480:   Casing logger 1
 BSD1.F              3176:   Depth drilled with bit1
~OTHER INFORMATION
~A   DEPT     RHOB       CORR       TEND       NPHI         DT       TENS       CALR        SPR       TENR       RFOC         GRR      RILD       RILM   
# ...
  492.5000  -999.2500  -999.2500  -999.2500  -999.2500  -999.2500  -999.2500    10.7970   -16.7780   -59.2500     7.0310    86.6530     9.5840     9.4090
  493.0000  -999.2500  -999.2500  -999.2500  -999.2500  -999.2500  -999.2500    10.7930   -16.5210   -42.3750     7.3210    86.1850     9.8060     9.6270
  493.5000  -999.2500  -999.2500  -999.2500  -999.2500  -999.2500  -999.2500    10.7910   -16.2610   -33.8120     7.4990    86.9650     9.8270     9.6480
  494.0000  -999.2500  -999.2500  -999.2500  -999.2500  -999.2500  -999.2500    10.8170   -16.0210   -25.0000     7.4660    87.1620     9.8490     9.6690
  494.5000  -999.2500  -999.2500  -999.2500  -999.2500  -999.2500  -999.2500    10.8460   -15.7770   -55.6920     7.4310    88.1880     9.8700     9.6900
  495.0000  -999.2500  -999.2500  -999.2500  -999.2500  -999.2500  -999.2500    10.8750   -15.5330   -87.3080     7.4600    89.9230     9.8860     9.7060
  495.5000  -999.2500  -999.2500  -999.2500  -999.2500  -999.2500  -999.2500    10.9040   -15.3230  -106.5080     7.4990    89.4570     9.7810     9.6690
  496.0000  -999.2500  -999.2500  -999.2500  -999.2500  -999.2500  -999.2500    10.9300   -14.6420  -109.9330     7.4700    87.7900     9.6940     9.6380
  496.5000  -999.2500  -999.2500  -999.2500  -999.2500  -999.2500  -999.2500    10.9410   -13.8730  -113.3580     7.4260    87.9030     9.6170     9.6200
  497.0000  -999.2500  -999.2500  -999.2500  -999.2500  -999.2500  -999.2500    10.9510   -13.0980  -115.0000     7.3630    92.7660     9.7880     9.7290
  497.5000  -999.2500  -999.2500  -999.2500  -999.2500  -999.2500  -999.2500    10.9620   -11.7520  -112.5000     7.4410    93.6150     9.9430     9.8160
  498.0000  -999.2500  -999.2500  -999.2500  -999.2500  -999.2500  -999.2500    10.9720   -10.1930   -96.6920     7.5840    93.4720    10.0700     9.8860
  498.5000  -999.2500  -999.2500  -999.2500  -999.2500  -999.2500  -999.2500    10.9790    -8.7460   -80.8850     7.7280    95.1280    10.0020     9.8200
  499.0000  -999.2500  -999.2500  -999.2500  -999.2500  -999.2500  -999.2500    10.9870   -10.0550   -65.0770     7.8040    95.3620     9.9450     9.7640
  499.5000  -999.2500  -999.2500  -999.2500  -999.2500  -999.2500  -999.2500    10.9950   -14.9780   -49.2690     7.8530    93.6250     9.8880     9.7080
  500.0000  -999.2500  -999.2500  -999.2500  -999.2500  -999.2500  -999.2500    11.0020   -19.7500   -35.0000     7.8250    89.2030     9.8310     9.6520
  500.5000  -999.2500  -999.2500  -999.2500  -999.2500  -999.2500  -999.2500    11.0100   -22.8990   -51.3560     7.7830    86.3120     9.7740     9.5960
  501.0000  -999.2500  -999.2500  -999.2500  -999.2500  -999.2500  -999.2500    11.0180   -23.8270   -66.2620     7.7420    88.3330     9.7060     9.5290
  501.5000  -999.2500  -999.2500  -999.2500  -999.2500  -999.2500  -999.2500    11.0260   -24.4250   -66.6920     7.6700    91.3020     9.7960     9.6170
  502.0000  -999.2500  -999.2500  -999.2500  -999.2500  -999.2500  -999.2500    11.0390   -25.0150   -46.6150     7.4920    91.6650     9.6170     9.1840
  502.5000  -999.2500  -999.2500  -999.2500  -999.2500  -999.2500  -999.2500    11.0600   -25.5330   -25.0000     7.3140    87.3860     9.6860     9.2840
  503.0000  -999.2500  -999.2500  -999.2500  -999.2500  -999.2500  -999.2500    11.0810   -26.0240   -27.0960     7.0960    85.8000     9.7870     9.3630
  503.5000  -999.2500  -999.2500  -999.2500  -999.2500  -999.2500  -999.2500    11.1210   -26.5190   -29.3650     7.3440    89.4040     9.8860     9.4410
  504.0000  -999.2500  -999.2500  -999.2500  -999.2500  -999.2500  -999.2500    11.1690   -26.7810   -31.6350     7.7100    90.6920     9.2990     9.0040
  504.5000  -999.2500  -999.2500  -999.2500  -999.2500  -999.2500  -999.2500    11.1870   -26.9120   -33.9040     7.6400    87.9000     8.7710     8.6110
  505.0000  -999.2500  -999.2500  -999.2500  -999.2500  -999.2500  -999.2500    11.2060   -27.0460   -27.0590     7.4960    85.2550     8.6900     8.5320
  505.5000  -999.2500  -999.2500  -999.2500  -999.2500  -999.2500  -999.2500    11.2090   -26.7190   -11.7060     7.2720    88.0040     8.7860     8.6250
  506.0000  -999.2500  -999.2500  -999.2500  -999.2500  -999.2500  -999.2500    11.2070   -26.0470     3.6470     7.0800    92.3550     8.8710     8.6900
  506.5000  -999.2500  -999.2500  -999.2500  -999.2500  -999.2500  -999.2500    11.2050   -25.3830    15.0000     7.0050    93.8750     8.9440     8.6110
  507.0000  -999.2500  -999.2500  -999.2500  -999.2500  -999.2500  -999.2500    11.2030   -24.9400   -13.6250     6.9670    90.6510     8.9850     8.6540
  507.5000  -999.2500  -999.2500  -999.2500  -999.2500  -999.2500  -999.2500    11.2000   -22.6620   -50.7500     7.0950    87.5040     9.0260     8.7180
  508.0000  -999.2500  -999.2500  -999.2500  -999.2500  -999.2500  -999.2500    11.1980   -19.6000   -96.4250     7.1800    86.7420     9.0660     8.7820
  508.5000  -999.2500  -999.2500  -999.2500  -999.2500  -999.2500  -999.2500    11.1960   -16.5120   -95.0000     7.2660    87.6180     9.1070     8.8460
  509.0000  -999.2500  -999.2500  -999.2500  -999.2500  -999.2500  -999.2500    11.1940   -13.9440   -84.0800     7.3310    88.5410     9.1480     8.9100
  509.5000  -999.2500  -999.2500  -999.2500  -999.2500  -999.2500  -999.2500    11.1920   -13.9840   -73.6400     7.3860    87.4120     9.1880     8.9740
  510.0000  -999.2500  -999.2500  -999.2500  -999.2500  -999.2500  -999.2500    11.1900   -15.4530   -63.2000     7.4310    84.2460     9.2290     9.0370
  510.5000  -999.2500  -999.2500  -999.2500  -999.2500  -999.2500  -999.2500    11.1900   -17.5450   -54.2000     7.4310    82.3660     9.2690     9.1000
  511.0000  -999.2500  -999.2500  -999.2500  -999.2500  -999.2500  -999.2500    11.1900   -19.6360   -50.4710     7.4310    83.6590     9.2690     9.1000
  511.5000  -999.2500  -999.2500  -999.2500  -999.2500  -999.2500  -999.2500    11.1900   -21.7380   -46.7430     7.4310    86.0250     9.2690     9.1000
  512.0000  -999.2500  -999.2500  -999.2500  -999.2500  -999.2500  -999.2500    11.1900   -23.8290   -52.4130     7.2850    88.4010     9.2690     9.1000
  512.5000  -999.2500  -999.2500  -999.2500  -999.2500  -999.2500  -999.2500    11.1900   -24.3680   -66.3330     7.0960    89.7090     9.2690     9.1000
  513.0000  -999.2500  -999.2500  -999.2500  -999.2500  -999.2500  -999.2500    11.1900   -24.8230   -80.2530     7.2200    90.2680     9.3220     9.1510
  513.5000  -999.2500  -999.2500  -999.2500  -999.2500  -999.2500  -999.2500    11.1900   -25.3470   -69.1230     7.3720    90.8040     9.4070     9.2350
  514.0000  -999.2500  -999.2500  -999.2500  -999.2500  -999.2500  -999.2500    11.1900   -25.6820   -45.0310     7.5240    94.8080     9.4920     9.3190
  514.5000  -999.2500  -999.2500  -999.2500  -999.2500  -999.2500  -999.2500    11.1880   -25.9460   -25.0000     7.7100    97.1340     9.5780     9.4030
  515.0000  -999.2500  -999.2500  -999.2500  -999.2500  -999.2500  -999.2500    11.1820   -26.2760   -53.7000     7.6990    95.7630     9.6630     9.4870
  515.5000  -999.2500  -999.2500  -999.2500  -999.2500  -999.2500  -999.2500    11.1760   -26.7170   -90.2400     7.6850    93.6720     9.7480     9.5700
  516.0000  -999.2500  -999.2500  -999.2500  -999.2500  -999.2500  -999.2500    11.1630   -27.1560   -85.2710     7.6720    91.4860     9.8340     9.6540
  516.5000  -999.2500  -999.2500  -999.2500  -999.2500  -999.2500  -999.2500    11.0980   -27.6050   -74.0860     7.6580    91.7110     9.9190     9.7380
  517.0000  -999.2500  -999.2500  -999.2500  -999.2500  -999.2500  -999.2500    11.0600   -27.9000   -69.9000     7.6390    92.6890    10.0040     9.8220
  517.5000  -999.2500  -999.2500  -999.2500  -999.2500  -999.2500  -999.2500    11.0410   -28.1550   -95.0000     7.6600    93.6850    10.0700     9.8860
  518.0000  -999.2500  -999.2500  -999.2500  -999.2500  -999.2500  -999.2500    11.0230   -27.9800   -84.8380     7.6950    94.3470    10.0700     9.8860
