~VERSION INFORMATION
 VERS.                2.0:   CWLS LOG ASCII STANDARD - VERSION 2.0
 WRAP.                 NO:   ONE LINE PER DEPTH STEP
~WELL INFORMATION
#MNEM.UNIT      DATA TYPE    INFORMATION
#----------   ------------   ------------------------------
 STRT.F            4.0000:   START DEPTH
 STOP.F         3266.0000:   STOP DEPTH
 STEP.F            0.5000:   STEP LENGTH
 NULL.          -999.2500:   NO VALUE
 COMP. LAWRENCE ALLISON & ASSOSCIATES:   COMPANY
 WELL. LAWRENCE "X" #27-11:   WELL
 FLD .          N.P.R. #3:   FIELD
 LOC .      S11 T38N R78W:   LOCATION
 CNTY.            NATRONA:   COUNTY
 STAT.            WYOMING:   STATE
 CTRY. UNITED STATES OF AMERICA:   COUNTRY
 SRVC.      DRESSER ATLAS:   SERVICE COMPANY
 DATE.        22-AUG-1986:   LOGDATE
 API .     49025111070000:   API NUMBER
~CURVE INFORMATION
#MNEM.UNIT       API CODE    CURVE DESCRIPTION
#----------   ------------   ------------------------------
 DEPT.F                  :   
 SPR .MV     07 010 01 00:   SPONTANEOUS POTENTIAL
 TENR.LBS    06 635 01 00:   TENSION FROM RESISTIVITY
 GRR .GAPI   07 310 01 00:   GAMMA RAY FROM RESISTIVITY
 RILD.OHMM   07 120 46 00:   DEEP INDUCTION RESISTIVITY
 RILM.OHMM   07 120 44 00:   INDUCTION LOG MEDIUM RESISTIVITY
 RFOC.OHMM   07 220 04 00:   RESISTIVITY FOCUSED LOG RES.
 NPHI.DEC    42 890 03 00:   NEUTRON POROSITY SANDSTONE
 CALD.IN     45 280 60 00:   CALIPER FROM DENSITY LOG
 RHOB.G/C3   45 350 01 00:   BULK DENSITY
 CORR.G/C3   45 356 01 00:   DENSITY CORRECTION
 TEND.LBS    45 635 01 00:   TENSION FORM DENSITY LOG
~PARAMETER INFORMATION
#MNEM.UNIT          VALUE    DESCRIPTION
#----------   ------------   ------------------------------
 EKB .F         5206.0000:   Kelly bushing
 EGL .F         5194.0000:   Ground level
 EDF .F         5205.0000:   Drilling floor
 EPD .F         5194.0000:   Permanent datum
 TD  .F         3250.0000:   Total depth
 CLNT.            A2DTECH:   Client Code
 SL  . 1197' FSL & 1088' FWL:   Surface Location
 PD  .                 GL:   Permanent Datum
 DAPD.F                12:   Feet Above Permanent Datum
 DATE.        22-AUG-1986:   Date Logged [DD-MMM-YYYY]
 DD  .F              3250:   Depth driller
 DL  .F              3246:   Depth logger
 BLI .F              3243:   Bottom log interval
 TLI .F               683:   Top log interval
 CS1 .IN            8.625:   Casing size
 CBD1.      8.625" @ 672':   Casing driller 1
 CBL1.F               673:   Casing logger 1
 BS1 .IN            7.875:   Bit size
 BSD1.F              3250:   Depth drilled with bit1
 DFT .            KCL-GEL:   Type fluid in hole
 DFD .                8.9:   Density
 DFV .                 35:   Viscosity
 MSS .               TANK:   Source of sample
 RMS .OHMM           0.31:   Rm
 MST .F                70:   Rm Meas. temp.
 RMF .OHMM           0.29:   Rmf
 MFST.F                67:   Rmf Meas. temp.
 MFSS.               CALC:   Source Rmf.
 RMC .OHMM           0.46:   Rmc
 MCST.F                70:   Rmc Meas. temp.
 MCSS.               CALC:   Source Rmc.
 RMB .OHMM           0.16:   Rm. at BHT
 BHT .F               136:   BHT.
 TCS .HRS               4:   Time Circ. stopped
 MRT .F               136:   Maximum recorded temp.
 LUN .            HL-6426:   Logging unit number
 LUL .          RK. SPGS.:   Logging unit location
 ENGI.               RALL:   Recorded By
 WITN.             STRONG:   Witnessed by
 ORIG.           5" PRINT:   Origin of data
 UWI .     49025111070000:   Unique Well ID
 DICO. A2D TECHNOLOGIES, INC.:   Digitizing Company
~OTHER INFORMATION
~A    DEPT     SPR       TENR         GRR      RILD       RILM       RFOC       NPHI       CALD       RHOB       CORR       TEND   
# ...
 1529.0000   -70.1930   -96.6338   115.5464     7.7318     8.0629     8.9367  -999.2500  -999.2500  -999.2500  -999.2500  -999.2500
 1529.5000   -70.6757   -96.7074   111.5565     7.7318     8.0666     8.9403  -999.2500  -999.2500  -999.2500  -999.2500  -999.2500
 1530.0000   -71.1647   -96.7810   109.7199     7.6780     8.0696     8.9439  -999.2500  -999.2500  -999.2500  -999.2500  -999.2500
 1530.5000   -71.6541   -96.8546   108.2861     7.6780     7.9600     8.9476  -999.2500  -999.2500  -999.2500  -999.2500  -999.2500
 1531.0000   -72.1572   -96.9282   106.9932     7.6780     7.9065     8.8267  -999.2500  -999.2500  -999.2500  -999.2500  -999.2500
 1531.5000   -72.5136   -97.0018   108.3877     7.6245     7.7998     8.7686  -999.2500  -999.2500  -999.2500  -999.2500  -999.2500
 1532.0000   -72.8404   -97.0755   111.0238     7.6245     7.7480     8.6510  -999.2500  -999.2500  -999.2500  -999.2500  -999.2500
 1532.5000   -73.1654   -97.1491   111.1663     7.5714     7.7510     8.6545  -999.2500  -999.2500  -999.2500  -999.2500  -999.2500
 1533.0000   -73.4917   -97.2227   107.9178     7.5187     7.8643     8.5376  -999.2500  -999.2500  -999.2500  -999.2500  -999.2500
 1533.5000   -73.8262   -97.2963   107.8649     7.5187     7.9227     8.3635  -999.2500  -999.2500  -999.2500  -999.2500  -999.2500
 1534.0000   -73.8917   -97.3700   110.5744     7.4664     7.9257     8.3720  -999.2500  -999.2500  -999.2500  -999.2500  -999.2500
 1534.5000   -73.8897   -97.4434   113.7658     7.4664     7.9286     8.5489  -999.2500  -999.2500  -999.2500  -999.2500  -999.2500
 1535.0000   -73.7282   -97.5025   114.0400     7.4664     7.8753     8.6730  -999.2500  -999.2500  -999.2500  -999.2500  -999.2500
 1535.5000   -73.3060   -97.5025   112.2907     7.5187     7.7147     8.7989  -999.2500  -999.2500  -999.2500  -999.2500  -999.2500
 1536.0000   -72.8898   -97.5025   111.4920     7.4664     7.6635     8.6800  -999.2500  -999.2500  -999.2500  -999.2500  -999.2500
 1536.5000   -72.4619   -97.5025   113.0340     7.4448     7.6671     8.5030  -999.2500  -999.2500  -999.2500  -999.2500  -999.2500
 1537.0000   -71.7128   -97.5025   113.2281     7.4144     7.6155     8.4470  -999.2500  -999.2500  -999.2500  -999.2500  -999.2500
 1537.5000   -70.9610   -97.5025   109.5368     7.4144     7.6191     8.5698  -999.2500  -999.2500  -999.2500  -999.2500  -999.2500
 1538.0000   -70.2724   -97.5025   105.7776     7.4144     7.6757     8.7561  -999.2500  -999.2500  -999.2500  -999.2500  -999.2500
 1538.5000   -70.2581   -97.5025   108.3701     7.4144     7.7327     8.6985  -999.2500  -999.2500  -999.2500  -999.2500  -999.2500
 1539.0000   -70.2614   -97.5025   113.0805     7.4144     7.7622     8.5211  -999.2500  -999.2500  -999.2500  -999.2500  -999.2500
 1539.5000   -70.2619   -97.5025   114.4196     7.4144     7.8480     8.5844  -999.2500  -999.2500  -999.2500  -999.2500  -999.2500
 1540.0000   -70.2615   -97.5025   111.8773     7.4664     7.7966     8.6483  -999.2500  -999.2500  -999.2500  -999.2500  -999.2500
 1540.5000   -70.2535   -97.5025   108.5660     7.5187     7.7442     8.8355  -999.2500  -999.2500  -999.2500  -999.2500  -999.2500
 1541.0000   -70.6612   -97.5025   106.7359     7.5714     7.7478     8.4658  -999.2500  -999.2500  -999.2500  -999.2500  -999.2500
 1541.5000   -71.2302   -97.5025   107.4342     7.6245     7.7507     8.2453  -999.2500  -999.2500  -999.2500  -999.2500  -999.2500
 1542.0000   -71.8750   -97.5025   109.7386     7.6245     7.8633     8.3650  -999.2500  -999.2500  -999.2500  -999.2500  -999.2500
 1542.5000   -72.3239   -97.5025   113.0112     7.6245     7.9217     8.6062  -999.2500  -999.2500  -999.2500  -999.2500  -999.2500
 1543.0000   -72.7342   -97.5025   115.1607     7.6780     7.9806     8.8543  -999.2500  -999.2500  -999.2500  -999.2500  -999.2500
 1543.5000   -72.9154   -97.5025   115.5805     7.6780     7.9842     9.1096  -999.2500  -999.2500  -999.2500  -999.2500  -999.2500
 1544.0000   -73.1060   -97.5025   114.2475     7.6780     7.9872     9.1773  -999.2500  -999.2500  -999.2500  -999.2500  -999.2500
 1544.5000   -73.3039   -97.5025   111.4946     7.6780     7.9902     8.8651  -999.2500  -999.2500  -999.2500  -999.2500  -999.2500
 1545.0000   -73.5017   -97.5025   109.1794     7.6245     7.9365     8.6245  -999.2500  -999.2500  -999.2500  -999.2500  -999.2500
 1545.5000   -73.7018   -97.5025   108.6909     7.6245     7.8845     8.5071  -999.2500  -999.2500  -999.2500  -999.2500  -999.2500
 1546.0000   -73.8739   -97.5025   108.2453     7.6245     7.8323     8.5713  -999.2500  -999.2500  -999.2500  -999.2500  -999.2500
 1546.5000   -73.5105   -97.5025   109.5301     7.6245     7.7804     8.6350  -999.2500  -999.2500  -999.2500  -999.2500  -999.2500
 1547.0000   -73.1301   -97.5025   114.0850     7.5714     7.7840     8.6992  -999.2500  -999.2500  -999.2500  -999.2500  -999.2500
 1547.5000   -72.7525   -97.5025   118.2833     7.5714     7.7324     8.7696  -999.2500  -999.2500  -999.2500  -999.2500  -999.2500
 1548.0000   -72.3743   -97.5025   117.2604     7.5562     7.7353     8.8300  -999.2500  -999.2500  -999.2500  -999.2500  -999.2500
 1548.5000   -71.9997   -97.5025   111.8173     7.5187     7.7382     8.8957  -999.2500  -999.2500  -999.2500  -999.2500  -999.2500
 1549.0000   -71.4960   -97.5025   106.1134     7.5505     7.7411     8.8363  -999.2500  -999.2500  -999.2500  -999.2500  -999.2500
 1549.5000   -70.9473   -97.5025   103.8386     7.6245     7.7440     8.8407  -999.2500  -999.2500  -999.2500  -999.2500  -999.2500
 1550.0000   -70.6926   -97.5025   105.4619     7.6245     7.7469     8.7824  -999.2500  -999.2500  -999.2500  -999.2500  -999.2500
 1550.5000   -70.2531   -97.5025   107.1482     7.6245     7.8051     8.7560  -999.2500  -999.2500  -999.2500  -999.2500  -999.2500
 1551.0000   -70.2514   -97.5025   106.6179     7.6780     7.8076     8.6674  -999.2500  -999.2500  -999.2500  -999.2500  -999.2500
 1551.5000   -69.8280   -97.5025   104.5039     7.7318     7.8109     8.6104  -999.2500  -999.2500  -999.2500  -999.2500  -999.2500
 1552.0000   -69.8541   -97.5025   101.0444     7.7861     7.8138     8.6754  -999.2500  -999.2500  -999.2500  -999.2500  -999.2500
 1552.5000   -70.0584   -97.5025   101.1070     7.7861     7.8718     8.8013  -999.2500  -999.2500  -999.2500  -999.2500  -999.2500
 1553.0000   -70.5571   -97.5025   106.3179     7.7861     7.8748     8.8668  -999.2500  -999.2500  -999.2500  -999.2500  -999.2500
 1553.5000   -71.0697   -97.5025   109.2393     7.8407     7.9340     8.9327  -999.2500  -999.2500  -999.2500  -999.2500  -999.2500
 1554.0000   -71.5784   -97.5025   108.6903     7.8407     7.9929     8.9363  -999.2500  -999.2500  -999.2500  -999.2500  -999.2500
 1554.5000   -72.0066   -97.5025   107.5841     7.8957     8.0523     8.9401  -999.2500  -999.2500  -999.2500  -999.2500  -999.2500
 1555.0000   -72.4155   -97.5025   106.5582     8.0068     8.1121     9.0706  -999.2500  -999.2500  -999.2500  -999.2500  -999.2500
 1555.5000   -72.8242   -97.5025   103.9248     8.0663     8.2299     9.1381  -999.2500  -999.2500  -999.2500  -999.2500  -999.2500
 1556.0000   -73.2334   -97.5025   103.5659     8.1764     8.2330     9.2061  -999.2500  -999.2500  -999.2500  -999.2500  -999.2500
 1556.5000   -73.6452   -97.5025   107.3603     8.1764     8.2361     9.2098  -999.2500  -999.2500  -999.2500  -999.2500  -999.2500
 1557.0000   -74.0591   -97.5025   107.6951     8.0629     8.1242     9.5419  -999.2500  -999.2500  -999.2500  -999.2500  -999.2500
 1557.5000   -73.7825   -97.5025   102.2324     8.0629     8.0703     9.4092  -999.2500  -999.2500  -999.2500  -999.2500  -999.2500
 1558.0000   -73.4324   -97.5025    99.9163     7.8957     7.9614     8.9671  -999.2500  -999.2500  -999.2500  -999.2500  -999.2500
 1558.5000   -73.0815   -97.5025   102.8066     7.8407     7.9079     8.7221  -999.2500  -999.2500  -999.2500  -999.2500  -999.2500
 1559.0000   -72.7324   -97.5025   108.2818     7.7861     7.8554     8.6042  -999.2500  -999.2500  -999.2500  -999.2500  -999.2500
