~VERSION INFORMATION
 VERS.                2.0:   CWLS LOG ASCII STANDARD - VERSION 2.0
 WRAP.                 NO:   ONE LINE PER DEPTH STEP
~WELL INFORMATION
#MNEM.UNIT      DATA TYPE    INFORMATION
#----------   ------------   ------------------------------
 STRT.F           40.0000:   START DEPTH
 STOP.F         3326.0000:   STOP DEPTH
 STEP.F            0.5000:   STEP LENGTH
 NULL.          -999.2500:   NO VALUE
 COMP.    FENIX & SCISSON:   COMPANY
 WELL.  FENIX "AX" #53-15:   WELL
 FLD .              NPR-3:   FIELD
 LOC .      S15 T38N R78W:   LOCATION
 CNTY.            NATRONA:   COUNTY
 STAT.            WYOMING:   STATE
 CTRY. UNITED STATES OF AMERICA:   COUNTRY
 SRVC.              WELEX:   SERVICE COMPANY
 DATE.        02-MAR-1977:   LOGDATE
 API .     49025102640000:   API NUMBER
~CURVE INFORMATION
#MNEM.UNIT       API CODE    CURVE DESCRIPTION
#----------   ------------   ------------------------------
 DEPT.F                  :   
 CALD.IN     42 280 60 00:   CALIPER
 TEND.LBS    42 635 01 00:   TENSION FROM NEUTRON POROSITY LOG
 GRD .GAPI   42 310 30 00:   GAMMA RAY
 NPHI.DEC    42 890 03 00:   NEUTRON POROSITY SANDSTONE
 DPHI.DEC    45 890 12 00:   DENSITY POROSITY SANDSTONE
 SPR .MV     07 010 01 00:   SPONTANEOUS POTENTIAL
 ILD .OHMM   07 120 46 00:   DEEP INDUCTION RESISTIVITY
 ILM .OHMM   07 120 44 00:   INDUCTION LOG MEDIUM RESISTIVITY
 SGRD.OHMM   07 220 05 00:   SHALLOW SHORT GUARD RESISTIVITY
~PARAMETER INFORMATION
#MNEM.UNIT          VALUE    DESCRIPTION
#----------   ------------   ------------------------------
 EKB .F            0.0000:   Kelly bushing
 EGL .F         5251.0000:   Ground level
 EDF .F            0.0000:   Drilling floor
 TD  .F          750.0000:   Total depth
 DATE.        02-MAR-1977:   Date logged
 CLNT.            A2DTECH:   Client Code
 SL  . 1650' FNL & 2360' FEL:   Surface Location
 PD  .                 GL:   Permanent Datum
 EPD .F              5253:   Elevation Permanent Datum
 LMF .                 GL:   Log Measured From
 DMF .                 GL:   Drilling Measured From
 DD  .F               750:   Depth driller
 DL  .F               747:   Depth logger
 BLI .F               745:   Bottom log interval
 CS1 .IN            8.625:   Casing size
 CBD1.       8.625" @ 40':   Casing driller 1
 CBL1.F                44:   Casing logger 1
 BS1 .IN            7.875:   Bit size
 BSD1.F               750:   Depth drilled with bit1
 DFT .           CHEM-GEL:   Type fluid in hole
 MSS .           FLOWLINE:   Source of sample
 RMS .OHMM          0.425:   Rm
 MST .F                56:   Rm Meas. temp.
 RMF .OHMM          0.466:   Rmf
 MFST.F                56:   Rmf Meas. temp.
 RMC .OHMM          0.712:   Rmc
 MCST.F                56:   Rmc Meas. temp.
 MFSS.               MEAS:   Source Rmf.
 MCSS.               MEAS:   Source Rmc.
 RMB .OHMM          0.350:   Rm. at BHT
 BHT .F                68:   BHT.
 TCS .HRS               2:   Time Circ. stopped
 MRT .F                68:   Maximum recorded temp.
 LUN .               8611:   Logging unit number
 LUL .            GILLETH:   Logging unit location
 ENGI.          D. LAWSON:   Recorded By
 WITN.           S. BURKL:   Witnessed by
 ORIG.           5" PRINT:   Origin of data
 UWI .     49025102640000:   Unique Well ID
 DICO. A2D TECHNOLOGIES, INC.:   Digitizing Company
~OTHER INFORMATION
~A   DEPT     CALD       TEND         GRD        NPHI     DPHI        SPR        ILD        ILM       SGRD   
# ...
  478.0000    12.2510    76.4240    94.8860     0.3430     0.1030   -30.1150     5.1280     6.0320     6.3500
  478.5000    12.2850    92.5250    96.2120     0.3300     0.0860   -30.0790     5.1750     6.0120     5.3620
  479.0000    12.3190    83.6220   100.2330     0.3320     0.0920   -29.9250     5.2410     5.9920     7.0100
  479.5000    12.3530    74.7190   104.1100     0.3340     0.0960   -29.8360     5.4490     5.9860     8.7840
  480.0000    12.3870    64.9350   106.5230     0.3380     0.0990   -29.8360     5.6560     6.3740    10.3790
  480.5000    12.4210    64.3810    96.3220     0.3460     0.0940   -29.8320     5.8630     6.6690    10.7670
  481.0000    12.4300    63.5930    95.6110     0.3450     0.0830   -29.8280     6.0700     6.9640    10.6900
  481.5000    12.4330    62.8040    96.7150     0.3480     0.0840   -29.8230     6.2770     7.2600    10.5770
  482.0000    12.4540    62.0160   101.9570     0.3500     0.0970   -29.8190     6.4840     7.5550    10.4640
  482.5000    12.4760    61.2280   106.0500     0.3390     0.1220   -29.8150     6.6920     7.8500    10.3790
  483.0000    12.4860    60.4400   102.7140     0.3510     0.1380   -29.8110     6.8990     8.0280    10.3790
  483.5000    12.4290    59.6510   102.3390     0.3560     0.1340   -29.8070     6.9850     8.0570    10.4290
  484.0000    12.4000    58.8630   100.0020     0.3570     0.1150   -29.8030     6.9960     8.1240    10.5420
  484.5000    12.3860    58.0750    97.1970     0.3490     0.1180   -29.7990     7.0050     8.1770    10.6560
  485.0000    12.3730    57.2860    94.7340     0.3400     0.1140   -29.7950     7.0160     8.1510    10.7690
  485.5000    12.3630    56.4980    97.9330     0.3290     0.1080   -29.7910     7.0270     8.1070    10.8830
  486.0000    12.1670    55.7100    94.2900     0.3240     0.1130   -29.7870     7.0380     8.0640    10.9970
  486.5000    11.9640    54.9450    96.1350     0.3200     0.1110   -29.7820     7.0490     8.0280    11.0680
  487.0000    11.9480    54.9450   100.3060     0.3260     0.1080   -29.7780     7.0600     7.9880    11.1700
  487.5000    11.9630    54.9450   105.5910     0.3340     0.0980   -29.7740     7.0610     7.8780    10.8800
  488.0000    12.0960    54.9450   107.4070     0.3400     0.0770   -29.7700     7.0610     7.7680    10.6690
  488.5000    12.2410    54.0970   103.9620     0.3340     0.0660   -29.7660     7.0610     7.6680    10.7060
  489.0000    12.3880    53.2960    99.6140     0.3270     0.0710   -29.7620     7.1290     7.5980    10.7380
  489.5000    12.5320    52.4950    98.7850     0.3110     0.0800   -29.7580     7.3390     7.5230    10.8670
  490.0000    12.5500    51.6940    96.6990     0.3070     0.0830   -29.7540     7.5500     7.4170    10.8670
  490.5000    12.5500    50.8940    91.5670     0.3120     0.0830   -29.7500     7.7610     7.3120    10.7580
  491.0000    12.5500    50.0930    89.2210     0.3190     0.0860   -29.7460     7.9710     7.2580    10.5390
  491.5000    12.5410    49.2920    90.0910     0.3260     0.0840   -29.7420     8.2520     7.2580    10.2850
  492.0000    12.5240    48.4910    94.8180     0.3310     0.0810   -29.7370     8.2120     7.2580    10.5850
  492.5000    12.5070    47.6900    97.7700     0.3220     0.0780   -29.7330     8.1240     7.1910    11.0680
  493.0000    12.4910    46.8900    93.6980     0.3260     0.0970   -29.7290     8.0370     7.1910    10.6690
  493.5000    12.4680    46.0890    94.9390     0.3300     0.1000   -29.7250     7.9500     7.1910    11.0290
  494.0000    12.4530    45.2880    97.8580     0.3350     0.0950   -29.7210     7.8820     7.1910    11.2730
  494.5000    12.4460    45.4460    98.3290     0.3310     0.0910   -29.7170     7.8100     7.1910    10.8540
  495.0000    12.4190    46.2870    97.5030     0.3250     0.0910   -29.7130     7.7390     7.1260    10.6690
  495.5000    12.3970    47.1270    99.6380     0.3190     0.0950   -29.7090     7.6680     6.9960    10.7380
  496.0000    12.3900    47.9680    98.9420     0.3160     0.0910   -29.7050     7.5010     6.7310    10.7960
  496.5000    12.3680    48.8090   104.3190     0.3320     0.0960   -29.7010     7.2890     6.4960    10.8530
  497.0000    12.3560    49.6490   103.1610     0.3500     0.1020   -29.6960     7.0770     6.2610    10.8670
  497.5000    12.3250    50.4900   102.5210     0.3420     0.1070   -29.6920     6.8650     6.0250    10.1080
  498.0000    12.2940    51.3310   102.2410     0.3450     0.1110   -29.6880     6.6820     5.8230     9.4210
  498.5000    12.2650    52.1710    96.9720     0.3590     0.1250   -29.6840     6.4730     5.7700     8.9620
  499.0000    12.2370    53.0120    91.3790     0.3710     0.1500   -29.6800     6.1890     5.7700     9.4280
  499.5000    12.2060    53.8530    94.4620     0.3820     0.1640   -29.6760     5.9040     5.5880     9.9290
  500.0000    12.1760    54.6930    99.1060     0.3820     0.1660   -29.6720     5.6200     5.2350    10.3790
  500.5000    12.1460    54.9450   100.3360     0.3480     0.1490   -29.6680     5.3360     4.8810    10.3790
  501.0000    12.1310    70.6790    97.4370     0.3310     0.1210   -29.6640     5.0750     4.5280     8.2570
  501.5000    12.1960   104.8950    95.3400     0.3420     0.1110   -29.6600     5.0750     4.3020     6.3990
  502.0000    12.3250    92.2080    96.5230     0.3500     0.1000   -29.6550     5.1160     4.6330     4.9820
  502.5000    12.4560    67.1830    94.6700     0.3450     0.1060   -29.6510     5.2740     4.8930     7.9220
  503.0000    12.4890    44.9550    95.3660     0.3400     0.1060   -29.6470     5.4320     5.1530     9.8320
  503.5000    12.4920    44.9550    96.5430     0.3340     0.0960   -29.6440     5.5900     5.4120     9.8500
  504.0000    12.5020    44.9550    99.0780     0.3350     0.0980   -29.6410     5.7480     5.6720     9.8690
  504.5000    12.5110    44.9550   101.2500     0.3280     0.1000   -29.6760     5.9060     5.9310     9.8880
  505.0000    12.5200    44.9550   100.1980     0.3280     0.0920   -29.7680     6.0640     5.9710     9.9060
  505.5000    12.5300    44.9550    98.2020     0.3330     0.0800   -29.9330     6.2220     6.0210     9.9140
  506.0000    12.5320    44.9550    96.8380     0.3220     0.0750   -30.0340     6.3830     6.0970     9.9140
  506.5000    12.5330    44.9550    99.7660     0.3160     0.0860   -29.9730     6.3830     6.0970     9.9370
  507.0000    12.5350    44.9550    95.5260     0.3140     0.0940   -29.8560     6.2260     6.0410     9.9680
  507.5000    12.5360    44.9550    95.8110     0.3160     0.1040   -29.7380     5.9710     5.8120    10.0050
  508.0000    12.5380    45.6190   100.1330     0.3140     0.1120   -29.6200     5.7170     5.4990     9.9240
  508.5000    12.5400    46.8710   107.0350     0.3100     0.1010   -29.5020     5.4630     5.1860     9.7850
  509.0000    12.5410    48.1220   105.9250     0.3120     0.0940   -29.4420     5.2090     4.8470     8.5050
  509.5000    12.5430    49.3730   103.8240     0.3160     0.0920   -29.4060     4.9820     4.8030     6.3340
  510.0000    12.5450    50.6240   101.7620     0.3220     0.0820   -29.3540     4.9820     4.8170     4.3820
  510.5000    12.5460    51.8760    99.6920     0.3290     0.0490   -29.3020     4.9820     4.8650     7.6510
  511.0000    12.5480    53.1270    98.7480     0.3310     0.0560   -29.2500     5.2370     4.9120    10.3790
  511.5000    12.5510    54.3780   100.1110     0.3370     0.0760   -29.2440     5.5420     5.0040    10.1640
  512.0000    12.5660    54.9450   102.5860     0.3390     0.0770   -29.2840     5.8460     5.2510     9.7090
  512.5000    12.5840    54.9450   105.0810     0.3570     0.0700   -29.3260     6.1500     5.4980     8.8620
  513.0000    12.6020    54.9450   107.0120     0.3610     0.0950   -29.3680     6.4540     5.7450     6.9960
  513.5000    12.6120    54.9450   105.5240     0.3720     0.0940   -29.4100     6.7590     5.9920     8.0350
  514.0000    12.6960    54.9450   102.7380     0.3610     0.0900   -29.4520     7.0630     6.2390    10.3790
