~VERSION INFORMATION
 VERS.                2.0:   CWLS LOG ASCII STANDARD - VERSION 2.0
 WRAP.                 NO:   ONE LINE PER DEPTH STEP
~WELL INFORMATION
#MNEM.UNIT      DATA TYPE    INFORMATION
#----------   ------------   ------------------------------
 STRT.F           10.0000:   START DEPTH
 STOP.F         4008.0000:   STOP DEPTH
 STEP.F            0.5000:   STEP LENGTH
 NULL.          -999.2500:   NO VALUE
 COMP. LAWRENCE ALLISON & ASSOC.:   COMPANY
 WELL. LAWRENCE NPR 3 "AX" #75-28:   WELL
 FLD .                NPR:   FIELD
 LOC .      S28 T39N R78W:   LOCATION
 CNTY.            NATRONA:   COUNTY
 STAT.            WYOMING:   STATE
 CTRY. UNITED STATES OF AMERICA:   COUNTRY
 SRVC.      DRESSER ATLAS:   SERVICE COMPANY
 DATE.        28-APR-1983:   LOGDATE
 API .     49025109060000:   API NUMBER
~CURVE INFORMATION
#MNEM.UNIT       API CODE    CURVE DESCRIPTION
#----------   ------------   ------------------------------
 DEPT.F                  :   
 RHOB.G/C3   45 350 01 00:   BULK DENSITY
 CORR.G/C3   45 356 01 00:   DENSITY CORRECTION
 TEND.LBS    45 635 01 00:   TENSION FROM DENSITY LOG
 NPHI.DEC    42 890 03 00:   NEUTRON POROSITY SANDSTONE
 GRR .GAPI   07 310 01 00:   GAMMA RAY FROM RESISTIVITY
 CALR.IN     07 280 01 00:   CALIPER FROM RESISTIVITY
 RFOC.OHMM   07 220 01 00:   RESISTIVITY FOCUSED LOG RES.
 RILD.OHMM   07 120 46 00:   DEEP INDUCTION RESISTIVITY
 TENR.LBS    01 635 01 00:   TENSION FROM RES.
 RILM.OHMM   07 120 44 00:   INDUCTION LOG MEDIUM RESISTIVITY
 TENS.LBS    60 635 01 00:   TENSION FROM SONIC LOG
 DT  .US/F   60 520 00 00:   DELTA TIME
 SPR .MV     07 010 01 00:   SPONTANEOUS POTENTIAL
~PARAMETER INFORMATION
#MNEM.UNIT          VALUE    DESCRIPTION
#----------   ------------   ------------------------------
 EKB .F         5068.0000:   Kelly bushing
 EGL .F         5058.0000:   Ground level
 EDF .F            0.0000:   Drilling floor
 TD  .F         4003.0000:   Total depth
 DATE.        28-APR-1983:   Date logged
 CLNT.            A2DTECH:   Client Code
 SL  . 2100' FSL & 1050' FEL:   Surface Location
 PD  .                 GL:   Permanent Datum
 EPD .F              5058:   Elevation Permanent Datum
 LMF .                 KB:   Log Measured From
 DMF .                 KB:   Drilling Measured From
 DAPD.F                10:   Feet Above Permanent Datum
 DD  .F              4000:   Depth driller
 DL  .F              4003:   Depth logger
 BLI .F              4000:   Bottom log interval
 CS1 .IN            8.625:   Casing size
 CBD1.      8.625" @ 498':   Casing driller 1
 CBL1.F               497:   Casing logger 1
 BS1 .IN            7.875:   Bit size
 BSD1.F              4000:   Depth drilled with bit1
 DFT .            KCL/GEL:   Type fluid in hole
 DFD .                  9:   Density
 DFV .                 43:   Viscosity
 DFPH.                8.5:   pH
 DFL .               12.4:   Fluid loss
 MSS .           MUD/TANK:   Source of sample
 RMS .OHMM            .45:   Rm
 MST .F                43:   Rm Meas. temp.
 RMF .OHMM            .27:   Rmf
 MFST.F                51:   Rmf Meas. temp.
 RMC .OHMM            .56:   Rmc
 MCST.F                43:   Rmc Meas. temp.
 MFSS.               MEAS:   Source Rmf.
 MCSS.               CALC:   Source Rmc.
 RMB .OHMM            .16:   Rm. at BHT
 BHT .F               121:   BHT.
 TCS .HRS               7:   Time Circ. stopped
 MRT .F               121:   Maximum recorded temp.
 LUN .               6274:   Logging unit number
 LUL .               GLTE:   Logging unit location
 ENGI.            WACDELL:   Recorded By
 WITN.             STRONG:   Witnessed by
 ORIG.           5" PRINT:   Origin of data
 UWI .     49025109060000:   Unique Well ID
 DICO. A2D TECHNOLOGIES, INC.:   Digitizing Company
~OTHER INFORMATION
~A   DEPT     RHOB       CORR       TEND       NPHI         GRR      CALR       RFOC       RILD       TENR       RILM       TENS         DT        SPR   
# ...
 2584.0000     2.4980     0.0270   -74.1050     0.1850    86.1210     8.7390    11.7100    10.8770   -62.5380    11.6190   -56.9250    76.4870   -66.5630
 2584.5000     2.4910     0.0030   -73.5860     0.1850    83.9560     8.7040    12.2320    10.6780   -62.2750    11.7660   -56.9250    76.5500   -66.6880
 2585.0000     2.4850    -0.0150   -73.0660     0.1830    81.4320     8.6640    12.5880    10.9480   -62.0110    11.9140   -56.9250    76.1810   -66.8450
 2585.5000     2.4880    -0.0120   -72.5460     0.1810    78.9430     8.6360    12.8420    11.2560   -61.7480    12.0620   -56.9250    75.8120   -66.9800
 2586.0000     2.4930    -0.0070   -72.0260     0.1730    76.5020     8.6270    12.8420    11.5640   -61.4850    12.2090   -56.9250    75.2220   -67.0880
 2586.5000     2.5030     0.0130   -71.5060     0.1660    74.3280     8.6310    13.7120    11.8720   -61.2210    12.3570   -56.9250    74.4970   -67.2040
 2587.0000     2.5120     0.0120   -70.9870     0.1580    73.1630     8.6370    14.5110    12.1510   -60.9580    12.5040   -56.9250    73.5160   -67.3530
 2587.5000     2.5210    -0.0020   -70.4670     0.1560    73.8200     8.6400    15.3100    12.0030   -60.6950    12.6080   -56.9250    72.5350   -67.5120
 2588.0000     2.5220    -0.0110   -69.9470     0.1570    76.4110     8.6400    16.0260    11.7900   -60.4310    12.2670   -56.9250    71.6950   -67.6260
 2588.5000     2.5140    -0.0030   -69.4270     0.1590    80.1610     8.6400    14.9850    11.5780   -60.1680    12.0050   -56.9250    71.9650   -67.6500
 2589.0000     2.5070     0.0050   -68.9080     0.1610    83.9980     8.6420    13.9240    11.3660   -59.9050    11.7430   -56.9250    72.6740   -67.5870
 2589.5000     2.5000     0.0090   -68.3880     0.1660    87.2590     8.6450    12.8630    11.1540   -59.6190    11.4810   -56.9250    73.9320   -67.4770
 2590.0000     2.4970     0.0030   -67.8680     0.1740    89.7180     8.6470    11.9280    10.9420   -59.6190    11.2190   -56.9250    74.6910   -67.3660
 2590.5000     2.4980    -0.0030   -67.3480     0.1810    91.0750     8.6490    11.6330    10.7300   -59.6190    10.9570   -56.9250    75.4540   -67.2740
 2591.0000     2.5000    -0.0060   -66.8280     0.1880    90.8600     8.6500    11.3690    10.5170   -59.6190    10.6950   -56.9250    75.7750   -67.1970
 2591.5000     2.5010    -0.0090   -66.3090     0.1890    89.0750     8.6520    11.1050    10.2910   -59.6190    10.4340   -56.9250    76.0970   -67.1220
 2592.0000     2.4990    -0.0120   -65.7890     0.1870    86.7830     8.6540    10.8770    10.2910   -59.6190    10.1030   -56.9250    76.1050   -67.0390
 2592.5000     2.4940    -0.0100   -65.2690     0.1840    85.5880     8.6560    11.2330    10.5280   -59.6190    10.1030   -56.9250    76.0520   -66.9420
 2593.0000     2.4890     0.0010   -64.9980     0.1810    86.2420     8.6580    11.7150    10.6830   -59.6190    10.3060   -56.9250    75.5980   -66.8190
 2593.5000     2.4830    -0.0360   -66.4480     0.1780    87.7870     8.6600    12.1980    10.8380   -59.6190    10.4580   -56.9250    75.1700   -66.6510
 2594.0000     2.4840    -0.0310   -67.8980     0.1770    88.3910     8.6610    12.6080    10.9930   -59.6190    10.6100   -56.9250    75.1450   -66.4240
 2594.5000     2.4850    -0.0120   -69.3490     0.1860    87.1520     8.6620    12.6080    11.1480   -59.6190    10.7620   -56.9250    75.5540   -66.1530
 2595.0000     2.4810     0.0250   -70.7990     0.1890    85.0610     8.6640    12.6080    11.3030   -59.6190    10.9140   -56.9250    75.6770   -65.8950
 2595.5000     2.4760     0.0270   -72.2490     0.1850    84.0640     8.6670    12.6080    11.4580   -59.6190    11.0670   -56.9250    75.8100   -65.7280
 2596.0000     2.4750     0.0050   -73.7000     0.1800    85.1750     8.6710    12.6080    11.7100   -59.6190    11.2190   -56.9250    75.9430   -65.7140
 2596.5000     2.4810    -0.0180   -75.1500     0.1790    87.5070     8.6710    12.2160    11.7100   -59.6190    11.3710   -56.9250    76.1460   -65.8520
 2597.0000     2.4880    -0.0410   -76.6010     0.1770    89.0430     8.6650    11.9650    11.8650   -59.6190    11.4960   -56.9250    76.0930   -66.0820
 2597.5000     2.5030    -0.0290   -78.0510     0.1740    88.3280     8.6530    11.7100    11.9770   -59.6190    11.6260   -56.9250    75.5210   -66.3120
 2598.0000     2.5140    -0.0010   -79.5010     0.1640    85.5680     8.6370    11.7100    12.0900   -59.6190    11.7370   -56.9250    74.4480   -66.4610
 2598.5000     2.5150    -0.0150   -80.9520     0.1520    82.3400     8.6210    13.5500    12.2030   -59.6190    11.8470   -56.9250    73.3760   -66.4880
 2599.0000     2.5040    -0.0270   -82.4020     0.1520    80.3410     8.6070    15.4460    12.3150   -59.6190    11.9580   -56.9250    72.3040   -66.3960
 2599.5000     2.4880    -0.0290   -83.8530     0.1570    80.2460     8.5950    15.4460    12.4280   -59.6190    12.0690   -56.9250    72.6050   -66.2230
 2600.0000     2.4790    -0.0200   -85.3030     0.1700    81.4590     8.5810    14.7570    12.6080   -59.6190    12.1790   -56.9250    73.4910   -66.0130
 2600.5000     2.4710     0.0010   -86.7530     0.1840    82.7490     8.5680    14.0660    12.6080   -59.6190    12.2900   -56.9250    74.7680   -65.8040
 2601.0000     2.4630     0.0010   -88.2040     0.1970    83.1140     8.5530    13.3740    12.3960   -59.6190    12.3770   -56.9250    76.1520   -65.6150
 2601.5000     2.4570    -0.0110   -89.6540     0.2100    82.1850     8.5400    12.6830    12.2450   -59.6190    12.1970   -56.9250    76.5200   -65.4480
 2602.0000     2.4550    -0.0240   -91.1040     0.2040    80.0790     8.5270    12.1510    12.0940   -59.6190    12.0490   -56.9250    76.9220   -65.2920
 2602.5000     2.4540    -0.0280   -92.5550     0.1980    77.2410     8.5130    12.0360    11.9440   -59.6190    11.9010   -56.9250    77.3480   -65.1220
 2603.0000     2.4520    -0.0180   -94.0050     0.1930    74.4960     8.4990    11.9280    11.7100   -59.6190    11.7530   -56.9250    77.2950   -64.9130
 2603.5000     2.4490    -0.0060   -97.7170     0.1870    72.9230     8.4840    11.9280    11.7100   -59.6190    11.6050   -56.9250    76.9320   -64.6750
 2604.0000     2.4460     0.0070  -104.5370     0.1860    73.2360     8.4720    12.2760    11.6480   -59.6190    11.4960   -56.9250    76.5690   -64.4760
 2604.5000     2.4470    -0.0010  -111.3580     0.1870    74.9750     8.4640    12.6050    11.6050   -59.6190    11.4430   -56.9250    76.2060   -64.4200
 2605.0000     2.4480    -0.0120  -118.1790     0.1890    76.5630     8.4590    12.8420    11.5620   -59.6190    11.4010   -56.9250    76.1760   -64.5720
 2605.5000     2.4450    -0.0190  -124.9990     0.1960    76.5360     8.4540    12.3220    11.5190   -59.6190    11.3580   -56.9250    76.4450   -64.9030
 2606.0000     2.4390     0.0160  -131.8200     0.1980    75.0300     8.4460    11.7100    11.4760   -59.6190    11.3160   -56.9250    76.9470   -65.3100
 2606.5000     2.4320     0.0550  -131.2810     0.1880    73.9320     8.4370    11.7100    11.4330   -59.6190    11.2740   -56.9250    77.4500   -65.6970
 2607.0000     2.4370     0.0410  -106.5570     0.1800    75.3370     8.4340    11.7660    11.3900   -59.6190    11.2320   -56.9250    77.6810   -66.0350
 2607.5000     2.4470     0.0230   -81.8320     0.1800    79.5510     8.4420    11.8450    11.3470   -59.6190    11.1900   -56.9250    77.7370   -66.3480
 2608.0000     2.4580     0.0050   -57.1070     0.1830    84.5160     8.4620    11.9250    11.3040   -59.6190    11.1480   -56.9250    77.7920   -66.6700
 2608.5000     2.4680    -0.0070   -44.7950     0.1870    87.4510     8.4880    12.0040    11.2610   -59.6190    11.1050   -56.9250    77.8460   -67.0070
 2609.0000     2.4770     0.0160   -53.9240     0.1860    87.3830     8.5150    12.0830    11.2180   -59.6190    11.0630   -56.9250    77.4990   -67.3530
 2609.5000     2.4840     0.0500   -67.1100     0.1850    86.1410     8.5360    12.1510    11.1750   -59.6190    11.0210   -56.9250    77.1640   -67.7010
