~VERSION INFORMATION
 VERS.                2.0:   CWLS LOG ASCII STANDARD - VERSION 2.0
 WRAP.                 NO:   ONE LINE PER DEPTH STEP
~WELL INFORMATION
#MNEM.UNIT      DATA TYPE    INFORMATION
#----------   ------------   ------------------------------
 STRT.F           85.5000:   START DEPTH
 STOP.F         2750.0000:   STOP DEPTH
 STEP.F            0.5000:   STEP LENGTH
 NULL.          -999.2500:   NO VALUE
 COMP.          INTEX OIL:   COMPANY
 WELL. INTEX NPR 3 "AX" #74-20:   WELL
 FLD .             TEAPOT:   FIELD
 LOC .      S20 T39N R78W:   LOCATION
 CNTY.            NATRONA:   COUNTY
 STAT.            WYOMING:   STATE
 CTRY. UNITED STATES OF AMERICA:   COUNTRY
 SRVC.       SCHLUMBERGER:   SERVICE COMPANY
 DATE.        08-MAY-1966:   LOGDATE
 API .     49025095210000:   API NUMBER
~CURVE INFORMATION
#MNEM.UNIT       API CODE    CURVE DESCRIPTION
#----------   ------------   ------------------------------
 DEPT.F                  :   
 CALD.IN     45 280 60 00:   CALIPER FROM DENSITY LOG
 GRD .GAPI   45 310 01 00:   GAMMA RAY FROM DENSITY LOG
 RHOB.G/C3   45 350 01 00:   BULK DENSITY
 CORR.G/C3   45 356 01 00:   DENSITY CORRECTION
 SPR .MV     05 010 01 00:   SPONTANEOUS POTENTIAL FROM RES.
 ILD .OHMM   05 120 46 00:   INDUCTION LOG DEEP
 SN  .OHMM   05 040 00 00:   SHORT NORMAL
~PARAMETER INFORMATION
#MNEM.UNIT          VALUE    DESCRIPTION
#----------   ------------   ------------------------------
 EKB .F         5018.3000:   Kelly bushing
 EGL .F         5008.0000:   Ground level
 EDF .F            0.0000:   Drilling floor
 EPD .F         5008.0000:   Permanent datum
 TD  .F         2750.0000:   Total depth
 DATE.        08-MAY-1966:   Date logged
 CLNT.            A2DTECH:   Client Code
 DAPD.F              10.3:   Feet Above Permanent Datum
 DD  .F              2750:   Depth driller
 DL  .F              2749:   Depth logger
 BLI .F              2748:   Bottom log interval
 TLI .F                87:   Top log interval
 CS1 .IN            10.75:   Casing size
 CBD1.       10.75" @ 30':   Casing driller 1
 BS1 .IN            7.875:   Bit size
 BSD1.F              2750:   Depth drilled with bit1
 DFT .           OIL EMUL:   Type fluid in hole
 DFD .               10.1:   Density
 DFV .                 54:   Viscosity
 MSS .         CIRCULATED:   Source of sample
 RMS .OHMM           1.90:   Rm
 MST .F                72:   Rm Meas. temp.
 RMF .OHMM           1.15:   Rmf
 MFST.F                72:   Rmf Meas. temp.
 MFSS.                 FP:   Source Rmf.
 RMB .OHMM           1.23:   Rm. at BHT
 BHT .F               111:   BHT.
 TCS .HRS             1.5:   Time Circ. stopped
 MRT .F               111:   Maximum recorded temp.
 LUN .               4507:   Logging unit number
 LUL .               CSPR:   Logging unit location
 ENGI.               HAUG:   Recorded By
 WITN.             TUTTLE:   Witnessed by
 ORIG.        2" 5" PRINT:   Origin of data
 UWI .     49025095210000:   Unique Well ID
 DICO. A2D TECHNOLOGIES, INC.:   Digitizing Company
~OTHER INFORMATION
~A   DEPT     CALD        GRD       RHOB       CORR        SPR        ILD         SN   
# ...
 1996.5000  -999.2500   100.1520  -999.2500  -999.2500   -58.9480     7.8240    11.6540
 1997.0000  -999.2500   100.9520  -999.2500  -999.2500   -58.9790     7.5790    11.7410
 1997.5000  -999.2500   102.0860  -999.2500  -999.2500   -59.0110     7.1510    11.5690
 1998.0000  -999.2500    98.2470  -999.2500  -999.2500   -59.0430     6.7710    11.0420
 1998.5000  -999.2500    94.0520  -999.2500  -999.2500   -59.0740     6.3720    10.5650
 1999.0000  -999.2500    90.7420  -999.2500  -999.2500   -59.1060     5.9900    10.0720
 1999.5000  -999.2500    92.2930  -999.2500  -999.2500   -59.1380     5.5910     9.5820
 2000.0000  -999.2500    96.6830     2.5210  -999.2500   -59.1690     5.3800     9.0890
 2000.5000     8.7750   100.7860     2.4910     0.0110   -59.2010     5.2880     8.6330
 2001.0000     8.7740   105.4990     2.4680     0.0050   -59.2330     5.4830     8.6550
 2001.5000     8.7730   105.8590     2.4790     0.0210   -59.2650     5.6370     9.2030
 2002.0000     8.7720   103.9580     2.4920     0.0050   -59.2960     5.9160     9.6780
 2002.5000     8.7710    98.9370     2.5050     0.0110   -59.3280     6.1880    10.1830
 2003.0000     8.7710    93.0230     2.5350     0.0190   -59.3600     6.4670    10.4900
 2003.5000     8.7700    94.2930     2.5800     0.0360   -59.3920     6.7450    10.5780
 2004.0000     8.7690    95.4600     2.6130     0.0550   -59.4230     7.0180    10.5780
 2004.5000     8.7690    93.7720     2.5660     0.0440   -59.4550     7.3020    10.5540
 2005.0000     8.7680    96.9380     2.5380     0.0130   -59.4860     7.4460    10.7830
 2005.5000     8.7670    95.6870     2.5230     0.0250   -59.5190     7.4860    11.2120
 2006.0000     8.7660    90.8280     2.5230     0.0230   -59.5490     7.5410    11.5980
 2006.5000     8.7650    86.3070     2.5310     0.0220   -59.5830     7.5830    11.9890
 2007.0000     8.7650    82.7460     2.5360     0.0290   -59.6130     7.6760    12.2710
 2007.5000     8.7640    85.2060     2.5320     0.0220   -59.6360     7.8060    12.2820
 2008.0000     8.7630    86.9460     2.5260     0.0060   -59.5360     7.9310    12.0400
 2008.5000     8.7620    86.7210     2.5190     0.0100   -59.4290     8.0490    11.8620
 2009.0000     8.7620    86.9830     2.5240     0.0210   -59.3110     8.1870    11.6040
 2009.5000     8.7610    89.2070     2.5290     0.0300   -59.2530     8.2000    11.8260
 2010.0000     8.7600    89.2930     2.5210     0.0410   -59.3440     8.2020    12.1880
 2010.5000     8.7590    89.0190     2.5060     0.0360   -59.4300     8.1960    12.5200
 2011.0000     8.7580    87.3380     2.5230     0.0450   -59.5190     8.2070    12.9030
 2011.5000     8.7580    85.7900     2.5470     0.0450   -59.6140     8.1190    12.8640
 2012.0000     8.7570    84.2150     2.5210     0.0290   -59.6200     7.9010    12.7460
 2012.5000     8.7560    82.5890     2.5070     0.0280   -59.5600     7.6930    12.3570
 2013.0000     8.7550    81.6270     2.5020     0.0280   -59.5110     7.4800    11.8520
 2013.5000     8.7540    83.1040     2.5180     0.0230   -59.4590     7.2690    11.3620
 2014.0000     8.7540    85.9220     2.5220     0.0190   -59.4060     7.0580    10.8310
 2014.5000     8.7530    88.7950     2.5140     0.0190   -59.3560     6.8460    10.3460
 2015.0000     8.7520    92.8100     2.5080     0.0260   -59.3030     6.6350    10.3820
 2015.5000     8.7510    97.1220     2.5190     0.0320   -59.2490     6.4240    10.8580
 2016.0000     8.7500   101.6750     2.5360     0.0410   -59.1620     6.2130    11.1050
 2016.5000     8.7500   102.4520     2.5450     0.0490   -59.0730     6.0020    10.6010
 2017.0000     8.7490   100.1440     2.5300     0.0590   -58.9830     5.7900    10.1640
 2017.5000     8.7480   103.4760     2.5090     0.0500   -58.8950     5.5810     9.6940
 2018.0000     8.7470   107.1670     2.4720     0.0410   -58.8040     5.3640     9.2340
 2018.5000     8.7460   108.6810     2.4790     0.0550   -58.7170     5.2090     8.7680
 2019.0000     8.7460   115.1630     2.4900     0.0590   -58.6260     5.4850     8.4770
 2019.5000     8.7450   121.0820     2.4720     0.0390   -58.5360     5.9560     9.1150
 2020.0000     8.7440   127.0260     2.4760     0.0290   -58.4810     6.4030     9.7410
 2020.5000     8.7430   124.3880     2.4810     0.0300   -58.6170     6.8110    10.8750
 2021.0000     8.7430   119.4280     2.4720     0.0200   -58.7340     7.4000    12.2460
 2021.5000     8.7420   113.4710     2.4780     0.0200   -58.8590     8.1330    13.6400
 2022.0000     8.7410   115.0250     2.4740     0.0380   -58.9820     8.7900    14.7320
 2022.5000     8.7400   118.6670     2.4620     0.0330   -59.1010     9.5330    14.8410
 2023.0000     8.7390   120.8590     2.4530     0.0180   -59.2370     9.5840    14.4740
 2023.5000     8.7390   122.8850     2.4570     0.0190   -59.2500     9.1100    14.4930
 2024.0000     8.7380   126.7180     2.4470     0.0100   -59.2520     8.7350    13.8570
 2024.5000     8.7370   129.9690     2.4530     0.0230   -59.2450     8.3170    13.2280
 2025.0000     8.7370   133.4760     2.4630     0.0290   -59.2630     7.9480    12.5700
 2025.5000     8.7380   136.1930     2.4570     0.0260   -59.1100     7.3270    11.9350
 2026.0000     8.7540   138.2600     2.4640     0.0420   -58.7310     6.7850    11.2650
 2026.5000     8.7660   139.5520     2.4650     0.0580   -58.3630     6.2270    10.6830
 2027.0000     8.7980   139.6220     2.4670     0.0530   -58.0670     5.6630     9.6990
 2027.5000     8.8580   139.8010     2.5010     0.0480   -57.9240     5.1280     8.3690
 2028.0000     8.9160   141.5810     2.5400     0.0390   -57.8020     4.5010     7.4010
 2028.5000     8.9750   143.3060     2.5350     0.0340   -57.6860     4.2150     6.8960
 2029.0000     9.0320   144.3860     2.5280     0.0260   -57.6820     3.9010     6.4650
 2029.5000     9.0960   139.2630     2.5440     0.0540   -57.7080     3.7070     6.0580
 2030.0000     9.1370   125.9550     2.5470     0.0490   -57.7340     3.6390     5.9790
 2030.5000     9.1420   117.3450     2.5820     0.0540   -57.7580     3.5630     5.9200
 2031.0000     9.1540   114.0750     2.5770     0.0420   -57.7840     3.4740     5.8660
 2031.5000     9.1640   115.5690     2.5550     0.0330   -57.8090     3.5180     5.8290
 2032.0000     9.1750   116.8490     2.5340     0.0200   -57.8340     3.5970     5.8330
 2032.5000     9.1850   115.5540     2.5200     0.0170   -57.8590     3.6730     5.8320
 2033.0000     9.1950   112.6570     2.5270     0.0240   -57.8840     3.7470     5.8300
 2033.5000     9.2060   111.7910     2.5420     0.0300   -57.9090     3.8240     5.8310
 2034.0000     9.2090   111.5410     2.5590     0.0310   -57.9350     3.8990     5.8450
 2034.5000     9.2090   111.0970     2.5520     0.0270   -57.9600     3.9750     5.9940
 2035.0000     9.2090   108.1860     2.5710     0.0300   -57.9850     4.0510     6.1260
 2035.5000     9.2090   105.5030     2.5860     0.0410   -58.0100     4.1260     6.2590
 2036.0000     9.2090   102.6220     2.5570     0.0330   -58.0360     4.2080     6.4080
 2036.5000     9.2090   106.5740     2.5540     0.0140   -58.0610     4.2520     6.4220
 2037.0000     9.2090   108.7300     2.5540     0.0150   -58.0860     4.2470     6.4240
 2037.5000     9.2090   106.8360     2.5440     0.0170   -58.1110     4.2490     6.4200
 2038.0000     9.2090   105.9710     2.5350     0.0070   -58.1360     4.2490     6.4240
 2038.5000     9.2090   105.9610     2.5420     0.0110   -58.1620     4.2490     6.4210
 2039.0000     9.2090   106.7470     2.5450     0.0150   -58.1870     4.2490     6.4200
 2039.5000     9.2090   109.1470     2.5360     0.0210   -58.2120     4.2500     6.3240
 2040.0000     9.2090   111.6130     2.5320     0.0180   -58.2370     4.2510     6.2280
 2040.5000     9.2090   110.6280     2.5280     0.0130   -58.2630     4.2940     6.2270
 2041.0000     9.2090   109.1870     2.5140     0.0140   -58.2880     4.3520     6.2250
 2041.5000     9.2090   107.5890     2.5080     0.0230   -58.3130     4.4090     6.2260
