~VERSION INFORMATION
 VERS.                2.0:   CWLS LOG ASCII STANDARD - VERSION 2.0
 WRAP.                 NO:   ONE LINE PER DEPTH STEP
~WELL INFORMATION
#MNEM.UNIT      DATA TYPE    INFORMATION
#----------   ------------   ------------------------------
 STRT.F           10.0000:   START DEPTH
 STOP.F         5812.0000:   STOP DEPTH
 STEP.F            0.5000:   STEP LENGTH
 NULL.          -999.2500:   NO VALUE
 COMP. LAWRENCE - ALLSISON:   COMPANY
 WELL. LAWRENCE "X" #11-11:   WELL
 FLD .              NPR 3:   FIELD
 LOC .      S11 T38N R78W:   LOCATION
 CNTY.            NATRONA:   COUNTY
 STAT.            WYOMING:   STATE
 CTRY. UNITED STATES OF AMERICA:   COUNTRY
 SRVC.      DRESSER ATLAS:   SERVICE COMPANY
 DATE.        12-NOV-1982:   LOGDATE
 API .     49025109160000:   API NUMBER
~CURVE INFORMATION
#MNEM.UNIT       API CODE    CURVE DESCRIPTION
#----------   ------------   ------------------------------
 DEPT.F                  :   
 TEND.LBS    45 635 01 00:   TENSION FROM DENSITY LOG
 CALD.IN     45 280 60 00:   CALIPER FROM DENSITY LOG
 CORR.G/C3   45 356 01 00:   DENSITY CORRECTION
 RHOB.G/C3   45 350 01 00:   BULK DENSITY
 CN  .DEC    42 890 03 00:   COMPENSATED NEUTRON POROSITY SANDSTONE
 AC  .US/F   60 520 00 00:   ACOUSTIC
 TENS.LBS    60 635 01 00:   TENSION FROM SONIC
 GRR .GAPI   11 310 01 00:   GAMMA RAY FROM RESISTIVITY
 RD  .OHMM   11 220 10 00:   RESISTIVITY DEEP
 RMLL.OHMM   11 270 04 00:   RESISTIVITY MICROLATEROLOG
 RS  .OHMM   11 220 09 00:   RESISTIVITY SHALLOW
 SPR .MV     11 010 01 00:   SPONTANEOUS POTENTIAL FROM RESISTIVITY
 TENR.LBS    11 635 01 00:   TENSION FROM RESISTIVITY
~PARAMETER INFORMATION
#MNEM.UNIT          VALUE    DESCRIPTION
#----------   ------------   ------------------------------
 EKB .F         5160.0000:   Kelly bushing
 EGL .F         5150.0000:   Ground level
 EDF .F            0.0000:   Drilling floor
 TD  .F         5800.0000:   Total depth
 CLNT.            A2DTECH:   Client Code
 SL  . 660' FNL & 660' FWL:   Surface Location
 PD  .                 GL:   Permanent Datum
 EPD .F              5150:   Elevation Permanent Datum
 LMF .                 KB:   Log Measured From
 DMF .                 KB:   Drilling Measured From
 DAPD.F                10:   Feet Above Permanent Datum
 DATE.        12-NOV-1982:   Date Logged [DD-MMM-YYYY]
 DD  .F              5800:   Depth driller
 DL  .F              5795:   Depth logger
 BLI .F              5702:   Bottom log interval
 TLI .F                 0:   Top log interval
 CS1 .IN            9.625:   Casing size
 CBD1.      9.625" @ 664':   Casing driller 1
 CBL1.F               660:   Casing logger 1
 BS1 .IN             8.75:   Bit size
 BSD1.F              5800:   Depth drilled with bit1
 DFT .                KCL:   Type fluid in hole
 DFD .                8.6:   Density
 DFV .                 45:   Viscosity
 DFPH.                8.5:   pH
 DFL .                7.8:   Fluid loss
 MSS .           FLOWLINE:   Source of sample
 RMS .OHMM           0.32:   Rm
 MST .F                92:   Rm Meas. temp.
 RMF .OHMM           0.26:   Rmf
 MFST.F                90:   Rmf Meas. temp.
 MFSS.               MEAS:   Source Rmf.
 RMB .OHMM           0.19:   Rm. at BHT
 BHT .F               160:   BHT.
 TCS .HRS               3:   Time Circ. stopped
 MRT .F               160:   Maximum recorded temp.
 LUN .               6270:   Logging unit number
 LUL .              WLSTN:   Logging unit location
 ENGI.            QUICKEL:   Recorded By
 WITN.             STRONG:   Witnessed by
 ORIG.        2" 5" PRINT:   Origin of data
 UWI .     49025109160000:   Unique Well ID
 DICO. A2D TECHNIOLOGIES,INC.:   Digitizing Company
 RMC .OHMM           0.40:   Rmc
 MCST.F                92:   Rmc Meas. temp.
 MCSS.               CALC:   Source Rmc.
~OTHER INFORMATION
~A  DEPTH     TEND       CALD       CORR       RHOB         CN         AC       TENS        GRR         RD       RMLL         RS        SPR       TENR
# ...
  998.0000   -51.5042    11.7518     0.0354     2.5032     0.2727    91.1922   -59.6096    84.9559     9.5036     7.7075     7.7777   -63.2381   -69.2929
  998.5000   -51.4587    11.7359     0.0308     2.5084     0.2822    91.4222   -59.3469    84.9632     9.1781     7.7059     7.7231   -63.2308   -72.9900
  999.0000   -51.4222    11.7351     0.0277     2.5129     0.2879    91.4258   -59.0841    85.2707     9.1774     7.5456     7.7226   -63.3751   -76.7055
  999.5000   -51.3858    11.7343     0.0276     2.5173     0.2870    91.3541   -58.7727    86.4792     9.1767     7.3886     7.7221   -63.3692   -76.6135
 1000.0000   -51.3493    11.7385     0.0350     2.5203     0.2964    91.0600   -58.5157    87.3874     9.2403     7.2853     7.7215   -63.6632   -72.7691
 1000.5000   -55.0610    11.7478     0.0469     2.5195     0.3263    90.6257   -58.2758    87.3908     9.5003     7.4374     7.7257   -63.3931   -72.7375
 1001.0000   -55.0154    11.7468     0.0574     2.5157     0.3332    90.3101   -61.6755    87.6940     9.6327     7.5928     7.7840   -63.2069   -68.9291
 1001.5000   -53.9978    11.7460     0.0568     2.5109     0.3176    90.3157   -65.1353    87.6970     9.6319     7.8599     8.0497   -63.0538   -65.1229
 1002.0000   -52.2251    11.7452     0.0330     2.5036     0.3008    90.5463   -64.8414    86.1984     9.6987     7.9138     8.2194   -62.9007   -72.6274
 1002.5000   -44.0455    11.7594     0.0211     2.4990     0.2698    90.7770   -64.5474    86.5016     9.6306     7.6958     8.1049   -62.7476   -72.5812
 1003.0000   -40.3249    11.7584     0.0211     2.4982     0.2659    90.5552   -64.2535    88.3064     9.5632     7.5362     7.8814   -62.5945   -80.0857
 1003.5000   -36.6134    11.7576     0.0210     2.4989     0.2708    90.4088   -63.9595    89.5105     9.4304     7.3289     7.7178   -62.5916   -80.0487
 1004.0000   -40.4074    11.7568     0.0082     2.5004     0.2738    90.5641   -63.6637    86.0503     9.3644     7.2269     7.6636   -62.4384   -80.0118
 1004.5000   -40.4440    11.7560    -0.0152     2.5058     0.2745    90.7325   -63.3634    82.6102     9.2344     7.2259     7.6631   -62.2853   -79.9748
 1005.0000   -44.2288    11.7561    -0.0183     2.5153     0.2727    91.1773   -63.0631    82.0118     9.2338     7.1251     7.6093   -62.4326   -79.9378
 1005.5000   -44.2655    11.7552     0.0117     2.5258     0.2646    91.1817   -62.7104    84.1175     9.1056     7.0748     7.5560   -62.4290   -79.9008
 1006.0000   -48.0510    11.7545     0.0418     2.5302     0.2710    91.2615   -62.4164    88.0244     9.1049     7.1234     7.5029   -62.5769   -72.3224
 1006.5000   -51.8366    11.7388     0.0658     2.5287     0.2897    91.2660   -62.1225    91.6309     9.1043     7.1720     7.4503   -62.7241   -72.1348
 1007.0000   -51.8808    11.7231     0.0642     2.5219     0.2976    91.2704   -61.8285    90.1323     9.1037     7.1708     7.3980   -62.8713   -68.4766
 1007.5000   -51.9175    11.7222     0.0503     2.5120     0.2964    91.3502   -61.5616    88.3335     9.0398     7.0710     7.5013   -63.3181   -72.2115
 1008.0000   -51.9542    11.7065     0.0355     2.5074     0.2916    91.5055   -61.2407    88.6367     8.9765     6.9726     7.5008   -63.7656   -72.1653
 1008.5000   -48.2427    11.7057     0.0535     2.5000     0.2833    91.8116   -64.7005    89.5405     8.9137     6.9716     7.3964   -64.0630   -72.1283
 1009.0000   -48.2793    11.7202     0.0655     2.4954     0.2791    92.0433   -66.0909    88.6025     8.9131     6.9707     7.3445   -64.0601   -72.0914
 1009.5000   -48.3160    11.7192     0.0685     2.4916     0.2695    92.1222   -67.8679    88.6462     8.8507     7.0671     7.3440   -64.0571   -72.0544
 1010.0000   -44.5954    11.7186     0.0172     2.4908     0.2653    92.0511   -67.5676    89.2497     8.9120     7.1154     7.3435   -64.0535   -79.5589
 1010.5000   -48.3893    11.7328     0.0006     2.5013     0.2757    91.9812   -67.2673    90.4539     8.9113     7.2139     7.3944   -64.0505   -79.5219
 1011.0000   -52.1741    11.7470     0.0172     2.5103     0.2882    91.9856   -66.9670    88.6550     8.9107     7.2631     7.5502   -64.1985   -79.4850
 1011.5000   -52.2114    11.7463     0.0306     2.5163     0.3148    91.7638   -66.6172    87.4560     8.9723     7.3637     7.6557   -64.1948   -79.4480
 1012.0000   -52.2489    11.7454     0.0411     2.5222     0.3070    91.5408   -66.3664    87.1586     9.0343     7.4139     7.7626   -64.1919   -79.4110
 1012.5000   -44.7970    11.7446     0.0591     2.5282     0.2896    91.8480   -66.0293    87.1623     9.0337     7.4127     7.7621   -64.0388   -75.6033
 1013.0000   -41.0763    11.7439     0.0710     2.5319     0.2939    92.3049   -69.4892    85.9640     8.9704     7.4117     7.7614   -63.7356   -71.7949
 1013.5000   -41.1222    11.7432     0.0770     2.5281     0.2966    92.6864   -69.2192    86.5775     8.8459     7.3085     7.6534   -63.7326   -71.7572
 1014.0000   -41.1588    11.7424     0.0649     2.5108     0.2909    92.9171   -68.9013    88.1122     8.8451     7.1569     7.4424   -63.5795   -71.7124
 1014.5000   -44.9436    11.7418     0.0406     2.4934     0.2795    92.7707   -64.8536    90.1777     8.7832     7.0573     7.0874   -63.4264   -67.9047
 1015.0000   -48.7284    11.7410     0.0287     2.4849     0.2777    92.5390   -64.5646    91.6822     8.7217     6.9109     6.9888   -63.1231   -67.8678
 1015.5000   -48.7650    11.7403    -0.0015     2.4813     0.2832    92.1019   -64.2268    93.4869     8.7211     6.8622     7.1360   -62.9529   -67.8308
 1016.0000   -48.8017    11.7395    -0.0166     2.4993     0.2869    91.5784   -60.2102    92.5882     8.7205     6.9623     7.3374   -62.5160   -71.5738
 1016.5000   -48.8384    11.7388     0.0044     2.5143     0.2854    91.7337   -56.0969    92.2908     8.7810     7.1026     7.3369   -62.2128   -71.5276
 1017.0000   -48.8756    11.7380     0.0390     2.5188     0.2837    91.8135   -55.8558    92.2945     8.8417     7.1511     7.3391   -61.7594   -71.4906
 1017.5000   -48.9130    11.7373     0.0422     2.5127     0.2819    91.8179   -55.5556    93.4989     8.8409     7.1499     7.3359   -60.8556   -71.4537
 1018.0000   -45.2002    11.7364     0.0252     2.5097     0.2877    91.8224   -51.4613    89.8982     8.9020     7.0016     7.4384   -59.8016   -67.6460
 1018.5000   -45.2460    11.7357     0.0222     2.5126     0.2751    91.9022   -47.4136    89.2998     8.9636     6.9525     7.5423   -59.4983   -67.6090
 1019.0000   -49.0308    11.7350     0.0523     2.5096     0.2685    91.9066   -47.1197    88.7021     8.9629     7.0975     7.5946   -59.4954   -67.5716
 1019.5000   -49.0675    11.7342     0.0612     2.5020     0.2727    91.9110   -50.6530    88.7058     8.9623     7.1960     7.6472   -59.4925   -67.5339
 1020.0000   -37.8597    11.7335     0.0491     2.4929     0.2827    91.6843   -51.3511    88.7087     8.9616     7.2451     7.6465   -59.6496   -67.4888
 1020.5000   -30.4001    11.7328     0.0370     2.4944     0.2951    91.3047   -53.7538    88.0811     8.9609     7.2439     7.5401   -59.7869   -59.9104
 1021.0000   -30.4368    11.7320     0.0219     2.5064     0.2993    91.6238   -53.4515    86.3129     8.9603     7.1928     7.4872   -59.7832   -25.9368
 1021.5000   -30.4735    11.7311     0.0128     2.5186     0.3084    92.5331   -53.1531    86.0148     8.9597     7.0927     7.4347   -59.9312   -22.1291
 1022.0000   -30.5101    11.7304     0.0068     2.5228     0.3073    93.2917   -52.8529    86.3188     8.8970     6.9940     7.3312   -59.9275   -37.1750
 1022.5000   -38.0435    11.7297     0.0232     2.5122     0.2968    93.6732   -52.4962    86.6220     8.8347     6.9444     7.2292   -60.0755   -63.5425
 1023.0000   -41.8291    11.7290     0.0518     2.4942     0.2972    93.6776   -52.2523    87.2255     8.8341     6.8478     7.1785   -60.3728   -63.4963
 1023.5000   -45.6217    11.7282     0.0578     2.4851     0.2996    93.4558   -52.7152    89.0302     8.7723     6.7995     7.1780   -60.8196   -63.4593
