~VERSION INFORMATION
 VERS.                2.0:   CWLS LOG ASCII STANDARD - VERSION 2.0
 WRAP.                 NO:   ONE LINE PER DEPTH STEP
~WELL INFORMATION
#MNEM.UNIT      DATA TYPE    INFORMATION
#----------   ------------   ------------------------------
 STRT.F          206.0000:   START DEPTH
 STOP.F         3080.5000:   STOP DEPTH
 STEP.F            0.5000:   STEP LENGTH
 NULL.          -999.2500:   NO VALUE
 COMP.    FENIX & SCISSON:   COMPANY
 WELL.   FENIX "A" #61-28:   WELL
 FLD .           N P R #3:   FIELD
 LOC .      S28 T39N R78W:   LOCATION
 CNTY.            NATRONA:   COUNTY
 STAT.            WYOMING:   STATE
 CTRY. UNITED STATES OF AMERICA:   COUNTRY
 SRVC.        SCHLUMBEGER:   SERVICE COMPANY
 DATE.        16-MAY-1977:   LOGDATE
 API .     49025103680000:   API NUMBER
~CURVE INFORMATION
#MNEM.UNIT       API CODE    CURVE DESCRIPTION
#----------   ------------   ------------------------------
 DEPT.F                  :   
 SPR .MV     07 010 01 00:   SPONTANEOUS POTENTIAL
 LL8 .OHMM   07 220 08 00:   LATEROLOG-8 RES.
 ILM .OHMM   07 120 44 00:   INDUCTION LOG MEDIUM RESISTIVITY
 ILD .OHMM   07 120 46 00:   DEEP INDUCTION RESISTIVITY
 CALD.IN     45 280 60 00:   CALIPER FROM DENSITY LOG
 GRD .GAPI   45 310 01 00:   GAMMA RAY FROM DENSITY LOG
 RHOB.G/C3   45 350 01 00:   BULK DENSITY
 CORR.G/C3   45 356 01 00:   DENSITY CORRECTION
~PARAMETER INFORMATION
#MNEM.UNIT          VALUE    DESCRIPTION
#----------   ------------   ------------------------------
 EKB .F         5019.0000:   Kelly bushing
 EGL .F         5009.0000:   Ground level
 EDF .F            0.0000:   Drilling floor
 TD  .F         3050.0000:   Total depth
 DATE.        16-MAY-1977:   Date logged
 CLNT.            A2DTECH:   Client Code
 SL  . 330' FNL & 1650' FEL:   Surface Location
 PD  .                 GL:   Permanent Datum
 DD  .F              3050:   Depth driller
 DL  .F              3079:   Depth logger
 BLI .F              3072:   Bottom log interval
 CS1 .IN            8.625:   Casing size
 CBD1.      8.625" @ 213':   Casing driller 1
 CBL1.F               213:   Casing logger 1
 BS1 .IN            7.875:   Bit size
 DFT .            KCL-MUD:   Type fluid in hole
 DFD .                9.2:   Density
 DFV .                 32:   Viscosity
 DFPH.                  8:   pH
 DFL .                7.6:   Fluid loss
 MSS .              CIRC.:   Source of sample
 RMS .OHMM          0.128:   Rm
 MST .F                62:   Rm Meas. temp.
 RMF .OHMM          0.126:   Rmf
 MFST.F                62:   Rmf Meas. temp.
 RMC .OHMM          0.192:   Rmc
 MCST.F                62:   Rmc Meas. temp.
 MFSS.               MEAS:   Source Rmf.
 RMB .OHMM           0.07:   Rm. at BHT
 BHT .F               112:   BHT.
 TCS .HRS            0900:   Time Circ. stopped
 MRT .F               112:   Maximum recorded temp.
 LUN .               7711:   Logging unit number
 LUL .               CSPR:   Logging unit location
 ENGI.             SAYLER:   Recorded By
 WITN.         PETTINGILL:   Witnessed by
 ORIG.           5" PRINT:   Origin of data
 UWI .     49025103680000:   Unique Well ID
 DICO. A2D TECHNOLOGIES, INC.:   Digitizing Company
 DAPD.                 10:   Feet Above Permanent Datum
 BSD1.               3050:   Depth drilled with bit1
 MCSS.               CALC:   Source Rmc.
 EPD .F              5009:   Elevation Permanent Datum
 LMF .                 KB:   Log Measured From
 DMF .                 KB:   Drilling Measured From
 TLI .F               213:   Top log interval
 TLAB.               1100:   Time logger at bottom
~OTHER INFORMATION
~A   DEPT      SPR        LL8        ILM        ILD       CALD         GRD      RHOB       CORR   
# ...
 2676.5000   -45.7450     8.8370     8.1480     7.9260     9.2390   113.9410     2.4930    -0.0010
 2677.0000   -45.8350     9.2410     8.2140     7.9690     9.2430   111.6350     2.4870    -0.0020
 2677.5000   -45.9250     9.2410     8.2800     8.0120     9.2460   109.4900     2.4940     0.0060
 2678.0000   -46.0160     9.1010     8.3460     8.0550     9.2500   109.8460     2.5010     0.0150
 2678.5000   -46.1060     8.9820     8.4120     8.0980     9.2530   110.4100     2.5020     0.0060
 2679.0000   -46.1980     8.9070     8.4780     8.1250     9.2570   108.9640     2.4930    -0.0060
 2679.5000   -46.2870     8.9070     8.5430     8.1250     9.2470   104.5460     2.4860    -0.0070
 2680.0000   -46.3780     9.1580     8.5850     8.2230     9.2380   101.0940     2.4910    -0.0010
 2680.5000   -46.4730     9.3740     8.5850     8.3070     9.2280    98.4370     2.4970     0.0070
 2681.0000   -46.5460     9.5890     8.7000     8.3910     9.2190    95.9450     2.4970     0.0100
 2681.5000   -46.7830     9.8050     8.9070     8.4290     9.2090    95.0590     2.4970     0.0080
 2682.0000   -47.1610     9.9460     8.8420     8.4290     9.1990    97.7190     2.5000     0.0110
 2682.5000   -47.5180     9.9460     8.6520     8.3560     9.1900   103.3610     2.5040     0.0140
 2683.0000   -47.8760     9.7180     8.4620     8.2200     9.1800   107.0040     2.5080     0.0120
 2683.5000   -48.2380     9.4100     8.2730     8.0850     9.1800   108.5360     2.5160     0.0120
 2684.0000   -48.5960     9.1020     8.0830     7.9500     9.1830   110.6060     2.5210     0.0150
 2684.5000   -48.9560     8.7940     7.8940     7.8310     9.1860   113.2890     2.5180     0.0100
 2685.0000   -49.3160     8.4290     7.6890     7.5390     9.1900   116.0100     2.5160     0.0050
 2685.5000   -49.6750     8.3130     7.4980     7.3310     9.1930   118.7280     2.5140     0.0020
 2686.0000   -50.0350     8.1870     7.2910     7.1240     9.1960   118.8300     2.5120     0.0050
 2686.5000   -50.3950     8.1250     7.0830     6.9170     9.2000   118.1400     2.5130     0.0080
 2687.0000   -50.7540     7.6530     6.8760     6.7090     9.2030   117.8120     2.5160     0.0110
 2687.5000   -51.1140     6.9850     6.6680     6.5020     9.2070   116.8340     2.5180     0.0140
 2688.0000   -51.4750     6.5160     6.4610     6.2940     9.2100   115.7290     2.5170     0.0170
 2688.5000   -51.8000     6.3210     6.2530     6.0870     9.2130   118.2640     2.5140     0.0090
 2689.0000   -52.0070     6.1670     6.0460     5.8790     9.2170   121.4550     2.5050    -0.0020
 2689.5000   -52.1970     6.2240     5.8380     5.6720     9.2200   123.8290     2.4950    -0.0040
 2690.0000   -52.3860     6.3410     5.5230     5.5230     9.2240   124.6670     2.4880    -0.0060
 2690.5000   -52.5760     6.4580     5.5470     5.5230     9.2270   125.1110     2.4840    -0.0070
 2691.0000   -52.7660     6.5750     5.5990     5.5230     9.2300   125.5680     2.4860    -0.0020
 2691.5000   -52.9560     6.6370     5.6500     5.5230     9.2340   127.4950     2.4930     0.0020
 2692.0000   -53.1430     6.4790     5.7290     5.4960     9.2370   130.0650     2.5000    -0.0010
 2692.5000   -53.3370     6.3320     5.6880     5.3970     9.2410   129.9200     2.5070    -0.0040
 2693.0000   -53.4050     6.2340     5.5970     5.2980     9.2440   129.5760     2.5110     0.0070
 2693.5000   -53.3980     6.1670     5.5060     5.1990     9.2470   128.9630     2.5120     0.0090
 2694.0000   -53.4090     5.9300     5.4160     5.1000     9.2510   128.7070     2.5140     0.0060
 2694.5000   -53.4450     5.7050     5.3250     5.0010     9.2540   129.5080     2.5150     0.0070
 2695.0000   -53.4790     5.5230     5.2340     4.9020     9.2570   130.2400     2.5150     0.0080
 2695.5000   -53.5160     5.6020     5.1440     4.8040     9.2580   130.0660     2.5150     0.0100
 2696.0000   -53.5510     5.5680     5.0530     4.6800     9.2600   128.4300     2.5150     0.0110
 2696.5000   -53.5870     5.3220     4.9620     4.6510     9.2610   125.7730     2.5150     0.0080
 2697.0000   -53.6220     5.1970     4.8560     4.6160     9.2620   127.6460     2.5160     0.0040
 2697.5000   -53.6580     5.4890     4.9030     4.5950     9.2640   131.1210     2.5130     0.0000
 2698.0000   -53.6930     5.8360     5.0160     4.6750     9.2650   133.0300     2.5090    -0.0040
 2698.5000   -53.7310     5.8730     5.1280     4.8030     9.2660   132.9670     2.5050    -0.0030
 2699.0000   -53.7630     5.9440     5.2400     4.9310     9.2670   132.1110     2.5020     0.0020
 2699.5000   -53.7990     6.1420     5.3530     5.0590     9.2690   130.5220     2.5060     0.0110
 2700.0000   -53.8100     6.3880     5.4650     5.1870     9.2700   129.1110     2.5320     0.0210
 2700.5000   -53.9340     6.6370     5.5780     5.3160     9.2710   127.6040     2.5300     0.0220
 2701.0000   -54.0370     6.6370     5.6250     5.4220     9.2720   124.7340     2.5250     0.0130
 2701.5000   -54.1500     6.6370     5.6250     5.4220     9.2740   123.3120     2.5200     0.0080
 2702.0000   -54.2570     6.6370     5.6250     5.4220     9.2750   124.8490     2.5170     0.0070
 2702.5000   -54.3660     6.6370     5.5850     5.3330     9.2760   128.0480     2.5260     0.0110
 2703.0000   -54.4750     6.4500     5.4630     5.2110     9.2770   131.2370     2.5170     0.0050
 2703.5000   -54.5850     6.2460     5.3400     5.0890     9.2770   134.4650     2.5060     0.0010
 2704.0000   -54.6920     6.0410     5.2180     4.9660     9.2770   137.6110     2.5030     0.0060
 2704.5000   -54.8030     5.8370     5.0950     4.8440     9.2770   139.5290     2.5070     0.0110
 2705.0000   -54.9120     5.6330     4.9720     4.7220     9.2770   140.5550     2.5070     0.0070
 2705.5000   -54.9940     5.4290     4.8500     4.6000     9.2760   141.5120     2.5050     0.0040
 2706.0000   -54.9470     5.2260     4.7270     4.4780     9.2740   142.2650     2.5090     0.0010
 2706.5000   -54.9080     5.3500     4.6050     4.4290     9.2710   137.6450     2.5160     0.0010
 2707.0000   -54.8630     5.4730     4.4820     4.3680     9.2690   129.5940     2.5220     0.0030
 2707.5000   -54.8220     5.5950     4.4290     4.3160     9.2670   122.6310     2.5240     0.0090
 2708.0000   -54.7790     5.4430     4.3790     4.2650     9.2650   117.4500     2.5240     0.0140
 2708.5000   -54.7350     5.2020     4.3350     4.2130     9.2630   115.9020     2.5200     0.0140
 2709.0000   -54.6950     5.0380     4.2910     4.1620     9.2610   120.6700     2.5130     0.0090
 2709.5000   -54.6480     5.0380     4.2690     4.1150     9.2580   129.1210     2.5060     0.0040
 2710.0000   -54.5970     4.9670     4.5750     4.2340     9.2560   135.4900     2.5080     0.0000
 2710.5000   -54.2920     4.9040     5.0180     4.3420     9.2540   136.8710     2.5110     0.0040
 2711.0000   -53.8960     4.8560     5.4600     4.4510     9.2520   134.6310     2.5110     0.0060
 2711.5000   -53.5030     4.9460     5.9020     4.7250     9.2500   133.8360     2.5080     0.0010
 2712.0000   -53.1130     6.5100     6.3450     5.2110     9.2480   134.4570     2.5060     0.0060
 2712.5000   -52.7190     8.0260     6.7870     5.6960     9.2450   134.0740     2.5120     0.0110
 2713.0000   -52.3280     9.5410     7.2300     6.1820     9.2430   128.8380     2.5170     0.0150
 2713.5000   -51.9360    11.1060     7.6720     6.6680     9.2410   123.1330     2.5150     0.0130
 2714.0000   -51.5440    10.1300     8.1140     7.1540     9.2390   120.4630     2.5090     0.0110
 2714.5000   -51.1550    10.1830     8.5850     7.7580     9.2360   122.2950     2.5030     0.0080
 2715.0000   -50.7560    10.3180     8.7450     8.4020     9.2330   125.4900     2.5040     0.0140
 2715.5000   -50.5330    10.3180     8.9070     8.7450     9.2300   128.6810     2.5100     0.0200
 2716.0000   -50.4240    10.2150     8.9070     8.7450     9.2260   129.2680     2.5190     0.0260
 2716.5000   -50.3240    10.1000     8.9070     8.7450     9.2230   127.3530     2.5210     0.0240
