~VERSION INFORMATION
 VERS.                2.0:   CWLS LOG ASCII STANDARD - VERSION 2.0
 WRAP.                 NO:   ONE LINE PER DEPTH STEP
~WELL INFORMATION
#MNEM.UNIT      DATA TYPE    INFORMATION
#----------   ------------   ------------------------------
 STRT.F          200.0000:   START DEPTH
 STOP.F         3098.0000:   STOP DEPTH
 STEP.F            0.5000:   STEP LENGTH
 NULL.          -999.2500:   NO VALUE
 COMP.    FENIX & SCISSON:   COMPANY
 WELL.   FENIX "AX" #74-3:   WELL
 FLD .              N P R:   FIELD
 LOC .       S3 T38N R78W:   LOCATION
 CNTY.            NATRONA:   COUNTY
 STAT.            WYOMING:   STATE
 CTRY. UNITED STATES OF AMERICA:   COUNTRY
 SRVC.              WELEX:   SERVICE COMPANY
 DATE.        17-AUG-1977:   LOGDATE
 API .     49025104120000:   API NUMBER
~CURVE INFORMATION
#MNEM.UNIT       API CODE    CURVE DESCRIPTION
#----------   ------------   ------------------------------
 DEPT.F                  :   
 CALD.IN     45 280 60 00:   CALIPER FROM DENSITY LOG
 SPR .MV     07 010 01 00:   SPONTANEOUS POTENTIAL
 NPHI.DEC    42 890 00 00:   NEUTRON POROSITY
 GRD .GAPI   45 310 01 00:   GAMMA RAY FROM DENSITY LOG
 CORR.G/C3   45 356 01 00:   DENSITY CORRECTION
 RHOB.G/C3   45 350 01 00:   BULK DENSITY
 SGRD.OHMM   07 220 05 00:   SHALLOW SHORT GUARD RESISTIVITY
 ILD .OHMM   07 120 46 00:   DEEP INDUCTION RESISTIVITY
 ILM .OHMM   07 120 44 00:   INDUCTION LOG MEDIUM RESISTIVITY
~PARAMETER INFORMATION
#MNEM.UNIT          VALUE    DESCRIPTION
#----------   ------------   ------------------------------
 EKB .F         5141.0000:   Kelly bushing
 EGL .F         5131.0000:   Ground level
 EDF .F            0.0000:   Drilling floor
 TD  .F         3100.0000:   Total depth
 DATE.        17-AUG-1977:   Date logged
 CLNT.            A2DTECH:   Client Code
 SL  . 2272' FNL & 1060' FEL:   Surface Location
 PD  .                 GL:   Permanent Datum
 EPD .F              5131:   Elevation Permanent Datum
 LMF .                 KB:   Log Measured From
 DMF .                 KB:   Drilling Measured From
 DD  .F              3100:   Depth driller
 DL  .F              3100:   Depth logger
 BLI .F              3098:   Bottom log interval
 TLI .F               200:   Top log interval
 CS1 .IN            8.625:   Casing size
 CBD1.      8.625" @ 215':   Casing driller 1
 CBL1.F               218:   Casing logger 1
 BS1 .IN            7.875:   Bit size
 DFT .            KCL MUD:   Type fluid in hole
 DFD .                8.8:   Density
 DFV .                 33:   Viscosity
 DFPH.                9.5:   pH
 DFL .               10.6:   Fluid loss
 MSS .           FLOWLINE:   Source of sample
 RMS .OHMM            .67:   Rm
 MST .F                98:   Rm Meas. temp.
 RMF .OHMM            .64:   Rmf
 MFST.F                98:   Rmf Meas. temp.
 RMC .OHMM            .31:   Rmc
 MCST.F                98:   Rmc Meas. temp.
 MFSS.           MEASURED:   Source Rmf.
 RMB .OHMM            .57:   Rm. at BHT
 BHT .F               115:   BHT.
 TCS .HRS               3:   Time Circ. stopped
 MRT .F               115:   Maximum recorded temp.
 LUN .               8611:   Logging unit number
 LUL .             CASPER:   Logging unit location
 ENGI.            C. DOAK:   Recorded By
 WITN.     MR. PETTINGILL:   Witnessed by
 ORIG.           5" PRINT:   Origin of data
 UWI .     49025104120000:   Unique Well ID
 DICO. A2D TECHNOLOGIES, INC.:   Digitizing Company
 BSD1.               3100:   Depth drilled with bit1
~OTHER INFORMATION
~A   DEPT       CALD      SPR       NPHI          GRD      CORR        RHOB     SGRD        ILD        ILM   
# ...
 2463.0000     8.7790   -68.7020     0.2700   129.1880     0.0380     2.5780     9.6430     6.8210     8.4240
 2463.5000     8.7840   -68.7020     0.2700   127.2030     0.0340     2.5760     9.8370     6.7840     8.3710
 2464.0000     8.7890   -68.7020     0.2710   127.4360     0.0300     2.5730     9.6080     6.7480     8.2670
 2464.5000     8.7940   -68.7020     0.2700   128.0730     0.0260     2.5640     9.4440     6.7110     8.2750
 2465.0000     8.7970   -68.7020     0.2670   128.7210     0.0210     2.5540     9.1430     6.6750     8.2860
 2465.5000     8.7950   -68.7020     0.2630   129.4590     0.0200     2.5450     9.2940     6.6390     8.2980
 2466.0000     8.7930   -68.7020     0.2650   130.6420     0.0190     2.5280     9.4820     6.6020     8.3090
 2466.5000     8.7910   -68.7020     0.2700   131.8210     0.0190     2.5090     9.6690     6.5660     8.3200
 2467.0000     8.7890   -68.7020     0.2740   133.0160     0.0180     2.5080     9.8560     6.5290     8.3320
 2467.5000     8.7880   -68.7020     0.2780   133.9730     0.0170     2.5120     9.9280     6.4930     8.3430
 2468.0000     8.7860   -68.7020     0.2790   132.4970     0.0170     2.5160     9.5320     6.4560     8.3430
 2468.5000     8.7840   -68.7020     0.2760   130.6590     0.0160     2.5040     9.2540     6.4200     8.2950
 2469.0000     8.7820   -68.7020     0.2740   128.8200     0.0140     2.5170     8.9770     6.3900     8.2290
 2469.5000     8.7800   -68.7020     0.2720   126.9820     0.0110     2.5250     8.9770     6.3520     8.1170
 2470.0000     8.7780   -68.7020     0.2690   125.1520     0.0090     2.5290     9.4230     6.3140     8.0430
 2470.5000     8.7780   -68.7020     0.2670   123.3090     0.0060     2.5250     9.9280     6.2750     7.9590
 2471.0000     8.7780   -68.7020     0.2650   123.2770     0.0060     2.5230     9.5000     6.2370     7.8000
 2471.5000     8.7770   -68.7020     0.2650   124.2710     0.0070     2.5230     8.9390     6.1990     7.6410
 2472.0000     8.7970   -68.7020     0.2660   125.2880     0.0070     2.5270     8.3780     6.1610     7.4820
 2472.5000     8.8250   -68.7020     0.2670   126.3060     0.0080     2.5300     7.8970     6.1230     7.4070
 2473.0000     8.8520   -68.7020     0.2700   127.3260     0.0090     2.5260     8.1580     6.0850     7.4170
 2473.5000     8.8790   -68.7020     0.2750   128.3440     0.0090     2.5220     8.5000     6.0550     7.4300
 2474.0000     8.9080   -68.7020     0.2800   129.2910     0.0100     2.5180     8.8430     6.0550     7.4430
 2474.5000     8.8990   -68.7020     0.2850   128.1570     0.0110     2.5140     9.1850     6.1370     7.4560
 2475.0000     8.8790   -68.7020     0.2900   126.6610     0.0110     2.5110     9.3970     6.1920     7.4690
 2475.5000     8.8590   -68.7020     0.2940   125.1290     0.0120     2.5140     9.3440     6.2470     7.4820
 2476.0000     8.8380   -68.7020     0.2970   126.1550     0.0120     2.5200     9.1220     6.3020     7.4950
 2476.5000     8.8180   -68.7020     0.2990   127.5850     0.0130     2.5230     8.9000     6.3390     7.5080
 2477.0000     8.8170   -68.7020     0.2990   129.0240     0.0140     2.5140     8.6780     6.3270     7.5210
 2477.5000     8.8170   -68.7020     0.2990   130.4500     0.0140     2.5070     8.4550     6.2940     7.5360
 2478.0000     8.8170   -68.7020     0.2990   131.9120     0.0140     2.5140     8.2330     6.2610     7.6130
 2478.5000     8.8170   -68.7020     0.2990   131.4090     0.0160     2.5330     8.0430     6.2280     7.6830
 2479.0000     8.8170   -68.7020     0.2990   130.0340     0.0180     2.5520     8.3300     6.1950     7.4830
 2479.5000     8.8250   -68.7020     0.2980   128.6260     0.0200     2.5640     8.5550     6.1630     7.3330
 2480.0000     8.8360   -68.7020     0.2960   128.4600     0.0220     2.5660     8.7790     6.1300     7.1830
 2480.5000     8.8480   -68.6990     0.2940   130.5260     0.0220     2.5610     9.0040     6.0970     7.0750
 2481.0000     8.8570   -68.6850     0.2920   132.6620     0.0220     2.5530     9.1430     6.0640     7.1400
 2481.5000     8.8630   -68.8750     0.2910   132.2780     0.0220     2.5530     9.2270     6.0310     7.2280
 2482.0000     8.8680   -69.0680     0.2930   131.0950     0.0200     2.5540     8.9370     5.9990     7.3220
 2482.5000     8.8740   -69.0510     0.2950   129.9080     0.0170     2.5340     8.6610     5.9660     7.4160
 2483.0000     8.8800   -69.0280     0.2940   129.8450     0.0150     2.5120     8.3850     5.9220     7.4750
 2483.5000     8.8850   -69.0030     0.2930   131.2090     0.0120     2.5050     8.1090     5.7970     7.4070
 2484.0000     8.8910   -68.9790     0.2950   132.5590     0.0100     2.5040     7.8320     5.6720     7.2410
 2484.5000     8.8960   -68.9550     0.2980   133.9120     0.0080     2.5050     7.7540     5.5460     7.0750
 2485.0000     8.9020   -68.9310     0.2990   135.2690     0.0080     2.5070     7.7540     5.4210     6.9830
 2485.5000     8.9070   -68.9070  -999.2500   136.7720     0.0120     2.5120     7.6510     5.2960     6.8210
 2486.0000     8.9130   -68.8830  -999.2500   138.9510     0.0150     2.5210     7.4110     5.1710     6.6590
 2486.5000     8.9200   -68.8580  -999.2500   141.0720     0.0190     2.5300     7.2060     5.1350     6.4970
 2487.0000     8.9300   -68.8340  -999.2500   143.2030     0.0230     2.5370     7.5340     5.1350     6.3970
 2487.5000     8.9400   -68.8100  -999.2500   145.1810     0.0260     2.5370     7.8790     5.1610     6.4700
 2488.0000     8.9500   -68.7860  -999.2500   143.8130     0.0280     2.5410     8.1910     5.2200     6.5600
 2488.5000     8.9600   -68.7620  -999.2500   141.6890     0.0260     2.5460     8.4190     5.2800     6.6510
 2489.0000     8.9710   -68.7370  -999.2500   139.5570     0.0250     2.5510     8.3440     5.3390     6.7410
 2489.5000     8.9810   -68.7130  -999.2500   137.4570     0.0240     2.5480     8.2120     5.3990     6.8310
 2490.0000     8.9910   -68.6890  -999.2500   136.8470     0.0230     2.5400     8.0800     5.4750     6.9210
 2490.5000     8.9920   -68.6650  -999.2500   138.2250     0.0210     2.5330     8.0430     5.4620     6.9470
 2491.0000     8.9820   -68.6410     0.3040   139.3850     0.0200     2.5300     7.9990     5.4420     6.8640
 2491.5000     8.9610   -68.6170     0.3070   137.8910     0.0190     2.5340     7.9420     5.4230     6.7910
 2492.0000     8.9410   -68.5920     0.3080   136.3020     0.0170     2.5390     7.8850     5.4040     6.7180
 2492.5000     8.9200   -68.5680     0.3050   134.7390     0.0160     2.5440     7.8270     5.3850     6.6970
 2493.0000     8.9140   -68.5440     0.3020   134.8360     0.0150     2.5470     7.7700     5.3660     6.6970
 2493.5000     8.9140   -68.5200     0.3020   136.7020     0.0130     2.5410     7.7130     5.3470     6.6740
 2494.0000     8.9150   -68.4930     0.3010   138.2440     0.0120     2.5340     7.6130     5.3280     6.6210
 2494.5000     8.9200   -68.4430     0.3000   138.2120     0.0110     2.5280     7.6130     5.3080     6.5750
 2495.0000     8.9250   -68.3940     0.3000   138.2070     0.0100     2.5290     7.6830     5.2890     6.5970
 2495.5000     8.9300   -68.3450     0.2990   138.2090     0.0130     2.5320     7.7490     5.2780     6.7110
 2496.0000     8.9360   -68.2960     0.2990   137.7270     0.0170     2.5360     7.8570     5.4960     6.8250
 2496.5000     8.9410   -68.2470     0.2970   136.8470     0.0200     2.5450     7.9690     5.6490     6.9390
 2497.0000     8.9460   -68.1980     0.2920   135.9650     0.0230     2.5560     8.2630     5.8020     7.0530
 2497.5000     8.9510   -68.1490     0.2880   135.0830     0.0270     2.5630     8.6490     5.9540     7.2580
 2498.0000     8.9560   -68.0990     0.2840   134.0340     0.0300     2.5560     9.0340     6.1070     7.4780
 2498.5000     8.9610   -68.0500     0.2820   132.0230     0.0290     2.5510     9.4200     6.2600     7.6970
 2499.0000     8.9660   -68.0010     0.2780   129.9840     0.0290     2.5560     9.7480     6.4120     7.9170
