~VERSION INFORMATION
 VERS.                2.0:   CWLS LOG ASCII STANDARD - VERSION 2.0
 WRAP.                 NO:   ONE LINE PER DEPTH STEP
~WELL INFORMATION
#MNEM.UNIT      DATA TYPE    INFORMATION
#----------   ------------   ------------------------------
 STRT.F          637.0000:   START DEPTH
 STOP.F         3158.0000:   STOP DEPTH
 STEP.F            0.5000:   STEP LENGTH
 NULL.          -999.2500:   NO VALUE
 COMP.    FENIX & SCISSON:   COMPANY
 WELL.  FENIX "AX" #34-33:   WELL
 FLD .             NPR #3:   FIELD
 LOC .      S33 T39N R78W:   LOCATION
 CNTY.            NATRONA:   COUNTY
 STAT.            WYOMING:   STATE
 CTRY. UNITED STATES OF AMERICA:   COUNTRY
 SRVC.       SCHLUMBERGER:   SERVICE COMPANY
 DATE.        15-APR-1977:   LOGDATE
 API .     49025103450000:   API NUMBER
~CURVE INFORMATION
#MNEM.UNIT       API CODE    CURVE DESCRIPTION
#----------   ------------   ------------------------------
 DEPT.F                  :   
 CALD.IN     45 280 60 00:   CALIPER FROM DENSITY LOG
 GRD .GAPI   45 310 01 00:   GAMMA RAY FROM DENSITY LOG
 RHOB.G/C3   45 350 01 00:   BULK DENSITY
 CORR.G/C3   45 356 01 00:   DENSITY CORRECTION
 SPR .MV     07 010 01 00:   SPONTANEOUS POTENTIAL
 SFLU.OHMM   07 220 01 00:   SPHERICALLY FOCUSED LOG UNAVERAGED RESISTIVITY
 ILD .OHMM   07 120 46 00:   INDUCTION LOG DEEP RESISTIVITY
 ILM .OHMM   07 120 44 00:   INDUCTION LOG MEDIUM RESISTIVITY
~PARAMETER INFORMATION
#MNEM.UNIT          VALUE    DESCRIPTION
#----------   ------------   ------------------------------
 EKB .F         5196.0000:   Kelly bushing
 EGL .F         5185.0000:   Ground level
 EDF .F            0.0000:   Drilling floor
 TD  .F         3159.0000:   Total depth
 DATE.        15-APR-1977:   Date logged
 CLNT.            A2DTECH:   Client Code
 SL  . 2132' FNL & 1750' FWL:   Surface Location
 PD  .                 GL:   Permanent Datum
 EPD .F              5185:   Elevation Permanent Datum
 LMF .                 KB:   Log Measured From
 DMF .                 KB:   Drilling Measured From
 DAPD.F                11:   Feet Above Permanent Datum
 DD  .F              3156:   Depth driller
 DL  .F              3159:   Depth logger
 BLI .F              3153:   Bottom log interval
 TLI .F               637:   Top log interval
 CS1 .IN            8.625:   Casing size
 CBD1.      8.625" @ 637':   Casing driller 1
 CBL1.F               637:   Casing logger 1
 BS1 .IN            7.875:   Bit size
 BSD1.F              3156:   Depth drilled with bit1
 DFT .                FGM:   Type fluid in hole
 DFD .                7.5:   Density
 DFV .                 35:   Viscosity
 DFPH.                8.5:   pH
 DFL .                  9:   Fluid loss
 MSS .                PIT:   Source of sample
 RMS .OHMM            .48:   Rm
 MST .F                60:   Rm Meas. temp.
 RMF .OHMM            .28:   Rmf
 MFST.F                60:   Rmf Meas. temp.
 MFSS.               MEAS:   Source Rmf.
 RMB .OHMM            .24:   Rm. at BHT
 BHT .F               120:   BHT.
 TCS .HRS            0200:   Time Circ. stopped
 MRT .F               120:   Maximum recorded temp.
 LUN .               7680:   Logging unit number
 LUL .               CSPR:   Logging unit location
 ENGI.             TAYLOR:   Recorded By
 WITN.         PETTINGILL:   Witnessed by
 ORIG.           5" PRINT:   Origin of data
 UWI .     49025103450000:   Unique Well ID
 DICO. A2D TECHNOLOGIES, INC.:   Digitizing Company
 TLAB.               0530:   Time logger at bottom
~OTHER INFORMATION
~A   DEPT       CALD      GRD       RHOB       CORR        SPR         SFLU        ILD        ILM 
# ...
 2297.5000     7.8088   127.1333     2.5135     0.0899   -44.7226     9.0592     6.4431     5.7160
 2298.0000     7.8089   127.1343     2.4995     0.0358   -44.7241     8.6687     6.4428     5.7688
 2298.5000     7.8090   126.9364     2.5055     0.0388   -44.7256     9.1637     6.4427     5.8760
 2299.0000     7.8091   125.9426     2.5055     0.0708   -44.7272    10.0527     6.5623     5.9972
 2299.5000     7.8092   127.5348     2.5115     0.0838   -44.7287    10.3356     6.6228     6.1523
 2300.0000     7.8093   128.1321     2.5315     0.1209   -44.5317    10.3352     6.6226     6.1522
 2300.5000     7.8094   128.7303     2.5589     0.1859   -44.5305     9.9326     6.6224     6.0818
 2301.0000     7.7896   126.7439     2.5706     0.1960   -44.5298     9.2491     6.6232     5.9859
 2301.5000     7.8096   123.7638     2.5576     0.2120   -44.5288     8.9961     6.6235     5.9854
 2302.0000     7.8097   117.6024     2.5346     0.1729   -44.5278     8.9965     6.6238     5.9855
 2302.5000     7.8098   114.2240     2.4805     0.0528   -44.5268     9.0806     6.6241     6.0412
 2303.0000     7.8298   114.6233     2.4995     0.0278   -44.5258    10.0547     6.5035     6.0961
 2303.5000     7.8299   116.2152     2.4945     0.0258   -44.7235     9.1659     6.4442     6.1515
 2304.0000     7.8301   117.4098     2.4795     0.0188   -44.5237     9.2514     6.5041     6.2075
 2304.5000     7.8103   118.4056     2.5106     0.0358   -44.3239     9.3380     6.5044     6.2692
 2305.0000     7.8303   120.7933     2.4976     0.0388   -44.1241     9.3386     6.5047     6.3274
 2305.5000     7.8304   123.1798     2.4976     0.0559   -44.1231     9.1676     6.6259     6.3862
 2306.0000     7.8306   121.3931     2.4926     0.0749   -44.1221     8.7532     6.7494     6.3865
 2306.5000     7.8108   119.4064     2.4816     0.0819   -44.3200     8.2042     6.8122     6.5741
 2307.0000     7.8109   116.0282     2.4706     0.1039   -44.3190     8.2809     7.0034     6.8126
 2307.5000     7.8110   114.2391     2.4566     0.0469   -44.1192     9.0848     7.1339     6.8759
 2308.0000     7.8111   117.4234     2.4756     0.0269   -43.7206     9.5158     7.3341     6.9396
 2308.5000     7.8113   121.2027     2.4833     0.0119   -43.5208     9.9672     7.7512     7.2909
 2309.0000     7.8114   122.7952     2.4906     0.0139   -43.5198    10.0604     7.8232     7.6601
 2309.5000     7.8115   124.9843     2.5016     0.0179   -43.7177    10.5377     7.8237     7.9691
 2310.0000     7.7519   126.7757     2.4976     0.0229   -43.7167    11.2440     7.8240     8.0432
 2310.5000     7.7520   127.1751     2.5057     0.0289   -43.5169    11.3490     7.6816     8.0436
 2311.0000     7.7539   125.3872     2.5067     0.0329   -43.3171    11.4551     7.4040     8.0439
 2311.5000     7.7558   123.7980     2.5477     0.0429   -42.9183    11.2454     7.3365     7.9706
 2312.0000     7.7577   123.9986     2.5677     0.0309   -42.7185    10.3467     6.9424     7.8978
 2312.5000     7.7597   125.5912     2.5127     0.0269   -42.7175    10.0637     6.5694     7.6125
 2313.0000     7.7616   127.1839     2.4977     0.0249   -42.3189     9.6982     6.2740     7.4054
 2313.5000     7.7635   126.5890     2.4797     0.0269   -41.9203     9.6986     6.1034     7.0076
 2314.0000     7.7654   122.8133     2.4967     0.0269   -41.3229     9.8805     5.9373     6.8798
 2314.5000     7.7673   120.8256     2.4987     0.0209   -40.9243     8.8416     5.9375     5.8073
 2315.0000     7.7693   118.4407     2.5027     0.0220   -40.7245     6.2191     5.9378     5.1242
 2315.5000     7.7712   119.8346     2.5097     0.0300   -40.7235     6.0489     5.9381     5.1718
 2316.0000     7.7731   121.8250     2.5117     0.0300   -40.7226     7.9201     5.9383     5.3998
 2316.5000     7.7750   125.8043     2.5128     0.0280   -40.7216    10.0674     5.9936     5.6379
 2317.0000     7.7769   127.1978     2.5358     0.0430   -40.7206    10.1615     6.0493     5.8865
 2317.5000     7.7789   126.4044     2.5388     0.0530   -40.7196    10.0684     6.1056     6.1056
 2318.0000     7.7808   125.0140     2.5458     0.0400   -40.7186    10.1333     6.1059     6.1059
 2318.5000     7.7827   118.6509     2.5508     0.0490   -40.9165     9.4373     5.9947     6.0502
 2319.0000     7.7846   120.8408     2.5558     0.0520   -41.1143     8.9276     5.7252     5.9950
 2319.5000     7.7865   123.2291     2.5548     0.0490   -41.1131     8.9280     5.5183     5.8319
 2320.0000     7.7884   123.6286     2.5598     0.0490   -41.1121     8.7646     5.3682     5.6212
 2320.5000     7.7904   121.6414     2.5629     0.0570   -40.9124     7.9161     5.0796     5.4181
 2321.0000     7.7923   124.0299     2.5689     0.0781   -41.1102     6.3978     5.0306     5.3195
 2321.5000     7.7944   125.2242     2.5559     0.0551   -41.1092     5.8864     4.9820     5.2709
 2322.0000     7.7945   122.0443     2.5469     0.0741   -41.1082     5.8324     4.9420     5.1750
 2322.5000     7.7946   113.8909     2.5789     0.0621   -41.1072     6.1660     4.8521     5.1277
 2323.0000     7.7550   114.4897     2.5509     0.0321   -41.1063     6.8275     4.7638     5.1280
 2323.5000     7.7551   118.4691     2.5509     0.0251   -41.1053     7.0855     4.6770     5.1283
 2324.0000     7.7552   122.4877     2.5299     0.0241   -41.1043     7.0205     4.6343     5.1284
 2324.5000     7.7553   126.5062     2.5149     0.0011   -41.1033     6.9561     4.5500     5.0817
 2325.0000     7.7753   132.1986     2.5279     0.0071   -41.3011     6.8923     4.5501     4.8981
 2325.5000     7.7754   137.7700     2.5339     0.0511   -41.3002     6.1109     4.3858     4.6350
 2326.0000     7.7756   138.9654     2.5179     0.0431   -41.2992     5.8346     4.3458     4.4675
 2326.5000     7.7558   140.1607     2.5099     0.0271   -41.0994     5.4182     4.3459     4.4677
 2327.0000     7.7559   129.8191     2.5159     0.0341   -41.0982     5.1733     4.3063     4.4270
 2327.5000     7.7560   127.8317     2.5289     0.0341   -41.0972     5.4691     4.3066     4.3866
 2328.0000     7.7561   123.4567     2.5309     0.0181   -41.2951     5.8900     4.4684     4.4274
 2328.5000     7.7563   123.8570     2.5350     0.0351   -41.8905     6.9587     4.5938     4.5099
 2329.0000     7.7564   124.6545     2.5380     0.0411   -41.8895     7.9223     4.7227     4.5101
 2329.5000     7.7565   125.4508     2.5350     0.0401   -42.0874     6.6444     4.7229     4.4689
 2330.0000     7.7566   123.0664     2.5400     0.0311   -42.4840     5.6245     4.7668     4.4692
 2330.5000     7.7567   120.6810     2.5440     0.0341   -42.4830     5.1273     4.9459     4.5946
 2331.0000     7.7569   123.0699     2.5510     0.0372   -42.2832     5.5219     5.0381     4.7235
 2331.5000     7.7570   124.4641     2.5570     0.0592   -42.0834     7.0253     5.1320     4.8561
 2332.0000     7.7571   125.0627     2.5540     0.0592   -41.2872     7.9982     5.2277     5.0852
 2332.5000     7.7572   120.2898     2.5260     0.0262   -41.2862     7.6367     5.3251     5.4743
 2333.0000     7.7572   119.4957     2.5150     0.0232   -41.2853     7.8522     5.4745     5.6800
 2333.5000     7.7574   119.2984     2.5080     0.0182   -41.2843     8.2247     5.5764     5.8394
 2334.0000     7.7575   119.3001     2.5390     0.0262   -41.0843     7.8530     5.6805     5.8937
 2334.5000     7.7577   118.3070     2.5440     0.0362   -41.2821     7.2925     5.6807     5.8940
 2335.0000     7.7578   116.7174     2.5320     0.0322   -40.8835     7.2929     5.5773     5.6810
 2335.5000     7.7579   116.1222     2.5210     0.0132   -40.8825     8.1504     5.3759     5.5776
 2336.0000     7.7580   115.3280     2.5181     0.0192   -40.6828     8.4584     5.2780     5.4761
 2336.5000     7.7581   117.9161     2.5111     0.0182   -40.6818     7.7106     5.2298     5.2781
 2337.0000     7.7582   117.5198     2.4850     0.0112   -40.4820     6.0050     5.1347     5.3766
 2337.5000     7.7584   118.7153     2.5031     0.0052   -40.4810     5.8956     5.1824     5.4266
