~VERSION INFORMATION
 VERS.                2.0:   CWLS LOG ASCII STANDARD - VERSION 2.0
 WRAP.                 NO:   ONE LINE PER DEPTH STEP
~WELL INFORMATION
#MNEM.UNIT      DATA TYPE    INFORMATION
#----------   ------------   ------------------------------
 STRT.F          450.5000:   START DEPTH
 STOP.F         3173.5000:   STOP DEPTH
 STEP.F            0.5000:   STEP LENGTH
 NULL.          -999.2500:   NO VALUE
 COMP.    FENIX & SCISSON:   COMPANY
 WELL. FENIX & SCISSONNPR #72-TX-33:   WELL
 FLD .              N.P.R:   FIELD
 LOC .      S33 T39N R78W:   LOCATION
 CNTY.            NATRONA:   COUNTY
 STAT.            WYOMING:   STATE
 CTRY. UNITED STATES OF AMERICA:   COUNTRY
 SRVC.       SCHLUMBERGER:   SERVICE COMPANY
 DATE.        03-SEP-1981:   LOGDATE
 API .     49025108810000:   API NUMBER
~CURVE INFORMATION
#MNEM.UNIT       API CODE    CURVE DESCRIPTION
#----------   ------------   ------------------------------
 DEPT.F                  :   
 CALD.IN     45 280 60 00:   CALIPER FROM DENSITY LOG
 GRD .GAPI   45 310 01 00:   GAMMA RAY FROM DENSITY LOG
 DPHI.DEC    45 890 03 00:   
 RHOB.G/C3   45 350 01 00:   BULK DENSITY
 CORR.G/C3   45 356 01 00:   DENSITY CORRECTION
 SPR .MV     07 010 01 00:   SPONTANEOUS POTENTIAL
 SFL .OHMM   07 220 01 00:   SHALLOW FOCUSED LOG RESISTIVITY
 ILD .OHMM   07 120 46 00:   DEEP INDUCTION RESISTIVITY
 ILM .OHMM   07 120 44 00:   INDUCTION LOG MEDIUM RESISTIVITY
 TENR.LBS    07 635 01 00:   TENSION FROM RESISTIVITY
~PARAMETER INFORMATION
#MNEM.UNIT          VALUE    DESCRIPTION
#----------   ------------   ------------------------------
 EKB .F         5115.0000:   Kelly bushing
 EGL .F         5105.0000:   Ground level
 EDF .F            0.0000:   Drilling floor
 TD  .F         3162.0000:   Total depth
 DATE.        03-SEP-1981:   Date logged
 CLNT.            A2DTECH:   Client Code
 CTRY.                USA:   Country
 SL  . 808' FNL & 954' FEL:   Surface Location
 PD  .                 GL:   Permanent Datum
 EPD .F              5105:   Elevation Permanent Datum
 LMF .                 KB:   Log Measured From
 DMF .                 KB:   Drilling Measured From
 DAPD.F                10:   Feet Above Permanent Datum
 DD  .F              3162:   Depth driller
 DL  .F              3162:   Depth logger
 BLI .F              3158:   Bottom log interval
 TLI .F              1612:   Top log interval
 CS1 .IN            9.625:   Casing size
 CBD1.      9.625" @ 480':   Casing driller 1
 BS1 .IN            7.875:   Bit size
 BSD1.F              3162:   Depth drilled with bit1
 DFT .              WATER:   Type fluid in hole
 MSS .               TANK:   Source of sample
 RMS .OHMM            6.3:   Rm
 MST .F                73:   Rm Meas. temp.
 RMF .OHMM            6.3:   Rmf
 MFST.F                73:   Rmf Meas. temp.
 TCS .HRS            2200:   Time Circ. stopped
 TLAB.HRS            0300:   Time logger at bottom
 MRT .F               100:   Maximum recorded temp.
 LUN .               8039:   Logging unit number
 LUL .               CSPR:   Logging unit location
 ENGI.           C. PEARR:   Recorded By
 WITN.           R. SCOTT:   Witnessed by
 ORIG.         2.5" PRINT:   Origin of data
 UWI .     49025108810000:   Unique Well ID
 DICO. A2D TECHNOLOGIES, INC.:   Digitizing Company
~OTHER INFORMATION
~A   DEPT     CALD         GRD      DPHI       RHOB       CORR        SPR        SFL        ILD        ILM       TENR   
# ...
  852.5000    10.0212   130.7173     0.1248     2.4750     0.0177  -999.2500  -999.2500  -999.2500  -999.2500  -999.2500
  853.0000    10.0204   131.2869     0.1329     2.4477     0.0079  -999.2500  -999.2500  -999.2500  -999.2500  -999.2500
  853.5000    10.0585   131.2797     0.1444     2.4398     0.0006  -999.2500  -999.2500  -999.2500  -999.2500  -999.2500
  854.0000    10.0577   131.2690     0.1444     2.4398    -0.0019  -999.2500  -999.2500  -999.2500  -999.2500  -999.2500
  854.5000    10.0572   132.4225     0.1436     2.4378    -0.0020  -999.2500  -999.2500  -999.2500  -999.2500  -999.2500
  855.0000    10.0950   134.1529     0.1444     2.4378    -0.0020  -999.2500  -999.2500  -999.2500  -999.2500  -999.2500
  855.5000    10.0945   134.1457     0.1452     2.4416    -0.0040  -999.2500  -999.2500  -999.2500  -999.2500  -999.2500
  856.0000    10.0937   133.5547     0.1397     2.4494     0.0018  -999.2500  -999.2500  -999.2500  -999.2500  -999.2500
  856.5000    10.1358   131.2261     0.1312     2.4669     0.0193  -999.2500  -999.2500  -999.2500  -999.2500  -999.2500
  857.0000    10.1697   127.7330     0.1218     2.4708     0.0252  -999.2500  -999.2500  -999.2500  -999.2500  -999.2500
  857.5000    10.1689   125.4042     0.1250     2.4688     0.0349  -999.2500  -999.2500  -999.2500  -999.2500  -999.2500
  858.0000    10.1683   123.6521     0.1265     2.4688     0.0270  -999.2500  -999.2500  -999.2500  -999.2500  -999.2500
  858.5000    10.1675   120.1586     0.1203     2.4765     0.0270  -999.2500  -999.2500  -999.2500  -999.2500  -999.2500
  859.0000    10.1670   119.5709     0.1195     2.4785     0.0192  -999.2500  -999.2500  -999.2500  -999.2500  -999.2500
  859.5000    10.1954   121.8816     0.1235     2.4628     0.0191  -999.2500  -999.2500  -999.2500  -999.2500  -999.2500
  860.0000    10.1656   125.3571     0.1329     2.4550     0.0093  -999.2500  -999.2500  -999.2500  -999.2500  -999.2500
  860.5000    10.2035   132.3119     0.1406     2.4472     0.0168  -999.2500  -999.2500  -999.2500  -999.2500  -999.2500
  861.0000    10.2029   131.1438     0.1399     2.4588     0.0249  -999.2500  -999.2500  -999.2500  -999.2500  -999.2500
  861.5000    10.2024   127.6501     0.1243     2.4666     0.0268  -999.2500  -999.2500  -999.2500  -999.2500  -999.2500
  862.0000    10.2403   127.0624     0.1251     2.4627     0.0248  -999.2500  -999.2500  -999.2500  -999.2500  -999.2500
  862.5000    10.2705   129.9541     0.1337     2.4587     0.0195  -999.2500  -999.2500  -999.2500  -999.2500  -999.2500
  863.0000    10.2776   131.6885     0.1314     2.4645     0.0208  -999.2500  -999.2500  -999.2500  -999.2500  -999.2500
  863.5000    10.2768   132.8388     0.1298     2.4704     0.0208  -999.2500  -999.2500  -999.2500  -999.2500  -999.2500
  864.0000    10.2760   133.4122     0.1228     2.4703     0.0246  -999.2500  -999.2500  -999.2500  -999.2500  -999.2500
  864.5000    10.2754   133.9821     0.1228     2.4683     0.0246  -999.2500  -999.2500  -999.2500  -999.2500  -999.2500
  865.0000    10.2926   133.9750     0.1267     2.4625     0.0285  -999.2500  -999.2500  -999.2500  -999.2500  -999.2500
  865.5000    10.3098   134.5449     0.1353     2.4507     0.0284  -999.2500  -999.2500  -999.2500  -999.2500  -999.2500
  866.0000    10.3119   135.1184     0.1369     2.4292     0.0069  -999.2500  -999.2500  -999.2500  -999.2500  -999.2500
  866.5000    10.3114   137.4301     0.1473     2.4272     0.0069  -999.2500  -999.2500  -999.2500  -999.2500  -999.2500
  867.0000    10.3106   137.4231     0.1525     2.4311    -0.0009  -999.2500  -999.2500  -999.2500  -999.2500  -999.2500
  867.5000    10.3487   135.6706     0.1472     2.4369     0.0049  -999.2500  -999.2500  -999.2500  -999.2500  -999.2500
  868.0000    10.3485   134.4987     0.1385     2.4466     0.0048  -999.2500  -999.2500  -999.2500  -999.2500  -999.2500
  868.5000    10.3861   136.2335     0.1290     2.4505     0.0126  -999.2500  -999.2500  -999.2500  -999.2500  -999.2500
  869.0000    10.3853   140.2910     0.1194     2.4736     0.1354  -999.2500  -999.2500  -999.2500  -999.2500  -999.2500
  869.5000    10.4237   143.1838     0.1120     2.4875     0.2485  -999.2500  -999.2500  -999.2500  -999.2500  -999.2500
  870.0000    10.5387   142.0120     0.2080     2.4446     0.2482  -999.2500  -999.2500  -999.2500  -999.2500  -999.2500
  870.5000    11.0028   138.5209     0.2626     2.2105     0.2478  -999.2500  -999.2500  -999.2500  -999.2500  -999.2500
  871.0000    11.6055   137.3489     0.2996     2.1266     0.2474  -999.2500  -999.2500  -999.2500  -999.2500  -999.2500
  871.5000    12.2082   135.0190     0.3001     2.1149     0.2470  -999.2500  -999.2500  -999.2500  -999.2500  -999.2500
  872.0000    12.8109   130.3625     0.2985     2.1731     0.2466  -999.2500  -999.2500  -999.2500  -999.2500  -999.2500
  872.5000    13.5938   123.9636     0.2861     2.2084     0.2464  -999.2500  -999.2500  -999.2500  -999.2500  -999.2500
  873.0000    12.8002   122.7949     0.2775     2.1947     0.1205  -999.2500  -999.2500  -999.2500  -999.2500  -999.2500
  873.5000    12.0067   122.7839     0.2253     2.2764     0.0181  -999.2500  -999.2500  -999.2500  -999.2500  -999.2500
  874.0000    11.2131   122.7766     0.1683     2.3580     0.0181  -999.2500  -999.2500  -999.2500  -999.2500  -999.2500
  874.5000    10.4551   119.2810     0.1371     2.4618     0.0308  -999.2500  -999.2500  -999.2500  -999.2500  -999.2500
  875.0000    10.4128   116.9505     0.1254     2.4657     0.0435  -999.2500  -999.2500  -999.2500  -999.2500  -999.2500
  875.5000    10.3763   115.7778     0.1254     2.4735     0.0550  -999.2500  -999.2500  -999.2500  -999.2500  -999.2500
  876.0000    10.4145   115.7704     0.1270     2.4715     0.0550  -999.2500  -999.2500  -999.2500  -999.2500  -999.2500
  876.5000    10.3749   116.9210     0.1309     2.4656     0.0491  -999.2500  -999.2500  -999.2500  -999.2500  -999.2500
  877.0000    10.3744   117.4944     0.1348     2.4538     0.0393  -999.2500  -999.2500  -999.2500  -999.2500  -999.2500
  877.5000    10.4123   120.3876     0.1403     2.4343     0.0314  -999.2500  -999.2500  -999.2500  -999.2500  -999.2500
  878.0000    10.4394   122.1229     0.1466     2.4304     0.0275  -999.2500  -999.2500  -999.2500  -999.2500  -999.2500
  878.5000    10.4497   120.9502     0.1505     2.4323     0.0294  -999.2500  -999.2500  -999.2500  -999.2500  -999.2500
  879.0000    10.4876   119.7774     0.1474     2.4323     0.0606  -999.2500  -999.2500  -999.2500  -999.2500  -999.2500
  879.5000    10.4483   119.7701     0.1505     2.4147     0.0625  -999.2500  -999.2500  -999.2500  -999.2500  -999.2500
  880.0000    10.4088   120.9209     0.1615     2.3542     0.0439  -999.2500  -999.2500  -999.2500  -999.2500  -999.2500
  880.5000    10.3378   119.7518     0.1669     2.2295     0.0175  -999.2500  -999.2500  -999.2500  -999.2500  -999.2500
  881.0000    10.3299   116.8361     0.3019     2.1048     0.0447  -999.2500  -999.2500  -999.2500  -999.2500  -999.2500
  881.5000    10.3294   115.6669     0.3012     1.9917     0.0719  -999.2500  -999.2500  -999.2500  -999.2500  -999.2500
  882.0000    10.3286   116.8177     0.3006     1.9605     0.1032  -999.2500  -999.2500  -999.2500  -999.2500  -999.2500
  882.5000    10.4058   117.9722     0.3000     1.9507     0.0116  -999.2500  -999.2500  -999.2500  -999.2500  -999.2500
  883.0000    10.9079   117.3802     0.2996     2.1261     0.0266  -999.2500  -999.2500  -999.2500  -999.2500  -999.2500
  883.5000    11.7566   115.0452     0.2479     2.2492     0.0416  -999.2500  -999.2500  -999.2500  -999.2500  -999.2500
  884.0000    12.6052   113.2948     0.1717     2.4183     0.0583  -999.2500  -999.2500  -999.2500  -999.2500  -999.2500
  884.5000    13.4539   112.1217     0.1569     2.4143     0.0563  -999.2500  -999.2500  -999.2500  -999.2500  -999.2500
  885.0000    14.5078   113.2762     0.1585     2.4104     0.0294  -999.2500  -999.2500  -999.2500  -999.2500  -999.2500
  885.5000    12.8078   117.9133     0.1593     2.4104     0.0055  -999.2500  -999.2500  -999.2500  -999.2500  -999.2500
