~VERSION INFORMATION
 VERS.                2.0:   CWLS LOG ASCII STANDARD - VERSION 2.0
 WRAP.                 NO:   ONE LINE PER DEPTH STEP
~WELL INFORMATION
#MNEM.UNIT      DATA TYPE    INFORMATION
#----------   ------------   ------------------------------
 STRT.F          212.5000:   START DEPTH
 STOP.F         3098.0000:   STOP DEPTH
 STEP.F            0.5000:   STEP LENGTH
 NULL.          -999.2500:   NO VALUE
 COMP.    FENIX & SCISSON:   COMPANY
 WELL. FENIX NPR 77 "A" #3-33:   WELL
 FLD .                NPR:   FIELD
 LOC .      S33 T39N R78W:   LOCATION
 CNTY.            NATRONA:   COUNTY
 STAT.            WYOMING:   STATE
 CTRY. UNITED STATES OF AMERICA:   COUNTRY
 SRVC.       SCHLUMBERGER:   SERVICE COMPANY
 DATE.        07-MAY-1977:   LOGDATE
 API .     49025103700000:   API NUMBER
~CURVE INFORMATION
#MNEM.UNIT       API CODE    CURVE DESCRIPTION
#----------   ------------   ------------------------------
 DEPT.F                  :   
 SPR .MV     07 010 01 00:   SPONTANEOUS POTENTIAL
 LL8 .OHMM   11 220 08 00:   LATERALOG-8 RESISTIVITY
 ILD .OHMM   07 120 46 00:   DEEP INDUCTION RESISTIVITY
 CALD.IN     45 280 60 00:   CALIPER FROM DENSITY LOG
 GRD .GAPI   45 310 01 00:   GAMMA RAY FROM DENSITY LOG
 RHOB.G/C3   45 350 01 00:   BULK DENSITY
 CORR.G/C3   45 356 01 00:   DENSITY CORRECTION
 ILM .OHMM   07 120 44 00:   INDUCTION LOG MEDIUM RESISTIVITY
~PARAMETER INFORMATION
#MNEM.UNIT          VALUE    DESCRIPTION
#----------   ------------   ------------------------------
 EKB .F         5152.0000:   Kelly bushing
 EGL .F         5141.0000:   Ground level
 TD  .F         3097.0000:   Total depth
 DATE.        07-MAY-1977:   Date logged
 CLNT.            A2DTECH:   Client Code
 SL  . 990' FEL & 990' FSL:   Surface Location
 PD  .                 GL:   Permanent Datum
 EPD .F              5141:   Elevation Permanent Datum
 LMF .                 KB:   Log Measured From
 DMF .                 KB:   Drilling Measured From
 DAPD.F                11:   Feet Above Permanent Datum
 DD  .F              3096:   Depth driller
 DL  .F              3097:   Depth logger
 BLI .F              3091:   Bottom log interval
 TLI .F               222:   Top log interval
 CS1 .IN            8.625:   Casing size
 CBD1.      8.625" @ 200':   Casing driller 1
 CBL1.F               222:   Casing logger 1
 BS1 .IN            7.875:   Bit size
 BSD1.F              3096:   Depth drilled with bit1
 DFT .                KCL:   Type fluid in hole
 DFD .                9.2:   Density
 DFV .                 38:   Viscosity
 DFPH.                  8:   pH
 DFL .                7.6:   Fluid loss
 MSS .           FLOWLINE:   Source of sample
 RMS .OHMM           .191:   Rm
 MST .F                76:   Rm Meas. temp.
 RMF .OHMM           .185:   Rmf
 MFST.F                76:   Rmf Meas. temp.
 MFSS.               MEAS:   Source Rmf.
 RMB .OHMM           .126:   Rm. at BHT
 BHT .F               115:   BHT.
 TCS .HRS            1200:   Time Circ. stopped
 TLAB.HRS            1530:   Time logger at bottom
 MRT .F                15:   Maximum recorded temp.
 LUN .               6442:   Logging unit number
 LUL .               CSPR:   Logging unit location
 ENGI.             MARTIN:   Recorded By
 WITN.          PETTMGILL:   Witnessed by
 ORIG.      2.5" 5" PRINT:   Origin of data
 UWI .     49025103700000:   Unique Well ID
 DICO. A2D TECHNOLOGIES, INC.:   Digitizing Company
~OTHER INFORMATION
~A   DEPT      SPR        LL8        ILD       CALD         GRD      RHOB       CORR        ILM   
# ...
  982.0000   -92.2540     9.0810    10.0020     9.6310   108.9610     2.5710     0.1100     8.1650
  982.5000   -91.9320     9.0810    10.0370     9.6310   107.6100     2.5560     0.0940     8.2480
  983.0000   -91.6110     9.4050    10.0720     9.6310   106.3320     2.5570     0.0780     8.3300
  983.5000   -91.2900     9.7180    10.1070     9.6310   105.4610     2.5590     0.0610     8.4130
  984.0000   -90.9680    10.0320    10.1420     9.6310   108.0030     2.5510     0.0610     8.4960
  984.5000   -90.7900    10.3460    10.1770     9.6310   111.2960     2.5430     0.0670     8.5920
  985.0000   -90.7110    10.6600    10.2120     9.6310   113.1230     2.5480     0.0740     8.5030
  985.5000   -90.6330    11.0230    10.2390     9.6310   112.0470     2.5510     0.0630     8.2980
  986.0000   -90.5570    10.8490    10.0540     9.6310   108.9830     2.5520     0.0520     8.0940
  986.5000   -90.4810    10.4300     9.9060     9.6300   106.6550     2.5490     0.0410     7.9810
  987.0000   -90.4050    10.4730     9.7570     9.6380   108.2410     2.5470     0.0430     8.0860
  987.5000   -90.7880    10.5260     9.6080     9.6600   110.6020     2.5440     0.0520     8.1570
  988.0000   -91.2820    10.2260     9.4590     9.6770   111.0110     2.5420     0.0640     8.2280
  988.5000   -91.7790     9.8680     9.3110     9.6990   108.6900     2.5410     0.0640     8.2810
  989.0000   -92.2770     9.9590     9.1620     9.7190   106.6780     2.5510     0.0630     8.2020
  989.5000   -92.7740    10.0990     9.0810     9.7550   106.8210     2.5600     0.0600     8.0280
  990.0000   -93.2680    10.1450     9.0810     9.7600   107.2010     2.5690     0.0640     7.8540
  990.5000   -93.5780    10.0310     9.0810     9.7720   106.0350     2.5780     0.0710     7.6800
  991.0000   -93.3670     9.8980     9.0810     9.7810   104.6750     2.5850     0.0780     7.5060
  991.5000   -92.8190     9.7660     9.0810     9.7890   104.8490     2.5860     0.0850     7.3450
  992.0000   -92.2740     9.6330     9.0810     9.7900   107.8830     2.5800     0.0890     7.2770
  992.5000   -91.7290     9.5100     9.0820     9.7890   112.1030     2.5740     0.0830     7.3170
  993.0000   -91.1820     9.6400     9.0260     9.7950   113.7490     2.5800     0.0870     7.3450
  993.5000   -90.6440     9.7770     8.9750     9.8120   114.7710     2.5880     0.1020     7.3450
  994.0000   -90.2250     9.6860     8.9230     9.8280   116.0000     2.5720     0.0970     7.2550
  994.5000   -90.0010     9.4950     8.8720     9.8440   115.7190     2.5560     0.0750     7.1720
  995.0000   -89.9620     9.3030     8.8200     9.8620   114.8910     2.5540     0.0650     7.0890
  995.5000   -89.9150     9.0810     8.7520     9.8650   114.3640     2.5740     0.0560     7.1460
  996.0000   -89.8700     9.0810     8.7560     9.8510   114.9960     2.5270     0.0490     7.2220
  996.5000   -89.8280     9.2580     8.7630     9.8400   114.1940     2.5400     0.0590     7.2980
  997.0000   -90.1640     9.4570     8.7690     9.8280   115.3360     2.5570     0.0710     7.3750
  997.5000   -90.5610     9.5980     8.7760     9.8160   117.6680     2.5710     0.0820     7.4510
  998.0000   -90.9590     9.5670     8.7820     9.8040   118.9310     2.5770     0.0880     7.5510
  998.5000   -91.3570     9.4580     8.7880     9.7920   117.6480     2.5680     0.0820     7.4700
  999.0000   -91.7570     9.3490     8.7950     9.7810   116.3710     2.5640     0.0740     7.4320
  999.5000   -92.1460     9.2510     8.8010     9.7690   115.6130     2.5660     0.0660     7.3940
 1000.0000   -91.8400     9.3300     8.8070     9.7560   115.5750     2.5680     0.0560     7.3560
 1000.5000   -91.4470     9.4020     8.8140     9.7490   115.3230     2.5480     0.0430     7.3450
 1001.0000   -91.4950     9.4740     8.8200     9.7500   115.0940     2.5200     0.0320     7.4130
 1001.5000   -91.6220     9.5100     8.8260     9.7540   114.9120     2.5030     0.0210     7.6200
 1002.0000   -91.7430     9.6100     8.8330     9.7640   114.9000     2.5340     0.0420     7.9190
 1002.5000   -91.9790     9.7220     8.8650     9.7730   115.3680     2.5630     0.0660     8.2190
 1003.0000   -91.5810     9.8350     8.9760     9.7840   115.7600     2.6010     0.0890     8.4350
 1003.5000   -91.1930     9.9470     9.0880     9.7900   117.3390     2.5970     0.1140     8.5130
 1004.0000   -90.8060    10.0520     9.1990     9.7880   118.4060     2.5790     0.1060     8.3360
 1004.5000   -90.4180    10.2390     9.3110     9.7010   119.1200     2.5620     0.0880     8.1960
 1005.0000   -90.0300    10.2720     9.4220     9.5950   117.3490     2.5620     0.0780     8.0560
 1005.5000   -89.6430    10.3040     9.5340     9.5920   115.3620     2.5740     0.0860     7.9810
 1006.0000   -89.2610    10.3340     9.6450     9.5910   113.2820     2.5800     0.0880     7.9810
 1006.5000   -89.0810    10.3340     9.7570     9.5920   111.2910     2.5540     0.0670     8.4260
 1007.0000   -89.3160    10.5840     9.8680     9.5910   109.2390     2.5600     0.0660     8.8490
 1007.5000   -89.5460    10.9720     9.9800     9.5910   107.1650     2.5750     0.0770     8.9980
 1008.0000   -89.7760    11.3590    10.0910     9.5910   105.9880     2.5710     0.0790     8.9130
 1008.5000   -90.0080    11.7470    10.2030     9.5910   105.8660     2.5570     0.0470     8.7800
 1009.0000   -90.2390    12.2010    10.3140     9.5910   106.2090     2.5470     0.0400     8.6470
 1009.5000   -90.4670    11.6150    10.3340     9.5910   101.8220     2.5710     0.0550     8.5150
 1010.0000   -90.6130    10.8220    10.3340     9.5930    97.5460     2.5950     0.0840     8.3820
 1010.5000   -90.3890    10.8890    10.3340     9.5980    97.8760     2.5810     0.0950     8.3580
 1011.0000   -90.0120    11.0510    10.3340     9.6030    97.7990     2.5770     0.0670     8.4420
 1011.5000   -89.6350    11.2130    10.4160     9.6080    98.5200     2.5870     0.0810     8.6460
 1012.0000   -89.7480    11.3750    10.5510     9.6130   101.7460     2.5820     0.1080     8.8500
 1012.5000   -89.9100    11.5370    10.6860     9.6180   104.8240     2.5710     0.1040     9.0540
 1013.0000   -90.0200    11.6980    10.8210     9.6230   108.0950     2.5740     0.0980     9.2580
 1013.5000   -89.8060    11.8600    10.9560     9.6280   111.1700     2.5840     0.0920     9.4230
 1014.0000   -89.4210    12.0890    11.0910     9.6330   114.5230     2.5940     0.0850     9.3740
 1014.5000   -89.0350    11.9810    11.2290     9.6380   113.6990     2.6000     0.0790     9.3320
 1015.0000   -88.6470    11.8680    11.3250     9.6430   112.1630     2.5960     0.0720     9.2910
 1015.5000   -88.2590    12.1080    11.4230     9.6480   111.6700     2.5820     0.0660     9.2500
 1016.0000   -87.8730    12.3140    11.5200     9.6520   112.9750     2.5750     0.0660     9.2080
 1016.5000   -87.4860    11.9990    11.6180     9.6580   114.5770     2.5900     0.0760     9.1660
 1017.0000   -87.0620    11.7590    11.7590     9.6610   114.0540     2.6090     0.0860     9.2540
 1017.5000   -86.9030    11.9420    11.5440     9.6680   111.1790     2.5910     0.0910     9.4100
 1018.0000   -87.0360    12.0990    11.3860     9.6780   110.0600     2.5750     0.0780     9.5100
 1018.5000   -87.1710    12.2010    11.2220     9.7190   110.4670     2.5550     0.0560     9.4160
 1019.0000   -87.2900    11.9790    11.0580     9.7240   110.9650     2.5490     0.0610     9.2470
 1019.5000   -88.2130    11.5750    10.8940     9.7360   110.0110     2.5700     0.0750     9.0780
 1020.0000   -89.1310    11.1710    10.7290     9.7450   107.9440     2.5590     0.0770     8.9080
 1020.5000   -89.7850    10.8220    10.5650     9.7540   106.2590     2.5540     0.0710     8.7390
 1021.0000   -89.5310    10.6240    10.4010     9.7650   106.1630     2.5660     0.0650     8.5920
 1021.5000   -89.0910    10.5350    10.2370     9.7740   107.1270     2.5660     0.0590     8.5660
 1022.0000   -88.8410    10.4400    10.0730     9.7840   108.4350     2.5530     0.0530     8.5300
