~VERSION INFORMATION
 VERS.                2.0:   CWLS LOG ASCII STANDARD - VERSION 2.0
 WRAP.                 NO:   ONE LINE PER DEPTH STEP
~WELL INFORMATION
#MNEM.UNIT      DATA TYPE    INFORMATION
#----------   ------------   ------------------------------
 STRT.F         2646.5000:   START DEPTH
 STOP.F         2882.0000:   STOP DEPTH
 STEP.F            0.5000:   STEP LENGTH
 NULL.          -999.2500:   NO VALUE
 COMP. LAWERNCE AND ALLISON:   COMPANY
 WELL. LAWRENCE "A" #401-10:   WELL
 FLD .              NPR 3:   FIELD
 LOC .      S10 T38N R78W:   LOCATION
 CNTY.            NATRONA:   COUNTY
 STAT.            WYOMING:   STATE
 CTRY. UNITED STATES OF AMERICA:   COUNTRY
 SRVC. BELL PETROLEUM SURVEY:   SERVICE COMPANY
 DATE.        27-NOV-1981:   LOGDATE
 API .     49025108800000:   API NUMBER
~CURVE INFORMATION
#MNEM.UNIT       API CODE    CURVE DESCRIPTION
#----------   ------------   ------------------------------
 DEPT.F                  :   
 GRN .GAPI   35 310 01 00:   GAMMA RAY
 NEUT.NAPI   35 330 01 00:   NEUTRON
~PARAMETER INFORMATION
#MNEM.UNIT          VALUE    DESCRIPTION
#----------   ------------   ------------------------------
 EKB .F         5192.1900:   Kelly bushing
 EGL .F            0.0000:   Ground level
 EDF .F            0.0000:   Drilling floor
 EPD .F            0.0000:   Permanent datum
 TD  .F         2882.0000:   Total depth
 DATE.        27-NOV-1981:   Date logged
 CLNT.            A2DTECH:   Client Code
 PD  .                 GL:   Permanent Datum
 LMF .                 KB:   Log Measured From
 DMF .                 KB:   Drilling Measured From
 DAPD.F                11:   Feet Above Permanent Datum
 DL  .F              2882:   Depth logger
 BLI .F              2882:   Bottom log interval
 TLI .F              2650:   Top log interval
 CS1 .IN            6.625:   Casing size
 CBL1.F              2640:   Casing logger 1
 TCS .HRS             1.5:   Time Circ. stopped
 ENGI.        D. ALDERSON:   Recorded By
 WITN.            BOB ROE:   Witnessed by
 ORIG.           5" PRINT:   Origin of data
 UWI .     49025108800000:   Unique Well ID
 DICO. A2D TECHNOLOGIES, INC.:   Digitizing Company
~OTHER INFORMATION
~A  DEPT        GRN      NEUT   
 2646.5000    58.8530  -999.2500
 2647.0000    57.9320  -999.2500
 2647.5000    55.8350  -999.2500
 2648.0000    55.5060  -999.2500
 2648.5000    61.3340  -999.2500
 2649.0000    66.3590  -999.2500
 2649.5000    69.6250  -999.2500
 2650.0000    65.8050   811.8710
 2650.5000    68.3060   900.4020
 2651.0000    71.2550   906.0920
 2651.5000    72.7310   949.1480
 2652.0000    70.6260  1002.9860
 2652.5000    68.2980  1132.9930
 2653.0000    73.0730  1174.7510
 2653.5000    79.1320  1191.3990
 2654.0000    85.8120  1178.3840
 2654.5000    89.2450  1102.6541
 2655.0000    84.2550  1074.5690
 2655.5000    86.1830  1092.4919
 2656.0000    80.7110  1070.0690
 2656.5000    83.0020  1095.8540
 2657.0000    75.0400  1091.6870
 2657.5000    72.1460  1077.5630
 2658.0000    72.7640  1035.0500
 2658.5000    73.1980   966.9860
 2659.0000    75.9780   969.7260
 2659.5000    74.4540   898.7930
 2660.0000    74.5210   819.0150
 2660.5000    77.6550   857.4490
 2661.0000    70.8660   960.6230
 2661.5000    77.1630  1049.5830
 2662.0000    72.5710  1079.5170
 2662.5000    75.5590   999.9090
 2663.0000    74.6290   989.6440
 2663.5000    73.9750  1035.5220
 2664.0000    78.0700  1064.0560
 2664.5000    77.2090  1014.2100
 2665.0000    75.6060  1047.6840
 2665.5000    79.4010  1039.5580
 2666.0000    80.2790  1044.2660
 2666.5000    81.3630  1089.9530
 2667.0000    85.3670  1127.8080
 2667.5000    82.9220  1100.5980
 2668.0000    83.3450  1075.3719
 2668.5000    75.7080  1046.8149
 2669.0000    77.4480  1018.0390
 2669.5000    79.1960   987.0720
 2670.0000    74.7990   995.0980
 2670.5000    77.1870   970.7320
 2671.0000    74.7910   964.4240
 2671.5000    77.4210   982.3840
 2672.0000    76.5100  1013.5130
 2672.5000    80.0060  1052.3900
 2673.0000    78.3910  1053.3070
 2673.5000    80.9020  1046.7950
 2674.0000    78.8820  1065.1910
 2674.5000    80.2740  1087.6140
 2675.0000    82.3850  1107.3510
 2675.5000    84.4720  1098.6010
 2676.0000    86.9500  1092.3770
 2676.5000    82.4920  1128.8831
 2677.0000    84.2600  1118.9330
 2677.5000    80.9470  1151.4930
 2678.0000    82.2330  1117.7841
 2678.5000    77.0720  1104.2889
 2679.0000    79.7530  1117.6210
 2679.5000    78.4650  1131.2469
 2680.0000    77.2430  1214.3770
 2680.5000    78.3160  1282.2061
 2681.0000    77.5610  1357.8990
 2681.5000    84.2820  1311.5490
 2682.0000    80.1930  1279.9430
 2682.5000    84.3720  1240.1429
 2683.0000    78.1910  1184.2150
 2683.5000    73.6490  1174.5590
 2684.0000    68.9760  1192.1350
 2684.5000    68.9100  1088.1210
 2685.0000    72.5570  1116.7000
 2685.5000    74.5400  1106.5830
 2686.0000    68.5600  1137.0260
 2686.5000    76.5130  1108.4100
 2687.0000    74.8880  1077.1560
 2687.5000    74.5180  1019.5800
 2688.0000    76.4350   974.2310
 2688.5000    74.2740   946.8170
 2689.0000    80.4210   989.7560
 2689.5000    85.1540   946.0010
 2690.0000    85.3490   855.3830
 2690.5000    88.5600   765.5360
 2691.0000    87.6500   675.7610
 2691.5000    82.6600   637.1590
 2692.0000    86.9450   640.0230
 2692.5000    82.0240   621.7250
 2693.0000    91.9780   566.1110
 2693.5000    89.4210   426.5700
 2694.0000    89.5400   378.6600
 2694.5000    91.9380   360.1820
 2695.0000    93.8700   370.8170
 2695.5000    95.8090   393.5690
 2696.0000    97.7530   402.4380
 2696.5000    99.6090   429.0190
 2697.0000    94.8200   469.3250
 2697.5000    90.2030   502.4290
 2698.0000    85.5300   519.0400
 2698.5000    83.1860   542.0870
 2699.0000    91.5590   580.3170
 2699.5000    98.3320   670.0760
 2700.0000   102.3510   780.4610
 2700.5000    99.6100   829.8500
 2701.0000    95.6810   796.4150
 2701.5000    93.2420   782.9980
 2702.0000    95.3540   807.9250
 2702.5000    88.0670   822.7230
 2703.0000    77.8810   905.0840
 2703.5000    79.5510  1042.9940
 2704.0000    81.7310  1192.7070
 2704.5000    76.3110  1341.4910
 2705.0000    76.0960  1499.6851
 2705.5000    75.7590  1545.9100
 2706.0000    75.5950  1569.9280
 2706.5000    69.2050  1507.6040
 2707.0000    66.4730  1414.1899
 2707.5000    61.9900  1305.2340
 2708.0000    60.2610  1192.6040
 2708.5000    62.6080  1125.1500
 2709.0000    62.4860  1083.3110
 2709.5000    64.3800  1056.7980
 2710.0000    64.0070  1012.6130
 2710.5000    68.3620   949.5330
 2711.0000    67.4770   936.9120
 2711.5000    68.4280   955.9120
 2712.0000    63.9340   926.8800
 2712.5000    70.8740   920.0490
 2713.0000    67.7860   961.4030
 2713.5000    75.9160   953.3380
 2714.0000    71.5320   935.6450
 2714.5000    78.0970   903.5470
 2715.0000    76.4690   870.3320
 2715.5000    76.3120   814.6470
 2716.0000    77.9370   706.4190
 2716.5000    72.8440   637.3440
 2717.0000    74.9360   700.9490
 2717.5000    75.9110   767.1420
 2718.0000    72.8690   834.3000
 2718.5000    78.8370   853.5110
 2719.0000    83.2680   845.6750
 2719.5000    80.4660   837.9370
 2720.0000    84.5780   838.0360
 2720.5000    79.7480   922.5880
 2721.0000    82.1440  1011.2350
 2721.5000    71.9480  1089.6331
 2722.0000    69.4720  1106.7100
 2722.5000    75.9220  1059.8640
 2723.0000    79.3460  1010.2800
 2723.5000    77.2500  1010.9590
 2724.0000    71.1160   974.8750
 2724.5000    74.4000  1000.7770
 2725.0000    74.1440  1041.9460
 2725.5000    76.8830  1060.6460
 2726.0000    75.9720  1121.6270
 2726.5000    76.7820  1184.6730
 2727.0000    79.0630  1219.5800
 2727.5000    74.1460  1244.2460
 2728.0000    78.6490  1248.1730
 2728.5000    76.9430  1229.3320
 2729.0000    78.1150  1170.4890
 2729.5000    72.0900  1081.3550
 2730.0000    65.3050   943.2710
 2730.5000    68.0290   806.8470
 2731.0000    72.8920   695.4390
 2731.5000    71.9570   598.7420
 2732.0000    74.0400   568.9020
 2732.5000    80.7970   560.5610
 2733.0000    83.9600   549.9190
 2733.5000    80.8090   541.3640
 2734.0000    86.4840   549.0490
 2734.5000    91.6650   523.7180
 2735.0000    88.3270   494.8680
 2735.5000    83.6730   510.4790
 2736.0000    86.5600   520.4320
 2736.5000    88.8950   495.3970
 2737.0000    83.5680   511.1210
 2737.5000    81.5890   507.3850
 2738.0000    78.6920   533.9010
 2738.5000    81.2500   510.2700
 2739.0000    80.5140   518.5680
 2739.5000    81.9770   533.4650
 2740.0000    80.7960   563.9930
 2740.5000    88.5760   572.8360
 2741.0000    90.3180   586.4060
 2741.5000    95.6610   615.6580
 2742.0000    90.9300   621.9620
 2742.5000    90.0730   601.4330
 2743.0000    93.4600   554.9220
 2743.5000    91.2970   533.6690
 2744.0000    90.6500   548.8850
 2744.5000    94.1910   523.9620
 2745.0000    89.8590   524.1870
 2745.5000    85.5970   523.8550
 2746.0000    87.4140   517.3880
 2746.5000    88.2060   515.3710
 2747.0000    85.7010   496.1370
 2747.5000    88.1470   508.3260
 2748.0000    84.1550   502.3660
 2748.5000    88.4630   535.5050
 2749.0000    87.3340   513.3380
 2749.5000    87.0990   491.5130
 2750.0000    81.5640   502.1110
 2750.5000    86.5770   513.4000
 2751.0000    82.9920   524.5890
 2751.5000    85.7640   541.6220
 2752.0000    84.6470   598.0480
 2752.5000    88.5840   634.9720
 2753.0000    85.8620   635.5980
 2753.5000    85.2710   597.2370
 2754.0000    82.5180   616.1120
 2754.5000    86.1010   581.8630
 2755.0000    89.0330   573.5990
 2755.5000    90.5260   561.1120
 2756.0000    93.3180   541.6120
 2756.5000    95.4700   523.7440
 2757.0000    95.0950   522.9780
 2757.5000    92.2790   522.2720
 2758.0000    92.4680   523.3840
 2758.5000    88.6060   497.7130
 2759.0000    87.7870   490.0200
 2759.5000    85.4310   481.4110
 2760.0000    90.0430   462.5800
 2760.5000    91.8050   466.5480
 2761.0000    93.5860   472.5020
 2761.5000    95.3060   468.8020
 2762.0000    92.8100   454.3150
 2762.5000    85.8110   431.1060
 2763.0000    90.9000   420.6140
 2763.5000    93.7690   452.9880
 2764.0000    91.5670   468.9510
 2764.5000    90.8120   475.8290
 2765.0000    94.9340   495.8030
 2765.5000    97.6940   521.6690
 2766.0000    96.6050   523.1140
 2766.5000    97.2550   517.7410
 2767.0000    90.6960   541.0290
 2767.5000    96.8430   561.6460
