~VERSION INFORMATION
 VERS.                2.0:   CWLS LOG ASCII STANDARD - VERSION 2.0
 WRAP.                 NO:   ONE LINE PER DEPTH STEP
~WELL INFORMATION
#MNEM.UNIT      DATA TYPE    INFORMATION
#----------   ------------   ------------------------------
 STRT.F            5.5000:   START DEPTH
 STOP.F         3261.0000:   STOP DEPTH
 STEP.F            0.5000:   STEP LENGTH
 NULL.          -999.2500:   NO VALUE
 COMP. LAWRENCE ALLISON & ASSOCIATES:   COMPANY
 WELL. LAWRENCE "X" #12-14:   WELL
 FLD .              NPR 3:   FIELD
 LOC .      S14 T38N R78W:   LOCATION
 CNTY.            NATRONA:   COUNTY
 STAT.            WYOMING:   STATE
 CTRY. UNITED STATES OF AMERICA:   COUNTRY
 SRVC.      DRESSER ATLAS:   SERVICE COMPANY
 DATE.        18-AUG-1986:   LOGDATE
 API .     49025111080000:   API NUMBER
~CURVE INFORMATION
#MNEM.UNIT       API CODE    CURVE DESCRIPTION
#----------   ------------   ------------------------------
 DEPT.F                  :   
 RILM.OHMM   07 120 44 00:   INDUCTION LOG MEDIUM RESISTIVITY
 GRR .GAPI   07 310 01 00:   GAMMA RAY FROM RESISTIVITY
 SPR .MV     07 010 01 00:   SPONTANEOUS POTENTIAL
 NPHI.DEC    42 890 03 00:   NEUTRON POROSITY SANDSTONE
 CALD.IN     45 280 60 00:   CALIPER FROM DENSITY LOG
 TEND.LBS    45 635 01 00:   TENSION FORM DENSITY LOG
 DRHO.G/C3   45 356 01 00:   DENSITY CORRECTION
 DEN .G/C3   45 350 01 00:   BULK DENSITY
 RILD.OHMM   07 120 46 00:   DEEP INDUCTION RESISTIVITY
 RFOC.OHMM   07 220 04 00:   RESISTIVITY FOCUSED LOG RES.
~PARAMETER INFORMATION
#MNEM.UNIT          VALUE    DESCRIPTION
#----------   ------------   ------------------------------
 EKB .F         5245.0000:   Kelly bushing
 EGL .F         5234.0000:   Ground level
 TD  .F         3250.0000:   Total depth
 CLNT.            A2DTECH:   Client Code
 SL  . 901' FNL & 485' FWL:   Surface Location
 PD  .                 GL:   Permanent Datum
 EPD .F              5234:   Elevation Permanent Datum
 LMF .                 KB:   Log Measured From
 DMF .                 KB:   Drilling Measured From
 DAPD.F                11:   Feet Above Permanent Datum
 DATE.        18-AUG-1986:   Date Logged [DD-MMM-YYYY]
 DD  .F              3250:   Depth driller
 DL  .F              3246:   Depth logger
 BLI .F              3244:   Bottom log interval
 TLI .F                 0:   Top log interval
 CS1 .IN            8.625:   Casing size
 CBD1.      8.625" @ 733':   Casing driller 1
 CBL1.F               735:   Casing logger 1
 BS1 .IN            7.875:   Bit size
 BSD1.F              3250:   Depth drilled with bit1
 DFT .            KCL-GEL:   Type fluid in hole
 DFD .                8.8:   Density
 DFV .                 36:   Viscosity
 DFPH.                8.5:   pH
 DFL .               12.8:   Fluid loss
 MSS .           FLOWLINE:   Source of sample
 RMS .OHMM          0.292:   Rm
 MST .F                73:   Rm Meas. temp.
 RMF .OHMM          0.224:   Rmf
 MFST.F                73:   Rmf Meas. temp.
 MFSS.               MEAS:   Source Rmf.
 RMC .OHMM          0.365:   Rmc
 MCST.F                73:   Rmc Meas. temp.
 MCSS.               CALC:   Source Rmc.
 RMB .OHMM          0.154:   Rm. at BHT
 BHT .F               138:   BHT.
 TCS .HRS               5:   Time Circ. stopped
 MRT .F               138:   Maximum recorded temp.
 LUN .            HL-6214:   Logging unit number
 LUL .           GILLETTE:   Logging unit location
 ENGI.             RAUTIO:   Recorded By
 WITN.             STRONG:   Witnessed by
 ORIG.        2" 5" PRINT:   Origin of data
 UWI .     49025111080000:   Unique Well ID
 DICO. A2D TECHNOLOGIES, INC.:   Digitizing Company
~OTHER INFORMATION
~A    DEPT    RILM         GRR       SPR       NPHI       CALD       TEND       DRHO        DEN       RILD       RFOC   
# ...
 3154.5000    10.4068    75.1959   -37.1443     0.2467     8.0110     5.6391     0.0498     2.3592    10.0046    10.4758
 3155.0000    10.4801    74.9007   -36.0843     0.2440     8.0105    -1.8797     0.0558     2.3585    10.2871    10.4772
 3155.5000    10.4082    74.6078   -35.7759     0.2440     8.0101     8.9473     0.0376     2.3087    10.2871    10.4786
 3156.0000    10.1234    74.0153   -35.7701     0.2440     8.0097    16.8245     0.0149     2.2974    10.0745    10.1826
 3156.5000     9.5760    71.2871   -35.9164     0.2446     8.0092    24.6309     0.0013     2.2944     9.8662     9.7085
 3157.0000     9.1215    70.1112   -36.8128     0.2446     8.0088    24.9183    -0.0093     2.3022     9.3970     9.1834
 3157.5000     8.5685    72.2337   -38.0118     0.2465     8.0083    25.2059    -0.0109     2.3185     8.7650     8.5071
 3158.0000     8.1052    74.3540   -38.7590     0.2537     8.0078    33.0123     0.0012     2.3306     8.4652     7.9911
 3158.5000     7.5086    77.0777   -39.2051     0.2573     7.9922    40.8271    -0.0049     2.3442     8.0453     7.4026
 3159.0000     7.3541    79.8013   -39.8002     0.2600     7.9918    41.1781    -0.0155     2.3532     7.5729     7.0006
 3159.5000     7.4060    80.4133   -39.9465     0.2628     7.9914    33.8750    -0.0126     2.3532     7.3649     6.7636
 3160.0000     7.4065    81.0256   -40.0913     0.2652     7.9908    26.6438    -0.0051     2.3494     7.3649     6.4876
 3160.5000     7.4587    81.3379   -40.2349     0.2664     7.9904    27.0033     0.0146     2.3607     7.3649     6.2663
 3161.0000     7.4075    81.3466   -40.2289     0.2670     7.9900    27.2932     0.0311     2.3773     7.4164     6.0947
 3161.5000     7.3362    81.3553   -40.3737     0.2630     7.9895    27.6503     0.0491     2.3909     7.4183     6.0957
 3162.0000     7.0029    81.0602   -40.3665     0.2682     7.9739    42.9755     0.0431     2.3939     7.2577     6.0966
 3162.5000     6.7215    79.2611   -40.3607     0.2688     7.9571    73.3383     0.0219     2.3667     6.9176     6.1830
 3163.0000     6.6753    74.1197   -40.3549     0.2667     7.9123   103.7010    -0.0114     2.3425     6.6346     6.2708
 3163.5000     6.5836    72.0409   -40.3492     0.2543     7.9119   103.9885    -0.0175     2.3274     6.4975     6.4488
 3164.0000     7.2072    69.9380   -40.1928     0.2438     7.9115    73.2110     0.0036     2.3243     6.6346     6.6320
 3164.5000     7.6734    69.0395   -40.1867     0.2400     7.8959    36.9665     0.0172     2.3296     7.0146     6.9643
 3165.0000     7.7814    73.5753   -40.0292     0.2425     7.8955    14.6257     0.0141     2.3424     7.4164     7.6256
 3165.5000     7.5161    75.6956   -40.0234     0.2549     7.8950    -0.1243     0.0249     2.3547     7.6850     9.9382
 3166.0000     7.3103    75.0968   -39.7164     0.2669     7.8945     0.2351     0.0578     2.3658     7.6258    10.0091
 3166.5000     7.2098    70.8887   -39.5600     0.2727     7.8940    15.9329     0.0547     2.3228     7.5203     9.0804
 3167.0000     7.0613    69.6886   -39.4036     0.2748     7.8936    45.9949     0.0396     2.2925     7.3138     7.7911
 3167.5000     6.9160    69.6995   -39.0713     0.2745     7.8932    61.3201     0.0244     2.2638     7.1130     6.9218
 3168.0000     6.6800    75.1380   -38.7882     0.2718     7.9079    76.6453     0.0244     2.2593     6.8696     6.6393
 3168.5000     6.5881    83.2915   -38.4812     0.2675     7.9225    76.9329    -0.0033     2.2810     6.7746     6.4129
 3169.0000     6.5887    91.4451   -38.3248     0.2684     7.9524    62.1804    -0.0180     2.3246     6.6810     6.0575
 3169.5000     6.5435    96.0782   -38.3190     0.2724     7.9822    38.8024    -0.0135     2.3593     6.6346     5.5417
 3170.0000     6.4984   101.4194   -38.3133     0.2778     8.0122    32.6828    -0.0029     2.3789     6.5886     5.3155
 3170.5000     6.3647   108.6679   -38.3060     0.2748     8.0117    33.0423     0.0076     2.4000     6.4975     5.0632
 3171.0000     6.2337   113.8048   -38.3002     0.2615     8.0112    33.3083     0.0181     2.4143     6.3632     4.9592
 3171.5000     5.9679   121.6567   -38.2945     0.2464     8.0107    33.6173     0.0305     2.4294     6.1884     5.3177
 3172.0000     5.4249   124.1422   -38.2887     0.2370     8.0102    34.1630     0.0331     2.4437     5.9353     5.3930
 3172.5000     5.3502   119.4861   -38.2829     0.2321     8.0098    41.7833     0.0089     2.4497     5.4292     5.3938
 3173.0000     5.3880   110.5236   -38.2771     0.2288     8.0094    34.4801     0.0043     2.4543     4.8841     5.7839
 3173.5000     5.3883   110.2285   -38.2711     0.2246     7.9938    34.8395     0.0133     2.4594     4.8502     6.6034
 3174.0000     5.3513   110.5410   -38.1135     0.2276     7.9911    20.0176     0.0284     2.4707     4.8841     7.0317
 3174.5000     5.3142   111.7564   -38.1077     0.2315     7.9625     5.3384     0.0452     2.4820     4.8841     7.1811
 3175.0000     5.2052   115.0833   -38.1019     0.2330     7.9621     5.6991     0.0570     2.4888     4.9872     6.9362
 3175.5000     5.1695   121.4269   -38.0961     0.2288     7.9616     5.9865     0.0615     2.4926     5.0220     6.5611
 3176.0000     5.1340   124.7542   -38.0904     0.2273     7.9612    21.3117     0.0327     2.4850     5.0220     6.1091
 3176.5000     5.0634   122.0498   -38.3843     0.2313     7.9608    31.7907     0.0025     2.4812     4.8841     5.7094
 3177.0000     4.9592   121.1513   -38.5292     0.2342     7.9602    36.9245    -0.0248     2.4849     4.6843     5.6310
 3177.5000     4.7238   122.3689   -38.6754     0.2382     7.9598    52.2556    -0.0187     2.4879     4.5875     5.8724
 3178.0000     4.3939   125.9975   -38.8188     0.2518     7.9788    52.6091    -0.0022     2.4826     4.3693     5.9972
 3178.5000     3.9155   128.1178   -38.8130     0.2602     7.9893    52.8967     0.0159     2.4742     3.9635     5.7524
 3179.0000     3.8349   128.7300   -38.8072     0.2620     8.0039    45.5936     0.0411     2.4728     3.8279     5.1766
 3179.5000     3.8889   128.7407   -38.8012     0.2595     8.0186    38.3624     0.0351     2.4742     3.7196     4.7015
 3180.0000     3.8891   129.0511   -38.7942     0.2524     8.0182    38.7218     0.0215     2.4757     3.6459     4.5728
 3180.5000     3.9166   129.9648   -38.7884     0.2475     8.0177    39.0813     0.0094     2.4727     3.6206     4.9034
 3181.0000     3.9168   130.8784   -38.9347     0.2451     8.0325    46.8877     0.0157     2.4749     3.5955     4.8362
 3181.5000     3.8900   131.1888   -38.9275     0.2463     8.0472    54.6939     0.0245     2.4847     3.5955     4.9048
 3182.0000     3.8902   130.2847   -38.9217     0.2466     8.0315    70.0191     0.0215     2.4900     3.5705     4.9398
 3182.5000     3.8635   129.0968   -38.7639     0.2475     8.0159    70.3007     0.0125     2.4884     3.5457     4.8692
 3183.0000     3.8369   128.5000   -38.6075     0.2499     8.0002    70.6015    -0.0042     2.4786     3.5705     4.7061
 3183.5000     3.8373   128.5109   -38.6017     0.2517     7.9846    70.9537    -0.0025     2.4650     3.6206     4.6414
 3184.0000     3.8109   128.5196   -38.5959     0.2566     7.9842    86.2789     0.0185     2.4667     3.6459     4.5780
 3184.5000     3.8112   128.5283   -38.7422     0.2593     7.9838   101.6041     0.0442     2.4732     3.6713     4.5786
 3185.0000     3.8115   127.9337   -38.7349     0.2590     7.9833   101.8917     0.0396     2.4740     3.6459     4.5792
 3185.5000     3.8118   126.3971   -38.7289     0.2501     7.9828   102.1805     0.0321     2.4709     3.6459     4.6118
 3186.0000     3.8120   125.5378   -38.7229     0.2432     7.9824   110.0575     0.0181     2.4724     3.6459     4.6447
 3186.5000     3.8123   125.8504   -38.7161     0.2396     7.9819   117.8639     0.0004     2.4716     3.6459     4.6131
 3187.0000     3.8125   126.1608   -38.7104     0.2399     7.9815   118.1515    -0.0072     2.4686     3.6459     4.6139
 3187.5000     3.8128   126.7728   -38.7046     0.2423     7.9811   118.4391    -0.0072     2.4670     3.6206     4.5824
