~VERSION INFORMATION
 VERS.                2.0:   CWLS LOG ASCII STANDARD - VERSION 2.0
 WRAP.                 NO:   ONE LINE PER DEPTH STEP
~WELL INFORMATION
#MNEM.UNIT      DATA TYPE    INFORMATION
#----------   ------------   ------------------------------
 STRT.F          176.0000:   START DEPTH
 STOP.F         3380.0000:   STOP DEPTH
 STEP.F            0.5000:   STEP LENGTH
 NULL.          -999.2500:   NO VALUE
 COMP.    PENIX & SCISSON:   COMPANY
 WELL.  FENIX "AX" #85-15:   WELL
 FLD .             NPR #3:   FIELD
 LOC .      S15 T38N R78W:   LOCATION
 CNTY.            NATRONA:   COUNTY
 STAT.            WYOMING:   STATE
 CTRY. UNITED STATES OF AMERICA:   COUNTRY
 SRVC.       SCHLUMBERGER:   SERVICE COMPANY
 DATE.        28-APR-1981:   LOGDATE
 API .     49025108700000:   API NUMBER
~CURVE INFORMATION
#MNEM.UNIT       API CODE    CURVE DESCRIPTION
#----------   ------------   ------------------------------
 DEPT.F                  :   
 TEND.LBS    45 635 01 00:   TENSION FROM DENSITY LOG
 CALD.IN     45 280 60 00:   CALIPER FROM DENSITY LOG
 CORR.G/C3   45 356 01 00:   DENSITY CORRECTION
 GRD .GAPI   45 310 01 00:   GAMMA RAY FROM DENSITY LOG
 RHOB.G/C3   45 350 01 00:   BULK DENSITY
 SFL .OHMM   07 220 01 00:   SHALLOW FOCUSED LOG RESISTIVITY
 ILD .OHMM   07 120 46 00:   INDUCTIONLOG DEEP RESISTIVITY
 ILM .OHMM   07 120 44 00:   INDUCTION LOG MEDIUM RESISTIVITY
 TENR.LBS    07 635 01 00:   TENSION FROM RESISTIVITY
 SPR .MV     07 010 01 00:   SPONTANEOUS POTENTIAL
~PARAMETER INFORMATION
#MNEM.UNIT          VALUE    DESCRIPTION
#----------   ------------   ------------------------------
 EKB .F         5259.0000:   Kelly bushing
 EGL .F         5249.0000:   Ground level
 EDF .F            0.0000:   Drilling floor
 TD  .F         3333.0000:   Total depth
 DATE.        28-APR-1981:   Date logged
 CLNT.            A2DTECH:   Client Code
 SL  . 1927' FSL & 140' FEL:   Surface Location
 PD  .                 GL:   Permanent Datum
 DD  .F              3333:   Depth driller
 DL  .F              3382:   Depth logger
 BLI .F              3376:   Bottom log interval
 TLI .F               182:   Top log interval
 CS1 .IN            8.625:   Casing size
 CBD1.      8.625" @ 181':   Casing driller 1
 CBL1.F               182:   Casing logger 1
 BS1 .IN            7.875:   Bit size
 BSD1.F              3333:   Depth drilled with bit1
 DFT .                GEL:   Type fluid in hole
 DFD .                8.7:   Density
 DFV .                 35:   Viscosity
 DFPH.                9.5:   pH
 DFL .                  7:   Fluid loss
 MSS .               TANK:   Source of sample
 RMS .OHMM           1.79:   Rm
 MST .F                58:   Rm Meas. temp.
 RMF .OHMM           1.43:   Rmf
 MFST.F                58:   Rmf Meas. temp.
 MFSS.               MEAS:   Source Rmf.
 RMB .OHMM            .93:   Rm. at BHT
 BHT .F               112:   BHT.
 TCS .HRS             800:   Time Circ. stopped
 TLAB.HRS             200:   Time logger at bottom
 MRT .F               112:   Maximum recorded temp.
 LUN .               8039:   Logging unit number
 LUL .               CAPR:   Logging unit location
 ENGI.           HARRINER:   Recorded By
 WITN.              SCOTT:   Witnessed by
 ORIG.           5" PRINT:   Origin of data
 UWI .     49025108700000:   Unique Well ID
 DICO. A2D TECHNOLOGIES, INC.:   Digitizing Company
 EPD .               5249:   Elevation Permanent Datum
 LMF .                 KB:   Log Measured From
 DMF .                 KB:   Drilling Measured From
 DAPD.                 10:   Feet Above Permanent Datum
~OTHER INFORMATION
~A   DEPT     TEND       CALD       CORR         GRD      RHOB        SFL        ILD        ILM       TENR        SPR   
# ...
  377.0000   740.6480    10.1040     0.0230   105.1680     2.5170     8.0930     7.6650     6.3030   805.5010   -24.4980
  377.5000   742.3060    10.2080     0.0320   102.9160     2.5070     7.8500     7.4420     6.2830   805.5010   -24.5730
  378.0000   743.9640    10.3400     0.0380   105.4670     2.4770     7.6030     7.2150     6.3030   805.5010   -24.6480
  378.5000   745.6220    10.1720     0.0970   107.5990     2.4500     7.3560     6.9880     6.3620   805.5010   -24.7240
  379.0000   747.2800     9.8290     0.1410   110.1330     2.4230     7.0020     6.7530     6.3980   805.5010   -24.7970
  379.5000   748.9380     9.4930     0.1120   110.0150     2.3940     7.1500     6.7530     6.3720   805.5010   -24.8740
  380.0000   750.5960     9.3990     0.0630   109.7560     2.3760     7.4120     7.0260     6.3450   805.5010   -24.9520
  380.5000   752.2540     9.4570     0.0360   109.4540     2.3820     7.5280     7.1300     6.3190   805.5010   -24.9950
  381.0000   753.9120     9.4620     0.0520   109.2040     2.4190     7.4450     7.1140     6.2930   805.5010   -24.7930
  381.5000   755.5700     9.4210     0.0750   110.6700     2.4510     7.3350     7.0690     6.2810   805.5010   -24.5710
  382.0000   757.2280     9.3840     0.0830   112.2830     2.4560     7.2250     7.0230     6.2800   805.5010   -24.3410
  382.5000   758.8860     9.3440     0.0580   113.4300     2.4280     7.1300     7.0020     6.3000   805.5010   -24.1220
  383.0000   760.5440     9.3140     0.0290   113.6650     2.4020     7.2600     7.0020     6.3370   805.5010   -23.8920
  383.5000   762.2020     9.3120    -0.0010   113.2970     2.4040     7.2600     7.0020     6.3740   805.5010   -23.8080
  384.0000   763.8600     9.3090     0.0030   114.2020     2.4070     7.3990     7.0020     6.4100   805.5010   -23.8360
  384.5000   765.5180     9.3070     0.0080   115.1720     2.4330     7.5210     7.1070     6.4470   805.5010   -23.6630
  385.0000   767.1760     9.3040     0.0140   115.6090     2.4550     7.6430     7.3070     6.4840   805.5010   -23.3770
  385.5000   768.8340     9.3010     0.0150   114.6230     2.4790     7.7660     7.5070     6.5210   805.5010   -23.1120
  386.0000   770.4920     9.2990     0.0150   113.3790     2.4850     7.8880     7.7070     6.5550   805.5010   -22.8400
  386.5000   772.1500     9.2960     0.0150   112.0130     2.4890     8.0930     7.8050     6.5860   805.5010   -22.7320
  387.0000   773.8080     9.2940     0.0150   111.6690     2.4870     7.8700     7.8050     6.6320   805.5010   -23.1200
  387.5000   775.4660     9.2910     0.0150   112.4540     2.4860     7.6690     7.4960     6.6320   805.5010   -23.5040
  388.0000   777.1240     9.2890     0.0120   112.0260     2.4850     7.5280     7.3930     6.3620   805.5010   -23.8880
  388.5000   778.7820     9.2860     0.0090   110.4160     2.4840     7.5840     7.5280     6.3120   805.5010   -24.2940
  389.0000   780.4400     9.2840     0.0060   109.0760     2.4820     7.6650     7.5280     6.2630   805.5010   -24.6790
  389.5000   782.0980     9.2810     0.0100   107.5160     2.4840     7.5730     7.4480     6.2130   805.5010   -24.9190
  390.0000   783.7560     9.2790     0.0140   108.3040     2.4870     7.3820     7.2850     6.1640   805.5010   -24.5030
  390.5000   785.4140     9.2760     0.0170   109.0780     2.4860     7.1920     7.1210     6.1140   805.5010   -24.4070
  391.0000   787.0720     9.2730     0.0170   109.1300     2.4810     7.1300     7.0020     6.0590   805.5010   -24.2160
  391.5000   788.7300     9.2710     0.0130   108.8500     2.4780     7.2440     7.0020     5.9800   805.5010   -24.2130
  392.0000   790.3880     9.2680     0.0090   108.6380     2.4780     7.3930     7.1300     5.9500   811.9840   -24.2240
  392.5000   792.0460     9.2660     0.0050   108.6960     2.4770     7.3930     7.1300     5.9500   836.4440   -24.3910
  393.0000   793.7040     9.2630     0.0010   110.6170     2.4610     7.3550     7.1300     5.9500   860.9040   -24.5850
  393.5000   795.3620     9.2610    -0.0020   112.3240     2.4460     7.2100     7.0290     5.8950   884.0860   -24.6190
  394.0000   797.0200     9.2580    -0.0010   114.0870     2.4320     7.0640     6.9110     5.8300   884.0860   -24.4700
  394.5000   798.6780     9.2560     0.0050   115.4050     2.4220     6.9180     6.7930     5.7650   884.0860   -24.2240
  395.0000   800.3360     9.2530     0.0110   113.8890     2.4470     6.7730     6.6750     5.7010   884.0860   -24.0060
  395.5000   801.9940     9.2500     0.0160   112.5280     2.4710     6.6320     6.5560     5.6360   884.0860   -23.7870
  396.0000   803.6520     9.2480     0.0220   111.0220     2.4960     6.6320     6.5130     5.5340   884.0860   -23.5600
  396.5000   805.3100     9.2450     0.0270   109.5600     2.5120     6.6320     6.5130     5.5520   884.0860   -23.3440
  397.0000   806.9680     9.2430     0.0270   108.6840     2.5030     6.6520     6.6320     5.5920   884.0860   -23.1210
  397.5000   808.6260     9.2400     0.0230   110.2780     2.4920     6.7410     6.6920     5.6330   884.0860   -22.8850
  398.0000   810.2840     9.2380     0.0190   112.8080     2.4770     6.8290     6.7650     5.6730   884.0860   -22.6970
  398.5000   811.8810     9.2360     0.0140   115.5310     2.4800     6.9180     6.8380     5.7140   884.0860   -22.3250
  399.0000   807.4780     9.2380     0.0090   116.3470     2.4840     7.0060     6.9110     5.7540   884.0860   -22.2370
  399.5000   800.5060     9.2400     0.0050   115.3630     2.4870     7.0950     6.9840     5.7950   884.0860   -22.2400
  400.0000   793.5340     9.2420     0.0000   114.3980     2.4740     7.1300     7.0560     5.8430   884.0860   -22.2660
  400.5000   786.5620     9.2440     0.0060   113.4560     2.4630     7.1300     7.1300     5.8430   884.0860   -22.4310
  401.0000   779.5890     9.2460     0.0170   112.6980     2.4780     7.1300     7.1300     5.8430   884.0860   -22.5820
  401.5000   772.2770     9.2480     0.0280   113.3220     2.5040     7.1300     7.1300     5.9500   884.0860   -22.7390
  402.0000   772.2770     9.2500     0.0400   113.7950     2.4970     7.1300     7.0020     5.9500   884.0860   -22.8910
  402.5000   772.2770     9.2520     0.0470   114.3380     2.4750     7.1300     7.0020     5.9600   884.0860   -23.0480
  403.0000   782.2220     9.2540     0.0360   114.0350     2.4570     7.1300     7.0020     5.9720   884.0860   -23.1960
  403.5000   793.0470     9.2560     0.0240   113.0410     2.4460     7.3410     7.0020     5.9850   884.0860   -23.3600
  404.0000   803.8720     9.2580     0.0120   111.6030     2.4390     7.6650     7.1300     5.9980   884.0860   -23.4480
  404.5000   811.8810     9.2610    -0.0010   110.3630     2.4350     7.4220     7.0870     6.0110   884.0860   -23.6490
  405.0000   811.8810     9.2630    -0.0050   109.2090     2.4480     7.2010     7.0500     6.0240   884.0860   -23.8140
  405.5000   799.9530     9.2650    -0.0010   109.0600     2.4730     7.1300     7.0100     6.0370   884.0860   -23.7460
  406.0000   788.4920     9.2670     0.0050   109.9390     2.4670     7.1300     6.9700     6.0500   884.0860   -23.5090
  406.5000   777.0300     9.2690     0.0070   112.1110     2.4590     7.0020     6.9300     6.0630   884.0860   -23.2760
  407.0000   765.5680     9.2710     0.0020   114.2260     2.4510     7.0020     6.8910     6.0760   884.0860   -23.0420
  407.5000   754.1060     9.2730    -0.0010   116.2560     2.4490     7.0020     6.8760     6.0890   853.6350   -22.8080
  408.0000   742.6440     9.2750    -0.0020   118.3370     2.4590     7.0020     6.8750     6.1010   805.5010   -22.5740
  408.5000   732.6730     9.2740     0.0060   117.0290     2.4730     7.0020     6.8770     6.1140   805.7400   -22.3390
  409.0000   732.6730     9.2750     0.0150   116.0870     2.4840     7.0020     6.8770     6.1280   806.1360   -22.1070
  409.5000   733.5600     9.2750     0.0200   116.2640     2.4800     7.0020     6.8770     6.1400   806.5320   -21.8690
  410.0000   734.5350     9.2750     0.0210   115.3910     2.4740     7.1300     7.0020     6.1520   806.9280   -21.6360
