~VERSION INFORMATION
 VERS.                2.0:   CWLS LOG ASCII STANDARD - VERSION 2.0
 WRAP.                 NO:   ONE LINE PER DEPTH STEP
~WELL INFORMATION
#MNEM.UNIT      DATA TYPE    INFORMATION
#----------   ------------   ------------------------------
 STRT.F         2496.0000:   START DEPTH
 STOP.F         4120.0000:   STOP DEPTH
 STEP.F            0.5000:   STEP LENGTH
 NULL.          -999.2500:   NO VALUE
 COMP. LAWRENCE ALLISON AND ASSOCIATES:   COMPANY
 WELL. LAWRENCE "X" #85-10:   WELL
 FLD .              N P R:   FIELD
 LOC .      S10 T38N R78W:   LOCATION
 CNTY.            NATRONA:   COUNTY
 STAT.            WYOMING:   STATE
 CTRY. UNITED STATES OF AMERICA:   COUNTRY
 SRVC.      DRESSER ATLAS:   SERVICE COMPANY
 DATE.        20-JAN-1984:   LOGDATE
 API .     49025109580000:   API NUMBER
~CURVE INFORMATION
#MNEM.UNIT       API CODE    CURVE DESCRIPTION
#----------   ------------   ------------------------------
 DEPT.F                  :   
 SPR .MV     07 010 01 00:   SPONTANEOUS POTENTIAL
 TENR.LBS    07 635 01 00:   TENSION FROM RESISTIVITY
 ILD .OHMM   07 120 46 00:   DEEP INDUCTION RESISTIVITY
 ILM .OHMM   07 120 44 00:   INDUCTION LOG MEDIUM RESISTIVITY
 RFOC.OHMM   07 220 04 00:   RESISTIVITY FOCUSED LOG RES.
 GRD .GAPI   45 310 01 00:   GAMMA RAY FROM DENSITY LOG
 CALD.IN     45 280 60 00:   CALIPER FROM DENSITY LOG
 TEND.LBS    45 635 01 00:   TENSION FROM DENSITY LOG
 RHOB.G/C3   45 350 01 00:   BULK DENSITY
 CORR.G/C3   45 356 01 00:   DENSITY CORRECTION
 CN  .DEC    42 890 03 00:   NEUTRON POROSITY SANDSTONE
~PARAMETER INFORMATION
#MNEM.UNIT          VALUE    DESCRIPTION
#----------   ------------   ------------------------------
 EKB .F         5231.0000:   Kelly bushing
 EGL .F         5221.0000:   Ground level
 EDF .F            0.0000:   Drilling floor
 TD  .F         4115.0000:   Total depth
 DATE.        20-JAN-1984:   Date logged
 CLNT.            A2DTECH:   Client Code
 SL  . 2159' FSL & 292' FEL:   Surface Location
 PD  .                 GL:   Permanent Datum
 EPD .F              5221:   Elevation Permanent Datum
 LMF .                 KB:   Log Measured From
 DMF .                 KB:   Drilling Measured From
 DD  .F              4115:   Depth driller
 DL  .F              4111:   Depth logger
 BLI .F              4109:   Bottom log interval
 TLI .F              2496:   Top log interval
 CS1 .IN            8.625:   Casing size
 CBD1.       8.625 @ 537':   Casing driller 1
 BS1 .IN            7.875:   Bit size
 DFT .            GEL KCL:   Type fluid in hole
 DFD .                8.8:   Density
 DFV .                 40:   Viscosity
 DFPH.                  9:   pH
 DFL .                9.8:   Fluid loss
 MSS .           FLOWLINE:   Source of sample
 RMS .OHMM           0.61:   Rm
 MST .F                77:   Rm Meas. temp.
 RMF .OHMM           0.51:   Rmf
 MFST.F                69:   Rmf Meas. temp.
 RMC .OHMM           0.76:   Rmc
 MCST.F                77:   Rmc Meas. temp.
 MFSS.               MEAS:   Source Rmf.
 RMB .OHMM           0.38:   Rm. at BHT
 BHT .F               122:   BHT.
 TCS .HRS               4:   Time Circ. stopped
 MRT .F               122:   Maximum recorded temp.
 LUN .               6307:   Logging unit number
 LUL .               GLTE:   Logging unit location
 ENGI.            DEYOUNG:   Recorded By
 WITN.           R. SCOTT:   Witnessed by
 ORIG.           5" PRINT:   Origin of data
 UWI .     49025109580000:   Unique Well ID
 DICO. A2D TECHNOLOGIES, INC.:   Digitizing Company
 DAPD.                 10:   Feet Above Permanent Datum
 MCSS.               CALC:   Source Rmc.
~OTHER INFORMATION
~A  DEPT       SPR       TENR        ILD        ILM       RFOC        GRD       CALD       TEND       RHOB       CORR         CN   
# ...
 2587.5000   -34.0530   -25.8520    33.1010    19.3980    19.4530    65.3620     8.4010   -29.2470     2.4560     0.0720     0.1580
 2588.0000   -33.2790   -25.8520    31.8400    17.9010    19.4530    66.3100     8.4010   -29.3040     2.4530     0.0740     0.1660
 2588.5000   -32.5010   -25.9080    30.5790    17.9890    19.4530    66.7260     8.4000   -29.3620     2.4520     0.0810     0.1730
 2589.0000   -32.1690   -26.0090    29.7600    18.1460    19.4530    66.7180     8.4000   -29.4200     2.4550     0.0970     0.1750
 2589.5000   -32.1700   -26.1100    29.2810    18.3030    19.4530    68.1320     8.4010   -29.4770     2.4550     0.0940     0.1770
 2590.0000   -32.4180   -26.2110    28.8020    18.4600    19.4230    70.5640     8.4020   -29.5350     2.4560     0.0910     0.1780
 2590.5000   -33.1100   -26.3120    28.2150    18.6170    19.3920    73.0570     8.4020   -29.5920     2.4590     0.0870     0.1750
 2591.0000   -33.7950   -26.4130    27.1520    18.7740    19.3620    75.5250     8.4030   -29.6500     2.4640     0.0890     0.1720
 2591.5000   -34.4800   -26.5140    25.6660    18.9310    19.3300    77.1780     8.4040   -29.7070     2.4690     0.0930     0.1700
 2592.0000   -35.1650   -26.6150    26.1570    19.0880    19.2990    74.7250     8.4040   -29.7620     2.4690     0.0980     0.1690
 2592.5000   -35.8510   -26.7160    26.9740    19.2450    19.1650    72.3540     8.4050   -29.8150     2.4640     0.1020     0.1710
 2593.0000   -36.5360   -26.8170    29.0960    20.7640    18.6430    70.7660     8.4060   -29.8690     2.4550     0.1010     0.1720
 2593.5000   -37.2220   -26.9180    31.5210    22.6000    18.2350    70.3320     8.4060   -29.9220     2.4510     0.1010     0.1590
 2594.0000   -37.9030   -27.0190    33.9460    24.4360    19.4280    69.9020     8.4070   -29.9760     2.4570     0.1000     0.1450
 2594.5000   -38.5830   -27.1200    36.3710    26.2720    20.3730    68.6170     8.4080   -30.0300     2.4800     0.1000     0.1310
 2595.0000   -38.8420   -27.2210    38.7960    28.1080    39.7370    66.3650     8.4090   -30.0830     2.5200     0.0910     0.1180
 2595.5000   -38.5370   -27.3220    41.2210    29.9440    58.4670    62.1330     8.4090   -30.1370     2.5600     0.0810     0.1090
 2596.0000   -38.2360   -27.4230    43.6460    30.8740    80.6950    57.7540     8.4100   -30.1900     2.5980     0.0780     0.1090
 2596.5000   -37.9330   -27.5240    46.0390    26.9770    71.8030    56.5230     8.4110   -30.2440     2.5660     0.0760     0.1250
 2597.0000   -37.6290   -27.6250    43.8400    24.0590    53.9030    58.6970     8.4110   -30.2980     2.5290     0.0730     0.1410
 2597.5000   -37.3250   -27.7250    41.1120    22.0170    36.0020    61.6730     8.4120   -30.3510     2.4930     0.0720     0.1570
 2598.0000   -37.0210   -27.8260    37.6590    20.0970    19.4530    64.9860     8.4130   -30.4050     2.4690     0.0740     0.1730
 2598.5000   -36.7170   -27.9270    34.4310    19.0480    19.4800    68.2650     8.4140   -30.4580     2.4460     0.0660     0.1800
 2599.0000   -36.4120   -28.0280    31.2030    18.9450    19.5100    70.8610     8.4140   -30.5120     2.4360     0.0570     0.1770
 2599.5000   -36.1080   -28.1290    27.9750    18.8430    19.5410    71.4500     8.4150   -30.5650     2.4270     0.0410     0.1740
 2600.0000   -35.8040   -28.2300    27.4450    18.7400    19.5710    70.4400     8.4160   -30.6190     2.4220     0.0320     0.1720
 2600.5000   -35.5000   -28.3310    27.2330    18.6370    19.6010    69.1780     8.4160   -30.6730     2.4290     0.0430     0.1700
 2601.0000   -35.1960   -28.4320    27.0220    18.5350    19.6340    68.5900     8.4170   -30.7260     2.4360     0.0570     0.1730
 2601.5000   -34.8920   -28.5330    26.8310    18.4320    19.3680    68.0240     8.4180   -30.7800     2.4430     0.0690     0.1750
 2602.0000   -34.5880   -28.6340    26.6850    17.9940    19.0790    67.7970     8.4190   -30.8330     2.4420     0.0790     0.1730
 2602.5000   -34.2850   -28.7350    26.5390    17.4340    18.7900    68.4650     8.4190   -30.8870     2.4410     0.0800     0.1710
 2603.0000   -33.9760   -28.8360    26.3870    16.8740    18.5010    69.1040     8.4200   -30.9410     2.4390     0.0780     0.1710
 2603.5000   -34.1980   -28.9370    25.5970    16.3140    18.2120    69.7410     8.4210   -30.9940     2.4350     0.0770     0.1710
 2604.0000   -34.6420   -29.0380    24.7740    15.7540    17.9230    70.2310     8.4210   -31.0480     2.4290     0.0750     0.1720
 2604.5000   -35.1270   -29.1390    23.9510    15.3000    17.6340    70.6590     8.4220   -31.1010     2.4230     0.0730     0.1700
 2605.0000   -35.6160   -29.2400    23.1280    15.6070    17.5740    72.5830     8.4230   -31.1550     2.4260     0.0710     0.1690
 2605.5000   -36.1040   -29.3410    22.3060    15.8660    17.5740    74.6220     8.4230   -31.2080     2.4390     0.0700     0.1730
 2606.0000   -36.5880   -29.4420    21.3360    16.1250    17.4190    76.6850     8.4240   -31.2620     2.4510     0.0750     0.1770
 2606.5000   -37.2920   -29.5430    22.3110    16.3840    17.1660    76.3810     8.4250   -31.3160     2.4620     0.0770     0.1810
 2607.0000   -38.1180   -29.6440    23.4980    16.6420    16.9130    74.3970     8.4260   -31.3690     2.4550     0.0740     0.1840
 2607.5000   -38.9460   -29.7450    24.6840    16.9010    16.6610    73.1760     8.4260   -31.4230     2.4460     0.0740     0.1780
 2608.0000   -39.7740   -29.8460    25.8710    17.5320    16.4730    75.8690     8.4270   -31.4760     2.4430     0.0800     0.1680
 2608.5000   -40.6030   -29.8600    27.0570    19.2350    16.9360    77.1800     8.4280   -31.5300     2.4640     0.0870     0.1580
 2609.0000   -41.4310   -29.8600    28.1500    21.1400    20.0290    76.6200     8.4280   -31.5840     2.4910     0.0930     0.1470
 2609.5000   -42.1780   -29.8600    28.4180    20.7870    28.8820    73.2790     8.4290   -31.6370     2.5290     0.0980     0.1370
 2610.0000   -42.1780   -29.8600    28.6670    20.0600    40.4980    69.9550     8.4300   -31.6910     2.5660     0.0980     0.1260
 2610.5000   -41.3160   -29.8600    28.9160    19.3330    48.5500    67.7640     8.4310   -31.7440     2.6130     0.0990     0.1230
 2611.0000   -40.3530   -29.8600    29.1650    18.6060    25.7760    70.3500     8.4310   -31.7980     2.5940     0.0980     0.1430
 2611.5000   -39.3880   -29.8600    29.4810    17.8780    17.5740    72.8250     8.4320   -31.8510     2.5590     0.0940     0.1600
 2612.0000   -38.4240   -29.8600    28.4220    17.2690    17.6630    73.9290     8.4330   -31.9050     2.5230     0.0910     0.1790
 2612.5000   -37.4610   -29.8600    26.9770    17.3930    17.8290    71.1980     8.4330   -31.9590     2.4870     0.0870     0.1790
 2613.0000   -36.4980   -29.8600    25.5320    17.5170    18.0670    69.1070     8.4340   -32.0120     2.4610     0.0830     0.1770
 2613.5000   -35.5350   -29.8600    24.0870    17.6410    17.8820    67.0100     8.4350   -32.0660     2.4460     0.0800     0.1750
 2614.0000   -34.5630   -29.8600    23.1530    17.7640    17.5540    66.2430     8.4350   -32.1190     2.4250     0.0800     0.1740
 2614.5000   -34.1930   -29.8600    23.0670    17.8880    17.0930    67.1720     8.4360   -32.1730     2.4310     0.0850     0.1750
 2615.0000   -34.8310   -29.8600    22.9800    18.0120    17.3900    69.5410     8.4370   -32.2270     2.4460     0.0740     0.1750
 2615.5000   -35.3980   -29.8600    22.8930    18.1360    17.8890    74.8510     8.4380   -32.2800     2.4600     0.0570     0.1750
 2616.0000   -35.4410   -29.8600    22.8060    18.2600    18.5210    77.1620     8.4380   -32.3340     2.4730     0.0640     0.1750
 2616.5000   -35.4970   -29.8600    22.7200    18.4040    18.3010    74.1620     8.4390   -32.3870     2.4690     0.0770     0.1790
 2617.0000   -35.5560   -29.8600    22.6330    18.1430    17.8600    73.1030     8.4400   -32.4410     2.4610     0.0730     0.1850
 2617.5000   -35.6140   -29.8600    22.5460    17.8290    17.4200    73.1940     8.4610   -32.4940     2.4530     0.0740     0.1820
