~VERSION INFORMATION
 VERS.                2.0:   CWLS LOG ASCII STANDARD - VERSION 2.0
 WRAP.                 NO:   ONE LINE PER DEPTH STEP
~WELL INFORMATION
#MNEM.UNIT      DATA TYPE    INFORMATION
#----------   ------------   ------------------------------
 STRT.F           10.0000:   START DEPTH
 STOP.F         4008.0000:   STOP DEPTH
 STEP.F            0.5000:   STEP LENGTH
 NULL.          -999.2500:   NO VALUE
 COMP. LAWRENCE ALLISON & ASSOC.:   COMPANY
 WELL. LAWRENCE NPR 3 "AX" #75-28:   WELL
 FLD .                NPR:   FIELD
 LOC .      S28 T39N R78W:   LOCATION
 CNTY.            NATRONA:   COUNTY
 STAT.            WYOMING:   STATE
 CTRY. UNITED STATES OF AMERICA:   COUNTRY
 SRVC.      DRESSER ATLAS:   SERVICE COMPANY
 DATE.        28-APR-1983:   LOGDATE
 API .     49025109060000:   API NUMBER
~CURVE INFORMATION
#MNEM.UNIT       API CODE    CURVE DESCRIPTION
#----------   ------------   ------------------------------
 DEPT.F                  :   
 RHOB.G/C3   45 350 01 00:   BULK DENSITY
 CORR.G/C3   45 356 01 00:   DENSITY CORRECTION
 TEND.LBS    45 635 01 00:   TENSION FROM DENSITY LOG
 NPHI.DEC    42 890 03 00:   NEUTRON POROSITY SANDSTONE
 GRR .GAPI   07 310 01 00:   GAMMA RAY FROM RESISTIVITY
 CALR.IN     07 280 01 00:   CALIPER FROM RESISTIVITY
 RFOC.OHMM   07 220 01 00:   RESISTIVITY FOCUSED LOG RES.
 RILD.OHMM   07 120 46 00:   DEEP INDUCTION RESISTIVITY
 TENR.LBS    01 635 01 00:   TENSION FROM RES.
 RILM.OHMM   07 120 44 00:   INDUCTION LOG MEDIUM RESISTIVITY
 TENS.LBS    60 635 01 00:   TENSION FROM SONIC LOG
 DT  .US/F   60 520 00 00:   DELTA TIME
 SPR .MV     07 010 01 00:   SPONTANEOUS POTENTIAL
~PARAMETER INFORMATION
#MNEM.UNIT          VALUE    DESCRIPTION
#----------   ------------   ------------------------------
 EKB .F         5068.0000:   Kelly bushing
 EGL .F         5058.0000:   Ground level
 EDF .F            0.0000:   Drilling floor
 TD  .F         4003.0000:   Total depth
 DATE.        28-APR-1983:   Date logged
 CLNT.            A2DTECH:   Client Code
 SL  . 2100' FSL & 1050' FEL:   Surface Location
 PD  .                 GL:   Permanent Datum
 EPD .F              5058:   Elevation Permanent Datum
 LMF .                 KB:   Log Measured From
 DMF .                 KB:   Drilling Measured From
 DAPD.F                10:   Feet Above Permanent Datum
 DD  .F              4000:   Depth driller
 DL  .F              4003:   Depth logger
 BLI .F              4000:   Bottom log interval
 CS1 .IN            8.625:   Casing size
 CBD1.      8.625" @ 498':   Casing driller 1
 CBL1.F               497:   Casing logger 1
 BS1 .IN            7.875:   Bit size
 BSD1.F              4000:   Depth drilled with bit1
 DFT .            KCL/GEL:   Type fluid in hole
 DFD .                  9:   Density
 DFV .                 43:   Viscosity
 DFPH.                8.5:   pH
 DFL .               12.4:   Fluid loss
 MSS .           MUD/TANK:   Source of sample
 RMS .OHMM            .45:   Rm
 MST .F                43:   Rm Meas. temp.
 RMF .OHMM            .27:   Rmf
 MFST.F                51:   Rmf Meas. temp.
 RMC .OHMM            .56:   Rmc
 MCST.F                43:   Rmc Meas. temp.
 MFSS.               MEAS:   Source Rmf.
 MCSS.               CALC:   Source Rmc.
 RMB .OHMM            .16:   Rm. at BHT
 BHT .F               121:   BHT.
 TCS .HRS               7:   Time Circ. stopped
 MRT .F               121:   Maximum recorded temp.
 LUN .               6274:   Logging unit number
 LUL .               GLTE:   Logging unit location
 ENGI.            WACDELL:   Recorded By
 WITN.             STRONG:   Witnessed by
 ORIG.           5" PRINT:   Origin of data
 UWI .     49025109060000:   Unique Well ID
 DICO. A2D TECHNOLOGIES, INC.:   Digitizing Company
~OTHER INFORMATION
~A   DEPT     RHOB       CORR       TEND       NPHI         GRR      CALR       RFOC       RILD       TENR       RILM       TENS         DT        SPR   
# ...
  972.0000  -999.2500  -999.2500  -999.2500  -999.2500    87.7550     9.1230     6.9840     8.0790   -92.4330     7.4980  -999.2500  -999.2500   -21.0850
  972.5000  -999.2500  -999.2500  -999.2500  -999.2500    89.1230     9.1210     6.9840     8.0710   -92.0510     7.4910  -999.2500  -999.2500   -21.0860
  973.0000  -999.2500  -999.2500  -999.2500  -999.2500    89.3810     9.1200     7.0080     8.0630   -91.6680     7.4840  -999.2500  -999.2500   -21.0860
  973.5000  -999.2500  -999.2500  -999.2500  -999.2500    88.6540     9.1190     7.0260     8.0560   -91.2860     7.4770  -999.2500  -999.2500   -21.0850
  974.0000  -999.2500  -999.2500  -999.2500  -999.2500    86.6560     9.1180     7.0430     8.0480   -90.9030     7.4700  -999.2500  -999.2500   -21.0850
  974.5000  -999.2500  -999.2500  -999.2500  -999.2500    83.6210     9.1160     7.0600     8.0410   -90.5210     7.4630  -999.2500  -999.2500   -21.0840
  975.0000  -999.2500  -999.2500  -999.2500  -999.2500    81.4220     9.1150     7.0770     8.0330   -90.1380     7.4550  -999.2500  -999.2500   -21.0840
  975.5000  -999.2500  -999.2500  -999.2500  -999.2500    82.6860     9.1140     7.0950     8.0250   -89.7560     7.4480  -999.2500  -999.2500   -21.0840
  976.0000  -999.2500  -999.2500  -999.2500  -999.2500    88.0410     9.1130     7.1120     8.0180   -89.3730     7.4410  -999.2500  -999.2500   -21.0840
  976.5000  -999.2500  -999.2500  -999.2500  -999.2500    94.5370     9.1130     7.1290     8.0100   -88.9910     7.4340  -999.2500  -999.2500   -21.0840
  977.0000  -999.2500  -999.2500  -999.2500  -999.2500    97.6120     9.1130     7.1470     8.0020   -88.6090     7.4270  -999.2500  -999.2500   -21.0840
  977.5000  -999.2500  -999.2500  -999.2500  -999.2500    94.9550     9.1120     7.1640     7.9950   -88.2260     7.4200  -999.2500  -999.2500   -21.0840
  978.0000  -999.2500  -999.2500  -999.2500  -999.2500    88.3550     9.1090     7.1810     7.9870   -87.8440     7.4130  -999.2500  -999.2500   -21.0840
  978.5000  -999.2500  -999.2500  -999.2500  -999.2500    81.8130     9.1050     7.1980     7.9790   -87.4610     7.4060  -999.2500  -999.2500   -21.0840
  979.0000  -999.2500  -999.2500  -999.2500  -999.2500    78.3350     9.1010     7.2160     7.9720   -87.0790     7.3990  -999.2500  -999.2500   -21.0840
  979.5000  -999.2500  -999.2500  -999.2500  -999.2500    78.6200     9.0960     7.2330     7.9640   -86.6960     7.3920  -999.2500  -999.2500   -21.0840
  980.0000  -999.2500  -999.2500  -999.2500  -999.2500    81.8990     9.0930     7.2470     7.9560   -86.3140     7.3850  -999.2500  -999.2500   -21.0840
  980.5000  -999.2500  -999.2500  -999.2500  -999.2500    86.8950     9.0890     7.1170     7.9490   -85.9310     7.3770  -999.2500  -999.2500   -21.0840
  981.0000  -999.2500  -999.2500  -999.2500  -999.2500    91.8070     9.0850     7.0080     7.9410   -85.5490     7.3700  -999.2500  -999.2500   -21.0840
  981.5000  -999.2500  -999.2500  -999.2500  -999.2500    94.4560     9.0800     6.8560     7.9340   -85.1670     7.3630  -999.2500  -999.2500   -21.0840
  982.0000  -999.2500  -999.2500  -999.2500  -999.2500    93.6820     9.0760     6.8560     7.9260   -84.7840     7.3560  -999.2500  -999.2500   -21.0840
  982.5000  -999.2500  -999.2500  -999.2500  -999.2500    90.7630     9.0730     6.9670     7.9180   -84.4020     7.3490  -999.2500  -999.2500   -21.0840
  983.0000  -999.2500  -999.2500  -999.2500  -999.2500    88.5980     9.0720     7.1140     7.9110   -84.0190     7.3420  -999.2500  -999.2500   -21.0840
  983.5000  -999.2500  -999.2500  -999.2500  -999.2500    88.9390     9.0720     7.1140     7.9030   -83.6370     7.3350  -999.2500  -999.2500   -21.0840
  984.0000  -999.2500  -999.2500  -999.2500  -999.2500    90.6050     9.0720     7.0690     7.8950   -83.2540     7.3280  -999.2500  -999.2500   -21.0840
  984.5000  -999.2500  -999.2500  -999.2500  -999.2500    90.9910     9.0720     7.0360     7.8880   -82.8720     7.3210  -999.2500  -999.2500   -21.0840
  985.0000  -999.2500  -999.2500  -999.2500  -999.2500    89.1350     9.0720     6.9840     7.8800   -82.4890     7.3140  -999.2500  -999.2500   -21.0840
  985.5000  -999.2500  -999.2500  -999.2500  -999.2500    86.9560     9.0720     6.9840     7.8720   -82.1070     7.3060  -999.2500  -999.2500   -21.0840
  986.0000  -999.2500  -999.2500  -999.2500  -999.2500    87.2220     9.0720     6.9840     7.8650   -81.7250     7.2990  -999.2500  -999.2500   -21.0840
  986.5000  -999.2500  -999.2500  -999.2500  -999.2500    90.6840     9.0720     6.9840     7.8570   -81.3420     7.2920  -999.2500  -999.2500   -21.0840
  987.0000  -999.2500  -999.2500  -999.2500  -999.2500    95.3800     9.0720     6.9840     7.8490   -80.9600     7.2850  -999.2500  -999.2500   -21.0840
  987.5000  -999.2500  -999.2500  -999.2500  -999.2500    98.5530     9.0720     6.9840     7.8420   -80.5770     7.2790  -999.2500  -999.2500   -21.0840
  988.0000  -999.2500  -999.2500  -999.2500  -999.2500    98.8870     9.0720     6.9840     7.8350   -80.1950     7.2710  -999.2500  -999.2500   -21.0850
  988.5000  -999.2500  -999.2500  -999.2500  -999.2500    97.1730     9.0720     6.9660     7.8270   -79.6590     7.2630  -999.2500  -999.2500   -21.0850
  989.0000  -999.2500  -999.2500  -999.2500  -999.2500    95.3530     9.0730     6.9430     7.8180   -79.6590     7.2550  -999.2500  -999.2500   -21.0850
  989.5000  -999.2500  -999.2500  -999.2500  -999.2500    95.0160     9.0730     6.9200     7.8100   -79.6590     7.2490  -999.2500  -999.2500   -21.0840
  990.0000  -999.2500  -999.2500  -999.2500  -999.2500    96.3440     9.0720     6.8980     7.8050   -79.6590     7.2480  -999.2500  -999.2500   -21.0840
  990.5000  -999.2500  -999.2500  -999.2500  -999.2500    98.0480     9.0720     6.8750     7.8040   -79.6590     7.2500  -999.2500  -999.2500   -21.0850
  991.0000  -999.2500  -999.2500  -999.2500  -999.2500    98.3500     9.0720     6.8560     7.8070   -79.6590     7.2550  -999.2500  -999.2500   -21.0860
  991.5000  -999.2500  -999.2500  -999.2500  -999.2500    96.3970     9.0740     6.8910     7.8120   -79.6590     7.2590  -999.2500  -999.2500   -21.0860
  992.0000  -999.2500  -999.2500  -999.2500  -999.2500    92.8500     9.0740     6.9340     7.8160   -79.6590     7.2620  -999.2500  -999.2500   -21.0840
  992.5000  -999.2500  -999.2500  -999.2500  -999.2500    89.1210     9.0700     6.9770     7.8190   -79.6590     7.2650  -999.2500  -999.2500   -21.0830
  993.0000  -999.2500  -999.2500  -999.2500  -999.2500    86.1500     9.0600     7.0200     7.8230   -79.6590     7.2680  -999.2500  -999.2500   -21.0850
  993.5000  -999.2500  -999.2500  -999.2500  -999.2500    84.2860     9.0460     7.0630     7.8260   -79.6590     7.2720  -999.2500  -999.2500   -21.0890
  994.0000  -999.2500  -999.2500  -999.2500  -999.2500    84.0670     9.0310     7.1140     7.8300   -79.6590     7.2750  -999.2500  -999.2500   -21.0900
  994.5000  -999.2500  -999.2500  -999.2500  -999.2500    86.3960     9.0140     7.2470     7.8330   -79.6590     7.2790  -999.2500  -999.2500   -21.0760
  995.0000  -999.2500  -999.2500  -999.2500  -999.2500    91.3290     8.9970     7.2380     7.8370   -79.6590     7.2820  -999.2500  -999.2500   -21.0390
  995.5000  -999.2500  -999.2500  -999.2500  -999.2500    97.0270     8.9790     7.2320     7.8410   -79.6590     7.2850  -999.2500  -999.2500   -20.9820
  996.0000  -999.2500  -999.2500  -999.2500  -999.2500   100.6560     8.9650     7.2260     7.8440   -79.6590     7.2880  -999.2500  -999.2500   -20.9140
  996.5000  -999.2500  -999.2500  -999.2500  -999.2500   100.8410     8.9590     7.2200     7.8480   -79.6590     7.2920  -999.2500  -999.2500   -20.8450
  997.0000  -999.2500  -999.2500  -999.2500  -999.2500    98.9310     8.9630     7.2130     7.8510   -79.6590     7.2950  -999.2500  -999.2500   -20.7800
  997.5000  -999.2500  -999.2500  -999.2500  -999.2500    97.4930     8.9750     7.2070     7.8550   -79.6590     7.2980  -999.2500  -999.2500   -20.7170
