~VERSION INFORMATION
 VERS.                2.0:   CWLS LOG ASCII STANDARD - VERSION 2.0
 WRAP.                 NO:   ONE LINE PER DEPTH STEP
~WELL INFORMATION
#MNEM.UNIT      DATA TYPE    INFORMATION
#----------   ------------   ------------------------------
 STRT.F           63.5000:   START DEPTH
 STOP.F         4112.0000:   STOP DEPTH
 STEP.F            0.5000:   STEP LENGTH
 NULL.          -999.2500:   NO VALUE
 COMP. LAWRENCE-ALLISON & ASSOC:   COMPANY
 WELL. LAWRENCE "X" #34-34:   WELL
 FLD .           N.P.R.#3:   FIELD
 LOC .      S34 T39N R78W:   LOCATION
 CNTY.            NATRONA:   COUNTY
 STAT.            WYOMING:   STATE
 CTRY. UNITED STATES OF AMERICA:   COUNTRY
 SRVC.      DRESSER ATLAS:   SERVICE COMPANY
 DATE.        19-OCT-1983:   LOGDATE
 API .     49025109440000:   API NUMBER
~CURVE INFORMATION
#MNEM.UNIT       API CODE    CURVE DESCRIPTION
#----------   ------------   ------------------------------
 DEPT.F                  :   
 AC  .US/F   60 250 00 00:   ACCOUSTIC
 TENS.LBS    60 635 01 00:   TENSION FROM SONIC
 ILD .OHMM   07 120 46 00:   DEEP INDUCTION RESISTIVITY
 ILM .OHMM   07 120 44 00:   INDUCTION LOG MEDIUM RESISTIVITY
 RFOC.OHMM   07 220 04 00:   RESISTIVITY FOCUSED LOG RES.
 TENR.LBS    07 635 01 00:   TENSION FROM RESISTIVITY
 SPR .MV     07 010 01 00:   SPONTANEOUS POTENTIAL
 GRR .GAPI   07 310 01 00:   GAMMA RAY FROM RESISTIVITY
 CALD.IN     45 280 60 00:   CALIPER FROM DENSITY LOG
 RHOB.G/C3   45 350 01 00:   BULK DENSITY
 CORR.G/C3   45 356 01 00:   DENSITY CORRECTION
 TEND.LBS    45 635 01 00:   TENSION FROM DENSITY LOG
 NPHI.DEC    42 890 03 00:   NEUTRON POROSITY SANDSTONE
~PARAMETER INFORMATION
#MNEM.UNIT          VALUE    DESCRIPTION
#----------   ------------   ------------------------------
 EKB .F         5100.0000:   Kelly bushing
 EGL .F         5090.0000:   Ground level
 TD  .F         4107.0000:   Total depth
 DATE.        19-OCT-1983:   Date logged
 CLNT.            A2DTECH:   Client Code
 SL  . 1997' FNL & 1661' FWL:   Surface Location
 PD  .                 GL:   Permanent Datum
 EPD .F              5090:   Elevation Permanent Datum
 LMF .                 KB:   Log Measured From
 DMF .                 KB:   Drilling Measured From
 DAPD.F                10:   Feet Above Permanent Datum
 DD  .F              4107:   Depth driller
 DL  .F              4102:   Depth logger
 BLI .F              4100:   Bottom log interval
 CS1 .IN            9.625:   Casing size
 CBD1.      9.625" @ 695':   Casing driller 1
 CBL1.F               696:   Casing logger 1
 BS1 .IN            7.875:   Bit size
 BSD1.F              4107:   Depth drilled with bit1
 DFT .            GEL-KCL:   Type fluid in hole
 DFD .                  9:   Density
 DFV .                 43:   Viscosity
 DFPH.                  9:   pH
 DFL .                 11:   Fluid loss
 MSS .           FLOWLINE:   Source of sample
 RMS .OHMM          0.313:   Rm
 MST .F                72:   Rm Meas. temp.
 RMF .OHMM          0.265:   Rmf
 MFST.F                68:   Rmf Meas. temp.
 RMC .OHMM          0.598:   Rmc
 MCST.F                68:   Rmc Meas. temp.
 MFSS.               MEAS:   Source Rmf.
 MCSS.               MEAS:   Source Rmc.
 RMB .OHMM          0.173:   Rm. at BHT
 BHT .F               130:   BHT.
 TCS .HRS               4:   Time Circ. stopped
 MRT .F               130:   Maximum recorded temp.
 LUN .               6774:   Logging unit number
 LUL .               GLTE:   Logging unit location
 ENGI.           FAHLEING:   Recorded By
 WITN.           JENNINGS:   Witnessed by
 ORIG.           5" PRINT:   Origin of data
 UWI .     49025109440000:   Unique Well ID
 DICO. A2D TECHNOLOGIES, INC.:   Digitizing Company
~OTHER INFORMATION
~A   DEPT       AC       TENS        ILD        ILM       RFOC       TENR        SPR         GRR      CALD       RHOB       CORR       TEND       NPHI   
# ...
 2039.5000  -999.2500  -999.2500     7.8890     7.8460     8.8370   -71.5520   -73.5710   102.8640     9.4850     2.4790    -0.0020   -40.5920     0.2650
 2040.0000  -999.2500  -999.2500     8.1000     7.9340     9.1330   -68.6990   -73.4470   100.6490     9.4850     2.4670    -0.0010   -39.9650     0.2610
 2040.5000  -999.2500  -999.2500     8.3120     8.0230     9.1330   -65.8450   -73.4610    99.8210     9.4850     2.4560     0.0110   -39.3370     0.2550
 2041.0000  -999.2500  -999.2500     8.5550     8.0890     9.1330   -62.9910   -73.4740    99.8270     9.4850     2.4600     0.0220   -38.7090     0.2550
 2041.5000  -999.2500  -999.2500     8.4290     7.8660     9.1330   -60.1370   -73.4890    98.3000     9.4870     2.4750     0.0520   -38.0820     0.2760
 2042.0000  -999.2500  -999.2500     8.2360     7.5640     9.0660   -57.2840   -73.5030    96.5750     9.4940     2.4870     0.0640   -37.4540     0.2880
 2042.5000  -999.2500  -999.2500     8.0430     7.2790     8.9240   -54.4300   -73.5170    95.5400     9.5020     2.4910     0.0470   -36.8260     0.2890
 2043.0000  -999.2500  -999.2500     7.8490     6.9950     8.6980   -51.5760   -73.5320    96.3490     9.5100     2.4930     0.0250   -36.1990     0.2870
 2043.5000  -999.2500  -999.2500     7.6040     6.7100     8.3300   -48.7220   -73.5460    97.5880     9.5170     2.4950     0.0030   -35.5710     0.2820
 2044.0000  -999.2500  -999.2500     7.3360     6.4060     7.9620   -45.8690   -73.5600    98.8090     9.5250     2.4890    -0.0070   -34.9430     0.2730
 2044.5000  -999.2500  -999.2500     7.0690     6.3470     7.5930   -43.0150   -73.5750    99.6950     9.5320     2.4850    -0.0060   -34.3160     0.2570
 2045.0000  -999.2500  -999.2500     6.8010     6.3630     7.2250   -40.1610   -73.5890    98.6300     9.5400     2.4870    -0.0060   -33.6880     0.2600
 2045.5000  -999.2500  -999.2500     6.5270     6.3840     6.7750   -37.3070   -73.6030    96.2420     9.5480     2.4910     0.0010   -33.0600     0.2650
 2046.0000  -999.2500  -999.2500     6.5210     6.4050     6.8250   -34.4530   -73.6180    94.0620     9.5550     2.4910     0.0030   -32.4330     0.2620
 2046.5000  -999.2500  -999.2500     6.5130     6.4260     7.0240   -32.5540   -73.6320    91.7340     9.5630     2.4870    -0.0060   -31.8100     0.2560
 2047.0000  -999.2500  -999.2500     6.5060     6.4480     7.2580   -34.4900   -73.6430    90.4320     9.5680     2.4830    -0.0190   -31.1910     0.2510
 2047.5000  -999.2500  -999.2500     6.4980     6.4690     7.4920   -36.4260   -73.5840    91.3640     9.5710     2.4850    -0.0280   -30.5720     0.2450
 2048.0000  -999.2500  -999.2500     6.4900     6.4900     7.6160   -38.3620   -73.5230    93.2460     9.5740     2.4880    -0.0120   -29.9540     0.2430
 2048.5000  -999.2500  -999.2500     6.4830     6.5110     7.6770   -40.2980   -73.4630    95.1660     9.5770     2.4900     0.0130   -29.3350     0.2370
 2049.0000  -999.2500  -999.2500     6.4750     6.5270     7.7210   -42.2340   -73.4030    96.0040     9.5800     2.4900     0.0590   -28.7160     0.2390
 2049.5000  -999.2500  -999.2500     6.4670     6.3760     7.6500   -44.1700   -73.3430    95.3150     9.5830     2.4930     0.0500   -28.0970     0.2460
 2050.0000  -999.2500  -999.2500     6.4950     6.2610     7.5940   -46.1060   -73.2730    93.8020     9.5860     2.4920     0.0320   -27.4780     0.2590
 2050.5000  -999.2500  -999.2500     6.5270     6.2080     7.1160   -48.0420   -73.0740    94.7620     9.5890     2.4850    -0.0030   -26.8600     0.2660
 2051.0000  -999.2500  -999.2500     6.5590     6.1720     6.4060   -49.9780   -73.0310    95.7340     9.5930     2.4780    -0.0440   -26.2410     0.2670
 2051.5000  -999.2500  -999.2500     6.5910     6.4300     6.5210   -51.9140   -73.0350    95.2570     9.5960     2.4760    -0.0280   -25.6220     0.2680
 2052.0000  -999.2500  -999.2500     6.6230     6.6260     6.9670   -53.1670   -73.0360    94.9710     9.5990     2.4850    -0.0060   -25.0030     0.2660
 2052.5000  -999.2500  -999.2500     6.6910     6.8230     7.6780   -54.1700   -73.0360    94.9650     9.6020     2.4790     0.0040   -24.3840     0.2610
 2053.0000  -999.2500  -999.2500     6.9710     7.0190     8.2420   -55.1730   -73.0360    94.9720     9.6050     2.4730     0.0050   -23.7660     0.2570
 2053.5000  -999.2500  -999.2500     7.2500     7.2150     8.2050   -56.1760   -73.0360    95.2740     9.6080     2.4680     0.0120   -23.1470     0.2610
 2054.0000  -999.2500  -999.2500     7.4610     7.4120     8.1650   -57.1800   -73.0360    95.7170     9.6110     2.4620     0.0100   -22.5280     0.2750
 2054.5000  -999.2500  -999.2500     7.6210     7.6080     8.1650   -58.1830   -73.0360    95.6130     9.6140     2.4560     0.0030   -21.6850     0.2850
 2055.0000  -999.2500  -999.2500     7.7810     7.6490     8.5160   -59.1860   -73.0360    95.5060     9.6180     2.4520     0.0050   -19.9760     0.2760
 2055.5000  -999.2500  -999.2500     7.9400     7.5390     8.8210   -60.1890   -73.0370    95.3950     9.6210     2.4590     0.0070   -18.2670     0.2670
 2056.0000  -999.2500  -999.2500     7.8650     7.4290     9.0480   -61.1930   -73.0370    95.3710     9.6240     2.4680     0.0090   -16.5590     0.2570
 2056.5000  -999.2500  -999.2500     7.7920     7.3190     8.6980   -62.1960   -73.1360    95.3720     9.6270     2.4850     0.0130   -14.8500     0.2570
 2057.0000  -999.2500  -999.2500     7.7210     7.3000     8.3550   -60.5370   -73.3050    95.3810     9.6300     2.5000     0.0200   -13.1410     0.2550
 2057.5000  -999.2500  -999.2500     7.7130     7.3000     8.0890   -57.3390   -73.4740    96.1480     9.6330     2.5010     0.0300   -11.4320     0.2530
 2058.0000  -999.2500  -999.2500     7.7040     7.3000     8.0970   -54.1410   -73.6450    98.2130     9.6360     2.4910     0.0180    -9.7230     0.2500
 2058.5000  -999.2500  -999.2500     7.6960     7.3000     8.1150   -50.9440   -73.8220   100.2810     9.6390     2.4780     0.0080    -8.0140     0.2560
 2059.0000  -999.2500  -999.2500     7.6870     7.3410     8.1320   -47.7460   -73.6960   100.6440     9.6430     2.4740     0.0090    -6.3050     0.2600
 2059.5000  -999.2500  -999.2500     7.6780     7.3870     8.1500   -44.5480   -73.5090   102.2560     9.6460     2.4700     0.0120    -4.5960     0.2610
 2060.0000  -999.2500  -999.2500     7.6690     7.4380     8.1650   -45.1950   -73.3180   102.9780     9.6460     2.4650     0.0240    -2.8880     0.2610
 2060.5000  -999.2500  -999.2500     7.6600     7.3600     8.8810   -54.9400   -73.1290   103.4540     9.6450     2.4640     0.0330    -4.4480     0.2760
 2061.0000  -999.2500  -999.2500     7.6510     7.2740     8.8040   -64.6860   -72.9420   103.2160     9.6430     2.4680     0.0210   -12.1380     0.2820
 2061.5000  -999.2500  -999.2500     7.5440     7.1880     8.6540   -74.4320   -72.8180   101.1640     9.6420     2.4730     0.0110   -19.8280     0.2780
 2062.0000  -999.2500  -999.2500     7.3980     7.0450     8.4250   -81.6450   -72.7810    99.6180     9.6410     2.4790     0.0220   -27.5180     0.2670
 2062.5000  -999.2500  -999.2500     7.2520     6.8190     8.0380   -73.1170   -72.7440    99.6470     9.6400     2.4860     0.0450   -27.6650     0.2570
 2063.0000  -999.2500  -999.2500     7.1070     6.5940     7.6510   -64.5900   -72.7080   101.1680     9.6390     2.4930     0.0560   -16.2730     0.2470
 2063.5000  -999.2500  -999.2500     6.9610     6.4060     7.2640   -56.0620   -72.6720   100.9780     9.6380     2.4950     0.0560    -4.8800     0.2440
 2064.0000  -999.2500  -999.2500     6.8150     6.4430     7.0780   -53.0310   -72.6340    99.3150     9.6370     2.4950     0.0370     6.5120     0.2540
 2064.5000  -999.2500  -999.2500     6.6700     6.4750     7.0330   -54.0750   -72.3340    97.9400     9.6360     2.4940     0.0180    17.9050     0.2740
 2065.0000  -999.2500  -999.2500     6.5240     6.5070     7.1300   -55.1200   -71.9940   100.8620     9.6350     2.4930     0.0150    28.6220     0.2870
