~VERSION INFORMATION
 VERS.                2.0:   CWLS LOG ASCII STANDARD - VERSION 2.0
 WRAP.                 NO:   ONE LINE PER DEPTH STEP
~WELL INFORMATION
#MNEM.UNIT      DATA TYPE    INFORMATION
#----------   ------------   ------------------------------
 STRT.F          207.0000:   START DEPTH
 STOP.F         3130.0000:   STOP DEPTH
 STEP.F            0.5000:   STEP LENGTH
 NULL.          -999.2500:   NO VALUE
 COMP. FENIX & SCISSON U.S. NAVY:   COMPANY
 WELL.    FENIX "A" #61-3:   WELL
 FLD .             NPR #3:   FIELD
 LOC .       S3 T38N R78W:   LOCATION
 CNTY.            NATRONA:   COUNTY
 STAT.            WYOMING:   STATE
 CTRY. UNITED STATES OF AMERICA:   COUNTRY
 SRVC.              WELEX:   SERVICE COMPANY
 DATE.        13-MAY-1977:   LOGDATE
 API .     49025103630000:   API NUMBER
~CURVE INFORMATION
#MNEM.UNIT       API CODE    CURVE DESCRIPTION
#----------   ------------   ------------------------------
 DEPT.F                  :   
 SPR .MV     07 010 01 00:   SPONTANEOUS POTENTIAL
 SFLU.OHMM   07 220 01 00:   SPHERICALLY FOCUSED LOG UNAVERAGED RESISTIVITY
 ILD .OHMM   07 120 46 00:   INDUCTION LOG DEEP RESISTIVITY
 ILM .OHMM   07 120 44 00:   INDUCTION LOG MEDIUM RESISTIVITY
 CALD.IN     45 280 60 00:   CALIPER FROM DENSITY LOG
 GRD .GAPI   45 310 01 00:   GAMMA RAY FROM DENSITY LOG
 RHOB.G/C3   45 350 01 00:   BULK DENSITY
 CORR.G/C3   45 356 01 00:   DENSITY CORRECTION
~PARAMETER INFORMATION
#MNEM.UNIT          VALUE    DESCRIPTION
#----------   ------------   ------------------------------
 EKB .F         5109.0000:   Kelly bushing
 EGL .F         5099.0000:   Ground level
 EDF .F            0.0000:   Drilling floor
 TD  .F         3130.0000:   Total depth
 DATE.        13-MAY-1977:   Date logged
 CLNT.            A2DTECH:   Client Code
 SL  . 330' FNL & 1650' FEL:   Surface Location
 PD  .                 GL:   Permanent Datum
 EPD .F              5099:   Elevation Permanent Datum
 LMF .                 KB:   Log Measured From
 DMF .                 KB:   Drilling Measured From
 DAPD.F                10:   Feet Above Permanent Datum
 DD  .F              3126:   Depth driller
 DL  .F              3129:   Depth logger
 BLI .F              3127:   Bottom log interval
 TLI .F               210:   Top log interval
 CS1 .IN            8.625:   Casing size
 CBD1.      8.625" @ 200':   Casing driller 1
 CBL1.F               216:   Casing logger 1
 BS1 .IN            7.875:   Bit size
 BSD1.F              3126:   Depth drilled with bit1
 DFT .            KCL MUD:   Type fluid in hole
 DFD .                9.1:   Density
 DFV .                 32:   Viscosity
 DFPH.                  8:   pH
 DFL .                8.4:   Fluid loss
 MSS .           FLOWLINE:   Source of sample
 RMS .OHMM            .29:   Rm
 MST .F                68:   Rm Meas. temp.
 RMF .OHMM            .28:   Rmf
 MFST.F                68:   Rmf Meas. temp.
 RMC .OHMM            .43:   Rmc
 MCST.F                68:   Rmc Meas. temp.
 MFSS.           FANN KIT:   Source Rmf.
 MCSS.           FANN KIT:   Source Rmc.
 RMB .OHMM            .16:   Rm. at BHT
 BHT .F               123:   BHT.
 TCS .HRS             2.5:   Time Circ. stopped
 MRT .F               123:   Maximum recorded temp.
 LUN .               9685:   Logging unit number
 LUL .           BRIGHTON:   Logging unit location
 ENGI.          T. JOYNER:   Recorded By
 WITN.      B. HARRINGTON:   Witnessed by
 ORIG.           5" PRINT:   Origin of data
 UWI .     49025103630000:   Unique Well ID
 DICO. A2D TECHNOLOGIES, INC.:   Digitizing Company
~OTHER INFORMATION
~A   DEPT      SPR       SFLU        ILD        ILM       CALD        GRD       RHOB       CORR   
# ...
 1948.5000   -37.4353    10.5886     6.0431     7.1304     8.4771   140.5854     2.4800     0.0364
 1949.0000   -37.4439    10.2980     6.0412     6.6839     8.4771   140.9843     2.4740     0.0344
 1949.5000   -37.2528     9.7417     6.0394     6.6818     8.4772   141.3831     2.4670     0.0324
 1950.0000   -37.6610    10.0099     6.0364     6.8666     8.4376   141.3859     2.4600     0.0324
 1950.5000   -37.4699    10.1938     6.0353     6.5552     8.4968   141.3825     2.4531     0.0359
 1951.0000   -37.4785    10.8690     6.0342     6.5540     8.4769   139.7944     2.4470     0.0384
 1951.5000   -37.2874    10.1883     6.0324     6.4330     8.4767   138.6424     2.4400     0.0384
 1952.0000   -37.0963     9.2898     6.0301     6.1984     8.4567   137.0543     2.4360     0.0384
 1952.5000   -37.5045     9.0348     5.9735     6.1398     8.4367   134.2782     2.4340     0.0384
 1953.0000   -37.5131     9.0315     5.9724     6.1379     8.4365   133.8782     2.4380     0.0384
 1953.5000   -37.5218     8.8648     5.9144     6.3660     8.4363   133.4783     2.4450     0.0404
 1954.0000   -37.1309     8.7000     5.9130     6.7867     8.4361   133.4743     2.4430     0.0404
 1954.5000   -37.3393     8.9407     5.9115     7.0393     8.4359   133.8664     2.4320     0.0364
 1955.0000   -37.3480     9.4456     5.8549     6.9728     8.4555   135.0505     2.4220     0.0324
 1955.5000   -37.3566     9.8870     5.8003     6.9068     8.4355   137.4227     2.4190     0.0304
 1956.0000   -37.1655     9.8840     5.7985     7.0329     8.4749   137.0228     2.4232     0.0304
 1956.5000   -36.9744     9.8810     5.7971     7.2274     8.4549   134.9971     2.4342     0.0264
 1957.0000   -36.9831     9.6980     5.7942     7.3584     8.4547   136.1828     2.4412     0.0204
 1957.5000   -37.1915     9.6950     5.7928     7.3571     8.4545   135.3868     2.4452     0.0244
 1958.0000   -37.2001     9.7816     5.7907     7.1547     8.4543   134.1948     2.4512     0.0284
 1958.5000   -37.2087     9.7787     5.7893     7.0221     8.4541   134.5869     2.4572     0.0344
 1959.0000   -37.0177     9.7757     5.7875     6.7053     8.4341   134.9790     2.4592     0.0384
 1959.5000   -37.4258     9.7727     5.7861     6.9536     8.4537   133.7862     2.4542     0.0384
 1960.0000   -37.0350     9.9517     5.7839     7.1460     8.4733   134.2182     2.4502     0.0384
 1960.5000   -37.0436    10.0406     5.7825     7.4799     8.4929   135.4024     2.4442     0.0304
 1961.0000   -37.2520    10.1285     5.7811     7.4786     8.4927   137.3794     2.4412     0.0184
 1961.5000   -37.4604    10.0345     5.7786     7.0741     8.4529   139.7108     2.4412     0.0184
 1962.0000   -37.0696     9.9396     5.7772     7.0719     8.4527   135.3905     2.4502     0.0184
 1962.5000   -37.4777     9.9360     5.7758     6.9409     8.4525   134.5945     2.4662     0.0184
 1963.0000   -37.4863     9.9330     5.7733     6.9388     8.4523   135.7787     2.4682     0.0184
 1963.5000   -37.4950     9.9306     5.7712     6.8731     8.4719   137.3588     2.4682     0.0144
 1964.0000   -37.5036     9.9282     5.7698     6.8710     8.4519   134.9787     2.4632     0.0124
 1964.5000   -37.5122     9.9246     5.7684     6.9324     8.4715   135.3708     2.4612     0.0124
 1965.0000   -37.7206     9.8307     5.7666     7.0581     8.4713   135.7629     2.4562     0.0004
 1965.5000   -37.5295     9.8271     5.7648     7.1224     8.4711   137.3431     2.4482     0.0004
 1966.0000   -37.5365     9.8248     5.7631     7.1860     8.4511   134.9630     2.4340     0.0004
 1966.5000   -37.5451     9.7313     5.8145     7.1843     8.4509   135.3550     2.4230     0.0004
 1967.0000   -37.7535     9.8182     5.8124     6.9862     8.4309   135.7471     2.4200    -0.0036
 1967.5000   -37.5624     9.8152     5.8106     6.6702     8.4307   137.3273     2.4220    -0.0016
 1968.0000   -37.5710     9.8128     5.9163     6.3681     8.4305   135.7392     2.4170    -0.0016
 1968.5000   -37.5797     9.8999     5.9156     6.2501     8.4303   137.3194     2.4100    -0.0076
 1969.0000   -37.7880    10.0806     5.9138     6.2489     8.4500   135.7314     2.4070    -0.0076
 1969.5000   -37.5970    10.1725     5.9120     6.2470     8.4498   135.3314     2.4080    -0.0076
 1970.0000   -37.6056    10.4527     5.9102     6.1879     8.4694   135.3274     2.4130    -0.0076
 1970.5000   -37.6143    10.4489     6.1290     6.1294     8.4692   134.9275     2.4120    -0.0076
 1971.0000   -37.6229    10.5422     5.9055     6.0710     8.4888   135.3195     2.4110    -0.0076
 1971.5000   -37.6315    10.5403     5.8496     6.0692     8.4886   136.1069     2.4110    -0.0076
 1972.0000   -37.6402    10.5371     5.9567     6.0673     8.5082   137.6878     2.4160    -0.0076
 1972.5000   -37.4491    10.5346     6.0099     6.0988     8.4882   138.0799     2.4160    -0.0076
 1973.0000   -37.2581    10.5282     6.0081     6.1304     8.4682   138.0760     2.4225    -0.0056
 1973.5000   -37.2667    10.7217     6.0618     6.1622     8.4878   138.4680     2.4290    -0.0056
 1974.0000   -37.6747    10.7191     6.0599     6.1941     8.4876   138.0681     2.4355    -0.0016
 1974.5000   -37.6834    10.8148     6.1140     6.2262     8.4874   138.4602     2.4420    -0.0016
 1975.0000   -37.6920    10.8116     6.1686     6.2585     8.4871   139.6443     2.4485     0.0044
 1975.5000   -37.7007    11.0083     6.1671     6.2910     8.4672   139.6403     2.4550     0.0044
 1976.0000   -37.9090    11.0063     6.1656     6.3236     8.4868   139.6364     2.4600     0.0144
 1976.5000   -37.7180    11.0030     6.1637     6.3564     8.4470   139.2364     2.4610     0.0144
 1977.0000   -37.9263    11.1006     6.1615     6.3916     8.4666   138.8365     2.4570     0.0144
 1977.5000   -37.7352    11.0972     6.1588     6.3900     8.4664   139.2285     2.4530     0.0104
 1978.0000   -38.1432    10.8916     6.1581     6.3296     8.4464   138.4325     2.4490     0.0084
 1978.5000   -37.7525    10.7886     6.1562     6.3281     8.4462   137.6365     2.4460     0.0064
 1979.0000   -37.7612    10.6866     6.1539     6.3257     8.4460   139.2167     2.4450     0.0064
 1979.5000   -37.7698    10.3913     6.1521     6.3246     8.4458   139.2128     2.4470     0.0084
 1980.0000   -37.7784    10.2001     6.1502     6.3222     8.4258   138.8128     2.4490     0.0084
 1980.5000   -37.7871     9.9194     6.0916     6.3199     8.4454   138.4128     2.4520     0.0084
 1981.0000   -37.7957     9.7356     6.0896     6.4353     8.4650   139.2009     2.4540     0.0024
 1981.5000   -37.6047    11.0703     6.0868     6.7361     8.4450   139.1970     2.4570     0.0024
 1982.0000   -37.6134    11.3766     6.0860     6.7341     8.4646   138.4010     2.4560    -0.0016
 1982.5000   -37.6220    11.3739     6.0842     6.7942     8.4446   138.3970     2.4520    -0.0016
 1983.0000   -37.8303    11.1625     6.1385     6.9822     8.4444   139.5812     2.4470    -0.0016
 1983.5000   -37.8389    11.1591     6.1933     6.9162     8.4442   139.5772     2.4440    -0.0016
 1984.0000   -37.8476    11.1557     6.2487     6.9771     8.4638   140.7614     2.4420    -0.0016
 1984.5000   -37.4569    11.2554     6.3045     6.9758     8.5032   140.3614     2.4440    -0.0016
 1985.0000   -37.6652    11.4609     6.3608     6.9745     8.4436   139.9614     2.4460    -0.0016
 1985.5000   -37.6738    11.8869     6.4176     7.0360     8.4434   140.3535     2.4480    -0.0016
 1986.0000   -37.4828    12.1040     6.4749     7.0988     8.4432   139.1615     2.4460    -0.0016
 1986.5000   -37.4915    12.1003     6.5328     7.2284     8.4232   139.1575     2.4410    -0.0056
 1987.0000   -37.5001    12.2084     6.5308     7.4971     8.4230   138.3615     2.4370    -0.0036
 1987.5000   -37.5088    11.8725     6.4102     7.7050     8.4426   137.9616     2.4370    -0.0036
 1988.0000   -37.3178    11.7602     6.4674     7.8457     8.4424   138.7497     2.4410     0.0044
 1988.5000   -37.7257    12.1981     6.4654     7.8433     8.4620   137.9529     2.4440     0.0044
