~VERSION INFORMATION
 VERS.                2.0:   CWLS LOG ASCII STANDARD - VERSION 2.0
 WRAP.                 NO:   ONE LINE PER DEPTH STEP
~WELL INFORMATION
#MNEM.UNIT      DATA TYPE    INFORMATION
#----------   ------------   ------------------------------
 STRT.F           70.0000:   START DEPTH
 STOP.F         2751.5000:   STOP DEPTH
 STEP.F            0.5000:   STEP LENGTH
 NULL.          -999.2500:   NO VALUE
 COMP.          INTEX OIL:   COMPANY
 WELL. INTEX N.P.R. "AX" #75-20:   WELL
 FLD .             TEAPOT:   FIELD
 LOC .      S20 T39N R78W:   LOCATION
 CNTY.            NATRONA:   COUNTY
 STAT.            WYOMING:   STATE
 CTRY. UNITED STATES OF AMERICA:   COUNTRY
 SRVC.       SCHLUMBERGER:   SERVICE COMPANY
 DATE.        06-MAY-1966:   LOGDATE
 API .     49025095120000:   API NUMBER
~CURVE INFORMATION
#MNEM.UNIT       API CODE    CURVE DESCRIPTION
#----------   ------------   ------------------------------
 DEPT.F                  :   
 CALD.IN     45 280 60 00:   CALIPER FROM DENSITY LOG
 GRD .GAPI   45 310 01 00:   GAMMA RAY FROM DENSITY LOG
 RHOB.G/C3   45 350 01 00:   BULK DENSITY
 CORR.G/C3   45 356 01 00:   DENSITY CORRECTION
 SPR .MV     05 010 01 00:   SPONTANEOUS POTENTIAL
 ILD .OHMM   05 120 46 00:   DEEP INDUCTION RESISTIVITY
 ASN .OHMM   05 041 16 00:   AMPLIFIED SHORT NORMAL 16"
~PARAMETER INFORMATION
#MNEM.UNIT          VALUE    DESCRIPTION
#----------   ------------   ------------------------------
 EKB .F         5016.3000:   Kelly bushing
 EGL .F         5006.0000:   Ground level
 EDF .F            0.0000:   Drilling floor
 TD  .F         2750.0000:   Total depth
 DATE.        06-MAY-1966:   Date logged
 CLNT.            A2DTECH:   Client Code
 PD  .                 GL:   Permanent Datum
 DD  .F              2750:   Depth driller
 DL  .F              2746:   Depth logger
 BLI .F              2745:   Bottom log interval
 CS1 .IN            10.75:   Casing size
 CBD1.       10.75" @ 30':   Casing driller 1
 BS1 .IN            7.875:   Bit size
 DFT .           OIL/EMUL:   Type fluid in hole
 DFD .                9.8:   Density
 DFV .                 43:   Viscosity
 DFPH.                  8:   pH
 DFL .               11.8:   Fluid loss
 MSS .         CIRCULATED:   Source of sample
 RMS .OHMM           1.84:   Rm
 MST .F                73:   Rm Meas. temp.
 RMF .OHMM           1.21:   Rmf
 MFST.F                74:   Rmf Meas. temp.
 MFSS.                 FP:   Source Rmf.
 RMB .OHMM           1.27:   Rm. at BHT
 BHT .F               106:   BHT.
 TCS .HRS             1.5:   Time Circ. stopped
 MRT .F               106:   Maximum recorded temp.
 LUN .               3527:   Logging unit number
 LUL .               CSPR:   Logging unit location
 ENGI.               HAUG:   Recorded By
 WITN.      TUTTLE/HUDSON:   Witnessed by
 ORIG.           5" PRINT:   Origin of data
 UWI .     49025095120000:   Unique Well ID
 DICO. A2D TECHNOLOGIES, INC.:   Digitizing Company
 DAPD.F              10.3:   Feet Above Permanent Datum
 BSD1.F              2750:   Depth drilled with bit1
 MCSS.                 FP:   Source Rmc.
 EPD .F              5006:   Elevation Permanent Datum
 LMF .                 KB:   Log Measured From
 DMF .                 KB:   Drilling Measured From
 TLI .F                88:   Top log interval
~OTHER INFORMATION
~A   DEPT     CALD        GRD       RHOB       CORR        SPR        ILD          ASN 
# ...
 2117.5000     9.2750   113.1680     2.4930     0.0020   -47.3740     6.2860    10.0520
 2118.0000     9.2750   116.9500     2.5160     0.0090   -47.2540     6.2570     9.8600
 2118.5000     9.2770   120.8020     2.5240     0.0070   -47.3480     6.2290     9.6200
 2119.0000     9.2790   122.7960     2.5110     0.0040   -47.4800     6.2000     9.3780
 2119.5000     9.2820   124.4950     2.5030     0.0070   -47.6270     6.1030     9.1360
 2120.0000     9.2840   124.1190     2.5140     0.0160   -47.1300     5.9390     8.8940
 2120.5000     9.2870   123.6770     2.5260     0.0230   -46.7140     5.7740     8.7150
 2121.0000     9.2890   119.8060     2.5300     0.0180   -47.1210     5.6080     8.6730
 2121.5000     9.2920   118.1520     2.5270     0.0160   -47.4440     5.5940     8.5960
 2122.0000     9.2940   117.9780     2.5140     0.0110   -47.3750     5.5530     8.4890
 2122.5000     9.2970   116.6200     2.5000     0.0050   -47.3110     5.5120     8.3760
 2123.0000     9.2990   115.3940     2.4910     0.0030   -47.2500     5.4710     8.3680
 2123.5000     9.3020   114.6830     2.4970     0.0060   -47.1880     5.4300     8.3920
 2124.0000     9.3040   113.4630     2.5030     0.0110   -47.1260     5.3890     8.4160
 2124.5000     9.3070   114.8920     2.5080     0.0120   -47.0650     5.3480     8.4160
 2125.0000     9.3090   116.2200     2.5050     0.0090   -46.8130     5.3060     8.2710
 2125.5000     9.3120   115.2150     2.4920     0.0060   -46.4780     5.2650     8.1130
 2126.0000     9.3140   115.7100     2.4810     0.0040   -46.9860     5.2240     7.9560
 2126.5000     9.3170   116.6780     2.4780     0.0010   -47.4280     5.1830     7.7980
 2127.0000     9.3190   117.9680     2.4800    -0.0010   -47.3080     5.1420     7.6400
 2127.5000     9.3220   117.4850     2.4850     0.0010   -47.1970     5.1070     7.4820
 2128.0000     9.3240   116.3330     2.4920     0.0030   -47.0860     4.9790     7.3240
 2128.5000     9.3270   115.3050     2.5010     0.0020   -47.1980     4.7990     7.2230
 2129.0000     9.3290   114.2100     2.4970     0.0010   -47.4570     4.6180     7.1290
 2129.5000     9.3320   115.1150     2.4930     0.0010   -47.7220     4.4370     7.0360
 2130.0000     9.3340   116.9600     2.5040     0.0040   -47.4760     4.2560     6.9360
 2130.5000     9.3370   118.6110     2.4990     0.0090   -47.2180     4.0740     6.6450
 2131.0000     9.3390   121.0520     2.4830     0.0090   -47.1880     3.8930     6.3580
 2131.5000     9.3420   124.2010     2.4680     0.0070   -47.1550     3.7120     6.0720
 2132.0000     9.3440   127.4060     2.4530     0.0040   -47.1220     3.5300     5.7850
 2132.5000     9.3470   129.5330     2.4430     0.0040   -47.0910     3.3500     5.4990
 2133.0000     9.3490   129.3090     2.4490     0.0110   -47.0560     3.3220     5.2280
 2133.5000     9.3520   127.9580     2.4580     0.0110   -47.2460     3.3210     5.3010
 2134.0000     9.3540   127.4910     2.4670     0.0090   -47.5990     3.3200     5.3940
 2134.5000     9.3570   124.6570     2.4740     0.0060   -47.6960     3.3820     5.4870
 2135.0000     9.3600   122.9010     2.4730     0.0040   -47.2970     3.4780     5.5790
 2135.5000     9.3630   121.3290     2.4800     0.0030   -47.0830     3.5750     5.6720
 2136.0000     9.3660   122.4300     2.4880     0.0070   -47.2200     3.6720     5.7650
 2136.5000     9.3690   125.0850     2.4730     0.0050   -47.3500     3.7690     5.8600
 2137.0000     9.3720   126.9220     2.4770     0.0020   -47.4300     3.8660     6.0190
 2137.5000     9.3750   126.4840     2.4810     0.0010   -47.3020     3.9630     6.1800
 2138.0000     9.3780   125.5940     2.4870     0.0060   -46.8730     4.0600     6.3400
 2138.5000     9.3810   127.0210     2.4870     0.0070   -47.2420     4.1570     6.4760
 2139.0000     9.3840   127.7420     2.4870     0.0060   -47.6560     4.2540     6.4720
 2139.5000     9.3870   127.6680     2.4870     0.0050   -47.9000     4.3510     6.4710
 2140.0000     9.3890   127.6850     2.4870     0.0050   -47.0550     4.4480     6.4690
 2140.5000     9.3920   127.6410     2.4870     0.0080   -47.3480     4.5450     6.5870
 2141.0000     9.3840   127.8280     2.4870     0.0120   -47.6800     4.6420     6.7310
 2141.5000     9.3730   126.4210     2.4890     0.0150   -48.0070     4.7390     6.8760
 2142.0000     9.3620   125.0680     2.4900     0.0180   -47.7820     4.8360     7.0290
 2142.5000     9.3510   125.1760     2.4920     0.0180   -47.5190     4.9330     7.3130
 2143.0000     9.3400   125.2700     2.4910     0.0150   -47.2540     5.0300     7.6080
 2143.5000     9.3290   124.7420     2.4840     0.0120   -47.3400     5.1270     7.9050
 2144.0000     9.3180   125.7410     2.4800     0.0090   -47.4490     5.2240     8.2020
 2144.5000     9.3070   125.9540     2.4900     0.0100   -47.5580     5.3210     8.5010
 2145.0000     9.2950   128.1330     2.5010     0.0120   -47.6670     5.4180     8.5820
 2145.5000     9.2840   130.0300     2.5080     0.0150   -47.7760     5.5160     8.6550
 2146.0000     9.2730   131.6750     2.5080     0.0130   -47.7400     5.6040     8.7270
 2146.5000     9.2620   132.9750     2.5060     0.0100   -47.5690     5.6780     8.8000
 2147.0000     9.2510   134.1830     2.4970     0.0060   -47.3990     5.7400     8.8720
 2147.5000     9.2400   134.6140     2.4870     0.0030   -47.2260     5.8160     8.9440
 2148.0000     9.2290   134.3630     2.4830    -0.0010   -47.0550     5.8930     9.0100
 2148.5000     9.2180   133.8220     2.4950    -0.0010   -47.4100     5.9000     9.1290
 2149.0000     9.2070   134.9250     2.5050     0.0020   -47.8180     6.0850     9.2590
 2149.5000     9.1970   137.1680     2.5090     0.0160   -47.7090     6.2890     9.3890
 2150.0000     9.1980   136.4820     2.5090     0.0180   -47.0750     6.4940     9.5200
 2150.5000     9.2000   133.9350     2.5080     0.0130   -47.3480     6.6990     9.6500
 2151.0000     9.2020   131.5110     2.5010     0.0090   -47.6920     6.9040     9.7820
 2151.5000     9.2050   129.7850     2.4930     0.0050   -48.0380     7.1060     9.9580
 2152.0000     9.2070   126.4840     2.4910     0.0050   -48.0330     7.3080     9.9050
 2152.5000     9.2090   123.2340     2.4910     0.0060   -47.6270     7.4050    11.4240
 2153.0000     9.2120   126.5220     2.4990     0.0100   -47.2240     7.2420    11.5450
 2153.5000     9.2140   130.5920     2.4980     0.0110   -46.8820     7.0350    11.4360
 2154.0000     9.2170   132.0060     2.4970     0.0080   -47.5790     6.8280    10.8420
 2154.5000     9.2190   133.0270     2.4950     0.0050   -47.5570     6.6190    10.4420
 2155.0000     9.2210   133.3180     2.4980     0.0030   -47.1430     6.4110    10.0780
 2155.5000     9.2240   131.6620     2.5000     0.0040   -46.7200     6.2010     9.7250
 2156.0000     9.2260   130.7640     2.5050     0.0070   -46.9210     5.9920     9.3770
 2156.5000     9.2290   130.9440     2.5110     0.0090   -47.3590     5.7850     9.2430
 2157.0000     9.2310   132.9320     2.5170     0.0070   -47.5040     5.5920     9.2760
 2157.5000     9.2330   134.0370     2.5210     0.0060   -47.1510     5.5980     9.4130
 2158.0000     9.2350   133.9190     2.5070    -0.0010   -46.7980     5.6000     9.5500
 2158.5000     9.2370   134.7000     2.4850    -0.0120   -47.1240     5.6000     9.6900
 2159.0000     9.2380   138.4410     2.4850    -0.0080   -47.8220     5.6000     9.7370
 2159.5000     9.2390   144.4760     2.4870    -0.0050   -47.5520     5.6000     9.5720
 2160.0000     9.2410   147.8780     2.4800    -0.0050   -47.2930     5.6000     9.2770
 2160.5000     9.2420   148.8590     2.4740    -0.0050   -47.3610     5.6000     8.9900
 2161.0000     9.2430   144.5000     2.4720    -0.0040   -47.5170     5.6060     8.7050
 2161.5000     9.2450   137.7600     2.4790    -0.0010   -47.5420     5.6980     8.3830
 2162.0000     9.2460   129.9320     2.4920     0.0010   -47.2000     5.9330     8.6050
 2162.5000     9.2470   121.8280     2.5020     0.0040   -46.8660     6.1820     9.3020
