~VERSION INFORMATION
 VERS.                2.0:   CWLS LOG ASCII STANDARD - VERSION 2.0
 WRAP.                 NO:   ONE LINE PER DEPTH STEP
~WELL INFORMATION
#MNEM.UNIT      DATA TYPE    INFORMATION
#----------   ------------   ------------------------------
 STRT.F           50.0000:   START DEPTH
 STOP.F         5698.0000:   STOP DEPTH
 STEP.F            0.5000:   STEP LENGTH
 NULL.          -999.2500:   NO VALUE
 COMP. LAWRENCE - ALLISON:   COMPANY
 WELL. LAWRENCE TPX #57-3:   WELL
 FLD .              NPR 3:   FIELD
 LOC .       S3 T38N R78W:   LOCATION
 CNTY.            NATRONA:   COUNTY
 STAT.            WYOMING:   STATE
 CTRY. UNITED STATES OF AMERICA:   COUNTRY
 SRVC.       SCHLUMBERGER:   SERVICE COMPANY
 DATE.        09-AUG-1982:   LOGDATE
 API .     49025108900000:   API NUMBER
~CURVE INFORMATION
#MNEM.UNIT       API CODE    CURVE DESCRIPTION
#----------   ------------   ------------------------------
 DEPT.F                  :   
 TEND.LBS    45 635 01 00:   TENSION FROM DENSITY LOG
 CALD.IN     45 280 60 00:   CALIPER FROM DENSITY LOG
 NPHI.DEC    42 890 03 00:   NEUTRON POROSITY SANDSTONE
 CORR.G/C3   45 356 01 00:   DENSITY CORRECTION
 RHOB.G/C3   45 350 01 00:   BULK DENSITY
 SPR .MV     11 010 01 00:   SPONTANEOUS POTENTIAL FROM RESISTIVITY
 TENR.LBS    11 635 01 00:   TENSION FROM RESISTIVITY
 GRR .GAPI   11 310 01 00:   GAMMA RAY FROM RESISTIVITY
 LLD .OHMM   11 220 10 00:   LATEROLOG DEEP
 LLS .OHMM   11 220 09 00:   LATEROLOG LOG SHALLOW
 MSFL.OHMM   11 270 04 00:   MICRO SPHERICALLY FOCUSED
~PARAMETER INFORMATION
#MNEM.UNIT          VALUE    DESCRIPTION
#----------   ------------   ------------------------------
 EKB .F         5190.0000:   Kelly bushing
 EGL .F         5180.0000:   Ground level
 EDF .F         5189.0000:   Drilling floor
 TD  .F         5686.0000:   Total depth
 CLNT.            A2DTECH:   Client Code
 SL  . 1002' FSL & 2479' FEL:   Surface Location
 PD  .                 GL:   Permanent Datum
 EPD .F              5180:   Elevation Permanent Datum
 LMF .                 KB:   Log Measured From
 DMF .                 KB:   Drilling Measured From
 DAPD.F                10:   Feet Above Permanent Datum
 DATE.        09-AUG-1982:   Date Logged [DD-MMM-YYYY]
 DD  .F              5685:   Depth driller
 DL  .F              5686:   Depth logger
 BLI .F              5683:   Bottom log interval
 TLI .F               494:   Top log interval
 CS1 .IN            9.625:   Casing size
 CBD1.      9.625" @ 500':   Casing driller 1
 CBL1.F               494:   Casing logger 1
 BS1 .IN             8.75:   Bit size
 BSD1.F              5685:   Depth drilled with bit1
 DFT .                KCL:   Type fluid in hole
 DFD .                9.0:   Density
 DFV .                 38:   Viscosity
 DFPH.                8.5:   pH
 DFL .                9.0:   Fluid loss
 MSS .            MUDTANK:   Source of sample
 RMS .OHMM           0.27:   Rm
 MST .F                79:   Rm Meas. temp.
 RMF .OHMM           0.27:   Rmf
 MFST.F                79:   Rmf Meas. temp.
 MFSS.               MEAS:   Source Rmf.
 RMB .OHMM            .13:   Rm. at BHT
 BHT .F               164:   BHT.
 TCS .HRS            1300:   Time Circ. stopped
 MRT .F               164:   Maximum recorded temp.
 LUN .               8035:   Logging unit number
 LUL .               CSPR:   Logging unit location
 ENGI.            PERAKIS:   Recorded By
 WITN.           L. FIVAS:   Witnessed by
 ORIG.        2" 5" PRINT:   Origin of data
 UWI .     49025108900000:   Unique Well ID
 DICO. A2D TECHNIOLOGIES,INC.:   Digitizing Company
 RMC .OHMM           0.41:   Rmc
 MCST.F                79:   Rmc Meas. temp.
 MCSS.               CALC:   Source Rmc.
 TLAB.HRS            2000:   Time logger at bottom
~OTHER INFORMATION
~A  DEPTH     TEND       CALD       NPHI       CORR       RHOB        SPR       TENR        GRR        LLD        LLS       MSFL
# ...
 3923.5000  1469.9866    10.9298     0.2923     0.1927     2.4827   -73.5586  1483.7886   108.9537     3.8519     3.3101     4.9867
 3924.0000  1480.3213    10.9006     0.2998     0.1601     2.4671   -73.5008  1483.2123   111.3990     3.7230     3.2661     4.4669
 3924.5000  1488.1526    10.8563     0.3036     0.0886     2.4447   -73.5000  1482.6364   110.8277     3.6480     3.2452     4.4687
 3925.0000  1495.9491    10.8421     0.3087     0.0417     2.4404   -73.4995  1497.0302   107.2398     3.6244     3.2920     4.2596
 3925.5000  1489.2498    10.8280     0.3120     0.0127     2.4427   -73.4527  1496.3097   102.0556     3.6257     3.4559     3.9770
 3926.0000  1482.3940    10.8289     0.3096     0.0023     2.4457   -73.2935  1495.7334    97.0554     3.6556     3.7035     4.2634
 3926.5000  1475.9036    10.8450     0.3119     0.0001     2.4495   -73.1307  1510.2712    94.6662     3.7295     3.8086     4.6335
 3927.0000  1477.5865    10.8609     0.3110    -0.0006     2.4592   -73.1649  1509.5511    95.9128     3.7565     3.7329     4.8986
 3927.5000  1479.2025    10.8768     0.3053     0.0009     2.4667   -73.2501  1523.9449    97.7548     3.6810     3.5349     4.8334
 3928.0000  1480.8185    11.0581     0.2872     0.0032     2.4690   -73.3694  1523.3534    99.2951     3.4141     3.1465     4.5127
 3928.5000  1482.4344    11.1793     0.2982     0.0114     2.4698   -73.5227  1522.6484   100.8515     3.1019     2.9389     4.2111
 3929.0000  1484.0505    11.2258     0.3139     0.0338     2.4706   -73.6163  1522.0721   102.6854     2.9334     2.8605     3.5717
 3929.5000  1485.6665    11.1060     0.3419     0.0510     2.4676   -73.6922  1506.5258   103.0190     2.8978     2.9233     3.3812
 3930.0000  1487.2825    10.9415     0.3509     0.0570     2.4617   -73.5445  1490.9796    98.5261     3.1052     3.1527     3.5256
 3930.5000  1488.8984    10.9424     0.3454     0.0310     2.4498   -73.3984  1490.4033    94.6366     3.3502     3.4253     4.3687
 3931.0000  1490.5144    11.0485     0.3348     0.0250     2.4558   -73.2683  1474.8505    93.7556     3.6395     3.7216     4.9831
 3931.5000  1492.1316    11.3050     0.3210     0.0288     2.4730   -73.1764  1474.1367    94.3989     3.8730     3.9609     5.0544
 3932.0000  1493.7501    11.5314     0.3062     0.0370     2.4857   -73.0979  1473.5604    94.7330     4.0382     4.1296     5.6706
 3932.5000  1495.3624    11.5774     0.2983     0.0296     2.4701   -73.0999  1472.9841    93.8596     4.1803     4.2759     7.1943
 3933.0000  1495.9839    11.3680     0.2938     0.0043     2.4619   -73.0996  1472.4082    92.6930     4.2688     4.3372     7.2470
 3933.5000  1495.9839    10.9929     0.2865    -0.0135     2.4605   -73.1029  1471.8319    91.5184     4.2997     4.3696     7.3001
 3934.0000  1495.9839    10.8284     0.2730    -0.0180     2.4747   -72.9087  1471.2556    96.9803     4.1845     4.3119     7.5076
 3934.5000  1492.8647    10.7989     0.2576    -0.0008     2.5016   -72.6174  1485.6494   105.1571     3.9619     4.1396     6.3199
 3935.0000  1486.0776    10.8000     0.2533     0.0514     2.5173   -72.3158  1484.9293   105.7924     4.0458     4.0288     4.0924
 3935.5000  1479.2905    10.8310     0.2563     0.0798     2.5345   -72.3678  1484.3530   104.5707     4.3539     4.2298     3.2527
 3936.0000  1475.8859    10.8790     0.2789     0.0865     2.5420   -72.4486  1483.7767   101.6412     4.8410     4.7250     5.1088
 3936.5000  1475.8882    10.9232     0.2870     0.0761     2.5189   -72.5594  1483.2004   100.4585     4.7438     4.6941     6.4631
 3937.0000  1475.8679    10.8488     0.2833     0.0493     2.5108   -72.7319  1482.6241   100.1889     4.2512     4.4145     6.1183
 3937.5000  1481.2822    10.8345     0.2610     0.0464     2.5140   -72.8915  1482.0359    99.0223     3.7577     3.8229     3.4271
 3938.0000  1488.5542    10.9258     0.2493     0.0614     2.5325   -72.7744  1481.3278    96.0377     3.5823     3.6702     2.0999
 3938.5000  1495.9839    10.9868     0.2576     0.1776     2.5422   -72.6444  1480.7515    94.8627     3.6598     3.7484     2.2201
 3939.0000  1488.8698    10.9726     0.2772     0.1896     2.5236   -72.5134  1480.1752    96.1662     3.8666     3.9894     4.2255
 3939.5000  1481.5978    10.9136     0.2820     0.1285     2.4454   -72.6166  1479.5989   100.0633     4.0865     4.2203     6.1311
 3940.0000  1475.9036    10.8693     0.2765     0.0347     2.3821   -72.7534  1479.0228   102.8102     4.2600     4.3073     6.2188
 3940.5000  1475.9036    10.8702     0.2747     0.0056     2.3725   -72.8943  1493.4166   103.4376     4.3501     4.2792     6.0938
 3941.0000  1475.9036    10.9011     0.2729     0.0086     2.4530   -72.9790  1492.6962    98.0477     4.6293     4.5550     6.2669
 3941.5000  1475.9036    11.0073     0.2677     0.0109     2.4881   -73.0639  1492.1199    93.5548     5.0636     4.9150     7.2979
 3942.0000  1475.9036    11.2337     0.2514     0.0110     2.5005   -73.0989  1491.5438    90.8718     5.0654     5.0892     7.9314
 3942.5000  1475.9036    11.3862     0.2402     0.0125     2.5150   -73.0672  1506.0815    93.4795     4.9640     5.0209     6.8804
 3943.0000  1475.9036    11.3710     0.2429     0.0170     2.5165   -72.9807  1505.3613    99.3904     4.6040     4.7235     5.9814
 3943.5000  1479.3708    11.2365     0.2682     0.0222     2.5032   -72.9042  1504.7852   108.4722     4.2702     4.4118     5.8202
 3944.0000  1486.1580    11.0870     0.2760     0.0625     2.5002   -72.9699  1504.1917   113.9340     4.0154     4.0644     5.4346
 3944.5000  1492.9451    10.9977     0.2735     0.1781     2.5412   -73.0394  1503.4886   113.0611     3.8280     3.9285     2.8411
 3945.0000  1499.7323    11.1188     0.2711     0.2250     2.5428   -73.0962  1502.9124   110.9815     3.7770     3.9033     2.2476
 3945.5000  1506.5194    11.5859     0.2714     0.2051     2.4936   -73.0265  1502.3361   109.2035     3.7524     3.9056     2.4267
 3946.0000  1513.3065    12.1551     0.2707     0.1633     2.4256   -72.9576  1501.7598   109.6349     3.7798     3.9344     2.3883
 3946.5000  1516.0642    12.2493     0.2686     0.1752     2.4073   -72.8752  1501.1836   112.8954     3.8071     3.9092     2.2973
 3947.0000  1516.0642    11.8594     0.2659     0.1857     2.4431   -72.7190  1500.5988   119.2623     3.7564     3.8843     2.4970
 3947.5000  1516.0642    11.3339     0.2631     0.1515     2.4238   -72.5595  1499.8871   128.3441     3.6809     3.7811     3.6018
 3948.0000  1516.0642    10.8987     0.2640     0.1388     2.4223   -72.5793  1499.3108   131.6863     3.3862     2.9945     4.8487
 3948.5000  1516.0642    10.6289     0.2745     0.1933     2.4246   -72.7047  1498.7349   132.6530     3.0180     2.7777     2.8702
 3949.0000  1516.0642    10.4939     0.2901     0.1849     2.3785   -72.8315  1498.1586   136.2993     2.8574     2.7600     2.2863
 3949.5000  1509.2723    10.7211     0.2988     0.0868     2.3144   -72.8664  1497.5823   138.9539     2.8584     2.7998     3.2982
 3950.0000  1502.8210    10.9626     0.2997     0.0145     2.2846   -72.7933  1497.0060   141.3914     2.8791     2.8595     4.2304
 3950.5000  1496.0168    11.0234     0.2984     0.0108     2.3527   -72.7203  1496.3757   140.2036     2.9807     2.9608     3.6865
 3951.0000  1503.7535    10.8290     0.2966     0.0385     2.4569   -72.5794  1495.7939   139.0157     3.0230     3.0448     3.2798
 3951.5000  1512.2825    10.7697     0.2960     0.0705     2.4726   -72.4133  1495.2097   137.8278     3.0477     3.0884     3.0618
 3952.0000  1516.0642    10.9209     0.2960     0.0646     2.4667   -72.2986  1494.6108   136.3062     3.0671     3.0898     3.8093
 3952.5000  1516.0642    11.2150     0.2956     0.0355     2.4488   -72.3288  1493.9030   135.7542     3.0681     3.0470     3.4475
 3953.0000  1516.0642    11.5594     0.2950     0.0303     2.4474   -72.4149  1493.3210   136.6862     3.0478     3.0088     3.2190
 3953.5000  1513.1096    11.7912     0.2938     0.0282     2.4795   -72.4933  1492.7393   137.9153     3.1126     3.0944     3.0474
