~VERSION INFORMATION
 VERS.                2.0:   CWLS LOG ASCII STANDARD - VERSION 2.0
 WRAP.                 NO:   ONE LINE PER DEPTH STEP
~WELL INFORMATION
#MNEM.UNIT      DATA TYPE    INFORMATION
#----------   ------------   ------------------------------
 STRT.F          500.0000:   START DEPTH
 STOP.F         4646.0000:   STOP DEPTH
 STEP.F            0.5000:   STEP LENGTH
 NULL.          -999.2500:   NO VALUE
 COMP.    FENIX & SCISSON:   COMPANY
 WELL. LAWRENCE NPR 3 "X" #34-10:   WELL
 FLD .                NPR:   FIELD
 LOC .      S10 T38N R78W:   LOCATION
 CNTY.            NATRONA:   COUNTY
 STAT.            WYOMING:   STATE
 CTRY. UNITED STATES OF AMERICA:   COUNTRY
 SRVC.              WELEX:   SERVICE COMPANY
 DATE.        12-OCT-1979:   LOGDATE
 API .     49025109290000:   API NUMBER
~CURVE INFORMATION
#MNEM.UNIT       API CODE    CURVE DESCRIPTION
#----------   ------------   ------------------------------
 DEPT.F                  :   
 SPR .MV     07 010 01 00:   SPONTANEOUS POTENTIAL
 SGRD.OHMM   07 220 05 00:   SHALLOW GUARD LOG RESISTIVITY
 ILD .OHMM   07 120 46 00:   DEEP INDUCTION RESISTIVITY
 ILM .OHMM   07 120 44 00:   INDUCTION LOG MEDIUM RESISTIVITY
 TEND.LBS    45 635 01 00:   TENSION FROM DENSITY LOG
 CORR.G/C3   45 356 01 00:   DENSITY CORRECTION
 RHOB.G/C3   45 350 01 00:   BULK DENSITY
 NPHI.DEC    42 890 03 00:   NEUTRON POROSITY SANDSTONE
 GRD .GAPI   45 310 01 00:   GAMMA RAY FROM DENSITY LOG
 CALD.IN     45 280 60 00:   CALIPER FROM DENSITY LOG
~PARAMETER INFORMATION
#MNEM.UNIT          VALUE    DESCRIPTION
#----------   ------------   ------------------------------
 EKB .F         5234.0000:   Kelly bushing
 EGL .F         5224.0000:   Ground level
 EDF .F            0.0000:   Drilling floor
 TD  .F         4650.0000:   Total depth
 DATE.        12-OCT-1979:   Date logged
 CLNT.            A2DTECH:   Client Code
 SL  . 2055' FNL & 1509' FWL:   Surface Location
 PD  .                 GL:   Permanent Datum
 DD  .F              4650:   Depth driller
 DL  .F              4646:   Depth logger
 BLI .F              4644:   Bottom log interval
 CS1 .IN              500:   Casing size
 CBD1.      8.625" @ 500':   Casing driller 1
 CBL1.F               502:   Casing logger 1
 BS1 .IN            7.875:   Bit size
 DFT .           CHEM/GEL:   Type fluid in hole
 DFD .                8.8:   Density
 DFV .                 62:   Viscosity
 DFPH.               11.2:   pH
 DFL .                4.5:   Fluid loss
 MSS .            MUD/PIT:   Source of sample
 RMS .OHMM           1.18:   Rm
 MST .F                60:   Rm Meas. temp.
 RMF .OHMM            .94:   Rmf
 MFST.F                60:   Rmf Meas. temp.
 RMC .OHMM           1.41:   Rmc
 MCST.F                60:   Rmc Meas. temp.
 MFSS.               MEAS:   Source Rmf.
 RMB .OHMM            .81:   Rm. at BHT
 BHT .F                87:   BHT.
 TCS .HRS               2:   Time Circ. stopped
 MRT .F                87:   Maximum recorded temp.
 LUN .               1892:   Logging unit number
 LUL .             CASPER:   Logging unit location
 ENGI.               REIN:   Recorded By
 WITN.           DINSMORE:   Witnessed by
 ORIG.           5" PRINT:   Origin of data
 UWI .     49025109290000:   Unique Well ID
 DICO. A2D TECHNOLOGIES, INC.:   Digitizing Company
 DAPD.                 10:   Feet Above Permanent Datum
 BSD1.F              4650:   Depth drilled with bit1
 MCSS.               MEAS:   Source Rmc.
 EPD .F              5224:   Elevation Permanent Datum
 LMF .                 KB:   Log Measured From
 DMF .                 KB:   Drilling Measured From
 TLI .F               500:   Top log interval
~OTHER INFORMATION
~A   DEPT      SPR         SGRD      ILD         ILM      TEND         CORR       RHOB       NPHI       GRD        CALD 
# ...
 2979.0000   -32.3610     7.5540     6.6150     7.0110  2093.4680     0.1370     2.5740     0.0450   109.3840     8.7640
 2979.5000   -32.4270     7.7180     6.6370     7.0600  2094.0090     0.1440     2.5720     0.0440   109.9800     8.7640
 2980.0000   -32.1610     7.8810     6.8010     7.1090  2094.5510     0.1510     2.5750     0.0420   113.4430     8.7650
 2980.5000   -31.7840     7.9550     6.8830     7.1570  2095.0920     0.1570     2.5770     0.0400   116.6550     8.7680
 2981.0000   -31.4040     7.9550     6.9700     7.2060  2095.6331     0.1550     2.5800     0.0380   116.8480     8.7710
 2981.5000   -31.0260     7.9550     7.0560     7.2540  2096.1750     0.1530     2.5830     0.0340   112.5740     8.7730
 2982.0000   -30.6490     7.9550     6.7770     6.9650  2096.7161     0.1510     2.5960     0.0280   106.2240     8.7760
 2982.5000   -30.4570     7.4220     6.5000     6.6120  2097.2581     0.1560     2.6100     0.0220   100.5680     8.7790
 2983.0000   -30.5010     6.9070     6.2230     6.3760  2097.7991     0.1670     2.6230     0.0160    99.4280     8.7810
 2983.5000   -30.5430     6.3920     5.9470     6.1290  2098.3411     0.1730     2.6180     0.0260    99.7070     8.7850
 2984.0000   -30.5860     6.0350     5.6820     5.9010  2098.8821     0.1580     2.5950     0.0360   100.2770     8.7630
 2984.5000   -30.6290     5.8230     5.4220     5.6730  2099.4241     0.1460     2.5730     0.0500   101.9810     8.7480
 2985.0000   -30.7020     5.6120     5.1580     5.4450  2099.9651     0.1460     2.5570     0.0550   105.3970     8.7610
 2985.5000   -30.8130     5.4010     4.8720     5.1340  2100.5071     0.1580     2.5460     0.0620   110.0860     8.7730
 2986.0000   -30.9250     5.0180     4.5070     4.7660  2101.0481     0.1710     2.5350     0.0690   114.7860     8.7840
 2986.5000   -31.0360     4.6360     4.1430     4.3970  2101.5901     0.1850     2.5230     0.0770   117.8310     8.7860
 2987.0000   -31.1480     4.2550     3.7790     4.0290  2102.1311     0.1990     2.5120     0.0870   119.1680     8.7880
 2987.5000   -31.2590     4.0960     3.3660     3.6130  2102.6731     0.2010     2.5000     0.0970   120.5230     8.7900
 2988.0000   -31.3710     4.0960     2.9460     3.1900  2103.2141     0.1960     2.4680     0.1130   122.6050     8.7910
 2988.5000   -31.4820     4.0960     2.8330     2.9660  2103.7561     0.1960     2.4350     0.1360   127.7490     8.7930
 2989.0000   -31.5940     4.2910     3.0350     3.0780  2104.2971     0.1990     2.4010     0.1590   133.0440     8.7950
 2989.5000   -31.7050     5.5000     3.1860     3.6120  2104.8391     0.1980     2.3630     0.1870   143.3500     8.7970
 2990.0000   -31.8190     6.9270     3.3370     4.0210  2105.3799     0.1790     2.3240     0.2150   154.3030     8.7980
 2990.5000   -31.8620     6.9530     3.4880     4.4290  2105.9209     0.1600     2.2840     0.2310   167.1780     8.8000
 2991.0000   -31.9240     6.9780     3.6670     4.7030  2106.4629     0.1390     2.2510     0.2200   163.9570     8.8020
 2991.5000   -31.9840     6.9920     4.0290     5.0740  2107.0039     0.1190     2.2520     0.1950   149.6500     8.8040
 2992.0000   -31.9950     6.8010     4.5790     5.4510  2107.5459     0.1150     2.3200     0.1550   116.7960     8.7440
 2992.5000   -31.6100     6.5580     5.2540     5.5710  2108.0869     0.1260     2.4510     0.0820    97.4380     8.6400
 2993.0000   -31.3880     6.2000     5.3590     5.6630  2108.6289     0.1350     2.5330     0.0580    97.2130     8.5450
 2993.5000   -31.2890     5.9560     5.4510     5.7080  2109.1699     0.1360     2.5450     0.0600    97.7600     8.5820
 2994.0000   -31.1940     5.8530     5.3600     5.5420  2109.7119     0.1380     2.5430     0.0610    97.4360     8.6430
 2994.5000   -31.1000     5.6790     5.2070     5.3750  2110.2529     0.1450     2.5420     0.0590    96.8060     8.7030
 2995.0000   -31.0050     5.5050     5.0630     5.2070  2110.7949     0.1490     2.5440     0.0590    97.8700     8.7410
 2995.5000   -30.9090     5.3310     5.0080     5.0390  2111.3359     0.1500     2.5460     0.0600    98.9800     8.7650
 2996.0000   -30.8140     5.1570     4.8110     4.8710  2111.8779     0.1550     2.5460     0.0600    97.3390     8.7660
 2996.5000   -30.7190     4.9830     4.6130     4.6890  2111.4070     0.1640     2.5480     0.0600    95.0910     8.7680
 2997.0000   -30.6360     4.8090     4.4160     4.4920  2110.1631     0.1690     2.5490     0.0610    94.4630     8.7690
 2997.5000   -30.6380     4.6360     4.2180     4.2950  2108.9189     0.1750     2.5500     0.0650    94.2900     8.7710
 2998.0000   -30.6390     4.4620     4.0210     4.0990  2107.6760     0.1810     2.5460     0.0720    99.3660     8.7720
 2998.5000   -30.6390     4.2880     3.8260     3.8740  2106.4319     0.1870     2.5360     0.0860   106.2320     8.7740
 2999.0000   -30.6390     4.1140     3.5690     3.6120  2105.1880     0.1860     2.5200     0.0990   113.1490     8.7750
 2999.5000   -30.6390     3.9990     3.3110     3.3500  2103.9441     0.1780     2.5000     0.1130   119.2060     8.7770
 3000.0000   -30.6390     3.9480     3.0540     3.0920  2102.7009     0.1700     2.4780     0.1220   122.5800     8.7780
 3000.5000   -30.6390     3.9970     2.7810     2.9600  2101.4570     0.1740     2.4450     0.1410   125.9090     8.7800
 3001.0000   -30.6390     4.0520     2.7410     2.8600  2100.2129     0.1700     2.4140     0.1580   133.2600     8.7810
 3001.5000   -30.6390     4.1930     2.6560     2.7810  2098.9690     0.1670     2.3820     0.1730   141.6980     8.7830
 3002.0000   -30.6390     5.2840     2.7540     3.2870  2097.7261     0.1720     2.3510     0.1930   150.1660     8.7840
 3002.5000   -30.6390     6.6150     2.9100     3.7870  2096.4819     0.1770     2.3190     0.2130   158.6490     8.7740
 3003.0000   -30.6100     6.7870     3.0780     4.0830  2095.2380     0.1730     2.2870     0.2320   166.6350     8.7620
 3003.5000   -30.5120     6.9450     3.4020     4.3560  2093.9939     0.1680     2.2560     0.2490   167.6170     8.7510
 3004.0000   -30.4150     7.1030     3.7500     4.6350  2092.7510     0.1420     2.2340     0.2390   151.3870     8.7400
 3004.5000   -30.3180     7.2540     4.0980     4.9380  2092.3110     0.1130     2.2270     0.1840   130.3180     8.7280
 3005.0000   -30.2210     7.1350     4.4460     5.2410  2092.7781     0.1000     2.3470     0.1290   112.5490     8.7170
 3005.5000   -30.1230     6.8960     4.7950     5.4700  2093.2439     0.1080     2.4480     0.0870   104.9590     8.7040
 3006.0000   -30.0630     6.5750     5.1580     5.5330  2093.7100     0.1150     2.5100     0.0760   106.1260     8.6470
 3006.5000   -30.2720     6.3380     5.3660     5.5960  2094.1760     0.1220     2.5180     0.0740   105.8950     8.5840
 3007.0000   -30.4800     6.2020     5.4510     5.6590  2094.6431     0.1290     2.5260     0.0720   105.1360     8.5650
 3007.5000   -30.6870     6.4120     5.4510     5.7220  2095.1089     0.1350     2.5250     0.0760   104.5220     8.5600
 3008.0000   -30.8940     6.5550     5.4510     5.7840  2095.5750     0.1350     2.5190     0.0790   109.1860     8.5550
 3008.5000   -31.1010     6.4090     5.4650     5.8220  2096.0410     0.1310     2.5120     0.0820   114.1850     8.5510
 3009.0000   -31.3050     6.3170     5.5640     5.8360  2096.5071     0.1270     2.5080     0.0820   119.3170     8.5460
 3009.5000   -31.4390     6.4290     5.6040     5.8500  2096.9741     0.1230     2.5100     0.0840   119.1520     8.5410
 3010.0000   -31.4370     6.5550     5.5930     5.8640  2097.4399     0.1190     2.5050     0.0840   117.4960     8.5370
 3010.5000   -31.4370     6.4510     5.5840     5.8780  2097.9060     0.1150     2.5050     0.0840   117.2730     8.5320
 3011.0000   -31.4380     6.3170     5.5750     5.8920  2098.3721     0.1110     2.5070     0.0840   117.1120     8.5280
 3011.5000   -31.4380     6.5550     5.5660     5.9060  2098.8391     0.1090     2.5090     0.0850   116.7490     8.5290
 3012.0000   -31.4070     6.4350     5.5580     5.9200  2099.3049     0.1080     2.5030     0.0880   116.4230     8.5400
