~VERSION INFORMATION
 VERS.                2.0:   CWLS LOG ASCII STANDARD - VERSION 2.0
 WRAP.                 NO:   ONE LINE PER DEPTH STEP
~WELL INFORMATION
#MNEM.UNIT      DATA TYPE    INFORMATION
#----------   ------------   ------------------------------
 STRT.F         1053.5000:   START DEPTH
 STOP.F         3062.0000:   STOP DEPTH
 STEP.F            0.5000:   STEP LENGTH
 NULL.          -999.2500:   NO VALUE
 COMP.    FENIX & SCISSON:   COMPANY
 WELL.  FENIX "A" #301-11:   WELL
 FLD .              NPR-3:   FIELD
 LOC .      S11 T38N R78W:   LOCATION
 CNTY.            NATRONA:   COUNTY
 STAT.            WYOMING:   STATE
 CTRY. UNITED STATES OF AMERICA:   COUNTRY
 SRVC.      NL MCCULLOUGH:   SERVICE COMPANY
 DATE.        13-OCT-1977:   LOGDATE
 API .     49025104410000:   API NUMBER
~CURVE INFORMATION
#MNEM.UNIT       API CODE    CURVE DESCRIPTION
#----------   ------------   ------------------------------
 DEPT.F                  :   
 GR  .GAPI   35 310 01 00:   GAMMA RAY
 NEUT.NAPI   35 330 01 00:   NEUTRON
~PARAMETER INFORMATION
#MNEM.UNIT          VALUE    DESCRIPTION
#----------   ------------   ------------------------------
 EDF .F         5165.0000:   Drilling floor
 TD  .F         3097.0000:   Total depth
 CLNT.            A2DTECH:   Client Code
 PD  .                 DF:   Permanent Datum
 EPD .F              5165:   Elevation Permanent Datum
 LMF .                 GL:   Log Measured From
 DMF .                 DF:   Drilling Measured From
 DATE.        13-OCT-1977:   Date Logged [DD-MMM-YYYY]
 DD  .F              3097:   Depth driller
 BLI .F              3060:   Bottom log interval
 TLI .F              1060:   Top log interval
 BSD1.F              3097:   Depth drilled with bit1
 DFT .              WATER:   Type fluid in hole
 ENGI.            MUNDELL:   Recorded By
 ORIG.           5" PRINT:   Origin of data
 UWI .     49025104410000:   Unique Well ID
 DICO. A2D TECHNOLOGIES, INC.:   Digitizing Company
~OTHER INFORMATION
~A  DEPT         GR      NEUT   
# ...
 1296.5000    53.2188   173.8641
 1297.0000    54.4981   162.3037
 1297.5000    55.7335   162.3037
 1298.0000    54.7933   165.6496
 1298.5000    54.0097   163.9766
 1299.0000    55.8950   164.5343
 1299.5000    56.0743   165.6496
 1300.0000    55.7410   167.8802
 1300.5000    53.8591   177.0201
 1301.0000    53.2332   177.3602
 1301.5000    51.5083   178.4755
 1302.0000    50.5681   183.4944
 1302.5000    51.1974   176.2449
 1303.0000    51.9837   170.1108
 1303.5000    52.6130   166.7649
 1304.0000    52.1333   166.1847
 1304.5000    51.9883   164.3443
 1305.0000    53.2458   161.7460
 1305.5000    54.5029   163.4190
 1306.0000    55.4461   167.8802
 1306.5000    55.1337   171.5642
 1307.0000    53.8796   171.5480
 1307.5000    55.9215   169.3013
 1308.0000    57.3775   168.1178
 1308.5000    58.9070   175.4288
 1309.0000    56.5543   170.3640
 1309.5000    55.1432   167.0019
 1310.0000    56.2434   165.8745
 1310.5000    56.7154   168.0890
 1311.0000    56.5603   166.9535
 1311.5000    57.1897   174.7444
 1312.0000    57.8194   180.3193
 1312.5000    57.0361   182.5191
 1313.0000    53.2708   179.1530
 1313.5000    51.3886   178.0216
 1314.0000    51.3905   179.1207
 1314.5000    47.9391   184.1234
 1315.0000    46.9989   183.5496
 1315.5000    47.8479   182.4181
 1316.0000    51.3969   183.5984
 1316.5000    52.0259   189.6312
 1317.0000    50.9291   191.8497
 1317.5000    51.5584   184.0224
 1318.0000    52.6586   193.4862
 1318.5000    53.1310   196.8166
 1319.0000    52.0234   195.6845
 1319.5000    51.4075   196.2960
 1320.0000    50.7813   195.6481
 1320.5000    52.0384   193.4014
 1321.0000    51.5691   186.6934
 1321.5000    53.2974   184.4467
 1322.0000    56.4379   186.6611
 1322.5000    55.8117   190.5485
 1323.0000    52.5488   192.8222
 1323.5000    51.2635   193.8620
 1324.0000    50.9507   192.1689
 1324.5000    52.6791   187.6915
 1325.0000    52.2098   181.5412
 1325.5000    51.5835   175.3909
 1326.0000    51.2711   170.9136
 1326.5000    52.8630   170.9455
 1327.0000    53.6288   182.0302
 1327.5000    53.3160   186.4792
 1328.0000    56.1430   194.2661
 1328.5000    57.2432   202.6147
 1329.0000    56.6169   206.5061
 1329.5000    55.2059   197.0059
 1330.0000    55.2074   193.0487
 1330.5000    54.5184   191.9507
 1331.0000    50.9731   191.3769
 1331.5000    50.8173   193.5913
 1332.0000    51.4470   196.9251
 1332.5000    52.5472   194.6743
 1333.0000    53.4904   192.9852
 1333.5000    54.4337   193.6043
 1334.0000    54.4143   201.3135
 1334.5000    53.8093   204.0896
 1335.0000    53.6535   197.9393
 1335.5000    53.9693   205.7262
 1336.0000    53.4995   209.6176
 1336.5000    50.9902   207.9245
 1337.0000    49.5792   201.7741
 1337.5000    49.2668   201.1997
 1338.0000    52.4910   201.7419
 1338.5000    54.1357   203.3946
 1339.0000    53.1955   205.0554
 1339.5000    51.7845   204.4776
 1340.0000    50.8439   199.4426
 1340.5000    50.8458   206.1182
 1341.0000    50.2195   205.5438
 1341.5000    48.3376   205.5242
 1342.0000    48.3395   209.9692
 1342.5000    48.9689   216.6448
 1343.0000    47.7148   219.4209
 1343.5000    47.0881   214.9395
 1344.0000    49.6012   218.2693
 1344.5000    50.8583   218.8108
 1345.0000    50.8599   205.9646
 1345.5000    51.5729   208.1791
 1346.0000    55.2579   212.0665
 1346.5000    56.5150   214.8426
 1347.0000    56.9874   205.9000
 1347.5000    56.5181   202.5379
 1348.0000    54.6362   201.4060
 1348.5000    55.4224   202.5016
 1349.0000    55.5809   203.6007
 1349.5000    55.2685   205.2575
 1350.0000    55.2704   205.8030
 1350.5000    55.2719   203.5522
 1351.0000    55.2735   204.0937
 1351.5000    55.4319   206.1377
 1352.0000    57.0030   221.3444
 1352.5000    57.6323   221.8900
 1353.0000    55.4365   215.1780
 1353.5000    53.2411   214.0465
 1354.0000    54.8121   213.4727
 1354.5000    57.3248   211.2259
 1355.0000    58.5820   211.8044
 1355.5000    57.7987   212.8665
 1356.0000    57.3294   209.5004
 1356.5000    57.3309   208.3690
 1357.0000    57.6464   208.9145
 1357.5000    57.0205   210.5672
 1358.0000    55.9229   216.1276
 1358.5000    55.7675   227.9162
 1359.0000    55.6124   232.3666
 1359.5000    53.4166   232.0869
 1360.0000    52.9473   234.5730
 1360.5000    53.4434   236.7955
 1361.0000    54.0494   236.7821
 1361.5000    50.4410   235.6560
 1362.0000    49.6574   234.5300
 1362.5000    50.6010   232.8463
 1363.0000    53.4276   225.5038
 1363.5000    55.4854   230.0338
 1364.0000    57.8256   240.0607
 1364.5000    59.5536   230.5699
 1365.0000    57.8287   230.0015
 1365.5000    56.5746   223.8566
 1366.0000    56.8900   221.0282
 1366.5000    55.9498   219.9289
 1367.0000    53.3934   217.6875
 1367.5000    53.1277   213.2156
 1368.0000    53.1296   220.4543
 1368.5000    52.8172   222.1192
 1369.0000    52.5048   220.4328
 1369.5000    52.1924   219.8642
 1370.0000    52.8218   218.7356
 1370.5000    54.9578   207.0142
 1371.0000    57.5337   203.0999
 1371.5000    57.3779   208.6656
 1372.0000    62.0883   219.8079
 1372.5000    68.8387   222.0279
 1373.0000    72.4500   224.2919
 1373.5000    73.7306   229.2529
 1374.0000    76.0633   230.3602
 1374.5000    77.7913   226.4432
 1375.0000    78.8914   216.3947
 1375.5000    78.5787   214.1561
 1376.0000    78.5806   215.8157
 1376.5000    79.0529   213.1591
 1377.0000    76.7942   201.2925
 1377.5000    75.4465   199.6115
 1378.0000    75.9188   204.6169
 1378.5000    76.2342   205.1665
 1379.0000    76.7066   204.5953
 1379.5000    77.0220   205.1423
 1380.0000    78.1222   213.9813
 1380.5000    77.8727   234.1185
 1381.0000    75.3005   231.3168
 1381.5000    74.2030   229.6331
 1382.0000    75.7744   237.4294
 1382.5000    76.8745   245.2261
 1383.0000    77.2056   250.8061
 1383.5000    76.7206   235.3004
 1384.0000    77.8212   227.3460
 1384.5000    76.5671   229.5685
 1385.0000    74.3713   217.8444
 1385.5000    73.2741   215.0454
 1386.0000    78.7689   208.9005
 1386.5000    77.9857   212.2576
 1387.0000    76.0409   200.5116
 1387.5000    74.3792   199.9459
 1388.0000    74.2234   199.3748
 1388.5000    75.3239   196.0181
 1389.0000    74.8546   196.0074
 1389.5000    73.6005   195.9966
 1390.0000    72.5034   194.3129
 1390.5000    73.6742   198.2030
 1391.0000    74.5467   198.7526
 1391.5000    74.8625   201.5274
 1392.0000    75.4919   222.7073
 1392.5000    75.0221   228.2730
 1393.0000    74.7101   226.0316
 1393.5000    74.8686   215.7751
 1394.0000    75.4983   212.0689
 1394.5000    77.2263   213.7311
 1395.0000    78.3264   209.2565
 1395.5000    79.7405   207.0151
 1396.0000    82.2532   206.4467
 1396.5000    81.6269   202.5324
 1397.0000    78.5529   197.4358
 1397.5000    76.6075   195.8191
 1398.0000    78.4928   204.7280
 1398.5000    79.2791   210.2964
 1399.0000    79.2806   210.8433
 1399.5000    78.3404   212.5029
 1400.0000    77.4001   218.0686
 1400.5000    80.5410   206.7416
 1401.0000    80.6991   202.4302
 1401.5000    78.5033   201.8618
 1402.0000    78.9761   196.8322
 1402.5000    76.7803   202.3979
 1403.0000    74.1137   196.8107
 1403.5000    70.9762   193.9964
 1404.0000    71.7625   196.7865
 1404.5000    72.2353   192.3145
 1405.0000    71.9229   192.3038
 1405.5000    71.6105   183.3706
 1406.0000    70.5134   183.3599
 1406.5000    69.2594   194.5021
 1407.0000    67.0636   196.7219
 1407.5000    66.8741   188.9041
 1408.0000    69.4209   196.1401
 1408.5000    70.6780   191.1105
 1409.0000    70.6796   188.1109
 1409.5000    70.5241   184.1856
 1410.0000    71.1539   184.1635
 1410.5000    71.1554   184.1412
 1411.0000    70.8427   174.0773
 1411.5000    71.4724   165.6908
 1412.0000    73.0434   181.8409
 1412.5000    74.1436   186.2858
 1413.0000    74.9540   186.2586
 1413.5000    73.9897   188.4729
 1414.0000    76.1948   196.8104
 1414.5000    76.8180   202.9228
 1415.0000    77.9185   198.1044
 1415.5000    78.3908   186.1444
 1416.0000    79.8049   185.5650
 1416.5000    80.5912   185.5433
 1417.0000    79.8080   184.9639
 1417.5000    78.7109   184.9422
