~VERSION INFORMATION
 VERS.                2.0:   CWLS LOG ASCII STANDARD - VERSION 2.0
 WRAP.                 NO:   ONE LINE PER DEPTH STEP
~WELL INFORMATION
#MNEM.UNIT      DATA TYPE    INFORMATION
#----------   ------------   ------------------------------
 STRT.F          200.0000:   START DEPTH
 STOP.F         3000.0000:   STOP DEPTH
 STEP.F            0.5000:   STEP LENGTH
 NULL.          -999.2500:   NO VALUE
 COMP.    FENIX & SCISSON:   COMPANY
 WELL.   FENIX "A" #65-28:   WELL
 FLD .              NPR 3:   FIELD
 LOC .      S28 T39N R78W:   LOCATION
 CNTY.            NATRONA:   COUNTY
 STAT.            WYOMING:   STATE
 CTRY. UNITED STATES OF AMERICA:   COUNTRY
 SRVC.              WELEX:   SERVICE COMPANY
 DATE.        25-JUL-1977:   LOGDATE
 API .     49025104010000:   API NUMBER
~CURVE INFORMATION
#MNEM.UNIT       API CODE    CURVE DESCRIPTION
#----------   ------------   ------------------------------
 DEPT.F                  :   
 GRD .GAPI   45 310 01 00:   GAMMA RAY FROM DENSITY LOG
 CALD.IN     45 280 60 00:   CALIPER FROM DENSITY LOG
 RHOB.G/C3   45 350 01 00:   BULK DENSITY
 DCOR.G/C3   45 356 01 00:   DENSITY CORRECTION
 SPR .MV     07 010 01 00:   SPONTANEOUS POTENTIAL
 RILM.OHMM   07 120 44 00:   INDUCTION LOG MEDIUM RESISTIVITY
 RILD.OHMM   07 120 46 00:   DEEP INDUCTION RESISTIVITY
 SGRD.OHMM   07 220 05 00:   SHALLOW GUARD
~PARAMETER INFORMATION
#MNEM.UNIT          VALUE    DESCRIPTION
#----------   ------------   ------------------------------
 EKB .F         5069.0000:   Kelly bushing
 EGL .F         5059.0000:   Ground level
 EDF .F            0.0000:   Drilling floor
 TD  .F         3006.0000:   Total depth
 DATE.        25-JUL-1977:   Date logged
 CLNT.            A2DTECH:   Client Code
 SL  . 2310' FSL & 1650' FEL:   Surface Location
 PD  .                 GL:   Permanent Datum
 EPD .F              5059:   Elevation Permanent Datum
 LMF .                 KB:   Log Measured From
 DMF .                 KB:   Drilling Measured From
 DAPD.F                10:   Feet Above Permanent Datum
 DD  .F              3006:   Depth driller
 DL  .F              3006:   Depth logger
 BLI .F              3004:   Bottom log interval
 TLI .F               200:   Top log interval
 CS1 .IN            8.625:   Casing size
 CBD1.      8.625" @ 205':   Casing driller 1
 CBL1.F               220:   Casing logger 1
 BS1 .IN            7.875:   Bit size
 BSD1.F              3006:   Depth drilled with bit1
 DFT .            KCL MUD:   Type fluid in hole
 DFD .                8.9:   Density
 DFV .                 39:   Viscosity
 DFPH.                7.5:   pH
 DFL .                7.2:   Fluid loss
 MSS .           FLOWLINE:   Source of sample
 RMS .OHMM           0.29:   Rm
 MST .F                78:   Rm Meas. temp.
 RMF .OHMM           0.19:   Rmf
 MFST.F                78:   Rmf Meas. temp.
 RMC .OHMM           0.80:   Rmc
 MCST.F                78:   Rmc Meas. temp.
 MFSS.               FANN:   Source Rmf.
 MCSS.                KIT:   Source Rmc.
 RMB .OHMM           0.20:   Rm. at BHT
 BHT .F               113:   BHT.
 TCS .HRS               3:   Time Circ. stopped
 MRT .F               113:   Maximum recorded temp.
 LUN .               8766:   Logging unit number
 LUL .             CASPER:   Logging unit location
 ENGI.         G. BENTSEN:   Recorded By
 WITN.      B. HARRINGTON:   Witnessed by
 ORIG.           5" PRINT:   Origin of data
 UWI .     49025104010000:   Unique Well ID
 DICO. A2D TECHNOLOGIES, INC.:   Digitizing Company
~OTHER INFORMATION
~A   DEPT       GRD        CALD       RHOB      DCOR       SPR       RILM         RILD       SGRD 
# ...
 2954.0000    93.6790     7.8400     2.4780     0.0560   -38.5000     6.1320     5.0990     7.2720
 2954.5000    93.1520     7.8770     2.4740     0.0540   -38.5200     6.1670     5.1390     7.1030
 2955.0000    93.8420     7.9230     2.4730     0.0510   -38.5400     6.1010     5.1830     6.9500
 2955.5000    94.5350     7.9550     2.4730     0.0480   -38.5600     6.0070     5.1530     6.7960
 2956.0000    95.2270     7.9530     2.4710     0.0450   -38.5800     5.9130     5.1110     6.6430
 2956.5000    94.8300     7.9310     2.4630     0.0420   -38.5990     5.8180     5.0690     6.4900
 2957.0000    93.3310     7.9090     2.4550     0.0390   -38.6190     5.7240     5.0270     6.3360
 2957.5000    91.9250     7.8890     2.4550     0.0360   -38.6300     5.6290     4.9850     6.1670
 2958.0000    91.5800     7.9020     2.4610     0.0410   -38.5750     5.5260     4.9430     6.3130
 2958.5000    91.2240     7.9660     2.4680     0.0440   -38.5190     5.5760     4.9010     6.4760
 2959.0000    90.4600     7.9930     2.4740     0.0510   -38.4640     5.6310     4.8590     6.6380
 2959.5000    89.6470     7.9940     2.4800     0.0510   -38.4090     5.6860     4.8170     6.8010
 2960.0000    88.7870     7.9950     2.4870     0.0540   -38.3540     5.7420     4.7750     6.9470
 2960.5000    90.1850     7.9560     2.4930     0.0600   -38.2990     5.7970     4.7290     6.9190
 2961.0000    91.5450     7.9140     2.5000     0.0560   -38.2440     5.8530     4.7870     6.8940
 2961.5000    90.1360     7.8690     2.5120     0.0610   -38.1890     5.9080     4.8520     6.8690
 2962.0000    88.6910     7.8350     2.5030     0.0630   -38.1340     5.9640     4.9170     6.8430
 2962.5000    89.9320     7.8530     2.4900     0.0540   -38.0790     6.0190     4.9820     6.8210
 2963.0000    92.0730     7.8700     2.4780     0.0490   -38.0240     6.0740     5.0470     6.8840
 2963.5000    92.8370     7.8840     2.4720     0.0440   -37.9690     6.1300     5.1110     6.9410
 2964.0000    90.9820     7.8980     2.4720     0.0440   -37.9140     6.1850     5.1830     6.9980
 2964.5000    89.5330     7.9120     2.4710     0.0440   -37.8590     6.2240     5.1490     7.0550
 2965.0000    88.8490     7.9270     2.4710     0.0440   -37.8040     6.1560     5.1120     7.1120
 2965.5000    91.8120     7.9440     2.4710     0.0470   -37.7490     6.1040     5.0750     7.1400
 2966.0000    93.8960     7.9660     2.4720     0.0480   -37.6940     6.0520     5.0380     6.9890
 2966.5000    93.3090     7.9890     2.4720     0.0500   -37.6350     6.0010     5.0010     6.8880
 2967.0000    92.5440     7.9770     2.4720     0.0510   -37.5600     5.9490     4.9640     6.7880
 2967.5000    92.1880     7.9540     2.4710     0.0490   -37.4830     5.8910     4.9270     6.6870
 2968.0000    93.0070     7.9350     2.4690     0.0460   -37.4070     5.9260     4.8900     6.5860
 2968.5000    92.8380     7.9830     2.4700     0.0450   -37.3310     5.9650     4.8530     6.5160
 2969.0000    88.9080     8.0240     2.4730     0.0500   -37.2540     6.0000     4.8160     6.6630
 2969.5000    91.4910     8.0230     2.4770     0.0460   -37.1790     6.1490     4.7790     6.7870
 2970.0000    94.9570     8.0010     2.4810     0.0550   -37.1030     6.2850     4.7420     6.9150
 2970.5000    91.7230     7.9790     2.4800     0.0510   -37.0330     6.4200     4.7050     7.0440
 2971.0000    95.0980     7.9570     2.4790     0.0530   -36.9750     6.5550     4.6860     7.1720
 2971.5000    93.2710     7.9350     2.4780     0.0510   -36.9160     6.6910     4.8360     7.3010
 2972.0000    92.0550     7.9130     2.4810     0.0460   -36.8620     6.9270     4.9060     7.6260
 2972.5000    94.2200     7.8930     2.4860     0.0460   -36.9570     7.2630     5.0920     8.0370
 2973.0000    91.5960     7.9060     2.4910     0.0510   -37.0590     7.5990     5.2610     8.4470
 2973.5000    93.8990     7.9190     2.4960     0.0510   -37.1610     7.9690     5.4300     8.8570
 2974.0000    95.6820     7.9330     2.4920     0.0540   -37.2630     8.0430     5.5990     9.2270
 2974.5000    97.4850     7.9460     2.4870     0.0450   -37.3640     7.8180     5.7840     8.8600
 2975.0000    97.8280     7.9590     2.4810     0.0410   -37.4660     7.5690     5.9590     8.5260
 2975.5000    96.7470     7.9730     2.4750     0.0370   -37.5670     7.3200     6.1110     8.1920
 2976.0000    96.1320     7.9650     2.4770     0.0370   -37.6700     7.0710     6.1670     7.8250
 2976.5000    98.8450     7.9550     2.4840     0.0390   -37.7760     6.8220     6.0040     7.6510
 2977.0000   101.1010     7.9420     2.4930     0.0440   -37.8820     6.6190     5.8960     7.4580
 2977.5000    98.9870     7.9280     2.5020     0.0490   -37.9880     6.4630     5.7870     7.2650
 2978.0000    96.9680     7.9140     2.4910     0.0530   -38.0940     6.3080     5.6780     7.0720
 2978.5000   100.3240     7.9010     2.4780     0.0470   -38.2020     6.1670     5.5700     6.8790
 2979.0000   101.9620     7.8970     2.4720     0.0420   -38.1860     6.1670     5.4610     6.7050
 2979.5000    99.0140     7.9040     2.4670     0.0460   -38.1000     6.1670     5.3530     6.5390
 2980.0000    98.0910     7.9100     2.4650     0.0370   -38.0130     6.1670     5.2440     6.4560
 2980.5000   102.2940     7.9170     2.4680     0.0420   -37.9250     6.1670     5.1350     6.4930
 2981.0000   100.0470     7.9230     2.4720     0.0490   -37.8380     6.1670     5.0270     6.5180
 2981.5000    96.9420     7.9300     2.4740     0.0470   -37.7500     6.1670     4.9510     6.5430
 2982.0000    94.2740     7.9360     2.4730     0.0510   -37.6590     6.1670     4.9990     6.5760
 2982.5000    61.7310     7.9430     2.4820     0.0500   -37.7740     6.1680     5.0370     6.5760
 2983.0000    26.8710     7.9490     2.4910     0.0520   -37.9260     6.1660     5.0740     6.5750
 2983.5000     2.3670     7.9530     2.5000     0.0570   -38.0790     6.1710     5.1120     6.5750
 2984.0000     3.1240     7.9320     2.5010     0.0650   -38.2310     5.9830     5.1490     6.5760
 2984.5000     3.2160     7.9120     2.4960     0.0560   -38.3830     5.8410     5.1830     6.5750
 2985.0000     3.3070     7.8920     2.4980     0.0610   -38.3140     5.6990     5.1140     6.6380
 2985.5000     3.3980     7.8730     2.4990     0.0650   -38.0460     5.5570     5.0510     6.5720
 2986.0000     3.4890     7.8730     2.4870     0.0690   -37.9630     5.4150     4.9880     6.4450
 2986.5000     3.5800     7.9050     2.4780     0.0590   -37.8880     5.2730     4.9260     6.3180
 2987.0000     3.6710     7.9520     2.4820     0.0570   -37.8120     5.2140     4.8630     6.1910
 2987.5000     3.7620     7.9760     2.4870     0.0610   -37.7340     5.1830     4.8000     6.0640
 2988.0000     3.7800     7.9510     2.4930     0.0590   -37.6450     5.1990     4.7370     5.9460
 2988.5000     3.7280     7.9130     2.4990     0.0730   -37.8230     5.2230     4.6750     5.8800
 2989.0000     3.6760     7.9450     2.5050     0.0730   -37.7680     5.2750     4.6280     5.8380
 2989.5000     3.6230     7.9510     2.5110     0.0690   -37.7180     5.3390     4.5980     6.1670
 2990.0000     3.5700     7.9490     2.5170     0.0800   -37.6690     5.4040     4.5670     6.0790
 2990.5000     3.5180     7.9460     2.5130     0.0800   -37.4480     5.4680     4.5360     5.9800
 2991.0000     3.4650     7.9430     2.5040     0.0750   -37.1600     5.5260     4.5060     5.8820
 2991.5000     3.4120     7.9410     2.4950     0.0610   -36.6740     5.5390     4.4750     5.7830
 2992.0000     3.3590     7.9380     2.4860     0.0640   -36.0470     5.5510     4.4450     5.6850
 2992.5000     3.3070     7.9350     2.4770     0.0510   -35.1190     5.5630     4.4360     5.5760
 2993.0000     3.2540     7.9480     2.4680     0.0500   -34.2400     5.5750     4.5480     5.6080
 2993.5000     3.2010     7.9750     2.4590     0.0420   -32.8350     5.5880     4.7090     5.6420
 2994.0000     3.1480     7.9960     2.4580     0.0470   -30.7030     5.6000     4.8700     5.6770
