~VERSION INFORMATION
 VERS.                2.0:   CWLS LOG ASCII STANDARD - VERSION 2.0
 WRAP.                 NO:   ONE LINE PER DEPTH STEP
~WELL INFORMATION
#MNEM.UNIT      DATA TYPE    INFORMATION
#----------   ------------   ------------------------------
 STRT.F          198.5000:   START DEPTH
 STOP.F         3172.0000:   STOP DEPTH
 STEP.F            0.5000:   STEP LENGTH
 NULL.          -999.2500:   NO VALUE
 COMP.    FENIX & SCISSON:   COMPANY
 WELL. FENIX & SCISSON AX #26-11:   WELL
 FLD .              NPR-3:   FIELD
 LOC .      S11 T38N R78W:   LOCATION
 CNTY.            NATRONA:   COUNTY
 STAT.            WYOMING:   STATE
 CTRY. UNITED STATES OF AMERICA:   COUNTRY
 SRVC.              WELEX:   SERVICE COMPANY
 DATE.        11-NOV-1977:   LOGDATE
 API .     49025104420000:   API NUMBER
~CURVE INFORMATION
#MNEM.UNIT       API CODE    CURVE DESCRIPTION
#----------   ------------   ------------------------------
 DEPT.F                  :   
 GRD .GAPI   45 310 01 00:   GAMMA RAY FROM DENSITY LOG
 CALD.IN     45 280 60 00:   CALIPER FROM DENSITY LOG
 CORR.G/C3   45 356 01 00:   DENSITY CORRECTION
 TEND.LBS    45 635 01 00:   TENSION FROM DENSITY LOG
 RHOB.G/C3   45 350 01 00:   BULK DENSITY
 SPR .MV     07 010 01 00:   SPONTANEOUS POTENTIAL
 ILD .OHMM   07 120 46 00:   DEEP INDUCTION RESISTIVITY
 ILM .OHMM   07 120 44 00:   INDUCTION LOG MEDIUM RESISTIVITY
 SGRD.OHMM   07 220 05 00:   SHALLOW SHORT GUARD RESISTIVITY
~PARAMETER INFORMATION
#MNEM.UNIT          VALUE    DESCRIPTION
#----------   ------------   ------------------------------
 EKB .F         5187.0000:   Kelly bushing
 EGL .F         5177.0000:   Ground level
 EDF .F            0.0000:   Drilling floor
 EPD .F         5177.0000:   Permanent datum
 TD  .F         3174.0000:   Total depth
 CLNT.            A2DTECH:   Client Code
 SL  . 1650' FSL & 840' FWL:   Surface Location
 PD  .                 GL:   Permanent Datum
 LMF .                 KB:   Log Measured From
 DMF .                 KB:   Drilling Measured From
 DAPD.F                10:   Feet Above Permanent Datum
 DATE.        11-NOV-1977:   Date Logged [DD-MMM-YYYY]
 DD  .F              3170:   Depth driller
 DL  .F              3174:   Depth logger
 BLI .F              3172:   Bottom log interval
 TLI .F               200:   Top log interval
 CS1 .              8.625:   Casing size
 CBD1.      8.625" @ 220':   Casing driller 1
 CBL1.IN              220:   Casing logger 1
 BS1 .IN            7.875:   Bit size
 BSD1.F              3170:   Depth drilled with bit1
 DFT .            KCL MUD:   Type fluid in hole
 DFD .                8.9:   Density
 DFV .                 37:   Viscosity
 DFPH.               11.0:   pH
 DFL .                6.4:   Fluid loss
 MSS .           FLOWLINE:   Source of sample
 RMS .OHMM           2.79:   Rm
 MST .F                50:   Rm Meas. temp.
 RMF .OHMM           2.16:   Rmf
 MFST.F                50:   Rmf Meas. temp.
 MFSS.               FANN:   Source Rmf.
 MCSS.               TEST:   Source Rmc.
 RMB .OHMM           1.22:   Rm. at BHT
 BHT .F               114:   BHT.
 TCS .HRS               3:   Time Circ. stopped
 MRT .F               114:   Maximum recorded temp.
 LUN .               8611:   Logging unit number
 LUL .             CASPER:   Logging unit location
 ENGI.            C. DOAK:   Recorded By
 WITN.         HARRINGTON:   Witnessed by
 ORIG.      2.5" 5" PRINT:   Origin of data
 UWI .     49025104420000:   Unique Well ID
 DICO. A2D TECHNOLOGIES, INC.:   Digitizing Company
~OTHER INFORMATION
~A   DEPT       GRD      CALD       CORR       TEND       RHOB        SPR        ILD        ILM       SGRD   
# ...
 2936.0000   146.1078     9.0960     0.0173  2176.0000     2.5238   -79.6592     4.6220     4.5552     6.5974
 2936.5000   146.1078     9.0960     0.0173  2176.3079     2.5238   -79.6755     4.5552     4.7483     6.7321
 2937.0000   146.4471     9.0960     0.0173  2176.6155     2.5254   -79.6917     4.5206     4.9618     6.9173
 2937.5000   148.4285     9.0650     0.0234  2176.9231     2.5298   -79.7080     4.5490     5.3307     7.0109
 2938.0000   151.2575     9.0650     0.0235  2177.2307     2.5328   -79.7243     4.5459     5.6311     7.1541
 2938.5000   152.6500     9.0650     0.0172  2177.5386     2.5342   -79.7406     4.5428     5.7870     7.0023
 2939.0000   154.6806     9.0650     0.0080  2177.8462     2.5172   -79.6022     4.6031     5.9461     6.8075
 2939.5000   156.2874     9.0650     0.0019  2178.1538     2.5045   -79.6225     4.6327     5.9854     6.7084
 2940.0000   155.8882     9.0650    -0.0012  2178.4614     2.5185   -79.6388     4.6618     6.0656     6.6144
 2940.5000   154.4910     9.0341     0.0111  2168.2517     2.5360   -79.5045     4.6902     6.1057     6.6100
 2941.0000   155.2994     9.0341     0.0141  2148.2542     2.5417   -79.3702     4.7525     6.1026     6.7450
 2941.5000   156.2874     9.0341     0.0108  2148.6155     2.5415   -79.3871     4.7824     6.1430     6.9787
 2942.0000   154.2715     9.0341     0.0048  2148.9231     2.5371   -79.4068     4.7791     6.4439     7.1717
 2942.5000   150.1501     9.0031     0.0206  2149.2307     2.5357   -79.4231     4.7758     6.9496     7.4191
 2943.0000   146.7066     9.0031     0.0326  2149.5386     2.5463   -79.4394     4.7724     7.1917     7.5717
 2943.5000   146.7066     9.0031     0.0385  2149.8462     2.5522   -79.3010     4.7692     7.3382     7.7253
 2944.0000   148.2635     9.0031     0.0385  2119.3232     2.5539   -79.3213     4.7652     7.3861     7.7211
 2944.5000   151.3873     9.0031     0.0383  2119.6921     2.5597   -79.3376     4.7290     7.3823     7.6109
 2945.0000   153.0439     9.0031     0.0324  2120.0000     2.5610   -79.3539     4.6285     7.2280     7.3446
 2945.5000   151.8413     9.0031     0.0293  2120.3076     2.5560   -79.3702     4.5616     6.9319     7.0786
 2946.0000   149.7006     9.0031     0.0259  2120.6152     2.5456   -79.2318     4.5270     6.7720     6.7543
 2946.5000   147.9735     9.0031     0.0197  2120.9229     2.5349   -79.2521     4.4927     6.6452     6.5664
 2947.0000   147.0363     9.0031     0.0166  2121.2307     2.5277   -79.2684     4.4586     6.5968     6.5628
 2947.5000   146.7066     9.0031     0.0104  2121.5383     2.5236   -79.1340     4.4247     6.5487     6.5140
 2948.0000   146.7066     9.0031     0.0047  2121.8462     2.5191   -79.1506     4.3608     6.4563     6.5566
 2948.5000   146.9910     9.0031     0.0042  2122.1538     2.5155   -79.1672     4.2386     6.3214     6.5070
 2949.0000   147.3054     9.0031     0.0011  2153.2307     2.5089   -79.0364     4.1773     6.1467     6.5035
 2949.5000   149.0918     8.9721    -0.0015  2184.3079     2.5188   -79.0527     4.1170     6.0599     6.2356
 2950.0000   150.5997     8.9721    -0.0010  2184.6155     2.5285   -79.0690     4.1142     5.9333     6.0203
 2950.5000   152.7040     8.9721     0.0051  2184.9231     2.5298   -78.9306     4.1400     5.8164     5.8529
 2951.0000   154.2016     8.9721     0.0113  2185.2307     2.5179   -78.9509     4.1361     5.6995     5.6905
 2951.5000   155.7185     8.9721     0.0174  2185.5386     2.5244   -78.8126     4.1005     5.5700     5.4943
 2952.0000   156.8862     8.9721     0.0236  2169.4358     2.5341   -78.7810     4.0648     5.5298     5.4162
 2952.5000   156.8862     8.9721     0.0266  2155.3845     2.5449   -78.7409     4.0745     5.5317     5.4891
 2953.0000   155.5689     8.9721     0.0291  2155.6924     2.5441   -78.7008     4.1006     5.8394     5.6790
 2953.5000   151.0919     8.9412     0.0283  2156.0000     2.5393   -78.6607     4.0978     6.2117     5.8363
 2954.0000   148.0846     8.9395     0.0191  2156.3076     2.5303   -78.6206     4.1246     6.3834     5.8329
 2954.5000   144.9102     8.9102     0.0160  2156.6155     2.5187   -78.5806     4.1218     6.4260     5.8301
 2955.0000   144.6607     8.9082     0.0137  2156.9231     2.5119   -78.5405     4.1196     6.3791     5.8273
 2955.5000   144.9102     8.8793     0.0214  2157.2307     2.5180   -78.5004     4.1754     6.3770     5.8246
 2956.0000   144.9102     8.8793     0.0298  2157.5996     2.5467   -78.4603     4.2309     6.3748     5.8218
 2956.5000   144.9102     8.8483     0.0398  2157.9062     2.5671   -78.4182     4.3175     6.3727     5.9412
 2957.0000   143.7126     8.8483     0.0521  2158.2126     2.5840   -78.4373     4.3754     6.4591     6.0629
 2957.5000   142.5150     8.8483     0.0644  2127.6921     2.5863   -78.4565     4.4342     6.5920     6.2308
 2958.0000   141.3174     8.8483     0.0758  2128.0562     2.5845   -78.3251     4.5249     6.6839     6.3673
 2958.5000   139.5210     8.8483     0.0780  2128.3625     2.5718   -78.0430     4.5539     6.7255     6.4881
 2959.0000   138.3233     8.8483     0.0628  2128.6689     2.5412   -77.6152     4.5883     6.7226     6.4842
 2959.5000   137.7245     8.8483     0.0371  2128.9753     2.5271   -77.3283     4.6763     6.6741     6.6171
 2960.0000   136.5269     8.8483     0.0186  2129.2817     2.5136   -77.0463     4.7069     6.6719     6.6607
 2960.5000   135.3293     8.8483     0.0052  2129.5881     2.4821   -76.9148     4.7694     6.6237     6.8911
 2961.0000   135.3293     8.8437    -0.0049  2160.6638     2.4930   -76.7834     4.7668     6.5759     7.1798
 2961.5000   137.1257     8.8173    -0.0039  2160.9705     2.4989   -76.8074     4.7642     6.5737     7.4291
 2962.0000   140.1198     8.8173     0.0118  2161.2766     2.5049   -76.8265     4.7287     6.5715     7.4346
 2962.5000   142.5150     8.8173     0.0334  2192.3523     2.5079   -76.8457     4.6611     6.5692     6.9258
 2963.0000   146.1078     8.8173     0.0495  2161.8896     2.5109   -76.8648     4.5311     6.5670     6.2823
 2963.5000   148.5030     8.8173     0.0587  2162.1960     2.5104   -76.8840     4.4047     6.5192     5.9012
 2964.0000   149.7006     8.8116     0.0655  2162.5024     2.5070   -76.7526     4.2819     6.2526     6.3641
 2964.5000   152.0958     8.7864     0.0482  2162.8088     2.4909   -76.7726     4.1027     5.9146     5.7738
 2965.0000   152.6946     8.7864     0.0323  2163.1152     2.4628   -76.7957     3.9859     5.6337     5.6141
 2965.5000   156.8862     8.7864     0.0182  2132.6152     2.4776   -76.8148     3.9058     5.4032     5.8090
 2966.0000   171.8563     8.7864     0.0107  2132.9587     2.4960   -76.8340     3.8499     5.1822     5.9274
 2966.5000   176.0479     8.7796     0.0027  2102.4617     2.5015   -77.0038     3.8478     5.0047     4.6181
 2967.0000   175.4491     8.7554    -0.0048  2072.0332     2.4890   -77.0229     3.8457     4.8667     4.8787
 2967.5000   164.0719     8.7554    -0.0141  2072.3396     2.4821   -77.1927     3.8436     5.2903     5.4473
 2968.0000   156.8862     8.7628    -0.0205  2072.6462     2.4961   -77.2119     3.9223     6.0862     5.6364
 2968.5000   143.7126     8.7864    -0.0160  2042.1538     2.5040   -77.2310     4.0304     6.7249     5.7123
 2969.0000   137.7245     8.7864    -0.0129  2042.4896     2.5070   -77.2502     4.1416     6.9109     5.8733
 2969.5000   137.7245     8.7944    -0.0083  2042.7961     2.5110   -77.2696     4.2558     6.8610     6.2989
 2970.0000   137.7245     8.8173    -0.0083  2043.1024     2.5125   -77.2891     4.4035     6.7181     7.4704
 2970.5000   138.3233     8.8173    -0.0083  2043.4088     2.5169   -77.1571     4.5301     6.7158     7.3642
 2971.0000   138.9221     8.8483    -0.0052  2043.7153     2.5255   -77.0256     4.6874     6.8541     6.9163
 2971.5000   139.0073     8.8483    -0.0022  2044.0217     2.5397   -76.8942     4.8440     6.9470     6.7710
 2972.0000   137.7245     8.8483     0.0119  2044.3281     2.5553   -76.7676     4.9431     6.9934     6.6748
