~VERSION INFORMATION
 VERS.                2.0:   CWLS LOG ASCII STANDARD - VERSION 2.0
 WRAP.                 NO:   ONE LINE PER DEPTH STEP
~WELL INFORMATION
#MNEM.UNIT      DATA TYPE    INFORMATION
#----------   ------------   ------------------------------
 STRT.F          180.0000:   START DEPTH
 STOP.F         3044.0000:   STOP DEPTH
 STEP.F            0.5000:   STEP LENGTH
 NULL.          -999.2500:   NO VALUE
 COMP.    FENIX & SCISSON:   COMPANY
 WELL.   FENIX "A" #55-29:   WELL
 FLD .           N P R #3:   FIELD
 LOC .      S29 T39N R78W:   LOCATION
 CNTY.            NATRONA:   COUNTY
 STAT.            WYOMING:   STATE
 CTRY. UNITED STATES OF AMERICA:   COUNTRY
 SRVC.              WELEX:   SERVICE COMPANY
 DATE.        21-JUL-1977:   LOGDATE
 API .     49025104020000:   API NUMBER
~CURVE INFORMATION
#MNEM.UNIT       API CODE    CURVE DESCRIPTION
#----------   ------------   ------------------------------
 DEPT.F                  :   
 CALD.IN     45 280 60 00:   CALIPER FROM DENSITY LOG
 RHOB.G/C3   45 350 01 00:   BULK DENSITY
 CORR.G/C3   45 356 01 00:   DENSITY CORRECTION
 GRD .GAPI   45 310 01 00:   GAMMA RAY FROM DENSITY LOG
 SPR .MV     07 010 01 00:   SPONTANEOUS POTENTIAL
 ILD .OHMM   07 120 46 00:   DEEP INDUCTION RESISTIVITY
 ILM .OHMM   07 120 44 00:   INDUCTION LOG MEDIUM RESISTIVITY
 SGRD.OHMM   07 220 05 00:   SHALLOW SHORT GUARD RESISTIVITY
~PARAMETER INFORMATION
#MNEM.UNIT          VALUE    DESCRIPTION
#----------   ------------   ------------------------------
 EKB .F         4995.0000:   Kelly bushing
 EGL .F         4985.0000:   Ground level
 EDF .F            0.0000:   Drilling floor
 EPD .F         4985.0000:   Permanent datum
 TD  .F         3045.0000:   Total depth
 DATE.        21-JUL-1977:   Date logged
 CLNT.            A2DTECH:   Client Code
 SL  . 2310' FSL & 2310' FEL:   Surface Location
 PD  .                 GL:   Permanent Datum
 DD  .F              3045:   Depth driller
 DL  .F              3045:   Depth logger
 BLI .F              3043:   Bottom log interval
 CS1 .IN            8.625:   Casing size
 CBD1.      8.625" @ 230':   Casing driller 1
 CBL1.F               216:   Casing logger 1
 BS1 .IN            7.875:   Bit size
 DFT .            KCL-MUD:   Type fluid in hole
 DFD .                8.8:   Density
 DFV .                 45:   Viscosity
 DFPH.                7.5:   pH
 DFL .                8.4:   Fluid loss
 MSS .           FLOWLINE:   Source of sample
 RMS .OHMM            .45:   Rm
 MST .F                86:   Rm Meas. temp.
 RMF .OHMM            .33:   Rmf
 MFST.F                86:   Rmf Meas. temp.
 RMC .OHMM            .72:   Rmc
 MCST.F                86:   Rmc Meas. temp.
 MFSS.               MEAS:   Source Rmf.
 RMB .OHMM            .30:   Rm. at BHT
 BHT .F               127:   BHT.
 TCS .HRS             2.5:   Time Circ. stopped
 MRT .F               127:   Maximum recorded temp.
 LUN .               8611:   Logging unit number
 LUL .             CASPER:   Logging unit location
 ENGI.            C. DOAK:   Recorded By
 WITN.      W. PETTINGILL:   Witnessed by
 ORIG.           5" PRINT:   Origin of data
 UWI .     49025104020000:   Unique Well ID
 DICO. A2D TECHNOLOGIES, INC.:   Digitizing Company
 DAPD.                 10:   Feet Above Permanent Datum
 BSD1.               3045:   Depth drilled with bit1
 MCSS.               MEAS:   Source Rmc.
 LMF .                 KB:   Log Measured From
 DMF .                 KB:   Drilling Measured From
 TLI .                200:   Top log interval
~OTHER INFORMATION
~A   DEPT       CALD     RHOB       CORR         GRD       SPR        ILD        ILM       SGRD   
# ...
 1354.5000     7.8640     2.4830     0.0980    91.9730   -68.8120     7.6400     9.0960    13.0010
 1355.0000     7.8630     2.4770     0.0940    94.3930   -68.8120     7.6400     9.0170    13.2170
 1355.5000     7.8560     2.4720     0.0910    93.7250   -68.8120     7.6400     8.9380    12.4840
 1356.0000     7.8500     2.4680     0.0870    90.8970   -68.8120     7.5850     8.8580    11.8620
 1356.5000     7.8430     2.4670     0.0840    88.6510   -68.8120     7.5030     8.7790    13.3640
 1357.0000     7.8360     2.4640     0.0810    89.4810   -68.8120     7.4220     8.7000    14.3800
 1357.5000     7.8290     2.4520     0.0830    90.3530   -68.8120     7.3400     8.6200    10.8230
 1358.0000     7.8250     2.4390     0.0830    91.2390   -68.8120     7.2580     8.5410    11.1100
 1358.5000     7.8210     2.4270     0.0830    92.2310   -68.8120     7.1700     8.4620    11.4350
 1359.0000     7.8180     2.4250     0.0840    92.4320   -68.8120     7.1950     8.4510    11.1900
 1359.5000     7.8140     2.4290     0.0850    92.5750   -68.8120     7.2300     8.5380    10.9230
 1360.0000     7.8110     2.4390     0.0860    91.3320   -68.8120     7.2640     8.6690    11.7490
 1360.5000     7.8070     2.4450     0.0880    88.0840   -68.8120     7.2980     8.7740    12.8450
 1361.0000     7.8040     2.4410     0.0890    84.8560   -68.8120     7.3320     8.8040    13.0010
 1361.5000     7.8000     2.4450     0.0900    82.6400   -68.8120     7.3670     8.8340    11.9590
 1362.0000     7.7960     2.4500     0.0910    82.5350   -68.8120     7.4010     8.8640    11.0240
 1362.5000     7.7930     2.4510     0.0900    84.8300   -68.8120     7.4350     8.8940    11.0240
 1363.0000     7.7890     2.4490     0.0900    87.1680   -68.8120     7.4690     8.9290    13.3080
 1363.5000     7.7980     2.4510     0.0900    85.5880   -68.8120     7.5040     8.8710    14.7800
 1364.0000     7.8090     2.4550     0.0900    83.3360   -68.8120     7.5380     8.7660    11.5400
 1364.5000     7.8210     2.4650     0.0890    85.1270   -68.8120     7.5710     8.8220    11.9710
 1365.0000     7.8290     2.4740     0.0890    87.0890   -68.8120     7.5340     8.9480    11.2280
 1365.5000     7.8580     2.4910     0.0890    89.0630   -68.8120     7.4980     9.0740    11.2280
 1366.0000     7.8900     2.4920     0.0880    89.3790   -68.8120     7.4630     9.2000    13.6100
 1366.5000     7.9200     2.4830     0.0880    86.6950   -68.8120     7.4270     9.3260    12.6600
 1367.0000     7.9480     2.4740     0.0870    85.5490   -68.8120     7.3920     9.3470    12.3620
 1367.5000     7.9470     2.4640     0.0860    86.3220   -68.8120     7.3570     9.1920    12.1570
 1368.0000     7.9470     2.4550     0.0860    87.3020   -68.8120     7.3210     8.9460    11.7460
 1368.5000     7.9470     2.4470     0.0850    88.2890   -68.8120     7.2860     8.6990    11.2280
 1369.0000     7.9470     2.4450     0.0830    88.4660   -68.8120     7.2500     8.6070    11.2280
 1369.5000     7.9460     2.4480     0.0830    86.7040   -68.8120     7.2150     8.6070    11.4880
 1370.0000     7.9430     2.4520     0.0840    85.2350   -68.8120     7.1700     8.6730    11.8620
 1370.5000     7.9400     2.4520     0.0840    85.6220   -68.8120     7.2150     8.7380    11.6840
 1371.0000     7.9370     2.4490     0.0850    86.0210   -68.8120     7.2930     8.8030    11.3310
 1371.5000     7.9340     2.4470     0.0850    86.4140   -68.8120     7.3720     8.8670    11.9540
 1372.0000     7.9310     2.4490     0.0860    86.7650   -68.8120     7.4510     8.9320    13.8620
 1372.5000     7.9280     2.4590     0.0870    86.3980   -68.8120     7.5300     8.9970    12.5780
 1373.0000     7.9260     2.4680     0.0860    85.9840   -68.8120     7.6090     9.0610    12.0520
 1373.5000     7.9230     2.4770     0.0840    86.6990   -68.8120     7.6870     9.1260    11.9790
 1374.0000     7.9210     2.4820     0.0830    87.4780   -68.8120     7.7660     9.1770    11.8620
 1374.5000     7.9190     2.4750     0.0820    86.6460   -68.8120     7.8530     9.3690    12.2440
 1375.0000     7.9170     2.4680     0.0810    84.0890   -68.8120     7.8350     9.6080    13.3890
 1375.5000     7.9150     2.4610     0.0800    81.6740   -68.8120     7.8040     9.5480    15.3320
 1376.0000     7.9120     2.4550     0.0790    80.9000   -68.8120     7.7740     9.4480    13.9030
 1376.5000     7.9100     2.4580     0.0800    84.6590   -68.8120     7.7430     9.3470    13.2480
 1377.0000     7.9070     2.4630     0.0800    89.5250   -68.8120     7.7120     9.1770    12.2330
 1377.5000     7.9260     2.4680     0.0810    93.1500   -68.8120     7.6820     9.1770    11.2280
 1378.0000     7.9530     2.4720     0.0810    90.3540   -68.8120     7.6510     9.1770    12.8820
 1378.5000     7.9810     2.4740     0.0820    87.2610   -68.8120     7.6200     9.1700    12.7670
 1379.0000     8.0090     2.4710     0.0830    85.5030   -68.8120     7.5900     9.1600    12.6480
 1379.5000     8.0370     2.4680     0.0820    83.6420   -68.8120     7.5710     9.1500    11.6520
 1380.0000     8.0450     2.4660     0.0810    84.5840   -68.8120     7.6380     9.1400    11.2280
 1380.5000     8.0450     2.4630     0.0810    84.3870   -68.8120     7.6950     9.1300    12.6920
 1381.0000     8.0450     2.4600     0.0800    83.7720   -68.8120     7.7530     9.1200    15.3320
 1381.5000     8.0460     2.4630     0.0800    83.6520   -68.8120     7.8100     9.1110    14.4310
 1382.0000     8.0340     2.4670     0.0790    85.2510   -68.8120     7.8670     9.0950    13.2690
 1382.5000     8.0210     2.4720     0.0780    87.1980   -68.8120     7.9260     9.2140    12.1930
 1383.0000     8.0080     2.4750     0.0780    88.3960   -68.8120     7.9140     9.5390    12.0820
 1383.5000     8.0030     2.4760     0.0770    86.6550   -68.8120     7.8980     9.8760    12.6000
 1384.0000     7.9990     2.4750     0.0770    84.9860   -68.8120     7.8820     9.8760    12.8820
 1384.5000     7.9950     2.4710     0.0760    84.5590   -68.8120     7.8660     9.8280    12.6480
 1385.0000     7.9910     2.4660     0.0750    85.8730   -68.8120     7.8510     9.5350    13.1320
 1385.5000     7.9870     2.4690     0.0750    87.0780   -68.8120     7.8350     9.3400    13.9900
 1386.0000     7.9790     2.4720     0.0740    86.7100   -68.8120     7.8190     9.3200    13.0370
 1386.5000     7.9670     2.4720     0.0740    87.9590   -68.8120     7.8030     9.3010    12.0820
 1387.0000     7.9550     2.4720     0.0730    90.5420   -68.8120     7.7870     9.2810    12.4880
 1387.5000     7.9440     2.4690     0.0750    93.1430   -68.8120     7.7720     9.2610    12.7650
 1388.0000     7.9320     2.4650     0.0770    95.7380   -68.8120     7.7560     9.2410    12.4180
 1388.5000     7.9360     2.4600     0.0790    98.2030   -68.8120     7.7400     9.2220    14.1180
 1389.0000     7.9590     2.4590     0.0810    97.6470   -68.8120     7.7240     9.2020    13.3370
 1389.5000     7.9810     2.4650     0.0830    94.3220   -68.8120     7.7130     9.1820    12.4870
 1390.0000     8.0040     2.4710     0.0850    90.9390   -68.8120     7.7710     9.1620    12.0820
 1390.5000     8.0260     2.4720     0.0850    92.0230   -68.8120     7.8230     9.1430    12.3110
 1391.0000     8.0470     2.4710     0.0860    94.1340   -68.8120     7.8750     9.1230    12.7650
 1391.5000     8.0690     2.4660     0.0870    95.3870   -68.8120     7.9270     9.0940    12.7650
 1392.0000     8.0940     2.4610     0.0880    93.9810   -68.8120     7.9800     9.1920    11.9710
 1392.5000     8.1190     2.4610     0.0890    90.1010   -68.8120     8.0320     9.3780    13.2580
 1393.0000     8.1440     2.4630     0.0880    89.9510   -68.8120     8.0840     9.5630    13.6100
 1393.5000     8.1810     2.4660     0.0870    90.8000   -68.8120     8.1360     9.7480    13.0990
 1394.0000     8.1900     2.4650     0.0860    87.9540   -68.8120     8.1890     9.9330    12.7650
 1394.5000     8.1970     2.4630     0.0850    84.3600   -68.8120     8.2410    10.1180    15.0730
