~VERSION INFORMATION
 VERS.                2.0:   CWLS LOG ASCII STANDARD - VERSION 2.0
 WRAP.                 NO:   ONE LINE PER DEPTH STEP
~WELL INFORMATION
#MNEM.UNIT      DATA TYPE    INFORMATION
#----------   ------------   ------------------------------
 STRT.F            0.0000:   START DEPTH
 STOP.F         3040.0000:   STOP DEPTH
 STEP.F            0.5000:   STEP LENGTH
 NULL.          -999.2500:   NO VALUE
 COMP.    FENIX & SCISSON:   COMPANY
 WELL.  FENIX "AX" #43-28:   WELL
 FLD .             TEAPOT:   FIELD
 LOC .      S28 T39N R78W:   LOCATION
 CNTY.            NATRONA:   COUNTY
 STAT.            WYOMING:   STATE
 CTRY. UNITED STATES OF AMERICA:   COUNTRY
 SRVC.              WELEX:   SERVICE COMPANY
 DATE.        20-JUL-1980:   LOGDATE
 API .     49025108450000:   API NUMBER
~CURVE INFORMATION
#MNEM.UNIT       API CODE    CURVE DESCRIPTION
#----------   ------------   ------------------------------
 DEPT.F                  :   
 GRD .GAPI   45 310 01 00:   GAMMA RAY FROM DENSITY LOG
 CALD.IN     45 280 60 00:   CALIPER FROM DENSITY LOG
 RHOB.G/C3   45 350 01 00:   BULK DENSITY
 CORR.G/C3   45 356 01 00:   DENSITY CORRECTION
 SPR .MV     07 010 01 00:   SPONTANEOUS POTENTIAL
 ILD .OHMM   07 120 46 00:   DEEP INDUCTION RESISTIVITY
 ILM .OHMM   07 120 44 00:   INDUCTION LOG MEDIUM RESISTIVITY
 SGRD.OHMM   07 220 05 00:   SHALLOW SHORT GUARD RESISTIVITY
 NEUT.CPS    35 330 30 00:   NEUTRON
~PARAMETER INFORMATION
#MNEM.UNIT          VALUE    DESCRIPTION
#----------   ------------   ------------------------------
 EKB .F         5042.0000:   Kelly bushing
 EGL .F         5032.0000:   Ground level
 EDF .F            0.0000:   Drilling floor
 TD  .F         3038.0000:   Total depth
 DATE.        20-JUL-1980:   Date logged
 CLNT.            A2DTECH:   Client Code
 SL  . 1500' FNL & 2500' FWL:   Surface Location
 PD  .                 GL:   Permanent Datum
 EPD .F              5032:   Elevation Permanent Datum
 LMF .                 KB:   Log Measured From
 DMF .                 KB:   Drilling Measured From
 DD  .F              3000:   Depth driller
 DL  .F              3038:   Depth logger
 BLI .F              3036:   Bottom log interval
 TLI .F               432:   Top log interval
 CS1 .IN            8.625:   Casing size
 CBD1.      8.625" @ 443':   Casing driller 1
 CBL1.F               432:   Casing logger 1
 BS1 .IN            7.875:   Bit size
 BSD1.F              3000:   Depth drilled with bit1
 DFT .     WATER BASE MUD:   Type fluid in hole
 DFD .                9.3:   Density
 DFV .                 45:   Viscosity
 DFPH.                  9:   pH
 DFL .                  8:   Fluid loss
 MSS .                PIT:   Source of sample
 RMS .OHMM           0.85:   Rm
 MST .F                75:   Rm Meas. temp.
 RMF .OHMM           0.68:   Rmf
 MFST.F                75:   Rmf Meas. temp.
 RMC .OHMM           1.02:   Rmc
 MCST.F                75:   Rmc Meas. temp.
 MFSS.               MEAS:   Source Rmf.
 MCSS.               MEAS:   Source Rmc.
 RMB .OHMM           0.57:   Rm. at BHT
 BHT .F               112:   BHT.
 TCS .HRS               3:   Time Circ. stopped
 MRT .F               112:   Maximum recorded temp.
 LUN .               9865:   Logging unit number
 LUL .             CASPER:   Logging unit location
 ENGI.            TOTHILL:   Recorded By
 WITN.           DINSMORE:   Witnessed by
 ORIG.     2.5", 5" PRINT:   Origin of data
 UWI .     49025108450000:   Unique Well ID
 DICO. A2D TECHNOLOGIES, INC.:   Digitizing Company
~OTHER INFORMATION
~A    DEPT     GRD       CALD       RHOB       CORR        SPR        ILD        ILM       SGRD        NEUT  
# ...
  438.0000    66.5850    11.7780     2.4070     0.1130   -15.3380     7.5290     8.7740     7.7730   187.8450
  438.5000    66.2890    11.7780     2.4040     0.1120   -15.8020     8.0360     9.9350     8.7240   194.1980
  439.0000    65.6990    11.7960     2.4060     0.1070   -16.2630     8.3370    11.0680     9.4850   204.6590
  439.5000    65.0810    11.8170     2.4160     0.1030   -16.7510     8.4940    12.1820     9.5730   201.6270
  440.0000    64.8140    11.6950     2.4280     0.0940   -17.1600     9.0680    13.2960     9.6610   191.4230
  440.5000    64.9100    11.3240     2.4480     0.0870   -17.1830     9.5650    13.9650     9.6170   177.8560
  441.0000    65.2500    10.6310     2.4570     0.0880   -17.2940     9.7670    14.8640     9.4850   184.8350
  441.5000    65.5750    10.3820     2.4580     0.0980   -15.5450     9.9680    15.7630     9.7340   200.5550
  442.0000    65.9000    10.3420     2.4570     0.0990   -11.4210    10.2100    16.4830     9.9150   215.0610
  442.5000    66.2270    10.4570     2.4490     0.0920    -7.8880    12.2750    14.5850    10.2100   175.9360
  443.0000    66.5530    10.7810     2.4420     0.0830   -15.3500    11.3380    13.0040    10.3050   180.8090
  443.5000    66.8530    11.0980     2.4350     0.0740   -25.8170    10.2880    10.7900    10.5930   185.9770
  444.0000    67.4400    11.3790     2.4280     0.0590   -24.9130    10.0090    10.9480    11.0270   191.6950
  444.5000    68.1300    11.4460     2.4290     0.0440   -23.4040     7.7450    11.2110    11.4620   183.0860
  445.0000    68.8290    11.1990     2.4330     0.0290   -24.5150     7.4010    11.4730    11.8960   166.4270
  445.5000    69.5270    10.8510     2.4360     0.0140   -24.6640     7.0640    11.7360    12.5030   180.0510
  446.0000    70.2220    10.5410     2.4380     0.0090   -24.7210     6.4970    12.0510    12.3910   195.2090
  446.5000    70.9160     9.7910     2.4370     0.0070   -24.5840     5.7680    11.8310    12.2050   189.5570
  447.0000    71.3060     9.5610     2.4350     0.0070   -24.3290     6.8080    11.5090    12.0180   183.8060
  447.5000    71.3040     9.4240     2.4340     0.0070   -24.0950     5.2610     9.1690    11.8310   167.0710
  448.0000    71.2200     9.3170     2.4330     0.0080   -23.4440     5.9580     6.9350    11.7770   139.8380
  448.5000    70.8400     9.2120     2.4350     0.0130   -22.8100     6.6560     8.0270    11.6870   123.8790
  449.0000    70.4690     9.1810     2.4390     0.0180   -22.1890     8.2700     8.9360    11.6150   120.1240
  449.5000    70.0990     9.1440     2.4440     0.0230   -21.5880    10.4950     9.8460    11.8340   132.2350
  450.0000    69.7280     9.1250     2.4460     0.0290   -21.8140    12.5030    10.3520    12.2750   143.2150
  450.5000    69.3570     9.1040     2.4370     0.0330   -21.9310    12.2940    10.5930    12.1700   194.8810
  451.0000    68.9870     9.0820     2.4280     0.0310   -21.9540    11.7580    10.5930    11.8990   183.0980
  451.5000    68.6170     9.1150     2.4200     0.0290   -21.9220    11.1950    10.3260    11.6150   171.4920
  452.0000    68.3450     9.1520     2.4120     0.0280   -21.8690    11.1950    10.0240    11.6570   161.2530
  452.5000    68.3900     9.1700     2.4040     0.0260   -20.9600    10.9910     9.4440    11.7330   178.4040
  453.0000    69.1230     9.1340     2.3930     0.0240   -20.0840    10.6660     8.9340    11.8080   192.0690
  453.5000    69.8320     9.0980     2.3820     0.0230   -19.5200    10.3120     8.4250    11.8310   170.7770
  454.0000    70.5420     9.0800     2.3740     0.0250   -19.5530     9.9590     7.9150    11.4030   173.7540
  454.5000    71.2790     9.0650     2.3640     0.0270   -19.8880     9.3530     7.5940    10.4400   184.4090
  455.0000    71.4480     9.0510     2.3530     0.0280   -20.4660     8.6500     7.0150     9.6140   198.6400
  455.5000    71.9560     9.0370     2.3420     0.0290   -20.9900     7.6430     6.4350     8.8400   175.9620
  456.0000    72.4610     9.0230     2.3280     0.0340   -21.4990     6.6840     5.7830     8.0960   179.5330
  456.5000    72.8010     9.0090     2.3140     0.0390   -22.0660     5.9190     5.0270     7.3520   190.1720
  457.0000    73.2290     8.9950     2.2990     0.0430   -22.3560     5.1610     4.2720     6.8200   197.8490
  457.5000    73.6600     8.9810     2.2830     0.0500   -22.3230     4.4020     3.6390     6.1830   195.6090
  458.0000    73.9730     8.9660     2.2670     0.0570   -22.3320     4.0780     3.1660     5.4670   169.2540
  458.5000    73.9660     8.9710     2.2490     0.0640   -22.3370     3.6790     2.8120     4.6080   176.0820
  459.0000    73.9660     8.9870     2.2310     0.0710   -22.2780     3.0830     2.3820     3.7480   182.8020
  459.5000    73.9670     9.0030     2.2120     0.0770   -22.1390     3.1390     2.3820     2.9720   189.5350
  460.0000    73.9660     9.0220     2.1940     0.0770   -21.9930     3.2500     3.7900     3.9160   193.6050
  460.5000    73.9670     9.1240     2.1820     0.0730   -21.9340     3.3610     4.0830     4.7760   190.7150
  461.0000    73.9670     9.3280     2.1760     0.0530   -21.9390     3.5450     4.3760     6.7520   179.9100
  461.5000    73.9680     9.6260     2.1900     0.0300   -21.9260     3.9450     4.7820     8.3370   169.8430
  462.0000    74.1140     9.9290     2.2270     0.0060   -21.9700     4.3450     5.3350     8.0360   159.5530
  462.5000    74.4050     9.8380     2.2980    -0.0070   -21.6260     4.7450     5.8880     8.3330   156.4300
  463.0000    74.6960    10.0370     2.3680    -0.0110   -20.9540     5.0700     6.4410     8.6960   163.3590
  463.5000    74.9870     9.5970     2.4410    -0.0060   -20.4120     6.2480     7.1300     9.0590   175.2880
  464.0000    75.2790     8.8970     2.4960    -0.0010   -20.7800     7.2020     7.7450     9.4220   174.0860
  464.5000    75.5710     8.8600     2.4990     0.0030   -21.1320     8.1850     8.3270     9.6610   165.3770
  465.0000    75.8620     8.8630     2.5020     0.0050   -21.5310     8.2510     8.8310     9.6700   174.7040
  465.5000    76.1540     8.8640     2.5060     0.0050   -21.9010     8.3370     9.0610     9.6860   167.2340
  466.0000    76.4450     8.8670     2.5060     0.0050   -22.2850     8.3370     9.1820     9.7030   156.7780
  466.5000    76.7370     8.8690     2.5050    -0.0010   -22.6600     8.3970     9.3020     9.7190   165.7000
  467.0000    77.0290     8.8720     2.5040    -0.0040   -23.0370     8.4510     9.4230     9.7350   188.2490
  467.5000    77.3200     8.8750     2.5030    -0.0040   -23.1990     8.4920     9.5440     9.7520   182.1440
  468.0000    77.6120     8.8770     2.5020    -0.0030   -23.2890     8.6800     9.6610     9.7680   174.5050
  468.5000    77.9040     8.8800     2.5000    -0.0030   -23.3810     8.9040     9.6610     9.7840   166.3420
  469.0000    78.1950     8.8830     2.4980    -0.0030   -23.4740     9.1280     9.6610     9.8010   181.5410
  469.5000    78.4850     8.9230     2.5010    -0.0020   -23.5680     9.3120     9.6610     9.8170   195.6660
  470.0000    78.6980     8.9290     2.5000    -0.0020   -23.6590     9.2920     9.6610     9.8350   180.3700
  470.5000    78.5520     8.9320     2.4970    -0.0010   -23.7520     9.2360     9.6610     9.8430   160.9920
  471.0000    78.3560     8.9370     2.4940    -0.0010   -23.8550     9.1810     9.6610     9.8750   169.3980
  471.5000    78.1600     8.9410     2.4900    -0.0010   -23.8090     9.1260     9.6610     9.9030   191.8990
  472.0000    77.9630     8.9450     2.4890    -0.0040   -23.4450     9.0710     9.6610     9.9280   173.5540
  472.5000    77.7660     8.9500     2.4920     0.0000   -23.0920     9.0150     9.6610     9.9560   186.7810
  473.0000    77.5690     8.9540     2.4960     0.0040   -22.7300     8.9750     9.6610     9.9920   179.6590
  473.5000    77.3720     8.9580     2.4960     0.0030   -22.3710     8.8110     9.4360    10.0240   169.3590
  474.0000    77.1750     8.9630     2.4960     0.0020   -22.0100     8.5670     9.1750     9.7830   176.2050
