~VERSION INFORMATION
 VERS.                2.0:   CWLS LOG ASCII STANDARD - VERSION 2.0
 WRAP.                 NO:   ONE LINE PER DEPTH STEP
~WELL INFORMATION
#MNEM.UNIT      DATA TYPE    INFORMATION
#----------   ------------   ------------------------------
 STRT.F           22.0000:   START DEPTH
 STOP.F         4228.5000:   STOP DEPTH
 STEP.F            0.5000:   STEP LENGTH
 NULL.          -999.2500:   NO VALUE
 COMP. LAWRENCE ALLISON & ASSOCIATES:   COMPANY
 WELL. LAWRENCE NPR 3 "X" #25-2:   WELL
 FLD .                NPR:   FIELD
 LOC .       S2 T38N R78W:   LOCATION
 CNTY.            NATRONA:   COUNTY
 STAT.            WYOMING:   STATE
 CTRY. UNITED STATES OF AMERICA:   COUNTRY
 SRVC.      DRESSER ATLAS:   SERVICE COMPANY
 DATE.        22-DEC-1985:   LOGDATE
 API .     49025110700000:   API NUMBER
~CURVE INFORMATION
#MNEM.UNIT       API CODE    CURVE DESCRIPTION
#----------   ------------   ------------------------------
 DEPT.F                  :   
 TENS.LBS    60 635 01 00:   TENSION FROM SONIC
 DT  .US/F   60 520 00 00:   DELTA TIME
 SPHI.DEC    60 890 00 00:   SONIC POROSITY
 TENR.LBS    07 635 01 00:   TENSION FROM RESISTIVITY
 CALR.IN     07 280 01 00:   CALIPER FROM RESISTIVITY
 SPR .MV     07 010 01 00:   SPONTANEOUS POTENTIAL
 GRR .GAPI   07 310 01 00:   GAMMA RAY FROM RESISTIVITY
 SFL .OHMM   07 220 01 00:   SHALLOW FOCUSED LOG RESISTIVITY
 ILD .OHMM   07 120 46 00:   DEEP INDUCTION RESISTIVITY
 ILM .OHMM   07 120 44 00:   INDUCTION LOG MEDIUM RESISTIVITY
~PARAMETER INFORMATION
#MNEM.UNIT          VALUE    DESCRIPTION
#----------   ------------   ------------------------------
 EKB .F         5148.0000:   Kelly bushing
 EGL .F         5136.0000:   Ground level
 EDF .F            0.0000:   Drilling floor
 TD  .F         4228.0000:   Total depth
 DATE.        22-DEC-1985:   Date logged
 CLNT.            A2DTECH:   Client Code
 SL  . 1350' FWL & 1968' FSL:   Surface Location
 PD  .                 GL:   Permanent Datum
 DD  .F              4224:   Depth driller
 DL  .F              4228:   Depth logger
 BLI .F              4225:   Bottom log interval
 CS1 .IN            8.625:   Casing size
 CBD1.      8.625" @ 677':   Casing driller 1
 CBL1.F               677:   Casing logger 1
 BS1 .IN            7.875:   Bit size
 DFT .            KCL/GEL:   Type fluid in hole
 DFD .                9.2:   Density
 DFV .                 45:   Viscosity
 DFPH.                8.5:   pH
 DFL .               11.5:   Fluid loss
 MSS .               TANK:   Source of sample
 RMS .OHMM           .256:   Rm
 MST .F                63:   Rm Meas. temp.
 RMF .OHMM           .192:   Rmf
 MFST.F                64:   Rmf Meas. temp.
 RMC .OHMM           .320:   Rmc
 MCST.F                64:   Rmc Meas. temp.
 MFSS.               MEAS:   Source Rmf.
 RMB .OHMM           .119:   Rm. at BHT
 BHT .F               143:   BHT.
 TCS .HRS             4.5:   Time Circ. stopped
 MRT .F               143:   Maximum recorded temp.
 LUN .               6427:   Logging unit number
 LUL .          WILLISTON:   Logging unit location
 ENGI.             MCHUCH:   Recorded By
 WITN.             STRONG:   Witnessed by
 ORIG.           5" PRINT:   Origin of data
 UWI .     49025110700000:   Unique Well ID
 DICO. A2D TECHNOLOGIES, INC.:   Digitizing Company
 DAPD.                 12:   Feet Above Permanent Datum
 BSD1.               4224:   Depth drilled with bit1
 MCSS.               CALC:   Source Rmc.
 EPD .F              5136:   Elevation Permanent Datum
 LMF .                 KB:   Log Measured From
 DMF .                 KB:   Drilling Measured From
~OTHER INFORMATION
~A   DEPT     TENS         DT       SPHI       TENR       CALR        SPR         GRR       SFL        ILD        ILM   
# ...
 3238.0000   -84.2110    77.9120     0.1980   -79.3320     9.4940   -45.5600    88.7350     6.0620     5.8430     5.4290
 3238.5000   -84.8390    79.1330     0.2010   -77.4480     9.5050   -45.8230    93.3840     5.7350     5.2980     5.0060
 3239.0000   -90.7590    79.5570     0.2060   -85.9960     9.5350   -46.1300    98.2910     5.5710     4.8630     4.8340
 3239.5000  -102.4180    80.0100     0.2130   -94.5450     9.5670   -46.4340   102.2700     5.5480     4.2790     4.5730
 3240.0000  -114.0770    82.0930     0.2210  -103.0930     9.5990   -46.7160   105.1320     5.3960     3.7010     4.1790
 3240.5000  -125.1250    86.5130     0.2500  -111.6410     9.6280   -46.8390   112.5730     4.6660     3.3260     3.7850
 3241.0000  -115.9220    87.7680     0.2660  -110.4010     9.6270   -46.9680   118.9460     3.9350     3.2960     3.5710
 3241.5000  -107.1780    89.2010     0.2760  -101.4640     9.6260   -47.0810   118.7610     3.3070     3.2660     3.4130
 3242.0000   -98.4340    90.5090     0.2860   -96.1500     9.6260   -47.0230   113.5030     3.3860     3.1920     3.2970
 3242.5000   -96.8750    91.0990     0.2890  -101.6120     9.6310   -46.9080   108.9860     3.4940     3.0440     3.2760
 3243.0000   -99.6280    90.0080     0.2830  -105.4340     9.6330   -47.0480   108.5320     3.6970     3.0440     3.4650
 3243.5000  -102.3810    88.6460     0.2750  -105.4340     9.6160   -47.2750   108.1020     3.9400     3.2030     3.6090
 3244.0000  -105.1450    86.8120     0.2680  -105.4340     9.6120   -47.5070   106.8430     4.1830     3.3480     3.7520
 3244.5000  -101.8550    84.6650     0.2460  -105.4340     9.6240   -47.7700   102.8550     4.4260     3.5740     3.8560
 3245.0000   -98.5510    83.0370     0.2320  -105.4340     9.6350   -48.0810   103.0600     4.5600     3.7210     3.9130
 3245.5000   -95.1550    81.9360     0.2230  -105.4340     9.6460   -48.0730   104.8490     4.5600     3.8280     3.9700
 3246.0000   -95.5970    81.2970     0.2200  -105.4340     9.6570   -48.0580   106.6780     4.5600     3.9730     4.0270
 3246.5000   -96.8040    80.9090     0.2170  -105.4340     9.6670   -47.9880   103.9820     4.5600     3.9780     4.0840
 3247.0000   -98.0100    80.8090     0.2150  -106.0620     9.6700   -47.9180   100.8780     4.5600     3.9830     4.1010
 3247.5000   -99.2160    80.6080     0.2140  -107.6750     9.6730   -47.8480   103.0840     4.5600     3.9880     4.1180
 3248.0000  -100.4220    80.3960     0.2120  -109.2880     9.6770   -47.7780   107.1790     4.5600     3.9930     4.1350
 3248.5000  -101.6280    80.2330     0.2120  -110.9010     9.6800   -47.7080   108.9540     4.5590     3.9980     4.1520
 3249.0000  -102.8340    80.4190     0.2130  -112.5140     9.6830   -47.6470   108.0870     4.5620     4.0030     4.1690
 3249.5000  -104.0400    80.6050     0.2140  -114.1280     9.6860   -47.5930   104.9270     4.4240     4.0070     4.1860
 3250.0000  -105.2470    80.8090     0.2150  -115.7410     9.6730   -47.5380   101.8640     4.2760     4.0100     4.1980
 3250.5000  -106.4530    80.8090     0.2160  -117.3540     9.6580   -47.4850   101.3480     4.4580     4.0100     4.1780
 3251.0000  -107.6590    80.6710     0.2140  -118.9670     9.6430   -47.5570   103.4420     4.6240     4.0100     4.1600
 3251.5000  -108.8650    80.1780     0.2110  -120.5800     9.6290   -47.6460   105.5580     4.6870     4.0100     4.1420
 3252.0000  -110.0710    79.7100     0.2090  -122.1930     9.6060   -47.7350   108.8170     4.6220     4.0100     4.1230
 3252.5000  -111.2770    79.9700     0.2100  -123.8060     9.5810   -47.8230   112.5810     4.4800     4.0100     4.1050
 3253.0000  -112.4830    80.6660     0.2150  -125.3740     9.5570   -47.8740   113.7820     4.3380     3.9440     4.0870
 3253.5000  -113.6890    81.8080     0.2220  -124.5600     9.5320   -47.8730   114.0960     4.1980     3.8800     4.0690
 3254.0000  -114.8960    82.5960     0.2280  -123.5750     9.5080   -47.9460   112.1790     4.2860     3.8240     4.0500
 3254.5000  -115.1350    82.7890     0.2310  -122.5900     9.4870   -48.0600   110.2020     4.3720     3.7940     4.0320
 3255.0000  -115.1350    82.3850     0.2280  -121.6050     9.4880   -48.1750   108.4410     4.4770     3.7640     4.0140
 3255.5000  -115.1350    81.8370     0.2230  -120.6200     9.4880   -48.3240   109.0430     4.4190     3.7350     3.9740
 3256.0000  -115.1350    81.7950     0.2230  -119.6350     9.4880   -48.6230   110.1050     4.3330     3.7050     3.9280
 3256.5000  -115.1350    81.9090     0.2230  -118.6500     9.4880   -48.9250   109.8040     4.1220     3.6800     3.8820
 3257.0000  -115.1350    81.9830     0.2230  -117.6650     9.4880   -49.2260   106.6270     4.1740     3.6570     3.8350
 3257.5000  -115.1350    81.7930     0.2230  -116.6800     9.4880   -49.5300   102.9170     4.2700     3.6250     3.7960
 3258.0000  -115.1350    81.6030     0.2220  -115.6950     9.4880   -49.8430    99.7410     4.3440     3.6270     3.8020
 3258.5000  -120.7290    81.5080     0.2210  -125.3170     9.4880   -49.8590   102.1620     4.2370     3.6330     3.8080
 3259.0000  -126.8980    81.7930     0.2230  -134.4590     9.4880   -49.8570   107.8530     4.1300     3.6390     3.8140
 3259.5000  -133.0670    82.3110     0.2270  -131.3810     9.4880   -49.8570   110.1800     4.0240     3.6450     3.8200
 3260.0000  -132.2890    82.9070     0.2300  -128.3030     9.4890   -49.8570   109.0910     4.1530     3.6500     3.8260
 3260.5000  -128.0590    82.3840     0.2270  -125.3740     9.4920   -49.8570   108.1930     4.3180     3.6570     3.8300
 3261.0000  -123.8290    81.8900     0.2230  -120.4550     9.4950   -49.8570   107.0770     4.4770     3.6200     3.7310
 3261.5000  -119.5990    81.3970     0.2200  -115.7650     9.4980   -49.8570   105.4560     4.3930     3.5610     3.6520
 3262.0000  -115.3690    81.4380     0.2200  -111.0740     9.5010   -49.8570   104.7580     4.2650     3.5010     3.5730
 3262.5000  -111.1390    82.0410     0.2250  -106.3830     9.5040   -49.8570   105.4200     4.0490     3.4420     3.4940
 3263.0000  -106.9090    82.7310     0.2320  -107.4420     9.5070   -49.8570   105.4400     3.8300     3.3690     3.4410
 3263.5000  -115.6070    83.4190     0.2350  -117.9960     9.5100   -49.8570   105.4760     3.8480     3.2920     3.4070
 3264.0000  -133.5530    83.4900     0.2370  -128.5500     9.5130   -49.8570   106.8370     3.8720     3.2150     3.3850
 3264.5000  -131.4300    83.5600     0.2370  -127.5450     9.5160   -49.8580   108.2930     3.9010     3.1380     3.3670
 3265.0000   -93.0460    83.7060     0.2370  -105.6550     9.5190   -49.9110   109.7500     3.8410     3.0720     3.3490
 3265.5000   -96.2740    84.1700     0.2400  -101.0470     9.5220   -49.9690   109.5680     3.7320     3.0720     3.3310
 3266.0000  -135.7540    84.6630     0.2430  -144.1430     9.5250   -50.0270   107.1790     3.6580     3.0720     3.3130
 3266.5000  -147.5020    84.8140     0.2440  -142.3230     9.5280   -50.0840   105.8230     3.6660     3.0720     3.2950
 3267.0000   -77.7720    84.6340     0.2440   -19.1920     9.5310   -50.1420   106.5340     3.6720     3.0720     3.2770
 3267.5000    37.3790    84.5050     0.2430    63.2600     9.5340   -50.2010   109.0600     3.6780     3.0720     3.2590
 3268.0000    84.6650    84.5050     0.2430    70.0000     9.5370   -50.2470   109.3910     3.6850     3.1560     3.2460
 3268.5000    13.7140    84.5050     0.2430    -0.4690     9.5400   -50.1240   108.0570     3.6910     3.2330     3.3800
 3269.0000   -63.0540    84.5050     0.2420   -81.3630     9.5430   -50.0000   105.7790     3.6920     3.3070     3.4840
 3269.5000   -91.4790    84.1060     0.2380  -115.4040     9.5460   -49.8790   102.5640     3.8770     3.3880     3.5890
 3270.0000   -99.2840    83.1290     0.2310  -113.3700     9.5470   -49.8130   100.6620     4.1670     3.4660     3.6940
 3270.5000  -105.8640    82.1830     0.2250  -111.4000     9.5470   -49.7600   100.4730     4.3950     3.5450     3.7990
 3271.0000  -112.4440    81.7390     0.2220  -109.4300     9.5470   -49.7070   100.3230     4.3670     3.6600     3.9030
