~VERSION INFORMATION
 VERS.                2.0:   CWLS LOG ASCII STANDARD - VERSION 2.0
 WRAP.                 NO:   ONE LINE PER DEPTH STEP
~WELL INFORMATION
#MNEM.UNIT      DATA TYPE    INFORMATION
#----------   ------------   ------------------------------
 STRT.F          637.0000:   START DEPTH
 STOP.F         3158.0000:   STOP DEPTH
 STEP.F            0.5000:   STEP LENGTH
 NULL.          -999.2500:   NO VALUE
 COMP.    FENIX & SCISSON:   COMPANY
 WELL.  FENIX "AX" #34-33:   WELL
 FLD .             NPR #3:   FIELD
 LOC .      S33 T39N R78W:   LOCATION
 CNTY.            NATRONA:   COUNTY
 STAT.            WYOMING:   STATE
 CTRY. UNITED STATES OF AMERICA:   COUNTRY
 SRVC.       SCHLUMBERGER:   SERVICE COMPANY
 DATE.        15-APR-1977:   LOGDATE
 API .     49025103450000:   API NUMBER
~CURVE INFORMATION
#MNEM.UNIT       API CODE    CURVE DESCRIPTION
#----------   ------------   ------------------------------
 DEPT.F                  :   
 CALD.IN     45 280 60 00:   CALIPER FROM DENSITY LOG
 GRD .GAPI   45 310 01 00:   GAMMA RAY FROM DENSITY LOG
 RHOB.G/C3   45 350 01 00:   BULK DENSITY
 CORR.G/C3   45 356 01 00:   DENSITY CORRECTION
 SPR .MV     07 010 01 00:   SPONTANEOUS POTENTIAL
 SFLU.OHMM   07 220 01 00:   SPHERICALLY FOCUSED LOG UNAVERAGED RESISTIVITY
 ILD .OHMM   07 120 46 00:   INDUCTION LOG DEEP RESISTIVITY
 ILM .OHMM   07 120 44 00:   INDUCTION LOG MEDIUM RESISTIVITY
~PARAMETER INFORMATION
#MNEM.UNIT          VALUE    DESCRIPTION
#----------   ------------   ------------------------------
 EKB .F         5196.0000:   Kelly bushing
 EGL .F         5185.0000:   Ground level
 EDF .F            0.0000:   Drilling floor
 TD  .F         3159.0000:   Total depth
 DATE.        15-APR-1977:   Date logged
 CLNT.            A2DTECH:   Client Code
 SL  . 2132' FNL & 1750' FWL:   Surface Location
 PD  .                 GL:   Permanent Datum
 EPD .F              5185:   Elevation Permanent Datum
 LMF .                 KB:   Log Measured From
 DMF .                 KB:   Drilling Measured From
 DAPD.F                11:   Feet Above Permanent Datum
 DD  .F              3156:   Depth driller
 DL  .F              3159:   Depth logger
 BLI .F              3153:   Bottom log interval
 TLI .F               637:   Top log interval
 CS1 .IN            8.625:   Casing size
 CBD1.      8.625" @ 637':   Casing driller 1
 CBL1.F               637:   Casing logger 1
 BS1 .IN            7.875:   Bit size
 BSD1.F              3156:   Depth drilled with bit1
 DFT .                FGM:   Type fluid in hole
 DFD .                7.5:   Density
 DFV .                 35:   Viscosity
 DFPH.                8.5:   pH
 DFL .                  9:   Fluid loss
 MSS .                PIT:   Source of sample
 RMS .OHMM            .48:   Rm
 MST .F                60:   Rm Meas. temp.
 RMF .OHMM            .28:   Rmf
 MFST.F                60:   Rmf Meas. temp.
 MFSS.               MEAS:   Source Rmf.
 RMB .OHMM            .24:   Rm. at BHT
 BHT .F               120:   BHT.
 TCS .HRS            0200:   Time Circ. stopped
 MRT .F               120:   Maximum recorded temp.
 LUN .               7680:   Logging unit number
 LUL .               CSPR:   Logging unit location
 ENGI.             TAYLOR:   Recorded By
 WITN.         PETTINGILL:   Witnessed by
 ORIG.           5" PRINT:   Origin of data
 UWI .     49025103450000:   Unique Well ID
 DICO. A2D TECHNOLOGIES, INC.:   Digitizing Company
 TLAB.               0530:   Time logger at bottom
~OTHER INFORMATION
~A   DEPT       CALD      GRD       RHOB       CORR        SPR         SFLU        ILD        ILM 
  637.0000     8.4689  -999.2500  -999.2500  -999.2500  -999.2500     0.4696     1.7091     0.9709
  637.5000     8.4695  -999.2500  -999.2500  -999.2500  -999.2500     1.0270     2.1468     0.8569
  638.0000     8.4701    51.6807     2.3002     0.1925  -999.2500     2.8415     3.8623     4.4350
  638.5000     8.8875    53.8684     2.2170     0.1494  -999.2500     8.9169    29.4270    37.7994
  639.0000     9.1262    53.4770     2.2151     0.1434  -999.2500    10.8169   998.7449   784.9811
  639.5000     9.1864    56.0629     2.1961     0.1635  -999.2500    12.1739  1993.1024  1822.0933
  640.0000     9.2664    58.4488     2.1881     0.1503  -999.2500    15.9541  1986.4365  2056.0471
  640.5000     9.1479    58.8529     2.1140     0.1335    -1.3598    18.2130  1979.3785   989.4282
  641.0000     9.1882    56.8738     2.1040     0.1506    -6.5180    11.6996   135.5932    75.2370
  641.5000     9.2086    55.6885     2.0790     0.1660    -8.8990    10.4791    52.0957    13.4742
  642.0000     9.1298    54.1062     2.0710     0.1927   -10.2871    11.6316    22.1290     9.0967
  642.5000     9.2694    59.8682     2.0590     0.1958   -14.4539    11.7172    21.6906    17.6141
  643.0000     9.4089    61.4619     2.0230     0.1888   -16.4376    11.9112    23.1116     6.8657
  643.5000     9.3498    62.8568     2.0090     0.1758   -18.4213    14.3407    23.9480     5.5465
  644.0000     9.0724    61.8677     1.9950     0.1969   -18.8171    13.2969    21.3450    10.9279
  644.5000     9.2321    60.4851     1.9870     0.2019   -23.1827    12.3274    17.3414    18.4907
  645.0000     9.2726    59.1024     1.9790     0.1859   -28.7397    14.4641    15.1164    26.5062
  645.5000     9.2730    56.9245     1.9310     0.1740   -34.6936    16.3131    14.4163    29.8344
  646.0000     9.2735    55.5405     1.8869     0.1740   -45.4118    15.0958    13.9318    11.6673
  646.5000     9.2544    57.1358     1.8689     0.1690   -35.6839    13.7095    13.4795    10.1719
  647.0000     9.2509    57.9375     1.8349     0.1610   -34.0953    12.7116    13.1278     9.6996
  647.5000     9.2475    58.9335     1.8249     0.1591   -34.4914    12.2013    12.8709     9.0595
  648.0000     9.2440    59.9296     1.8049     0.1531   -37.0712    11.7804    12.7909     8.5202
  648.5000     9.2405    61.3261     1.7849     0.1501   -40.4451    11.0119    12.7190     8.1201
  649.0000     9.2371    61.3319     1.7488     0.1361   -41.4369    10.4246    12.7346     7.7490
  649.5000     9.2336    60.3450     1.7048     0.1477   -42.6270    10.1456    13.0142     7.6473
  650.0000     9.2302    58.9658     1.7068     0.1582   -42.8248    10.3641    13.4565     8.1140
  650.5000     9.2267    58.9692     1.7550     0.1603   -45.8019    11.1143    13.9960     8.6479
  651.0000     9.2232    59.1735     1.7851     0.1193   -48.7791    11.4324    14.6292     9.3048
  651.5000     9.2198    60.1719     1.7510     0.0842   -55.9256    11.6787    15.6020    10.6215
  652.0000     9.2163    61.3689     1.5086     0.0842   -64.2634    11.8479    16.3362    11.9381
  652.5000     9.2129    62.9631     1.5748     0.1193   -86.6979    12.0595    16.9483    13.2125
  653.0000     9.2094    64.5573     1.6841     0.1855   -88.8817    12.1709    16.9483    14.2308
  653.5000     9.2059    65.9539     1.8355     0.2009   -91.0654    12.3967    17.5835    15.8914
  654.0000     9.2025    66.7507     1.9777     0.1996   -89.6755    13.1000    18.0754    15.6017
  654.5000     9.1990    65.3689     2.1240     0.2357   -48.9725    12.9800    19.1010    14.9003
  655.0000     9.1956    63.5885     2.1982     0.2518   -42.8167    12.2829    18.9261    14.4947
  655.5000     9.1862    64.7848     2.2353     0.2228   -39.8375    12.0590    18.5811    14.2305
  656.0000     9.1867    65.9820     2.2113     0.1496   -40.2338    11.3068    18.0753    14.2304
  656.5000     9.1857    67.1778     2.1973     0.1456   -39.0416    11.5167    17.2627    14.3618
  657.0000     9.1848    65.0007     2.1843     0.2219   -38.0479    12.3528    16.3357    14.3617
  657.5000     9.1838    64.0122     2.1793     0.2056   -37.6498    13.2205    15.8910    13.9707
  658.0000     9.1829    65.8066     2.2355     0.1893   -37.2518    13.2205    15.7455    13.7160
  658.5000     9.1819    69.1884     2.2335     0.1749   -37.2509    12.4910    15.3168    13.7159
  659.0000     9.1810    68.9957     2.2235     0.1749   -38.8387    11.7301    15.3168    14.0996
  659.5000     9.1801    68.6067     2.2225     0.1749   -42.8094    11.8385    15.4947    14.7632
  660.0000     9.1791    68.6102     2.2777     0.1750   -46.9788    12.5102    15.6010    14.7632
  660.5000     9.1782    67.4256     2.2978     0.1941   -44.9921    12.3955    16.1396    14.6280
  661.0000     9.1772    65.8426     2.2898     0.1911   -47.1758    11.7297    16.6967    13.7686
  661.5000     9.1763    63.6638     2.2858     0.1471   -50.5509    11.7296    17.2731    13.2199
  662.0000     9.1753    60.4941     2.2908     0.1421   -52.5364    11.7296    17.8693    12.8599
  662.5000     9.1744    60.2989     2.3059     0.1451   -52.9329    12.1692    18.2420    12.7421
  663.0000     9.1735    60.1072     2.3209     0.1572   -53.9253    15.2989    18.0749    14.8243
  663.5000     9.1725    59.7157     2.3401     0.1662   -53.3288    19.2336    17.7565    16.9475
  664.0000     9.1716    60.7145     2.3912     0.1693   -48.3630    25.8771    17.4437    16.9474
  664.5000     9.1706    62.1106     2.4013     0.1272   -42.6026    26.1163    17.1365    15.0368
  665.0000     9.1697    65.4929     2.4284     0.1332   -41.2117    19.4555    16.7921    13.3415
  665.5000     9.1687    67.2852     2.4274     0.1604   -40.8136    14.8990    16.1853    12.8594
  666.0000     9.1678    70.6689     2.3643     0.1514   -40.6140    13.4647    15.6603    12.8593
  666.5000     9.1669    72.8608     2.3533     0.1494   -40.4146    13.0981    15.1523    12.6247
  667.0000     9.1659    70.2834     2.3513     0.1408   -40.6123    12.7413    14.6271    12.0570
  667.5000     9.1650    68.1043     2.3554     0.1323   -40.6115    12.3943    14.6271    11.2798
  668.0000     9.2013    66.3186     2.3624     0.1235   -42.0011    12.3942    14.6878    10.8961
  668.5000     9.2027    68.9105     2.3805     0.1185   -40.2126    12.7411    14.7487    10.9445
  669.0000     9.2041    69.1150     2.3936     0.1506   -40.0131    13.3409    14.8099    10.9932
  669.5000     9.2055    69.1208     2.3625     0.1396   -39.8136    13.7143    14.8984    11.0421
  670.0000     9.2070    68.9280     2.3616     0.1396   -39.8127    13.8410    14.7619    11.0981
  670.5000     9.2084    69.3312     2.3760     0.1527   -39.8119    13.9689    15.0361    11.0981
  671.0000     9.2098    68.7411     2.3967     0.1678   -39.6124    13.7141    15.1750    10.9765
  671.5000     9.2112    67.3563     2.3937     0.1969   -39.2143    13.3405    15.1750    10.8562
  672.0000     9.2126    66.3710     2.3858     0.1889   -39.0147    13.2183    15.0359    10.7955
  672.5000     9.2141    67.7665     2.3818     0.1779   -39.0139    13.4637    14.8981    10.9155
  673.0000     9.2155    69.3605     2.3718     0.1619   -38.8144    13.7138    14.4923    11.0975
  673.5000     9.2169    71.3531     2.3698     0.1479   -37.8202    13.8405    14.4922    11.0975
  674.0000     9.2183    73.5444     2.3679     0.1409   -38.0180    13.4635    14.4327    10.7935
  674.5000     9.2198    71.7634     2.3659     0.1560   -37.4211    12.9768    14.4052    10.4978
  675.0000     9.2212    70.9746     2.3730     0.1681   -37.0229    12.3931    14.3777    10.3095
  675.5000     9.2226    72.3736     2.3740     0.1731   -37.0220    11.7271    14.3503    10.3094
  676.0000     9.2240    72.5723     2.3390     0.1290   -36.8224    11.7271    14.3230    10.4603
  676.5000     9.2254    72.1843     2.3410     0.1241   -37.2189    12.0553    14.2957    10.6133
  677.0000     9.2269    71.1968     2.3551     0.1392   -37.4167    12.9764    14.2685    10.7686
