~VERSION INFORMATION
 VERS.                2.0:   CWLS LOG ASCII STANDARD - VERSION 2.0
 WRAP.                 NO:   ONE LINE PER DEPTH STEP
~WELL INFORMATION
#MNEM.UNIT      DATA TYPE    INFORMATION
#----------   ------------   ------------------------------
 STRT.F            0.0000:   START DEPTH
 STOP.F         1165.5000:   STOP DEPTH
 STEP.F            0.5000:   STEP LENGTH
 NULL.          -999.2500:   NO VALUE
 COMP.   JOHN BROWN E & C:   COMPANY
 WELL. BROWN NPR 3 "X" 1 #63-14:   WELL
 FLD .                NPR:   FIELD
 LOC .      S14 T38N R78W:   LOCATION
 CNTY.            NATRONA:   COUNTY
 STAT.            WYOMING:   STATE
 CTRY. UNITED STATES OF AMERICA:   COUNTRY
 SRVC.     ATLAS WIRELINE:   SERVICE COMPANY
 DATE.        15-JAN-1992:   LOGDATE
 API .     49025224960000:   API NUMBER
~CURVE INFORMATION
#MNEM.UNIT       API CODE    CURVE DESCRIPTION
#----------   ------------   ------------------------------
 DEPT.F                  :   
 GRR .GAPI   07 310 01 00:   GAMMA RAY FROM RESISTIVITY
 RILD.OHMM   07 120 46 00:   INDUCTION LOG DEEP RESISTIVITY
 RILM.OHMM   07 120 44 00:   INDUCTION LOG MEDIUM RESISTIVITY
 TENR.LBS    07 635 01 00:   TENSION
~PARAMETER INFORMATION
#MNEM.UNIT          VALUE    DESCRIPTION
#----------   ------------   ------------------------------
 EKB .F         5270.0000:   Kelly bushing
 EGL .F         5260.0000:   Ground level
 EDF .F         5269.0000:   Drilling floor
 TD  .F         1160.0000:   Total depth
 DATE.        15-JAN-1992:   Date logged
 CLNT.            A2DTECH:   Client Code
 SL  . 1893' FNL & 1971' FEL:   Surface Location
 PD  .                 GL:   Permanent Datum
 EPD .F              5260:   Elevation Permanent Datum
 LMF .                 KB:   Log Measured From
 DMF .                 KB:   Drilling Measured From
 DAPD.F                10:   Feet Above Permanent Datum
 DD  .F              1160:   Depth driller
 DL  .F              1158:   Depth logger
 BLI .F              1150:   Bottom log interval
 CS1 .IN            9.625:   Casing size
 CBD1.       9.625" @ 50':   Casing driller 1
 CBL1.F                48:   Casing logger 1
 BS1 .IN             8.75:   Bit size
 BSD1.F              1160:   Depth drilled with bit1
 DFT .                AIR:   Type fluid in hole
 MRT .F                90:   Maximum recorded temp.
 LUN .            HL-6274:   Logging unit number
 LUL .             CASPER:   Logging unit location
 ENGI.             RAUTIO:   Recorded By
 WITN.        GARY STRONG:   Witnessed by
 ORIG.           5" PRINT:   Origin of data
 UWI .     49025224960000:   Unique Well ID
 DICO. A2D TECHNOLOGIES, INC.:   Digitizing Company
 TLI .F                 0:   Top log interval
~OTHER INFORMATION
~A    DEPT      GRR      RILD       RILM       TENR   
    0.0000    14.2570  -999.2500  -999.2500  -999.2500
    0.5000    16.4720  -999.2500  -999.2500  -999.2500
    1.0000    20.8080  -999.2500  -999.2500  -999.2500
    1.5000    24.2850  -999.2500  -999.2500  -999.2500
    2.0000    28.0810  -999.2500  -999.2500  -999.2500
    2.5000    25.9250  -999.2500  -999.2500  -999.2500
    3.0000    19.3370  -999.2500  -999.2500  -999.2500
    3.5000    12.8510  -999.2500  -999.2500  -999.2500
    4.0000     9.2060  -999.2500  -999.2500  -999.2500
    4.5000     9.7100  -999.2500  -999.2500  -999.2500
    5.0000    11.9430  -999.2500  -999.2500  -999.2500
    5.5000    14.4460  -999.2500  -999.2500  -999.2500
    6.0000    16.9030  -999.2500  -999.2500  -999.2500
    6.5000    18.3150  -999.2500  -999.2500  -999.2500
    7.0000    16.8980  -999.2500  -999.2500  -999.2500
    7.5000    16.0580  -999.2500  -999.2500  -999.2500
    8.0000    16.1200  -999.2500  -999.2500  -999.2500
    8.5000    16.5670  -999.2500  -999.2500  -999.2500
    9.0000    17.1400  -999.2500  -999.2500  -999.2500
    9.5000    20.8640  -999.2500  -999.2500  -999.2500
   10.0000    26.8770  -999.2500  -999.2500  -999.2500
   10.5000    35.1530  -999.2500  -999.2500  -999.2500
   11.0000    43.3930  -999.2500  -999.2500  -999.2500
   11.5000    51.6520  -999.2500  -999.2500  -999.2500
   12.0000    59.9460  -999.2500  -999.2500  -999.2500
   12.5000    65.1700  -999.2500  -999.2500  -999.2500
   13.0000    69.0280  -999.2500  -999.2500  -999.2500
   13.5000    72.3160  -999.2500  -999.2500  -999.2500
   14.0000    74.1020  -999.2500  -999.2500  -999.2500
   14.5000    75.2120  -999.2500  -999.2500  -999.2500
   15.0000    74.4570  -999.2500  -999.2500  -999.2500
   15.5000    73.7200  -999.2500  -999.2500  -999.2500
   16.0000    72.4730  -999.2500  -999.2500  -999.2500
   16.5000    70.4160  -999.2500  -999.2500  -999.2500
   17.0000    68.3540  -999.2500  -999.2500  -999.2500
   17.5000    68.5270  -999.2500  -999.2500  -999.2500
   18.0000    69.0660  -999.2500  -999.2500  -999.2500
   18.5000    69.5750  -999.2500  -999.2500  -999.2500
   19.0000    71.1900  -999.2500  -999.2500  -999.2500
   19.5000    72.9010  -999.2500  -999.2500  -999.2500
   20.0000    72.5970  -999.2500  -999.2500  -999.2500
   20.5000    70.5650  -999.2500  -999.2500  -999.2500
   21.0000    69.5600  -999.2500  -999.2500  -999.2500
   21.5000    69.3020  -999.2500  -999.2500  -999.2500
   22.0000    69.0620  -999.2500  -999.2500  -999.2500
   22.5000    68.8240  -999.2500  -999.2500  -999.2500
   23.0000    68.5830  -999.2500  -999.2500  -999.2500
   23.5000    68.3380  -999.2500  -999.2500  -999.2500
   24.0000    68.0700  -999.2500  -999.2500  -999.2500
   24.5000    69.4930  -999.2500  -999.2500  -999.2500
   25.0000    69.3970  -999.2500  -999.2500  -999.2500
   25.5000    67.8320  -999.2500  -999.2500  -999.2500
   26.0000    67.9610  -999.2500  -999.2500  -999.2500
   26.5000    69.9800  -999.2500  -999.2500  -999.2500
   27.0000    71.9890  -999.2500  -999.2500  -999.2500
   27.5000    72.6440  -999.2500  -999.2500  -999.2500
   28.0000    70.7810  -999.2500  -999.2500  -999.2500
   28.5000    68.9620  -999.2500  -999.2500  -999.2500
   29.0000    67.1100  -999.2500  -999.2500  -999.2500
   29.5000    66.9240  -999.2500  -999.2500  -999.2500
   30.0000    68.1850  -999.2500  -999.2500  -999.2500
   30.5000    70.2370  -999.2500  -999.2500  -999.2500
   31.0000    72.2730  -999.2500  -999.2500  -999.2500
   31.5000    74.2880  -999.2500  -999.2500  -999.2500
   32.0000    75.4720  -999.2500  -999.2500  -999.2500
   32.5000    74.6750  -999.2500  -999.2500  -999.2500
   33.0000    73.9010  -999.2500  -999.2500  -999.2500
   33.5000    73.1200  -999.2500  -999.2500  -999.2500
   34.0000    72.4650  -999.2500  -999.2500  -999.2500
   34.5000    72.5350  -999.2500  -999.2500  -999.2500
   35.0000    73.8880  -999.2500  -999.2500  -999.2500
   35.5000    73.2580  -999.2500  -999.2500  -999.2500
   36.0000    72.2490  -999.2500  -999.2500  -999.2500
   36.5000    71.8910  -999.2500  -999.2500  -999.2500
   37.0000    72.3630  -999.2500  -999.2500  -999.2500
   37.5000    72.0060  -999.2500  -999.2500  -999.2500
   38.0000    71.3570  -999.2500  -999.2500  -999.2500
   38.5000    71.5200  -999.2500  -999.2500  -999.2500
   39.0000    73.5970  -999.2500  -999.2500  -999.2500
   39.5000    75.7130  -999.2500  -999.2500  -999.2500
   40.0000    75.0010  -999.2500  -999.2500  -999.2500
   40.5000    73.5290  -999.2500  -999.2500  -999.2500
   41.0000    74.5740  -999.2500  -999.2500  -999.2500
   41.5000    76.0610  -999.2500  -999.2500  -999.2500
   42.0000    75.7380  -999.2500  -999.2500  -999.2500
   42.5000    73.8800  -999.2500  -999.2500  -999.2500
   43.0000    73.0020  -999.2500  -999.2500  -999.2500
   43.5000    72.6060  -999.2500  -999.2500  -999.2500
   44.0000    70.0630  -999.2500  -999.2500  -999.2500
   44.5000    67.4050  -999.2500  -999.2500    16.7210
   45.0000    65.8280     5.7590  -999.2500    16.5340
   45.5000    64.3840     2.4840  -999.2500    16.3470
   46.0000    65.7100     1.0400  -999.2500    16.1970
   46.5000    71.6460     1.0460  -999.2500    16.0100
   47.0000    80.3950     0.9370  -999.2500    15.8230
   47.5000    89.1290     0.8930    14.2150    15.6360
   48.0000    97.8570     0.8700     4.0070    15.4490
   48.5000   106.4900     0.9470     2.1700    15.2620
   49.0000   112.7360     1.6770     2.1880    15.0740
   49.5000   118.3870     3.6560     1.9860    14.8870
   50.0000   120.3300     7.9840     2.7490    14.7000
   50.5000   121.7240    10.9000     3.2020    14.5130
   51.0000   123.1720    12.1200     3.6290    14.3260
   51.5000   123.4910     9.8340     4.0990    14.1390
   52.0000   122.6980     6.3320     4.6190    13.9510
   52.5000   118.6940     6.5990     4.5000    13.7640
   53.0000   114.4970     7.0670     4.2890    13.5770
   53.5000   110.8360     7.4130     4.2890    13.3900
   54.0000   112.2460     7.4730     5.0800    13.2030
   54.5000   114.8850     7.5520     5.9890    13.0160
   55.0000   119.4110     7.2800     5.9580    12.8290
   55.5000   124.3100     6.8340     5.9220    12.6410
   56.0000   129.2120     6.3880     5.8860    12.4540
   56.5000   129.2790     5.9890     5.8500    12.2670
   57.0000   126.2170     6.0170     5.8250    12.0800
   57.5000   123.4820     6.0410     5.8620    11.8930
   58.0000   123.2080     6.0660     5.9130    11.7060
   58.5000   125.5190     6.0910     5.9630    11.5180
   59.0000   127.3960     6.1010     6.0140    11.3310
   59.5000   125.8220     5.9760     6.0450    11.1440
   60.0000   125.0120     5.8700     5.9510    10.9570
   60.5000   124.8210     5.7640     5.8570    10.7700
   61.0000   125.2850     5.6580     5.7630    10.5830
   61.5000   127.3150     5.5520     5.6690    10.3960
   62.0000   130.8940     5.4460     5.5760    10.2080
   62.5000   134.5240     5.3090     5.5090    10.0210
   63.0000   133.9630     5.4060     5.5310     9.8340
   63.5000   129.8420     5.5450     5.7180     9.6470
   64.0000   126.6350     5.6830     5.9050     9.4600
   64.5000   126.7000     5.8220     6.0930     9.2730
   65.0000   126.7030     5.9600     6.2800     9.0850
   65.5000   126.3320     6.1370     6.4670     8.8980
   66.0000   125.3150     6.3720     6.6550     8.7110
   66.5000   121.2650     6.6080     6.8420     8.5240
   67.0000   117.2990     6.7570     6.9470     8.3370
   67.5000   113.7550     6.7050     6.9470     8.1500
   68.0000   114.0990     6.6250     6.9470     7.9630
   68.5000   118.0820     6.5450     6.8470     7.7750
   69.0000   122.5400     6.4650     6.7530     7.5880
   69.5000   126.5670     6.3850     6.6600     7.4010
   70.0000   126.7350     6.3200     6.5660     7.2140
   70.5000   126.7260     6.2360     6.4730     7.0270
   71.0000   125.3720     6.1520     6.3790     6.8400
   71.5000   123.1950     6.0680     6.2860     6.7980
   72.0000   121.6780     5.9830     6.1920     6.7980
   72.5000   122.9230     5.8910     6.0990     6.7980
