~VERSION INFORMATION
 VERS.                2.0:   CWLS LOG ASCII STANDARD - VERSION 2.0
 WRAP.                 NO:   ONE LINE PER DEPTH STEP
~WELL INFORMATION
#MNEM.UNIT      DATA TYPE    INFORMATION
#----------   ------------   ------------------------------
 STRT.F          297.0000:   START DEPTH
 STOP.F         2946.0000:   STOP DEPTH
 STEP.F            0.5000:   STEP LENGTH
 NULL.          -999.2500:   NO VALUE
 COMP.    FENIX & SCISSON:   COMPANY
 WELL. FENIX & SCISSON SH "X" #17-10:   WELL
 FLD .             NPR #3:   FIELD
 LOC .      S10 T38N R78W:   LOCATION
 CNTY.            NATRONA:   COUNTY
 STAT.            WYOMING:   STATE
 CTRY. UNITED STATES OF AMERICA:   COUNTRY
 SRVC.       SCHLUMBERGER:   SERVICE COMPANY
 DATE.        05-APR-1977:   LOGDATE
 API .     49025103310000:   API NUMBER
~CURVE INFORMATION
#MNEM.UNIT       API CODE    CURVE DESCRIPTION
#----------   ------------   ------------------------------
 DEPT.F                  :   
 SPR .MV     07 010 01 00:   SPONTANEOUS POTENTIAL
 ILD .OHMM   07 120 46 00:   DEEP INDUCTION RESISTIVITY
 ILM .OHMM   07 120 44 00:   INDUCTION LOG MEDIUM RESISTIVITY
 LL8 .OHMM   07 220 08 00:   LATEROLOG-8 RES.
 CALD.IN     45 280 60 00:   CALIPER FROM DENSITY LOG
 GRD .GAPI   45 310 01 00:   GAMMA RAY FROM DENSITY LOG
 CORR.G/C3   45 356 01 00:   DENSITY CORRECTION
 RHOB.G/C3   45 350 01 00:   BULK DENSITY
~PARAMETER INFORMATION
#MNEM.UNIT          VALUE    DESCRIPTION
#----------   ------------   ------------------------------
 EKB .F         5270.0000:   Kelly bushing
 EGL .F         5260.0000:   Ground level
 TD  .F         2950.0000:   Total depth
 CLNT.            A2DTECH:   Client Code
 SL  . 205' FWL & 1115' FSL:   Surface Location
 DATE.        05-APR-1977:   Date Logged [DD-MMM-YYYY]
 DD  .F              2950:   Depth driller
 DL  .F              2948:   Depth logger
 BLI .F              2946:   Bottom log interval
 TLI .F               310:   Top log interval
 CS1 .              10.75:   Casing size
 CBD1.      10.75" @ 300':   Casing driller 1
 CBL1.IN              310:   Casing logger 1
 BS1 .IN            8.625:   Bit size
 BSD1.F              2950:   Depth drilled with bit1
 DFT .                KCL:   Type fluid in hole
 DFD .                9.0:   Density
 DFV .                 33:   Viscosity
 DFL .                  9:   Fluid loss
 MSS .            MUD PIT:   Source of sample
 RMS .OHMM          0.153:   Rm
 MST .F                60:   Rm Meas. temp.
 RMF .OHMM          0.130:   Rmf
 MFST.F                60:   Rmf Meas. temp.
 MFSS.               MEAS:   Source Rmf.
 RMC .OHMM          0.229:   Rmc
 MCST.F                60:   Rmc Meas. temp.
 MCSS.               CALC:   Source Rmc.
 RMB .OHMM           0.08:   Rm. at BHT
 BHT .F               115:   BHT.
 TCS .HRS               6:   Time Circ. stopped
 MRT .F               115:   Maximum recorded temp.
 LUN .               7689:   Logging unit number
 LUL .               CODY:   Logging unit location
 ENGI.             RASMUS:   Recorded By
 WITN.              LYONS:   Witnessed by
 ORIG.         2.5" PRINT:   Origin of data
 UWI .     49025103310000:   Unique Well ID
 DICO. A2D TECHNOLOGIES, INC.:   Digitizing Company
 PD  .                 GL:   Permanent Datum
 EPD .               5260:   Elevation Permanent Datum
 LMF .                 KB:   Log Measured From
 DMF .                 KB:   Drilling Measured From
 DAPD.                 10:   Feet Above Permanent Datum
~OTHER INFORMATION
~A   DEPT      SPR        ILD        ILM        LL8       CALD        GRD       CORR       RHOB   
# ...
 1674.0000   -49.7822     5.1766     5.2226    10.4474     9.9730    99.3393     0.0077     2.5431
 1674.5000   -49.7808     5.2483     5.2229    10.2851     9.9733   101.3875     0.0036     2.5461
 1675.0000   -50.0735     5.2487     5.2233    10.3321     9.9736   102.5585     0.0159     2.5446
 1675.5000   -50.0719     5.2490     5.2236    10.5956     9.9739   102.8524     0.0248     2.5373
 1676.0000   -50.0705     5.3217     5.2240    10.6242     9.9609   103.1462     0.0103     2.5284
 1676.5000   -50.0690     5.3221     5.2244    10.7443     9.9451   103.4401     0.0064     2.5196
 1677.0000   -50.0675     5.3225     5.2966    10.5998     9.9454   103.4425     0.0034     2.5182
 1677.5000   -50.0661     5.3228     5.2970    10.4573     9.9458   103.7354    -0.0010     2.5197
 1678.0000   -50.0646     5.3232     5.2973    10.3168     9.9461   104.0428    -0.0033     2.5241
 1678.5000   -50.0631     5.3235     5.2977    10.4604     9.9464   102.6807     0.0043     2.5300
 1679.0000   -50.0617     5.3239     5.2980    10.4268     9.9631    97.7604     0.0185     2.5360
 1679.5000   -50.0602     5.3243     5.3028    10.3210     9.9763    95.8464     0.0272     2.5420
 1680.0000   -50.0587     5.3246     5.3717    10.4647     9.9766    96.5887     0.0263     2.5434
 1680.5000   -50.0573     5.3250     5.3720    10.6101     9.9769    98.6170     0.0145     2.5414
 1681.0000   -50.0558     5.3254     5.3783    10.4268    10.0065    99.7554     0.0042     2.5311
 1681.5000   -50.0543     5.3257     5.4467    10.4689    10.0361   101.1711     0.0012     2.5237
 1682.0000   -50.0529     5.3261     5.4541    10.8058    10.0657   104.1697     0.0071     2.5167
 1682.5000   -50.3456     5.3998     5.5224    11.1084    10.0660   103.7600     0.0145     2.5125
 1683.0000   -50.3440     5.4002     5.5987    11.4192    10.0956   101.1812     0.0149     2.5107
 1683.5000   -50.6367     5.4006     5.5991    11.6847    10.1253    99.2004     0.0116     2.5081
 1684.0000   -50.6352     5.4010     5.6088    11.4200    10.0948    97.7272     0.0057     2.5067
 1684.5000   -50.6338     5.4013     5.6769    11.2182    10.0671    96.9347     0.0013     2.5086
 1685.0000   -50.6323     5.4017     5.6773    11.2200    10.0543    96.3450    -0.0002     2.5169
 1685.5000   -50.6308     5.4021     5.6669    11.2215    10.0384    96.1562     0.0013     2.5254
 1686.0000   -50.6293     5.4024     5.6010    11.2230    10.0387    98.0800     0.0072     2.5348
 1686.5000   -50.6279     5.4028     5.6014    11.2248    10.0538   100.0322     0.0131     2.5413
 1687.0000   -50.6264     5.4032     5.6018    11.2263    10.0686   100.8392     0.0146     2.5422
 1687.5000   -50.6249     5.4035     5.6022    11.2278    10.0983   100.7066     0.0131     2.5387
 1688.0000   -50.6235     5.4039     5.6026    11.2293    10.0986    99.9765     0.0147     2.5357
 1688.5000   -50.6220     5.4043     5.6029    11.2309    10.1158    99.6740     0.0206     2.5370
 1689.0000   -50.6205     5.4046     5.6033    11.0800    10.1285   101.8890     0.0236     2.5400
 1689.5000   -50.6191     5.4050     5.6037    11.0815    10.1581   102.1226     0.0267     2.5423
 1690.0000   -50.6176     5.4054     5.6041    11.2355    10.1877   100.3899     0.0294     2.5394
 1690.5000   -50.6161     5.4057     5.6045    11.2663    10.1880   102.7418     0.0243     2.5335
 1691.0000   -50.6147     5.3927     5.5288    10.9355    10.1883   107.5763     0.0139     2.5291
 1691.5000   -50.6132     5.3330     5.5292    10.7885    10.1886   108.7473     0.0102     2.5321
 1692.0000   -50.6117     5.3334     5.4545    10.9385    10.1889   109.3336     0.0147     2.5380
 1692.5000   -50.6103     5.3337     5.4549    11.0905    10.1598   109.3350     0.0120     2.5336
 1693.0000   -50.6088     5.3341     5.4552    11.0920    10.1602   108.3266     0.0025     2.5292
 1693.5000   -50.6073     5.3344     5.3816    11.0935    10.1311   105.9635     0.0014     2.5277
 1694.0000   -50.6059     5.3348     5.3820    11.0950    10.0728   103.7194     0.0127     2.5279
 1694.5000   -50.6044     5.3352     5.3824    10.6508    10.0730   102.2397     0.0162     2.5308
 1695.0000   -50.6029     5.3355     5.3827    10.6523    10.0440   101.6082     0.0112     2.5355
 1695.5000   -50.6015     5.3360     5.3831    10.5090    10.0443   102.2929     0.0191     2.5415
 1696.0000   -50.6000     5.3363     5.3835    10.6552    10.0446   102.3353     0.0311     2.5485
 1696.5000   -50.5985     5.3367     5.3838    10.6566    10.0449    98.9361     0.0193     2.5419
 1697.0000   -50.5970     5.2644     5.3842    10.6581    10.0452    96.1471     0.0103     2.5315
 1697.5000   -50.5956     5.2649     5.3626    10.6595    10.0455    94.7295     0.0103     2.5225
 1698.0000   -50.5941     5.2652     5.3118    10.5163    10.0458    94.7310     0.0059     2.5158
 1698.5000   -50.5926     5.1940     5.3122    10.6624    10.0460    96.4871     0.0015     2.5147
 1699.0000   -50.5912     5.1944     5.2895    10.8106    10.0463    99.4126     0.0015     2.5185
 1699.5000   -50.5897     5.1947     5.2407    10.8121    10.0466   101.7532     0.0030     2.5241
 1700.0000   -50.5882     5.2000     5.1700    10.9927    10.0469   102.1053     0.0044     2.5265
 1700.5000   -50.5823     5.2302     5.1708    10.8161    10.0588   101.4428     0.0078     2.5266
 1701.0000   -50.5764     5.2603     5.1714    10.2428    10.0707    99.6551     0.0089     2.5191
 1701.5000   -50.5698     5.2905     5.1722     9.8334    10.0827    97.6257     0.0062     2.5195
 1702.0000   -50.2699     5.3207     5.1729     9.7016    10.0946    98.0818     0.0007     2.5316
 1702.5000   -50.2641     5.3447     5.1736     9.7039    10.1078   100.4533     0.0093     2.5449
 1703.0000   -50.2583     5.3458     5.1744     9.9748    10.1083   102.6929     0.0184     2.5551
 1703.5000   -50.2524     5.2742     5.1751    10.3943    10.1087   101.7603     0.0267     2.5625
 1704.0000   -50.2466     5.2753     5.1055    10.4249    10.1091   102.0705     0.0349     2.5665
 1704.5000   -50.2408     5.2764     5.1062     9.8454    10.1096   104.1199     0.0416     2.5680
 1705.0000   -50.2350     5.2404     5.0376     9.7136    10.1100   102.8800     0.0444     2.5695
 1705.5000   -50.2292     5.1689     4.9699     9.8494    10.0811    99.6814     0.0145     2.5710
 1706.0000   -50.2234     5.0985     4.9706     9.8514    10.0815    96.3509     0.0031     2.5256
 1706.5000   -50.2176     5.0683     4.9038     9.2027    10.0820    95.6516     0.0061     2.5219
 1707.0000   -50.5059     5.0287     4.9044     8.8348    10.0824    98.7982     0.0120     2.5209
 1707.5000   -50.2059     5.0015     4.9051     8.8366    10.0828   100.6287     0.0135     2.5209
 1708.0000   -50.2000     4.9347     4.9058     9.2083    10.0833   101.2746     0.0106     2.5234
 1708.5000   -50.1941     4.9357     4.9064     9.3369    10.0837   104.1433     0.0082     2.5294
 1709.0000   -50.1882     4.9367     4.9071     9.3388    10.0841   104.0146     0.0210     2.5374
 1709.5000   -50.1824     4.8704     4.9077     9.2139    10.0846   101.9926     0.0299     2.5457
 1710.0000   -50.1765     4.8716     4.9084     9.2158    10.0850    99.7661     0.0166     2.5503
 1710.5000   -50.1705     4.8726     4.9091     9.0925    10.1148    97.5541     0.0062     2.5534
 1711.0000   -50.1647     4.8736     4.8431     9.0944    10.1152    96.9796     0.0048     2.5534
 1711.5000   -50.1588     4.8083     4.8438     9.0963    10.1157    97.6913     0.0107     2.5498
 1712.0000   -50.1529     4.8093     4.7787     9.2234    10.1161   106.2111     0.0078     2.5098
 1712.5000   -50.4419     4.8103     4.7145     9.3629    10.1166   108.2608     0.0033     2.5047
 1713.0000   -50.4353     4.7458     4.6511     9.6132    10.1170   109.7257     0.0048     2.5027
 1713.5000   -50.4294     4.7468     4.6517     9.6000    10.1175   109.4361     0.0108     2.5113
 1714.0000   -50.4236     4.7478     4.6524     9.2143    10.1179   104.1759     0.0152     2.5255
