~VERSION INFORMATION
 VERS.                2.0:   CWLS LOG ASCII STANDARD - VERSION 2.0
 WRAP.                 NO:   ONE LINE PER DEPTH STEP
~WELL INFORMATION
#MNEM.UNIT      DATA TYPE    INFORMATION
#----------   ------------   ------------------------------
 STRT.F          190.0000:   START DEPTH
 STOP.F         2998.5000:   STOP DEPTH
 STEP.F            0.5000:   STEP LENGTH
 NULL.          -999.2500:   NO VALUE
 COMP.    FENIX & SCISSON:   COMPANY
 WELL.   FENIX "A" #52-28:   WELL
 FLD .        TEAPOT DOME:   FIELD
 LOC .      S28 T39N R78W:   LOCATION
 CNTY.            NATRONA:   COUNTY
 STAT.            WYOMING:   STATE
 CTRY. UNITED STATES OF AMERICA:   COUNTRY
 SRVC.           BIRDWELL:   SERVICE COMPANY
 DATE.        14-AUG-1977:   LOGDATE
 API .     49025104130000:   API NUMBER
~CURVE INFORMATION
#MNEM.UNIT       API CODE    CURVE DESCRIPTION
#----------   ------------   ------------------------------
 DEPT.F                  :   
 SPR .MV     05 010 01 00:   SPONTANEOUS POTENTIAL FROM RES.
 SN  .OHMM   05 040 16 00:   SHORT NORMAL 16"
 ILD .OHMM   05 120 46 00:   INDUCTION LOG DEEP
 GRD .GAPI   45 310 01 00:   GAMMA RAY FROM DENSITY LOG
 CALD.IN     45 280 60 00:   CALIPER FROM DENSITY LOG
 RHOB.G/C3   45 350 01 00:   BULK DENSITY
 CORR.G/C3   45 356 01 00:   DENSITY CORRECTION
~PARAMETER INFORMATION
#MNEM.UNIT          VALUE    DESCRIPTION
#----------   ------------   ------------------------------
 EKB .F         5026.0000:   Kelly bushing
 EGL .F         5016.0000:   Ground level
 EDF .F            0.0000:   Drilling floor
 TD  .F         3000.0000:   Total depth
 DATE.        14-AUG-1977:   Date logged
 CLNT.            A2DTECH:   Client Code
 SL  . 990' FNL & 2310' FEL:   Surface Location
 PD  .                 GL:   Permanent Datum
 EPD .F              5016:   Elevation Permanent Datum
 LMF .                 KB:   Log Measured From
 DMF .                 KB:   Drilling Measured From
 DAPD.F                10:   Feet Above Permanent Datum
 DD  .F              3000:   Depth driller
 DL  .F              3000:   Depth logger
 BLI .F              2994:   Bottom log interval
 TLI .F               214:   Top log interval
 CS1 .IN            8.625:   Casing size
 CBD1.      8.625" @ 214':   Casing driller 1
 CBL1.F               212:   Casing logger 1
 BS1 .IN            7.875:   Bit size
 BSD1.F              3000:   Depth drilled with bit1
 DFT .                KCL:   Type fluid in hole
 DFD .                8.8:   Density
 DFV .                 30:   Viscosity
 DFPH.               10.5:   pH
 DFL .               10.4:   Fluid loss
 MSS .           FLOWLINE:   Source of sample
 RMS .OHMM           0.13:   Rm
 MST .F                82:   Rm Meas. temp.
 RMF .OHMM           0.12:   Rmf
 MFST.F                72:   Rmf Meas. temp.
 RMC .OHMM           0.16:   Rmc
 MCST.F                72:   Rmc Meas. temp.
 MFSS.               MEAS:   Source Rmf.
 MCSS.               MEAS:   Source Rmc.
 TCS .HRS               4:   Time Circ. stopped
 LUN .               2958:   Logging unit number
 LUL .             CASPER:   Logging unit location
 ENGI.                LAW:   Recorded By
 WITN.         PETTINGILL:   Witnessed by
 ORIG.           5" PRINT:   Origin of data
 UWI .     49025104130000:   Unique Well ID
 DICO. A2D TECHNOLOGIES, INC.:   Digitizing Company
~OTHER INFORMATION
~A   DEPT      SPR         SN        ILD         GRD      CALD       RHOB       CORR   
  190.0000  -999.2500  -999.2500  -999.2500    78.9370  -999.2500  -999.2500  -999.2500
  190.5000  -999.2500  -999.2500  -999.2500    78.9370  -999.2500  -999.2500  -999.2500
  191.0000  -999.2500  -999.2500  -999.2500    77.7310  -999.2500  -999.2500  -999.2500
  191.5000  -999.2500  -999.2500  -999.2500    74.2860  -999.2500  -999.2500  -999.2500
  192.0000  -999.2500  -999.2500  -999.2500    73.6910  -999.2500  -999.2500  -999.2500
  192.5000  -999.2500  -999.2500  -999.2500    74.1710  -999.2500  -999.2500  -999.2500
  193.0000  -999.2500  -999.2500  -999.2500    74.6430  -999.2500  -999.2500  -999.2500
  193.5000  -999.2500  -999.2500  -999.2500    75.1150  -999.2500  -999.2500  -999.2500
  194.0000  -999.2500  -999.2500  -999.2500    75.5910  -999.2500  -999.2500  -999.2500
  194.5000  -999.2500  -999.2500  -999.2500    79.5170  -999.2500  -999.2500  -999.2500
  195.0000  -999.2500  -999.2500  -999.2500    79.2590  -999.2500  -999.2500  -999.2500
  195.5000  -999.2500  -999.2500  -999.2500    78.2510  -999.2500  -999.2500  -999.2500
  196.0000  -999.2500  -999.2500  -999.2500    77.8000  -999.2500  -999.2500  -999.2500
  196.5000  -999.2500  -999.2500  -999.2500    78.7010  -999.2500  -999.2500  -999.2500
  197.0000  -999.2500  -999.2500  -999.2500    79.5740  -999.2500  -999.2500  -999.2500
  197.5000  -999.2500  -999.2500  -999.2500    80.4380  -999.2500  -999.2500  -999.2500
  198.0000  -999.2500  -999.2500  -999.2500    81.2920  -999.2500  -999.2500  -999.2500
  198.5000  -999.2500  -999.2500  -999.2500    82.1980  -999.2500  -999.2500  -999.2500
  199.0000  -999.2500  -999.2500  -999.2500    84.6790  -999.2500  -999.2500  -999.2500
  199.5000  -999.2500  -999.2500  -999.2500    85.4280  -999.2500  -999.2500  -999.2500
  200.0000  -999.2500  -999.2500  -999.2500    83.8270  -999.2500  -999.2500  -999.2500
  200.5000  -999.2500  -999.2500  -999.2500    85.8840  -999.2500  -999.2500  -999.2500
  201.0000  -999.2500  -999.2500  -999.2500    85.2940  -999.2500  -999.2500  -999.2500
  201.5000  -999.2500  -999.2500  -999.2500    81.4220  -999.2500  -999.2500  -999.2500
  202.0000  -999.2500  -999.2500  -999.2500    79.7290  -999.2500  -999.2500  -999.2500
  202.5000  -999.2500  -999.2500  -999.2500    80.0670  -999.2500  -999.2500  -999.2500
  203.0000  -999.2500  -999.2500  -999.2500    84.1810  -999.2500  -999.2500  -999.2500
  203.5000  -999.2500  -999.2500  -999.2500    80.8830  -999.2500  -999.2500  -999.2500
  204.0000  -999.2500  -999.2500  -999.2500    76.5000  -999.2500  -999.2500  -999.2500
  204.5000  -999.2500  -999.2500  -999.2500    73.8330  -999.2500  -999.2500  -999.2500
  205.0000  -999.2500  -999.2500  -999.2500    73.5270  -999.2500  -999.2500  -999.2500
  205.5000  -999.2500  -999.2500  -999.2500    72.8170  -999.2500  -999.2500  -999.2500
  206.0000  -999.2500  -999.2500  -999.2500    74.5900  -999.2500  -999.2500  -999.2500
  206.5000  -999.2500  -999.2500  -999.2500    76.9070  -999.2500  -999.2500  -999.2500
  207.0000  -999.2500  -999.2500  -999.2500    79.1080  -999.2500  -999.2500  -999.2500
  207.5000  -999.2500  -999.2500  -999.2500    80.8450  -999.2500  -999.2500  -999.2500
  208.0000  -999.2500  -999.2500  -999.2500    83.0650  -999.2500  -999.2500  -999.2500
  208.5000  -999.2500  -999.2500  -999.2500    86.0220  -999.2500  -999.2500  -999.2500
  209.0000  -999.2500  -999.2500  -999.2500    88.0220  -999.2500  -999.2500  -999.2500
  209.5000  -999.2500  -999.2500  -999.2500    86.9260  -999.2500  -999.2500  -999.2500
  210.0000  -999.2500  -999.2500  -999.2500    89.2220  -999.2500  -999.2500  -999.2500
  210.5000  -999.2500  -999.2500  -999.2500    93.9630  -999.2500  -999.2500  -999.2500
  211.0000  -999.2500  -999.2500  -999.2500    98.7250  -999.2500     2.4050  -999.2500
  211.5000  -999.2500     2.0500     1.8430   103.5880    12.1710     2.3890     0.0990
  212.0000   -58.5050     2.3490     1.8600   103.8190    12.5850     2.4010     0.0910
  212.5000   -61.4690     2.6480     1.8940   101.5150    12.6530     2.4270     0.0580
  213.0000   -64.2720     2.9460     6.8460   100.4740    12.6440     2.4240     0.0500
  213.5000   -68.9120     3.1710     6.7550    99.5440    12.6440     2.4440     0.0490
  214.0000   -68.8620     3.4490     5.0060    94.9700    12.6440     2.4590     0.0490
  214.5000   -68.8270     3.6080     5.1560    95.0720    12.6440     2.4680     0.0500
  215.0000   -69.4200     3.7770     5.4750    95.0810    12.6440     2.4600     0.0500
  215.5000   -71.9110     3.8020     5.7950    95.0750    12.6440     2.4480     0.0610
  216.0000   -72.6340     3.8250     6.1140    95.0960    12.6420     2.4350     0.0590
  216.5000   -72.7990     3.8460     6.2250    95.6520    12.6120     2.4220     0.0650
  217.0000   -72.8750     3.8690     6.3390    99.3050    12.5320     2.4080     0.0790
  217.5000   -72.9540     3.9010     5.6460   100.4160    12.2950     2.4250     0.0960
  218.0000   -73.0340     3.9170     5.0050    98.5360    11.8690     2.4470     0.1130
  218.5000   -73.0430     3.8960     4.6130    98.3260    11.6980     2.4690     0.1200
  219.0000   -77.2790     3.6760     4.6130   101.6990    11.2630     2.4270     0.0670
  219.5000   -80.9570     3.8090     4.7360   103.0950    11.0360     2.3800     0.0680
  220.0000   -86.8630     3.9910     4.8290   100.8500    10.9330     2.3800     0.0780
  220.5000   -89.3460     4.1740     4.8870   102.8770    10.9790     2.3500     0.1060
  221.0000   -90.7370     4.3590     4.9170   105.4690    11.0250     2.4000     0.1400
  221.5000   -91.7090     4.5240     4.9470   107.3240    10.9450     2.4520     0.1160
  222.0000   -93.1520     4.6780     5.0510   107.2790    10.7370     2.4950     0.0620
  222.5000   -93.4330     4.8330     5.1910   107.3670    10.5740     2.4960     0.0350
  223.0000   -93.4680     4.9870     5.7130   103.7990    10.5040     2.4960     0.0290
  223.5000   -93.5000     5.1410     7.0050   100.0800    10.4340     2.4970     0.0250
  224.0000   -93.5350     5.2960     6.9420   101.0020    10.3640     2.4920     0.0220
  224.5000   -93.5730     5.4500     6.9420   102.3110    10.3200     2.4880     0.0220
  225.0000   -93.6090     5.5820     6.9420   100.0560    10.3210     2.4820     0.0190
  225.5000   -94.2410     5.5820     6.9420   101.4780    10.3370     2.4720     0.0120
  226.0000   -95.5190     5.5580     6.9420   102.8530    10.2890     2.4670     0.0180
  226.5000   -95.5390     5.5200     6.9420   100.9110    10.2240     2.4800     0.0250
  227.0000   -95.4870     5.4810     6.9420   100.5950    10.2190     2.4940     0.0300
  227.5000   -95.4450     5.4420     6.9420   102.6820    10.2130     2.4990     0.0310
  228.0000   -95.4020     5.4040     6.9420   104.8870    10.2070     2.5030     0.0320
  228.5000   -95.7320     5.3650     6.9420   102.6590    10.2010     2.5030     0.0270
  229.0000   -95.7570     5.3260     6.9510   111.0350    10.1950     2.5000     0.0210
  229.5000   -96.0760     5.2880     6.9710   108.5090    10.1910     2.4920     0.0210
  230.0000   -96.3580     5.2490     6.9910   109.6170    10.1800     2.4880     0.0210
  230.5000   -96.3700     5.2100     7.0110   104.6100    10.0840     2.4880     0.0210
  231.0000   -96.3890     5.1720     7.0310   104.2020    10.1610     2.4870     0.0220
  231.5000   -96.4100     5.1330     7.0510   105.6710    10.2230     2.4900     0.0230
  232.0000   -96.4300     5.0940     7.0690   105.5040    10.2200     2.4900     0.0230
  232.5000   -96.4500     5.0550     7.0690   105.1480    10.2190     2.4900     0.0240
  233.0000   -96.4700     5.0510     7.1460   104.8680    10.2160     2.4880     0.0250
  233.5000   -96.4900     5.0510     7.7800   103.1770    10.2140     2.4850     0.0230
  234.0000   -96.5100     5.0510     9.7150   103.0290    10.2120     2.4830     0.0210
  234.5000   -96.5310     5.0510     8.9870   104.8920    10.2100     2.4770     0.0280
  235.0000   -96.5510     5.0510     7.6090   104.9280    10.2070     2.4820     0.0300
