~VERSION INFORMATION
 VERS.                2.0:   CWLS LOG ASCII STANDARD - VERSION 2.0
 WRAP.                 NO:   ONE LINE PER DEPTH STEP
~WELL INFORMATION
#MNEM.UNIT      DATA TYPE    INFORMATION
#----------   ------------   ------------------------------
 STRT.F            0.0000:   START DEPTH
 STOP.F         5670.0000:   STOP DEPTH
 STEP.F            0.5000:   STEP LENGTH
 NULL.          -999.2500:   NO VALUE
 COMP.          INTEX OIL:   COMPANY
 WELL.    INTEX TP #71-15:   WELL
 FLD .             TEAPOT:   FIELD
 LOC .      S15 T38N R78W:   LOCATION
 CNTY.            NATRONA:   COUNTY
 STAT.            WYOMING:   STATE
 CTRY. UNITED STATES OF AMERICA:   COUNTRY
 SRVC.       SCHLUMBERGER:   SERVICE COMPANY
 DATE.        05-AUG-1966:   LOGDATE
 API .     49025097110000:   API NUMBER
~CURVE INFORMATION
#MNEM.UNIT       API CODE    CURVE DESCRIPTION
#----------   ------------   ------------------------------
 DEPT.F                  :   
 GRD .GAPI   45 310 01 00:   GAMMA RAY FROM DENSITY LOG
 CALD.IN     45 280 60 00:   CALIPER FROM DENSITY LOG
 CORR.G/C3   45 356 01 00:   DENSITY CORRECTION
 RHOB.G/C3   45 350 01 00:   BULK DENSITY
 SPR .MV     05 010 01 00:   SPONTANEOUS POTENTIAL FROM RES.
 ASN .OHMM   05 041 16 00:   AMPLIFIED SHORT NORMAL 16"
 ILD .OHMM   05 120 46 00:   INDUCTION LOG DEEP RESISTIVITY
~PARAMETER INFORMATION
#MNEM.UNIT          VALUE    DESCRIPTION
#----------   ------------   ------------------------------
 EKB .F         5247.5500:   Kelly bushing
 EGL .F         5236.1000:   Ground level
 EDF .F            0.0000:   Drilling floor
 EPD .F         5236.1000:   Permanent datum
 TD  .F         5670.0000:   Total depth
 CLNT.            A2DTECH:   Client Code
 SL  . 610' FNL & 710' FEL:   Surface Location
 PD  .                 GL:   Permanent Datum
 LMF .                 KB:   Log Measured From
 DMF .                 KB:   Drilling Measured From
 DAPD.F             11.45:   Feet Above Permanent Datum
 DATE.        05-AUG-1966:   Date Logged [DD-MMM-YYYY]
 DD  .F              5665:   Depth driller
 DL  .F              5670:   Depth logger
 BLI .F              5669:   Bottom log interval
 TLI .F              5551:   Top log interval
 CS1 .IN            10.75:   Casing size
 CBD1.    10.75" @ 567.9':   Casing driller 1
 CBL1.F               569:   Casing logger 1
 BS1 .IN           8.9375:   Bit size
 BSD1.F              5665:   Depth drilled with bit1
 DFT .            DEXTRID:   Type fluid in hole
 DFD .                9.4:   Density
 DFV .                 59:   Viscosity
 DFPH.                7.5:   pH
 DFL .                8.2:   Fluid loss
 MSS .           FLOWLINE:   Source of sample
 RMS .OHMM           1.80:   Rm
 MST .F                72:   Rm Meas. temp.
 RMF .OHMM           1.00:   Rmf
 MFST.F                82:   Rmf Meas. temp.
 MFSS.               MEAS:   Source Rmf.
 BHT .F               163:   BHT.
 TCS .HRS               3:   Time Circ. stopped
 MRT .F               163:   Maximum recorded temp.
 LUN .               4507:   Logging unit number
 LUL .               CSPR:   Logging unit location
 ENGI.            MANGOLD:   Recorded By
 ORIG.      2.5" 5" PRINT:   Origin of data
 UWI .     49025097110000:   Unique Well ID
 DICO. A2D TECHNOLOGIES, INC.:   Digitizing Company
~OTHER INFORMATION
~A    DEPT      GRD      CALD       CORR       RHOB        SPR        ASN        ILD   
# ...
 2639.0000    63.3009    10.3851     0.0353     2.4455   -66.3164    29.1237    23.7399
 2639.5000    64.3730    10.4304     0.0443     2.4672   -66.3120    28.8217    23.6682
 2640.0000    65.1198    10.4464     0.0533     2.4807   -66.6077    28.5402    23.5218
 2640.5000    64.4848    10.4473     0.0578     2.4868   -66.7519    28.4693    23.4507
 2641.0000    63.1318    10.4781     0.0519     2.4779   -67.0464    28.3230    23.3791
 2641.5000    61.7783    10.4790     0.0298     2.4421   -67.1916    28.2521    23.2977
 2642.0000    60.1767    10.4799     0.0254     2.4242   -67.1861    28.2566    23.1610
 2642.5000    59.7867    10.5105     0.0363     2.4407   -67.1818    28.2603    23.1646
 2643.0000    61.1472    10.5114     0.0498     2.4602   -67.1779    28.2639    23.0929
 2643.5000    62.5056    10.5420     0.0585     2.4812   -67.1734    28.2675    23.0958
 2644.0000    65.2112    10.5727     0.0598     2.4902   -67.0193    28.1153    23.0987
 2644.5000    67.0186    10.5736     0.0532     2.4867   -67.0149    27.9767    23.1763
 2645.0000    68.3769    10.6042     0.0492     2.4567   -66.9993    27.9813    23.1792
 2645.5000    69.2862    10.6051     0.0432     2.4424   -66.8557    27.9849    23.2575
 2646.0000    67.9499    10.6357     0.0388     2.4412   -66.8514    28.1376    23.3761
 2646.5000    66.6136    10.6664     0.0343     2.4430   -66.6976    28.2902    23.4125
 2647.0000    65.2773    10.6970     0.0322     2.4465   -66.5438    28.2939    23.4900
 2647.5000    65.7374    10.7118     0.0322     2.4570   -66.5394    28.2975    23.4929
 2648.0000    66.6530    10.7436     0.0353     2.4783   -66.5351    28.2266    23.4958
 2648.5000    67.1535    10.7592     0.0458     2.4953   -66.5306    28.0794    23.5734
 2649.0000    68.9960    10.7899     0.0696     2.5086   -66.5253    27.7775    23.5763
 2649.5000    70.7223    10.8207     0.0830     2.5148   -66.5210    27.4187    23.5792
 2650.0000    71.7068    10.8216     0.0920     2.5097   -66.5166    27.3469    23.5821
 2650.5000    72.5412    10.8522     0.0787     2.4884   -66.5123    27.1259    23.3589
 2651.0000    72.4433    10.8531     0.0580     2.4650   -66.3585    27.1286    23.3598
 2651.5000    71.0899    10.8540     0.0388     2.4315   -66.2048    27.1307    23.2112
 2652.0000    69.1440    10.8548     0.0209     2.4181   -66.0508    26.9838    22.9134
 2652.5000    67.4851    10.8557     0.0152     2.4177   -65.8960    26.5389    22.5311
 2653.0000    67.2059    10.9405     0.0280     2.4630   -65.5927    26.1685    21.9449
 2653.5000    67.4146    10.9405     0.0427     2.4721   -65.4389    25.6481    21.2740
 2654.0000    69.8760    10.9405     0.0437     2.4587   -65.1356    25.0222    20.6031
 2654.5000    72.1926    10.9405     0.0378     2.4363   -64.9818    24.4611    20.3799
 2655.0000    74.4386    10.9405     0.0379     2.4289   -64.6785    24.1652    20.3058
 2655.5000    74.4498    10.9405     0.0395     2.4424   -64.3752    23.8698    20.3814
 2656.0000    74.4631    10.9405     0.0396     2.4649   -64.3707    23.9465    20.5383
 2656.5000    74.4741    10.9405     0.0404     2.4771   -64.3662    24.4703    20.7649
 2657.0000    73.5870    10.9107     0.0450     2.4860   -64.3617    24.9945    21.0553
 2657.5000    72.6998    10.9107     0.0443     2.4730   -64.5062    25.4603    21.4292
 2658.0000    70.9144    10.9107     0.0206     2.4179   -64.8008    25.9676    21.7284
 2658.5000    68.2308    10.9107     0.0222     2.4025   -64.7965    26.2678    22.0276
 2659.0000    64.6490    10.8810     0.0297     2.4183   -65.2406    26.5680    22.3269
 2659.5000    61.9654    10.8503     0.0416     2.4460   -65.3857    26.7937    22.6261
 2660.0000    61.9461    10.8214     0.0506     2.4550   -65.5309    26.6469    22.4777
 2660.5000    65.5802    10.7917     0.0492     2.4270   -65.2265    26.4985    22.1053
 2661.0000    70.0913    10.7917     0.0359     2.4365   -64.9232    26.1927    21.7329
 2661.5000    71.4623    10.7917     0.0465     2.4543   -64.7694    26.0572    21.4349
 2662.0000    71.9007    10.7917     0.0461     2.4620   -64.6156    26.1344    21.1373
 2662.5000    70.8453    10.7917     0.0371     2.4643   -64.3123    26.2111    21.0634
 2663.0000    68.6325    10.7917     0.0283     2.4527   -64.4574    26.2878    20.9149
 2663.5000    67.3531    10.7917     0.0230     2.4017   -64.4529    26.5135    20.9158
 2664.0000    66.4491    10.7619     0.0292     2.3928   -64.4484    26.6657    20.9911
 2664.5000    66.1175    10.7619     0.0429     2.4093   -64.4439    26.8905    21.1411
 2665.0000    66.5793    10.7619     0.0546     2.4348   -64.4390    26.8931    21.2165
 2665.5000    65.0542    10.7619     0.0570     2.4558   -64.5841    26.6717    21.4411
 2666.0000    61.0361    10.7619     0.0465     2.4588   -64.5798    26.5988    21.6676
 2666.5000    61.6117    10.7619     0.0328     2.4409   -64.5754    26.6760    22.0397
 2667.0000    64.5624    10.7619     0.0235     2.4290   -64.7206    26.8272    22.4136
 2667.5000    65.7373    10.7619     0.0296     2.4456   -65.0141    27.0543    22.8620
 2668.0000    63.4199    10.7619     0.0267     2.4411   -65.3098    27.2161    22.9374
 2668.5000    58.8711    10.7619     0.0193     2.4141   -65.4549    27.4303    22.7142
 2669.0000    56.7910    10.7321     0.0191     2.4099   -65.6001    27.2835    22.4911
 2669.5000    59.9457    10.7321     0.0299     2.4225   -65.5947    26.9876    22.2640
 2670.0000    63.9987    10.7460     0.0418     2.4559   -65.4408    26.5426    21.8210
 2670.5000    67.1534    10.7619     0.0582     2.4862   -65.2870    26.0232    21.4486
 2671.0000    69.4099    10.7619     0.0702     2.5159   -65.2825    25.7258    20.9270
 2671.5000    71.2173    10.7917     0.0694     2.4798   -64.9783    25.5060    20.4799
 2672.0000    72.1266    10.8214     0.0422     2.4745   -64.9740    25.4335    20.1821
 2672.5000    72.5867    10.8214     0.0516     2.4868   -64.9696    25.5107    19.9590
 2673.0000    73.0468    10.8512     0.0542     2.4984   -64.8158    25.6619    19.9597
 2673.5000    73.0578    10.9107     0.0411     2.5109   -64.6620    25.7386    19.9606
 2674.0000    73.5180    10.9405     0.0247     2.5271   -64.2093    25.6662    20.0359
 2674.5000    73.9783    10.9405     0.0333     2.5409   -63.8886    25.4432    19.9620
 2675.0000    74.4762    10.9702     0.0367     2.5517   -63.4521    25.1119    19.8879
 2675.5000    74.8989    10.9702     0.0290     2.5483   -63.4478    24.0339    19.5157
 2676.0000    75.4308    11.0000     0.0184     2.5170   -63.1061    23.3649    18.9940
 2676.5000    76.3576    11.0595     0.0253     2.5245   -62.8412    23.0695    18.4484
 2677.0000    76.7290    11.0595     0.0263     2.5335   -62.6874    22.7736    17.8016
 2677.5000    76.7403    11.0600     0.0179     2.5366   -62.5336    22.2542    17.2800
 2678.0000    77.2006    11.0893     0.0135     2.5262   -62.5291    21.9563    16.7583
 2678.5000    77.2118    11.1217     0.0210     2.5113   -62.3743    21.6498    16.3859
 2679.0000    77.6722    11.1786     0.0270     2.4979   -62.3045    21.2919    16.2373
 2679.5000    77.8760    11.1834     0.0375     2.4980   -62.0667    20.9960    15.9396
 2680.0000    78.3533    11.2381     0.0346     2.5040   -61.7634    20.7001    15.7811
 2680.5000    79.5067    11.2749     0.0302     2.5039   -61.6096    20.3302    15.4934
 2681.0000    81.3876    11.2976     0.0228     2.4946   -61.6052    20.0343    15.1956
 2681.5000    83.4933    11.2976     0.0167     2.4798   -61.3016    19.7339    14.5993
 2682.0000    78.6398    11.2976     0.0139     2.4727   -61.1374    19.2195    14.2269
 2682.5000    76.8544    11.2976     0.0127     2.4700   -60.9735    18.8491    13.9291
 2683.0000    78.6619    11.2976     0.0132     2.4787   -60.6899    18.3297    13.7049
 2683.5000    82.7148    11.2976     0.0144     2.4864   -60.5361    17.8102    13.3963
 2684.0000    87.2168    11.2976     0.0145     2.4827   -60.3823    17.3653    13.0359
