~VERSION INFORMATION
 VERS.                2.0:   CWLS LOG ASCII STANDARD - VERSION 2.0
 WRAP.                 NO:   ONE LINE PER DEPTH STEP
~WELL INFORMATION
#MNEM.UNIT      DATA TYPE    INFORMATION
#----------   ------------   ------------------------------
 STRT.F            0.5000:   START DEPTH
 STOP.F         4256.0000:   STOP DEPTH
 STEP.F            0.5000:   STEP LENGTH
 NULL.          -999.2500:   NO VALUE
 COMP. LAWRENCE-ALLISON & ASSOC:   COMPANY
 WELL. LAWRENCE "X" #64-15:   WELL
 FLD .        N.P.R. NO.3:   FIELD
 LOC .      S15 T38N R78W:   LOCATION
 CNTY.            NATRONA:   COUNTY
 STAT.            WYOMING:   STATE
 CTRY. UNITED STATES OF AMERICA:   COUNTRY
 SRVC.      DRESSER ATLAS:   SERVICE COMPANY
 DATE.        13-SEP-1984:   LOGDATE
 API .     49025111610000:   API NUMBER
~CURVE INFORMATION
#MNEM.UNIT       API CODE    CURVE DESCRIPTION
#----------   ------------   ------------------------------
 DEPT.F                  :   
 TENR.LBS    07 635 01 00:   TENSION FROM RESISTIVITY
 GRR .GAPI   07 310 01 00:   GAMMA RAY FROM RESISTIVITY
 RFOC.OHMM   07 220 04 00:   RESISTIVITY FOCUSED LOG RES.
 RILD.OHMM   07 120 46 00:   DEEP INDUCTION RESISTIVITY
 RILM.OHMM   07 120 44 00:   INDUCTION LOG MEDIUM RESISTIVITY
 SPR .MV     07 010 01 00:   SPONTANEOUS POTENTIAL
 DT  .US/F   60 520 00 00:   DELTA TIME
 TENS.LBS    60 635 01 00:   TENSION FROM SONIC
 CALD.IN     45 280 60 00:   CALIPER FROM DENSITY LOG
 TEND.LBS    45 635 01 00:   TENSION FORM DENSITY LOG
 CORR.G/C3   45 356 01 00:   DENSITY CORRECTION
 DEN .G/C3   45 350 01 00:   BULK DENSITY
 CNC .DEC    42 890 03 00:   NEUTRON POROSITY SANDSTONE
~PARAMETER INFORMATION
#MNEM.UNIT          VALUE    DESCRIPTION
#----------   ------------   ------------------------------
 EKB .F         5294.0000:   Kelly bushing
 EGL .F         5282.0000:   Ground level
 TD  .F         4256.0000:   Total depth
 CLNT.            A2DTECH:   Client Code
 SL  . 2299' FNL & 1785' FEL:   Surface Location
 PD  .                 GL:   Permanent Datum
 EPD .F              5282:   Elevation Permanent Datum
 LMF .                 KB:   Log Measured From
 DMF .                 KB:   Drilling Measured From
 DAPD.F                12:   Feet Above Permanent Datum
 DATE.        13-SEP-1984:   Date Logged [DD-MMM-YYYY]
 DD  .F              4256:   Depth driller
 DL  .F              4248:   Depth logger
 BLI .F              4246:   Bottom log interval
 TLI .F                 0:   Top log interval
 CS1 .IN            8.625:   Casing size
 CBD1.      8.625" @ 817':   Casing driller 1
 CBL1.F               814:   Casing logger 1
 BS1 .IN            7.875:   Bit size
 BSD1.F              4256:   Depth drilled with bit1
 DFT .            KCL-GEL:   Type fluid in hole
 DFD .                  9:   Density
 DFV .                 40:   Viscosity
 DFPH.                8.6:   pH
 DFL .               11.8:   Fluid loss
 MSS .            MUDTANK:   Source of sample
 RMS .OHMM           0.38:   Rm
 MST .F                74:   Rm Meas. temp.
 RMF .OHMM           0.31:   Rmf
 MFST.F                72:   Rmf Meas. temp.
 MFSS.               MEAS:   Source Rmf.
 RMC .OHMM           0.48:   Rmc
 MCST.F                74:   Rmc Meas. temp.
 MCSS.               CALC:   Source Rmc.
 RMB .OHMM           0.22:   Rm. at BHT
 BHT .F               134:   BHT.
 TCS .HRS               4:   Time Circ. stopped
 MRT .F               134:   Maximum recorded temp.
 LUN .            HL-6274:   Logging unit number
 LUL .           GILLETTE:   Logging unit location
 ENGI.             RAUTIO:   Recorded By
 WITN.            JOHNSON:   Witnessed by
 ORIG.        2" 5" PRINT:   Origin of data
 UWI .     49025111610000:   Unique Well ID
 DICO. A2D TECHNOLOGIES, INC.:   Digitizing Company
~OTHER INFORMATION
~A    DEPT    TENR         GRR      RFOC       RILD       RILM        SPR         DT       TENS       CALD       TEND       CORR        DEN        CNC   
# ...
 1716.5000   -55.0000    85.5126     8.7929     8.3389     8.3900   -31.6817    86.1020   -35.8566     8.8900   -45.8167    -0.0247     2.5369     0.2435
 1717.0000   -75.0000    90.6290     9.3590     8.4535     8.4641   -31.2312    84.9025   -35.8566     8.8900   -45.8167    -0.0262     2.5354     0.2447
 1717.5000  -104.7172    92.1357     9.6894     8.5095     8.6238   -31.0811    83.7781   -35.8566     8.8900   -55.7769    -0.0277     2.5459     0.2417
 1718.0000  -103.4902    90.3341     9.6232     8.5071     8.6224   -30.9309    80.7047   -41.9323     8.8900   -52.5564    -0.0322     2.5573     0.2380
 1718.5000  -102.2631    89.4341     9.1052     8.4461     8.3851   -30.9309    76.8066   -66.9323     8.8900   -45.8167    -0.0412     2.5580     0.2339
 1719.0000  -101.0361    90.3400     8.8570     8.3272     8.2112   -30.9309    74.7076   -65.7064     8.8900   -45.8167    -0.0472     2.5565     0.2315
 1719.5000   -99.8090    92.7490     8.9812     8.2675     8.0409   -30.7808    73.5832   -50.3218     8.8900   -45.8167    -0.0306     2.5580     0.2279
 1720.0000   -98.5820    95.1579     9.1070     8.0953     7.9842   -30.6306    73.6582   -35.8566     8.8900   -31.9970     0.0013     2.5709     0.2237
 1720.5000   -97.3549    93.3495     9.0448     8.0932     7.9832   -30.0300    77.4424   -35.8566     8.8900   -25.8964     0.0356     2.5701     0.2339
 1721.0000   -96.1279    92.1224     8.9210     8.0420     7.9821   -29.7297    81.5560   -35.8566     8.8900   -25.8964     0.0296     2.5694     0.2505
 1721.5000   -94.9008    91.8585     8.8563     8.0497     7.9897   -29.7297    85.4273   -35.8566     8.8900   -25.8964     0.0010     2.5724     0.2659
 1722.0000   -93.6738    90.6592     8.6099     8.0575     8.0915   -30.0300    86.4018   -35.8566     8.8900   -28.1474    -0.0170     2.5794     0.2706
 1722.5000   -92.4467    89.1576     8.2685     8.0652     8.0901   -30.4805    86.7766   -37.7438     8.8900   -33.1673    -0.0200     2.5822     0.2646
 1723.0000   -91.2197    90.9658     8.0990     8.0730     8.1456   -30.7808    86.9265   -39.4981     8.8906   -35.8566    -0.0110     2.5777     0.2495
 1723.5000   -89.9926    92.1718     8.5019     8.0765     8.2012   -31.0811    86.4768   -41.2525     8.8913   -35.8566    -0.0019     2.5754     0.2453
 1724.0000   -88.7656    92.4747     9.1121     8.0754     8.1999   -31.2312    85.7271   -43.0069     8.8919   -31.8393     0.0086     2.5770     0.2447
 1724.5000   -87.5385    89.7716     9.1761     8.0743     8.1988   -31.5315    85.2024   -44.7613     8.8926   -15.9363     0.0237     2.5823     0.2444
 1725.0000   -86.3115    89.4737     9.0505     8.0730     8.1976   -31.8318    85.4273   -46.5157     8.8932   -10.9562     0.0433     2.5883     0.2432
 1725.5000   -85.0844    89.7775     8.8648     8.0719     8.1965   -31.8318    85.7271   -48.2701     8.8939   -15.9363     0.0312     2.5891     0.2420
 1726.0000   -83.8574    91.5892     8.8656     8.0708     8.1954   -31.9820    85.3523   -50.0245     8.8945   -20.2191     0.0132     2.5823     0.2405
 1726.5000   -82.6303    92.1894     9.2424     8.1259     8.2514   -31.8318    84.0780   -51.7789     8.8952   -35.8566    -0.0033     2.5838     0.2399
 1727.0000   -81.4033    90.6886     9.3072     8.1247     8.3077   -31.2312    82.5037   -53.5332     8.8958   -35.8566    -0.0139     2.5838     0.2471
 1727.5000   -80.1762    89.4885     8.9168     8.1236     8.3644   -31.0811    79.9550   -55.2876     8.8965   -35.8566    -0.0199     2.5853     0.2544
 1728.0000   -78.9492    89.1907     8.6257     8.1790     8.3630   -30.9309    77.1814   -54.3901     8.8971   -35.8566    -0.0197     2.5793     0.2604
 1728.5000   -77.7221    89.7959     9.0549     8.2347     8.3619   -31.2312    76.8816   -52.4671     8.8978   -35.8566    -0.0138     2.5687     0.2520
 1729.0000   -76.4951    88.5958     9.3099     8.2959     8.4193   -31.2312    80.7047   -50.5440     8.8984   -35.8566    -0.0168     2.5627     0.2470
 1729.5000   -75.2680    87.6965     9.3105     8.2322     8.3596   -31.2312    84.0030   -48.6209     8.8991   -25.8964    -0.0138     2.5567     0.2423
 1730.0000   -75.0000    89.5040     9.1831     8.0618     8.3007   -31.0811    85.6673   -46.6978     8.8997   -25.3153    -0.0047     2.5522     0.2381
 1730.5000   -75.2487    92.2137     8.9949     7.8950     8.1851   -31.0811    86.6527   -44.7747     8.9004   -36.3180     0.0029     2.5552     0.2333
 1731.0000   -75.9053    93.1189     8.5698     7.8395     8.0712   -31.0811    87.0765   -42.8517     8.9010   -35.7310     0.0073     2.5552     0.2327
 1731.5000   -76.5618    95.2289     8.2216     7.7843     8.0143   -31.0811    87.2264   -40.9286     8.9017   -36.3178     0.0073     2.5529     0.2393
 1732.0000   -77.2184    97.9933     8.1654     7.7833     8.0690   -31.2312    87.0765   -39.0055     8.9023   -38.7314     0.0043     2.5492     0.2417
 1732.5000   -77.8750    98.5412     8.8736     7.7822     8.1241   -31.2312    86.8516   -37.0824     8.9030   -41.1155    -0.0017     2.5492     0.2429
 1733.0000   -78.5316    93.1314     9.0639     7.7812     8.1796   -31.5315    86.9265   -35.8566     8.9037   -43.4992    -0.0137     2.5507     0.2442
 1733.5000   -79.1882    89.5253     8.9278     7.8342     8.1782   -31.2312    87.6012   -35.8566     8.9043   -45.8572    -0.0362     2.5477     0.2477
 1734.0000   -79.8447    90.7312     8.3972     7.8875     8.1771   -30.9309    94.2994   -35.8566     8.9050   -51.1398    -0.0558     2.5386     0.2495
 1734.5000   -80.5013    91.3357     8.0560     7.8862     8.1760   -30.4805   101.9940   -35.8566     8.9056   -55.7807    -0.0678     2.5326     0.2483
 1735.0000   -81.1579    88.6318     8.1689     7.8851     8.0622   -30.1802   103.8681   -35.8566     8.9063   -55.7769    -0.0678     2.5326     0.2483
 1735.5000   -81.8145    85.9280     8.8161     7.8841     8.0053   -29.8799   103.9170   -35.8566     8.9069   -55.7769    -0.0588     2.5341     0.2502
 1736.0000   -82.4711    85.3287     9.0643     7.8830     7.9489   -30.4805   100.3312   -35.8566     8.9076   -50.1660    -0.0151     2.5433     0.2520
 1736.5000   -83.1276    87.4377     9.1279     7.8276     7.9478   -31.0811    95.5620   -35.8566     8.9082   -35.8566     0.0135     2.5553     0.2506
 1737.0000   -83.7842    88.6436     9.0030     7.8265     7.8917   -31.2312    91.1994   -35.8566     8.9089   -35.8566     0.0165     2.5643     0.2432
 1737.5000   -84.4408    89.5738     8.6972     7.8255     7.9456   -31.3814    89.4753   -35.8566     8.9095   -35.8566     0.0211     2.5711     0.2384
 1738.0000   -85.0000    95.0303     8.4017     7.8788     7.9996   -31.2312    95.5472   -35.8566     8.9100   -35.8566     0.0121     2.5704     0.2357
 1738.5000   -85.0000    96.7727     8.0044     7.8777     8.0545   -31.0811    98.0960   -35.8566     8.9100   -35.8566    -0.0045     2.5674     0.2459
 1739.0000   -85.0000    91.9644     7.8951     7.9314     8.1095   -31.0811    95.0975   -35.8566     8.9100   -45.8167    -0.0015     2.5597     0.2532
 1739.5000   -85.0000    90.7636     8.1276     8.0409     8.1649   -31.2312    89.7751   -35.8630     8.9100   -55.7769     0.0016     2.5523     0.2592
 1740.0000   -85.0000    91.0680     8.7002     8.0957     8.1635   -31.3814    81.6042   -36.5837     8.9100   -55.7769    -0.0014     2.5500     0.2568
 1740.5000   -85.0000    90.4695     9.0700     8.2072     8.2766   -31.6817    76.5067   -40.0623     8.9100   -55.7769    -0.0074     2.5591     0.2301
 1741.0000   -85.0000    88.3671     9.3902     8.2634     8.3330   -31.5315    74.6327   -43.5067     8.9100   -45.8167    -0.0089     2.5674     0.2282
 1741.5000   -85.0000    85.0618     9.6544     8.3197     8.3319   -31.2312    78.0060   -46.9559     8.9100   -45.8167    -0.0011     2.5795     0.2363
 1742.0000   -85.0000    83.5609     8.9470     8.4343     8.3888   -30.9309    82.4288   -50.3806     8.9100   -45.8167     0.0047     2.5946     0.2321
