~VERSION INFORMATION
 VERS.                2.0:   CWLS LOG ASCII STANDARD - VERSION 2.0
 WRAP.                 NO:   ONE LINE PER DEPTH STEP
~WELL INFORMATION
#MNEM.UNIT      DATA TYPE    INFORMATION
#----------   ------------   ------------------------------
 STRT.F           15.0000:   START DEPTH
 STOP.F         3245.5000:   STOP DEPTH
 STEP.F            0.5000:   STEP LENGTH
 NULL.          -999.2500:   NO VALUE
 COMP. LAWRENCE ALLISON AND ASSOCIATES:   COMPANY
 WELL. LAWRENCE ALLISON 11 X34 #3-3:   WELL
 FLD .             NPR #3:   FIELD
 LOC .       S3 T38N R78W:   LOCATION
 CNTY.            NATRONA:   COUNTY
 STAT.            WYOMING:   STATE
 CTRY. UNITED STATES OF AMERICA:   COUNTRY
 SRVC.      DRESSER ATLAS:   SERVICE COMPANY
 DATE.        23-MAY-1985:   LOGDATE
 API .     49025110530000:   API NUMBER
~CURVE INFORMATION
#MNEM.UNIT       API CODE    CURVE DESCRIPTION
#----------   ------------   ------------------------------
 DEPT.F                  :   
 SPR .MV     07 010 01 00:   SPONTANEOUS POTENTIAL
 GRR .GAPI   07 310 01 00:   GAMMA RAY FROM RESISTIVITY
 SFL .OHMM   07 220 01 00:   SHALLOW FOCUSED LOG RES.
 ILD .OHMM   07 120 46 00:   INDUCTION LOG DEEP RESISTIVITY
 ILM .OHMM   07 120 44 00:   INDUCTION LOG MEDIUM RESISTIVITY
 TENR.LBS    07 635 01 00:   TENSION
 CALR.IN     07 280 01 00:   CALIPER FROM RESISTIVITY
 RHOB.G/C3   45 350 01 00:   BULK DENSITY
 CORR.G/C3   45 356 01 00:   DENSITY CORRECTION
 CNC .DEC    42 890 03 00:   NEUTRON POROSITY SANDSTONE
~PARAMETER INFORMATION
#MNEM.UNIT          VALUE    DESCRIPTION
#----------   ------------   ------------------------------
 EKB .F         5099.0000:   Kelly bushing
 EGL .F         5087.0000:   Ground level
 EDF .F            0.0000:   Drilling floor
 EPD .F         5087.0000:   Permanent datum
 TD  .F         3240.0000:   Total depth
 DATE.         2-MAY-1985:   Date logged
 CLNT.            A2DTECH:   Client Code
 PD  .                 GL:   Permanent Datum
 DD  .F              3239:   Depth driller
 DL  .F              3242:   Depth logger
 BLI .F              3240:   Bottom log interval
 TLI .F                15:   Top log interval
 CS1 .IN            8.625:   Casing size
 CBD1.      8.625" @ 487':   Casing driller 1
 CBL1.F               487:   Casing logger 1
 BSD1.F              3239:   Depth drilled with bit1
 DFT .            KCL GEL:   Type fluid in hole
 ENGI.      MACK. EDWARDS:   Recorded By
 WITN.         MR. STRONG:   Witnessed by
 ORIG.           5" PRINT:   Origin of data
 UWI .     49025110530000:   Unique Well ID
 DICO. A2D TECHNOLOGIES, INC.:   Digitizing Company
 DAPD.IN               12:   Feet Above Permanent Datum
 BS1 .              7.875:   Bit size
 DFD .                9.1:   Density
 DFV .                 35:   Viscosity
 DFPH.                  8:   pH
 DFL .                9.8:   Fluid loss
 MSS .           FLOWLINE:   Source of sample
 RMS .OHMM            .27:   Rm
 MST .F                68:   Rm Meas. temp.
 RMF .OHMM             .2:   Rmf
 MFST.F                68:   Rmf Meas. temp.
 MFSS.               MEAS:   Source Rmf.
 RMC .OHMM            .34:   Rmc
 MCST.F                68:   Rmc Meas. temp.
 MCSS.               CALC:   Source Rmc.
 RMB .OHMM            .15:   Rm. at BHT
 BHT .F               126:   BHT.
 TCS .HRS               3:   Time Circ. stopped
 MRT .F               126:   Maximum recorded temp.
 LUN .               6274:   Logging unit number
 LUL .               GLTE:   Logging unit location
~OTHER INFORMATION
~A   DEPT      SPR        GRR        SFL        ILD        ILM       TENR       CALR       RHOB       CORR        CNC   
# ...
 1388.5000   -72.2746    76.3775     6.2564     6.0306     5.9208   -52.7207  -999.2500  -999.2500  -999.2500  -999.2500
 1389.0000   -72.4750    74.8883     6.2558     6.0302     5.9204   -52.6211  -999.2500  -999.2500  -999.2500  -999.2500
 1389.5000   -72.4762    74.5877     6.2553     6.0295     5.9197   -52.5215  -999.2500  -999.2500  -999.2500  -999.2500
 1390.0000   -72.4794    73.9895     6.3706     6.0291     5.9193   -52.4219  -999.2500  -999.2500  -999.2500  -999.2500
 1390.5000   -72.4813    72.2003     6.3701     6.0284     5.8109   -42.3428  -999.2500  -999.2500  -999.2500  -999.2500
 1391.0000   -72.2845    75.4716     6.3694     6.1397     5.8105   -42.2432  -999.2500  -999.2500  -999.2500  -999.2500
 1391.5000   -72.2869    77.2543     6.2530     6.1391     5.8098   -52.1231  -999.2500  -999.2500  -999.2500  -999.2500
 1392.0000   -72.2889    77.2513     6.2523     6.1386     5.7036   -52.0236  -999.2500  -999.2500  -999.2500  -999.2500
 1392.5000   -72.2909    75.7597     6.2519     6.1379     5.7030   -61.9035  -999.2500  -999.2500  -999.2500  -999.2500
 1393.0000   -72.4912    74.8645     6.2512     6.0257     5.5988   -61.8039  -999.2500  -999.2500  -999.2500  -999.2500
 1393.5000   -72.4928    73.6711     6.1369     6.0251     5.4962   -51.7248  -999.2500  -999.2500  -999.2500  -999.2500
 1394.0000   -72.4952    72.1795     6.0245     5.9150     5.3957   -41.6456  -999.2500  -999.2500  -999.2500  -999.2500
 1394.5000   -73.4892    72.7724     5.9144     5.8066     5.2971   -31.5665  -999.2500  -999.2500  -999.2500  -999.2500
 1395.0000   -73.6896    74.5556     5.7004     5.7005     5.1054   -41.4465  -999.2500  -999.2500  -999.2500  -999.2500
 1395.5000   -73.6916    73.9569     5.5962     5.6999     5.1050   -51.3264  -999.2500  -999.2500  -999.2500  -999.2500
 1396.0000   -73.6935    73.6563     5.5956     5.6995     5.2955   -61.2063  -999.2500  -999.2500  -999.2500  -999.2500
 1396.5000   -73.1003    72.1647     5.5952     5.8045     5.3933   -51.1272  -999.2500  -999.2500  -999.2500  -999.2500
 1397.0000   -72.5071    73.3522     5.8040     5.9117     5.5946   -51.0276  -999.2500  -999.2500  -999.2500  -999.2500
 1397.5000   -72.3106    73.9444     5.9112     6.1323     5.8036   -40.9485  -999.2500  -999.2500  -999.2500  -999.2500
 1398.0000   -71.9158    73.3462     6.2454     6.2456     5.9105   -40.8489  -999.2500  -999.2500  -999.2500  -999.2500
 1398.5000   -70.9258    73.0457     6.3608     6.3607     5.9101   -50.7288  -999.2500  -999.2500  -999.2500  -999.2500
 1399.0000   -70.9277    73.0427     6.4780     6.4781     5.9094   -50.6292  -999.2500  -999.2500  -999.2500  -999.2500
 1399.5000   -70.9297    73.3373     6.4775     6.4774     5.9090   -50.5296  -999.2500  -999.2500  -999.2500  -999.2500
 1400.0000   -70.9317    73.3344     6.3589     6.3590     5.9083   -50.4192  -999.2500  -999.2500  -999.2500  -999.2500
 1400.5000   -71.4449    73.5843     6.3583     6.3583     5.9078   -50.4192  -999.2500  -999.2500  -999.2500  -999.2500
 1401.0000   -71.5270    73.6319     6.3589     6.3589     5.9083   -50.4192  -999.2500  -999.2500  -999.2500  -999.2500
 1401.5000   -71.5270    72.1438     6.3589     6.3589     5.9083   -50.4192  -999.2500  -999.2500  -999.2500  -999.2500
 1402.0000   -71.5270    72.1438     6.3589     6.3589     5.9083   -50.4192  -999.2500  -999.2500  -999.2500  -999.2500
 1402.5000   -71.5270    70.6557     6.3589     6.4768     5.9083   -50.4192  -999.2500  -999.2500  -999.2500  -999.2500
 1403.0000   -71.9238    70.6557     6.2431     6.4768     5.9083   -50.4192  -999.2500  -999.2500  -999.2500  -999.2500
 1403.5000   -71.7254    71.5486     6.2431     6.5969     5.9083   -60.3992  -999.2500  -999.2500  -999.2500  -999.2500
 1404.0000   -71.7254    71.5486     6.2431     6.5969     5.9083   -70.3792  -999.2500  -999.2500  -999.2500  -999.2500
 1404.5000   -71.9238    71.2510     6.3589     6.7192     6.0179   -60.3992  -999.2500  -999.2500  -999.2500  -999.2500
 1405.0000   -72.1222    71.5486     6.3589     6.7192     6.0179   -50.4192  -999.2500  -999.2500  -999.2500  -999.2500
 1405.5000   -71.9238    72.7390     6.4768     6.7192     6.1295   -50.4192  -999.2500  -999.2500  -999.2500  -999.2500
 1406.0000   -71.9238    73.9295     6.5969     6.7192     6.2431   -40.4391  -999.2500  -999.2500  -999.2500  -999.2500
 1406.5000   -71.9238    74.5248     6.7192     6.8438     6.3589   -60.3992  -999.2500  -999.2500  -999.2500  -999.2500
 1407.0000   -71.7254    72.1438     6.8438     6.9708     6.5969   -60.3992  -999.2500  -999.2500  -999.2500  -999.2500
 1407.5000   -71.7254    71.8462     6.9708     7.1000     6.7192   -70.3792  -999.2500  -999.2500  -999.2500  -999.2500
 1408.0000   -71.5270    71.5486     6.9708     7.1000     6.8438   -60.3992  -999.2500  -999.2500  -999.2500  -999.2500
 1408.5000   -71.5270    73.3343     7.1000     7.1000     6.8438   -60.3992  -999.2500  -999.2500  -999.2500  -999.2500
 1409.0000   -71.5270    74.5248     7.1000     7.2317     6.8438   -60.3992  -999.2500  -999.2500  -999.2500  -999.2500
 1409.5000   -71.5270    74.5248     7.1000     7.2317     6.8438   -60.3992  -999.2500  -999.2500  -999.2500  -999.2500
 1410.0000   -71.5270    73.6319     7.1000     7.1000     6.7192   -80.3593  -999.2500  -999.2500  -999.2500  -999.2500
 1410.5000   -71.9238    74.8224     7.1000     7.1000     6.5969   -60.3992  -999.2500  -999.2500  -999.2500  -999.2500
 1411.0000   -71.9238    76.9057     7.1000     7.1000     6.5969   -70.3792  -999.2500  -999.2500  -999.2500  -999.2500
 1411.5000   -71.9238    78.0962     7.1000     6.9708     6.5754   -70.3792  -999.2500  -999.2500  -999.2500  -999.2500
 1412.0000   -71.9238    76.0129     6.9708     6.9708     6.5540   -70.3792  -999.2500  -999.2500  -999.2500  -999.2500
 1412.5000   -71.9238    72.7390     6.9708     6.9708     6.5326   -70.3792  -999.2500  -999.2500  -999.2500  -999.2500
 1413.0000   -71.7254    68.2748     6.9708     6.9708     6.5114   -70.3792  -999.2500  -999.2500  -999.2500  -999.2500
 1413.5000   -71.7254    67.3819     6.9708     6.9708     6.4901   -70.3792  -999.2500  -999.2500  -999.2500  -999.2500
 1414.0000   -71.5270    68.8700     6.9708     6.9708     6.4768   -70.3792  -999.2500  -999.2500  -999.2500  -999.2500
 1414.5000   -71.7254    70.9533     6.9708     6.9708     6.4768   -70.3792  -999.2500  -999.2500  -999.2500  -999.2500
 1415.0000   -71.5839    70.0605     6.9708     6.9708     6.5182   -70.3792  -999.2500  -999.2500  -999.2500  -999.2500
 1415.5000   -71.3286    68.8700     7.0253     6.9708     6.5599   -70.3792  -999.2500  -999.2500  -999.2500  -999.2500
 1416.0000   -71.1302    69.4652     7.0803     6.9708     6.6018   -70.3792  -999.2500  -999.2500  -999.2500  -999.2500
 1416.5000   -71.5270    69.7629     7.1358     7.0175     6.6441   -70.3792  -999.2500  -999.2500  -999.2500  -999.2500
 1417.0000   -71.7254    70.0605     7.1916     7.0646     6.6865   -70.3792  -999.2500  -999.2500  -999.2500  -999.2500
 1417.5000   -72.1222    72.1438     7.2479     7.1120     6.7192   -70.3792  -999.2500  -999.2500  -999.2500  -999.2500
 1418.0000   -72.1222    74.2271     7.3047     7.1598     6.7192   -70.3792  -999.2500  -999.2500  -999.2500  -999.2500
 1418.5000   -72.3206    76.3105     7.3619     7.2078     6.7585   -70.3792  -999.2500  -999.2500  -999.2500  -999.2500
 1419.0000   -72.1222    75.1200     7.4195     7.2562     6.7979   -70.3792  -999.2500  -999.2500  -999.2500  -999.2500
 1419.5000   -72.1222    74.2271     7.4776     7.3049     6.8376   -70.3792  -999.2500  -999.2500  -999.2500  -999.2500
 1420.0000   -71.9238    74.2271     7.5362     7.3539     6.8776   -70.3792  -999.2500  -999.2500  -999.2500  -999.2500
 1420.5000   -71.7254    71.5486     7.5952     7.4032     6.9177   -70.3792  -999.2500  -999.2500  -999.2500  -999.2500
 1421.0000   -70.9317    70.0605     7.6546     7.4529     6.9581   -70.3792  -999.2500  -999.2500  -999.2500  -999.2500
 1421.5000   -70.7333    68.8700     7.7146     7.5029     6.9987   -60.3992  -999.2500  -999.2500  -999.2500  -999.2500
