~VERSION INFORMATION
 VERS.                2.0:   CWLS LOG ASCII STANDARD - VERSION 2.0
 WRAP.                 NO:   ONE LINE PER DEPTH STEP
~WELL INFORMATION
#MNEM.UNIT      DATA TYPE    INFORMATION
#----------   ------------   ------------------------------
 STRT.F           22.5000:   START DEPTH
 STOP.F         4120.0000:   STOP DEPTH
 STEP.F            0.5000:   STEP LENGTH
 NULL.          -999.2500:   NO VALUE
 COMP. LAWRENCE ALLISON & ASSOCIATES:   COMPANY
 WELL. LAWRENCE-ALLISON SHX #37-10:   WELL
 FLD .              N P R:   FIELD
 LOC .      S10 T38N R78W:   LOCATION
 CNTY.            NATRONA:   COUNTY
 STAT.            WYOMING:   STATE
 CTRY. UNITED STATES OF AMERICA:   COUNTRY
 SRVC.      DRESSER ATLAS:   SERVICE COMPANY
 DATE.        29-JUN-1983:   LOGDATE
 API .     49025107370001:   API NUMBER
~CURVE INFORMATION
#MNEM.UNIT       API CODE    CURVE DESCRIPTION
#----------   ------------   ------------------------------
 DEPT.F                  :   
 TEND.LBS    45 635 01 00:   TENSION FROM DENSITY LOG
 CORR.G/C3   45 356 01 00:   DENSITY CORRECTION
 NPHI.DEC    42 890 03 00:   NEUTRON POROSITY SANDSTONE
 CALD.IN     45 280 60 00:   CALIPER FROM DENSITY LOG
 GRR .GAPI   07 310 01 00:   GAMMA RAY FROM RESISTIVITY
 SPR .MV     07 010 01 00:   SPONTANEOUS POTENTIAL
 TENR.LBS    07 635 01 00:   TENSION FROM RESISTIVITY
 RILD.OHMM   07 120 46 00:   DEEP INDUCTION RESISTIVITY
 RILM.OHMM   07 120 44 00:   INDUCTION LOG MEDIUM RESISTIVITY
 RFOC.OHMM   07 220 04 00:   RESISTIVITY FOCUSED LOG RES.
 RHOB.G/C3   45 350 01 00:   BULK DENSITY
~PARAMETER INFORMATION
#MNEM.UNIT          VALUE    DESCRIPTION
#----------   ------------   ------------------------------
 EKB .F         5228.0000:   Kelly bushing
 EGL .F         5218.0000:   Ground level
 EDF .F            0.0000:   Drilling floor
 EPD .F         5218.0000:   Permanent datum
 TD  .F         4125.0000:   Total depth
 DATE.        29-JUN-1983:   Date logged
 CLNT.            A2DTECH:   Client Code
 SL  . 984' FWL & 1620' FEL:   Surface Location
 PD  .                 GL:   Permanent Datum
 DD  .F              4125:   Depth driller
 DL  .F              4107:   Depth logger
 BLI .F              4105:   Bottom log interval
 CS1 .IN              4.5:   Casing size
 CBD1.       4.5" @ 2213':   Casing driller 1
 CBL1.F              2213:   Casing logger 1
 BS1 .IN             6.25:   Bit size
 DFT .                KCL:   Type fluid in hole
 DFD .                8.8:   Density
 DFV .                 45:   Viscosity
 DFPH.                  9:   pH
 DFL .               10.8:   Fluid loss
 MSS .            MUDTANK:   Source of sample
 RMS .OHMM            .44:   Rm
 MST .F               108:   Rm Meas. temp.
 RMF .OHMM            .37:   Rmf
 MFST.F               108:   Rmf Meas. temp.
 RMC .OHMM            .55:   Rmc
 MCST.F               108:   Rmc Meas. temp.
 MFSS.               MEAS:   Source Rmf.
 RMB .OHMM            .36:   Rm. at BHT
 BHT .F               126:   BHT.
 TCS .HRS               2:   Time Circ. stopped
 MRT .F               126:   Maximum recorded temp.
 LUN .               6343:   Logging unit number
 LUL .                 FM:   Logging unit location
 ENGI.          I. GOVETT:   Recorded By
 WITN.          G. STRONG:   Witnessed by
 ORIG.     2.5", 5" PRINT:   Origin of data
 UWI .     49025107370001:   Unique Well ID
 DICO. A2D TECHNOLOGIES, INC.:   Digitizing Company
 DAPD.                 10:   Feet Above Permanent Datum
 BSD1.               4125:   Depth drilled with bit1
 MCSS.               CALC:   Source Rmc.
 TLI .               2213:   Top log interval
~OTHER INFORMATION
~A   DEPT     TEND       CORR       NPHI       CALD         GRR       SPR       TENR       RILD       RILM       RFOC       RHOB   
# ...
 4079.0000   266.9430     0.1050     0.1470     7.7700    60.9220   -35.1900   282.1880     7.1410     6.7500     7.5790     2.5610
 4079.5000   270.7670     0.1090     0.1480     7.7640    58.7350   -35.3710   284.1610     7.9890     7.2440     7.7870     2.5420
 4080.0000   275.5410     0.1130     0.1480     7.7580    51.7350   -35.5560   286.1350     9.2270     7.7100     7.9950     2.5260
 4080.5000   280.3150     0.1160     0.1440     7.7520    43.2520   -35.7260   288.1090    10.4650     8.5200     8.2230     2.5190
 4081.0000   285.0890     0.1200     0.1320     7.7460    37.2270   -35.2400   290.0830    11.7030     9.2860     8.5400     2.5260
 4081.5000   289.8640     0.1110     0.1190     7.7390    33.2860   -34.7060   292.0560    13.7390    10.0510     8.8380     2.5320
 4082.0000   294.6380     0.0990     0.1060     7.7420    29.9970   -34.3850   294.0300    17.1740    10.9850     8.9340     2.5460
 4082.5000   299.4120     0.0880     0.0940     7.7600    31.5320   -34.4920   296.0040    20.6080    12.1020     8.9340     2.5660
 4083.0000   304.1860     0.0780     0.0820     7.7770    32.9600   -34.5910   297.9780    23.7150    13.8180    13.0690     2.5860
 4083.5000   308.9600     0.0640     0.0830     7.7950    33.7610   -34.6890   299.9510    22.4430    15.8020    17.9900     2.5930
 4084.0000   313.7340     0.0820     0.0850     7.8120    33.4250   -34.7310   301.9800    20.6200    17.7860    13.6700     2.5820
 4084.5000   318.5080     0.1270     0.0990     7.8300    33.1080   -34.6670   304.0170    19.1000    19.3780     9.3110     2.5460
 4085.0000   323.2830     0.1670     0.1170     7.8470    32.7910   -34.6060   306.1130    18.2510    17.9100     7.6350     2.4780
 4085.5000   328.0570     0.2100     0.1360     7.8650    32.4750   -34.5870   308.2090    17.3390    16.4410     6.4070     2.4080
 4086.0000   332.8310     0.2260     0.1450     7.8800    32.3590   -34.7900   310.3040    15.1980    14.9730     5.5850     2.3440
 4086.5000   337.6050     0.1840     0.1460     7.9020    32.5840   -35.0430   312.4000    12.8870    13.1980     6.3700     2.3850
 4087.0000   342.3790     0.1400     0.1380     7.9160    32.8040   -35.5180   314.4960    10.4480    11.1570     7.7420     2.5060
 4087.5000   347.1530     0.1480     0.1340     7.9130    33.0280   -35.9960   316.5910     9.4400     9.1150     9.1130     2.6410
 4088.0000   351.9270     0.1660     0.1340     7.6790    33.2590   -36.4740   318.6870     8.3720     7.0740    10.5450     2.6780
 4088.5000   356.7010     0.1500     0.1430     7.4570    33.4040   -36.9480   320.7820     7.3040     4.9550     7.1560     2.6630
 4089.0000   361.4760     0.1350     0.1610     7.3580    31.6110   -37.3610   322.8780     6.2360     4.7260     4.7870     2.6440
 4089.5000   366.2500     0.1180     0.1810     7.3370    29.7740   -37.4630   324.9740     5.1410     4.4880     4.4530     2.6180
 4090.0000   371.0240     0.1160     0.1980     7.3090    28.4760   -37.8100   327.0690     4.8360     4.2500     4.0460     2.5960
 4090.5000   375.7980     0.1160     0.1970     7.2810    29.5280   -38.5020   329.1650     4.5190     4.0090     4.1970     2.5930
 4091.0000   380.5720     0.1160     0.1940     7.2550    30.5180   -38.9090   331.2610     4.6050     4.0430     4.3900     2.5900
 4091.5000   385.3460     0.1190     0.1930     7.2270    31.0820   -38.9410   333.3560     4.6910     4.0860     4.5830     2.5870
 4092.0000   390.1200     0.1240     0.1930     7.1990    31.5450   -37.9430   335.4520     4.7780     4.1290     4.7760     2.5830
 4092.5000   394.8950     0.1260     0.1890     7.1790    32.0060   -36.8020   337.5470     4.8640     4.1980     4.8270     2.5810
 4093.0000   399.6690     0.1060     0.1860     7.1690    31.8370   -36.1050   339.6430     4.7350     4.1500     4.8920     2.5770
 4093.5000   404.4430     0.0890     0.1860     7.1590    30.8400   -36.0110   341.7390     4.6070     4.0830     4.9550     2.5740
 4094.0000   409.4330     0.0680     0.1910     7.1470    29.8460   -35.8760   343.8340     4.4790     3.8000     4.9550     2.5660
 4094.5000   414.8280     0.0630     0.1960     7.1460    28.8560   -35.5850   345.9300     4.3550     3.5220     4.8170     2.5570
 4095.0000   420.2220     0.0760     0.2010     7.1460    28.9980   -34.1910   348.0260     4.0740     3.3110     4.2220     2.5480
 4095.5000   425.6170     0.0920     0.2060     7.1460    29.3270   -32.6200   350.1210     3.8020     3.1870     3.8610     2.5520
 4096.0000   431.0110     0.1070     0.2020     7.1460    29.6570   -31.0470   352.2170     3.5300     3.0690     3.6310     2.5580
 4096.5000   436.4060     0.0940     0.1980     7.1460  -999.2500   -30.1580   354.3130     3.2740     3.0160     3.4600     2.5670
 4097.0000   441.8000     0.0770     0.1930     7.1460  -999.2500   -30.0570   356.4080     3.2610     2.9590     3.6400     2.5800
 4097.5000   447.1950     0.0610     0.1890     7.1460  -999.2500   -29.9530   358.5040     3.2490     2.9680     3.7830     2.5910
 4098.0000   452.5890     0.0500     0.1880     7.1460  -999.2500   -29.8540   360.5990     3.2370     2.9790     3.9720     2.6040
 4098.5000   457.9840     0.0720     0.1860     7.1460  -999.2500   -29.9030   362.6950     3.2250     2.9890     3.9150     2.6070
 4099.0000   463.3790     0.0970     0.1900     7.1460  -999.2500   -30.1080   364.7910     3.2140     3.0000     3.8320     2.6060
 4099.5000   468.7730     0.1210     0.1950     7.1460  -999.2500   -30.3120   366.8860     3.2250     3.0110     3.7480     2.6020
 4100.0000   474.1680     0.1190     0.2010     7.1450  -999.2500   -30.5170   368.9820     3.2370     3.0220     3.6560     2.6020
 4100.5000   479.5620     0.0980     0.2030     7.1450  -999.2500   -30.7230   371.2870     3.2500     3.0330     3.7970     2.6270
 4101.0000   484.9570     0.0770     0.2070     7.1470  -999.2500   -30.9350   377.2280     3.2620     3.0440     3.9530     2.6490
 4101.5000   490.3510     0.0760     0.2100     7.1320  -999.2500   -30.9890   383.8280     3.2740     3.0550     4.1100     2.6730
 4102.0000   495.7460     0.0990     0.2120     7.0990  -999.2500   -30.9910   390.4290     3.2870     3.0660     4.4590     2.6860
 4102.5000   501.1410     0.1100     0.2070     7.0640  -999.2500   -30.9900   397.0300     3.2990     3.0770     4.8640     2.6770
 4103.0000   506.9580     0.1130     0.2030     7.0260  -999.2500   -30.9900   403.6300     3.3110     3.0870     4.8300     2.6670
 4103.5000   447.9440     0.1190     0.1990     6.8810  -999.2500   -30.9900   410.2310     3.3240     3.0980     4.7990     2.6630
 4104.0000   383.9070     0.1480     0.1950     6.7110  -999.2500  -999.2500   416.8320     3.3360     3.0820     4.7760     2.6650
 4104.5000   319.8700     0.1730     0.1940     6.5610  -999.2500  -999.2500   423.4320     3.3490     3.0670     5.3630     2.6590
 4105.0000   255.8330     0.2030     0.1970     6.5460  -999.2500  -999.2500   430.6930     3.3610     3.0520     5.8290     2.6530
 4105.5000   191.7970     0.2000     0.1960     6.5330  -999.2500  -999.2500   360.1490  -999.2500     3.0370     6.1810     2.6460
 4106.0000   127.7600     0.1950     0.1950     6.5250  -999.2500  -999.2500   281.7660  -999.2500     3.0220     6.1150  -999.2500
 4106.5000    63.7230  -999.2500     0.1990     6.5140  -999.2500  -999.2500   203.3830  -999.2500  -999.2500     6.0630  -999.2500
 4107.0000    29.4750  -999.2500     0.2050     6.5050  -999.2500  -999.2500   125.0000  -999.2500  -999.2500     6.0120  -999.2500
 4107.5000    28.7410  -999.2500     0.2100     6.4950  -999.2500  -999.2500    54.4550  -999.2500  -999.2500  -999.2500  -999.2500
 4108.0000    28.0060  -999.2500     0.2140     6.4850  -999.2500  -999.2500    49.9170  -999.2500  -999.2500  -999.2500  -999.2500
 4108.5000    27.2710  -999.2500  -999.2500     6.4770  -999.2500  -999.2500    45.7920  -999.2500  -999.2500  -999.2500  -999.2500
 4109.0000    26.5360  -999.2500  -999.2500  -999.2500  -999.2500  -999.2500    41.6670  -999.2500  -999.2500  -999.2500  -999.2500
