~VERSION INFORMATION
 VERS.                2.0:   CWLS LOG ASCII STANDARD - VERSION 2.0
 WRAP.                 NO:   ONE LINE PER DEPTH STEP
~WELL INFORMATION
#MNEM.UNIT      DATA TYPE    INFORMATION
#----------   ------------   ------------------------------
 STRT.F          742.0000:   START DEPTH
 STOP.F         3406.0000:   STOP DEPTH
 STEP.F            0.5000:   STEP LENGTH
 NULL.          -999.2500:   NO VALUE
 COMP. FENIX & SCISSON - US NAVY:   COMPANY
 WELL.   FENIX "AX" #85-4:   WELL
 FLD .      NPR - WILDCAT:   FIELD
 LOC .       S4 T38N R78W:   LOCATION
 CNTY.            NATRONA:   COUNTY
 STAT.            WYOMING:   STATE
 CTRY. UNITED STATES OF AMERICA:   COUNTRY
 SRVC.              WELEX:   SERVICE COMPANY
 DATE.        03-MAY-1977:   LOGDATE
 API .     49025103520000:   API NUMBER
~CURVE INFORMATION
#MNEM.UNIT       API CODE    CURVE DESCRIPTION
#----------   ------------   ------------------------------
 DEPT.F                  :   
 SNP .DEC    41 890 00 00:   SIDEWALL NEUTRON POROSITY
 GR  .GAPI   30 310 01 00:   GAMMA RAY
 SPR .MV     07 010 01 00:   SPONTANEOUS POTENTIAL
 RXO .OHMM   11 220 01 00:   FLUSHED ZONE RESISTIVITY
 GURD.OHMM   07 220 05 00:   GUARD LOG RESISTIVITY
 CALD.IN     45 280 60 00:   CALIPER FROM DENSITY LOG
 RHOB.G/C3   45 350 01 00:   BULK DENSITY
 GRD .GAPI   45 310 01 00:   GAMMA RAY FROM DENSITY LOG
 CORR.G/C3   45 356 01 00:   DENSITY CORRECTION
~PARAMETER INFORMATION
#MNEM.UNIT          VALUE    DESCRIPTION
#----------   ------------   ------------------------------
 EKB .F         5254.0000:   Kelly bushing
 EGL .F         5240.0000:   Ground level
 EDF .F            0.0000:   Drilling floor
 TD  .F         3467.0000:   Total depth
 DATE.        03-MAY-1977:   Date logged
 CLNT.            A2DTECH:   Client Code
 SL  . 2200' FSL & 100' FEL:   Surface Location
 PD  .                 GL:   Permanent Datum
 EPD .F              5240:   Elevation Permanent Datum
 LMF .                 KB:   Log Measured From
 DMF .                 KB:   Drilling Measured From
 DAPD.F                14:   Feet Above Permanent Datum
 DD  .F              3647:   Depth driller
 DL  .F              3404:   Depth logger
 BLI .F              3402:   Bottom log interval
 TLI .F               720:   Top log interval
 CS1 .IN            8.625:   Casing size
 CBD1.      8.625" @ 720':   Casing driller 1
 CBL1.F               760:   Casing logger 1
 BS1 .IN            7.875:   Bit size
 BSD1.F              3467:   Depth drilled with bit1
 DFT .            KCL/MUD:   Type fluid in hole
 DFD .                9.1:   Density
 DFV .                 36:   Viscosity
 DFPH.                  8:   pH
 DFL .                  5:   Fluid loss
 MSS .           FLOWLINE:   Source of sample
 RMS .OHMM            .30:   Rm
 MST .F                66:   Rm Meas. temp.
 RMF .OHMM            .21:   Rmf
 MFST.F                66:   Rmf Meas. temp.
 RMC .OHMM            .49:   Rmc
 MCST.F                66:   Rmc Meas. temp.
 MFSS.               FANN:   Source Rmf.
 MCSS.                KIT:   Source Rmc.
 RMB .OHMM            .18:   Rm. at BHT
 BHT .F               107:   BHT.
 TCS .HRS             2.5:   Time Circ. stopped
 MRT .F               107:   Maximum recorded temp.
 LUN .               8611:   Logging unit number
 LUL .             CASPER:   Logging unit location
 ENGI.            C. DOAK:   Recorded By
 WITN.      B. HARRINGTON:   Witnessed by
 ORIG.     2.5", 5" PRINT:   Origin of data
 UWI .     49025103520000:   Unique Well ID
 DICO. A2D TECHNOLOGIES, INC.:   Digitizing Company
~OTHER INFORMATION
~A   DEPT        SNP       GR        SPR        RXO       GURD         CALD       RHOB       GRD       CORR  
# ...
 1983.0000     0.1890   125.2360   -35.7080     7.1670     6.0750     8.7210     2.5030   107.3970     0.0010
 1983.5000     0.1810   121.5600   -35.7830     6.9760     5.9210     8.7160     2.5080   105.9990     0.0060
 1984.0000     0.1720   119.8600   -35.7780     6.8480     6.0300     8.7120     2.5140   104.6400     0.0100
 1984.5000     0.1670   117.1630   -35.7990     6.8480     6.1410     8.7070     2.5190   103.2830     0.0140
 1985.0000     0.1700   116.6160   -35.8200     6.8480     6.1410     8.7030     2.5250   101.7450     0.0170
 1985.5000     0.1700   117.3890   -35.8340     6.8480     6.0710     8.6980     2.5300   101.4070     0.0170
 1986.0000     0.1650   123.8540   -35.8530     6.8480     5.9350     8.6930     2.5280   103.0020     0.0160
 1986.5000     0.1670   127.8420   -35.8700     6.7700     5.8150     8.6890     2.5210   104.4060     0.0150
 1987.0000     0.1730   131.9130   -35.8870     6.6030     6.1620     8.6840     2.5140   105.8740     0.0150
 1987.5000     0.1710   129.5430   -35.9040     6.0830     6.6030     8.6800     2.5050   107.3310     0.0140
 1988.0000     0.1760   127.6340   -35.9220     4.9380     5.6070     8.6750     2.5090   108.7660     0.0130
 1988.5000     0.1820   127.7830   -35.9390     5.9160     6.3240     8.6710     2.5190   109.5900     0.0120
 1989.0000     0.1890   129.2060   -35.9560     6.4850     7.2310     8.6660     2.5140   109.5640     0.0080
 1989.5000     0.1980   130.6490   -35.9740     6.4850     7.3640     8.6620     2.5080   108.4870     0.0040
 1990.0000     0.1950   132.1690   -35.9910     6.3480     7.3330     8.6580     2.5020   107.4330     0.0000
 1990.5000     0.1900   134.1000   -36.0090     5.8630     7.2240     8.6510     2.4960   106.3530    -0.0040
 1991.0000     0.1840   135.4960   -36.0260     5.3780     7.1010     8.6390     2.4900   105.2690    -0.0070
 1991.5000     0.1860   134.8890   -36.0430     5.1210     7.2310     8.6280     2.4880   104.2080    -0.0040
 1992.0000     0.1820   136.7540   -36.0610     7.5410     6.5150     8.6170     2.4980   103.1590    -0.0010
 1992.5000     0.1750   138.1300   -36.0780     9.6700     6.2530     8.6050     2.5100   101.9170     0.0020
 1993.0000     0.1670   137.5350   -36.0960     8.3310     6.3680     8.5940     2.5220   102.1660     0.0040
 1993.5000     0.1690   136.4710   -36.1120     8.7930     7.7760     8.5830     2.5250   104.7020     0.0070
 1994.0000     0.1730   138.5700   -36.1310     9.3250     7.1410     8.5720     2.5240   106.9840     0.0100
 1994.5000     0.1790   142.6990   -36.1330     6.9730     5.8150     8.5600     2.5280   109.3740     0.0130
 1995.0000     0.1760   146.6860   -36.1330     7.0070     6.0300     8.5490     2.5320   110.1590     0.0160
 1995.5000     0.1700   149.7540   -36.1330     7.0870     6.2530     8.5410     2.5360   110.2820     0.0170
 1996.0000     0.1730   151.2200   -36.1340     7.0650     5.9200     8.5610     2.5400   110.5480     0.0170
 1996.5000     0.1790   150.5950   -36.1880     6.9080     5.6070     8.5780     2.5420   110.9250     0.0170
 1997.0000     0.1830   146.8990   -36.2550     6.7240     5.6320     8.5700     2.5430   112.4200     0.0170
 1997.5000     0.1880   143.0760   -36.3220     6.7870     5.7430     8.5370     2.5440   113.8530     0.0170
 1998.0000     0.1920   142.0120   -36.3880     6.9350     5.8540     8.5050     2.5420   114.3770     0.0170
 1998.5000     0.1890   138.0900   -36.4550     7.0840     5.9640     8.4720     2.5410   113.2770     0.0170
 1999.0000     0.1860   131.6590   -36.5210     7.2320     6.0750     8.4600     2.5390   111.9710     0.0170
 1999.5000     0.1900   133.5550   -36.5880     7.3800     6.2530     8.4610     2.5380   110.6720     0.0170
 2000.0000     0.1920   138.1470   -36.6540     7.5680     6.3680     8.4610     2.5360   109.6860     0.0170
 2000.5000     0.1860   136.2880   -36.7210     7.3770     6.1520     8.4610     2.5320   110.3050     0.0160
 2001.0000     0.1840   134.3220   -36.7880     7.0530     5.8810     8.4610     2.5280   111.1250     0.0200
 2001.5000     0.1860   134.2490   -36.8540     6.6030     5.5060     8.4610     2.5230   111.9760     0.0170
 2002.0000     0.1870   132.3700   -36.9210     6.7240     5.6980     8.4610     2.5180   112.7390     0.0140
 2002.5000     0.1810   129.8930   -36.9870     6.8400     6.0100     8.4610     2.5140   113.7120     0.0110
 2003.0000     0.1770   129.4180   -37.0540     6.9810     6.2530     8.4610     2.5090   113.3520     0.0080
 2003.5000     0.1800   130.5630   -37.1210     7.1230     6.1750     8.4610     2.5020   112.9050     0.0050
 2004.0000     0.1840   132.2700   -37.1870     7.3640     6.0300     8.4610     2.4960   112.6800     0.0020
 2004.5000     0.1840   132.4350   -37.2560     7.0840     6.5320     8.4610     2.4890   112.4790    -0.0010
 2005.0000     0.1850   131.7920   -37.3070     6.4400     7.2310     8.4610     2.4820   112.2210    -0.0040
 2005.5000     0.1890   131.5170   -37.3890     5.7950     7.2310     8.4610     2.4770   112.0080    -0.0070
 2006.0000     0.1950   132.1800   -37.4930     5.3470     5.7100     8.4610     2.4840   111.7850    -0.0020
 2006.5000     0.2000   132.8130   -37.5950     5.5710     6.7240     8.4610     2.4970   111.1740     0.0030
 2007.0000     0.1980   134.4410   -37.6970     5.5060     6.6410     8.4610     2.5080   109.7800     0.0090
 2007.5000     0.1950   136.1840   -37.7990     5.3520     6.5130     8.4610     2.5210   108.3190     0.0140
 2008.0000     0.2030   138.8890   -37.9010     5.2140     6.3680     8.4610     2.5210   106.9780     0.0190
 2008.5000     0.2120   139.3520   -38.0030     4.5010     5.4900     8.4610     2.5170   105.4970     0.0210
 2009.0000     0.2180   137.5740   -38.1050     3.8990     3.8380     8.4610     2.5160   106.9060     0.0200
 2009.5000     0.2140   134.7470   -38.2080     3.9710     2.8080     8.4610     2.5160   108.7220     0.0190
 2010.0000     0.2090   134.0110   -38.3100     5.3280     5.4070     8.4610     2.5170   110.6550     0.0190
 2010.5000     0.2030   137.3980   -38.4120     6.4850     5.5060     8.4610     2.5210   111.8420     0.0180
 2011.0000     0.2080   140.2760   -38.5140     6.4850     5.1210     8.4610     2.5240   111.3110     0.0170
 2011.5000     0.2130   135.8780   -38.6160     6.3980     5.1210     8.4610     2.5210   110.8370     0.0160
 2012.0000     0.2200   134.1360   -38.7180     6.3680     4.2390     8.4610     2.5100   110.1800     0.0150
 2012.5000     0.2140   137.1810   -38.8200     3.2510     3.5610     8.4610     2.5060   110.6260     0.0140
 2013.0000     0.2070   140.1640   -38.9220     4.5720     5.8880     8.4610     2.5040   111.8400     0.0130
 2013.5000     0.2000   141.3290   -39.0260     6.2530     7.7760     8.4610     2.5050   112.9310     0.0130
 2014.0000     0.1930   140.1000   -39.1240     6.5810     7.1460     8.4610     2.5120   114.0350     0.0160
 2014.5000     0.1840   138.8400   -39.2290     6.8480     5.5670     8.4610     2.5180   115.1510     0.0190
 2015.0000     0.1860   138.8630   -39.1560     6.6150     4.9910     8.4610     2.5250   116.2550     0.0210
 2015.5000     0.1890   142.3080   -39.0020     6.2910     4.8110     8.4610     2.5290   117.3710     0.0240
 2016.0000     0.1840   145.1590   -38.8540     5.8150     4.9610     8.4610     2.5310   118.4590     0.0270
 2016.5000     0.1950   145.3710   -38.7060     6.2600     5.2370     8.4610     2.5330   119.5990     0.0290
 2017.0000     0.1890   147.0580   -38.5570     6.4850     5.3100     8.4600     2.5310   119.6230     0.0280
 2017.5000     0.1840   149.0320   -38.4090     6.4850     5.3100     8.4640     2.5260   118.7310     0.0270
 2018.0000     0.1820   152.1430   -38.2600     6.4850     5.3100     8.4710     2.5230   117.8890     0.0260
 2018.5000     0.1780   154.0530   -38.1110     6.6310     5.3100     8.4780     2.5200   117.0400     0.0250
 2019.0000     0.1750   154.2430   -37.9620     6.8980     5.5240     8.4850     2.5170   116.1730     0.0230
