~VERSION INFORMATION
 VERS.                2.0:   CWLS LOG ASCII STANDARD - VERSION 2.0
 WRAP.                 NO:   ONE LINE PER DEPTH STEP
~WELL INFORMATION
#MNEM.UNIT      DATA TYPE    INFORMATION
#----------   ------------   ------------------------------
 STRT.F            8.0000:   START DEPTH
 STOP.F         3021.0000:   STOP DEPTH
 STEP.F            0.5000:   STEP LENGTH
 NULL.          -999.2500:   NO VALUE
 COMP. LAWRENCE ALLISON & ASSOCIATES W:   COMPANY
 WELL. LAWRENCE ALLISON #68-28:   WELL
 FLD .              NPR 3:   FIELD
 LOC .      S28 T39N R78W:   LOCATION
 CNTY.            NATRONA:   COUNTY
 STAT.            WYOMING:   STATE
 CTRY. UNITED STATES OF AMERICA:   COUNTRY
 SRVC.      DRESSER ATLAS:   SERVICE COMPANY
 DATE.        19-DEC-1986:   LOGDATE
 API .     49025111580000:   API NUMBER
~CURVE INFORMATION
#MNEM.UNIT       API CODE    CURVE DESCRIPTION
#----------   ------------   ------------------------------
 DEPT.F                  :   
 SPR .MV     07 010 01 00:   SPONTANEOUS POTENTIAL
 TENR.LBS    07 635 01 00:   TENSION FROM RESISTIVITY
 RILD.OHMM   07 120 46 00:   DEEP INDUCTION RESISTIVITY
 RILM.OHMM   07 120 44 00:   INDUCTION LOG MEDIUM RESISTIVITY
 RFOC.OHMM   07 220 04 00:   RESISTIVITY FOCUSED LOG RES.
 CALD.IN     45 280 60 00:   CALIPER FROM DENSITY LOG
 CORR.G/C3   45 356 01 00:   DENSITY CORRECTION
 RHOB.G/C3   45 350 01 00:   BULK DENSITY
 CNC .DEC    42 890 03 00:   NEUTRON POROSITY SANDSTONE
 GRR .GAPI   07 310 01 00:   GAMMA RAY FROM RESISTIVITY
~PARAMETER INFORMATION
#MNEM.UNIT          VALUE    DESCRIPTION
#----------   ------------   ------------------------------
 EKB .F         5106.0000:   Kelly bushing
 EGL .F         5094.0000:   Ground level
 EDF .F            0.0000:   Drilling floor
 EPD .F         5094.0000:   Permanent datum
 TD  .F         3010.0000:   Total depth
 CLNT.            A2DTECH:   Client Code
 SL  . 1559'EL & 533' FSL:   Surface Location
 DATE.        19-DEC-1986:   Date Logged [DD-MMM-YYYY]
 DD  .F              3003:   Depth driller
 DL  .F              3010:   Depth logger
 BLI .F              3007:   Bottom log interval
 TLI .F                 0:   Top log interval
 CS1 .              8.625:   Casing size
 CBD1.      8.625" @ 389':   Casing driller 1
 CBL1.IN              405:   Casing logger 1
 BS1 .IN            7.875:   Bit size
 BSD1.F              3003:   Depth drilled with bit1
 DFT .        KCL POLYMER:   Type fluid in hole
 DFD .                9.0:   Density
 DFV .                 42:   Viscosity
 DFPH.                9.3:   pH
 DFL .                8.8:   Fluid loss
 MSS .           FLOWLINE:   Source of sample
 RMS .OHMM          0.484:   Rm
 MST .F                68:   Rm Meas. temp.
 RMF .OHMM          0.392:   Rmf
 MFST.F                68:   Rmf Meas. temp.
 MFSS.               MEAS:   Source Rmf.
 RMC .OHMM          0.605:   Rmc
 MCST.F                68:   Rmc Meas. temp.
 MCSS.               CALC:   Source Rmc.
 RMB .OHMM          0.269:   Rm. at BHT
 BHT .F               122:   BHT.
 TCS .HRS             3.5:   Time Circ. stopped
 MRT .F               122:   Maximum recorded temp.
 LUN .            HL-6274:   Logging unit number
 LUL .           GILLETTE:   Logging unit location
 ENGI.             RAUTIO:   Recorded By
 WITN.             STRONG:   Witnessed by
 ORIG.        2" 5" PRINT:   Origin of data
 UWI .     49025111580000:   Unique Well ID
 DICO. A2D TECHNOLOGIES, INC.:   Digitizing Company
~OTHER INFORMATION
~A    DEPT     SPR       TENR       RILD       RILM       RFOC       CALD       CORR       RHOB        CNC        GRR   
# ...
 2956.0000   -27.2823   148.4375     3.2276     3.2646     3.9475     8.0636     0.0301     2.4669     0.2400   115.6320
 2956.5000   -27.2807   156.2500     3.1619     3.2371     3.9203     8.0627     0.0175     2.4637     0.2545   115.3633
 2957.0000   -27.2792   156.2500     3.0976     3.2097     3.8661     8.0618     0.0205     2.4644     0.2591   118.1191
 2957.5000   -27.1217   156.2500     3.0345     3.1822     3.8128     8.0609     0.0235     2.4643     0.2545  -999.2500
 2958.0000   -26.9641   156.2500     2.9935     3.1548     3.7340     8.0597     0.0140     2.4635     0.2473  -999.2500
 2958.5000   -26.9407   164.0625     2.9737     3.1273     3.6569     8.0588     0.0014     2.4634     0.2432  -999.2500
 2959.0000   -26.8047   171.8750     2.9747     3.0999     3.6317     8.0579    -0.0019     2.4626     0.2417  -999.2500
 2959.5000   -26.8032   179.6875     2.9760     3.0724     3.7360     8.0570     0.0044     2.4602     0.2557  -999.2500
 2960.0000   -26.6456   187.5000     2.9355     3.0450     3.9021     8.0561     0.0119     2.4585     0.2635  -999.2500
 2960.5000   -26.6441   195.3125     2.9161     3.0175     3.9500     8.0552    -0.0023     2.4561     0.2678  -999.2500
 2961.0000   -26.4866   203.1250     2.8370     2.9901     3.8683     8.0542    -0.0024     2.4537     0.2656  -999.2500
 2961.5000   -26.4851   203.1250     2.7599     2.9626     3.7359     8.0689     0.0225     2.4490     0.2557  -999.2500
 2962.0000   -26.4835   203.1250     2.7037     2.9352     3.5828     8.0680     0.0333     2.4458     0.2532  -999.2500
 2962.5000   -26.4820   195.3125     2.6301     2.9077     3.4361     8.0840     0.0285     2.4433     0.2625  -999.2500
 2963.0000   -26.4805   195.3125     2.5765     2.8803     3.3184     8.0974     0.0206     2.4410     0.2815  -999.2500
 2963.5000   -26.4789   195.3125     2.5417     2.8528     3.2272     8.0962     0.0142     2.4401     0.2856  -999.2500
 2964.0000   -26.6334   203.1250     2.5249     2.8254     3.1385     8.0953     0.0063     2.4401     0.2834  -999.2500
 2964.5000   -26.6318   203.1250     2.5082     2.7979     3.1387     8.0944     0.0030     2.4463     0.2775  -999.2500
 2965.0000   -26.6300   203.1250     2.4916     2.7705     3.2287     8.0935     0.0061     2.4501     0.2712  -999.2500
 2965.5000   -26.7848   203.1250     2.4751     2.7430     3.2993     8.0926     0.0155     2.4532     0.2684  -999.2500
 2966.0000   -26.7829   210.9375     2.4762     2.7156     3.3665     8.0917     0.0214     2.4539     0.2669  -999.2500
 2966.5000   -26.9378   218.7500     2.4770     2.6872     3.2969     8.0908     0.0197     2.4530     0.2669  -999.2500
 2967.0000   -26.9359   226.5625     2.4779     2.6874     3.1619     8.0898     0.0195     2.4491     0.2683  -999.2500
 2967.5000   -26.9344   234.3750     2.4787     2.6876     3.0749     8.0889     0.0210     2.4443     0.2765  -999.2500
 2968.0000   -26.9328   250.0000     2.4796     2.6878     3.0325     8.0724     0.0193     2.4419     0.2737  -999.2500
 2968.5000   -26.9313   250.0000     2.4632     2.7068     3.0540     8.0713     0.0020     2.4379     0.2578  -999.2500
 2969.0000   -26.9298   257.8125     2.4640     2.7070     3.1189     8.0704    -0.0044     2.4363     0.2535  -999.2500
 2969.5000   -27.0843   257.8125     2.4477     2.6883     3.2074     8.0694    -0.0045     2.4371     0.2647  -999.2500
 2970.0000   -27.2387   257.8125     2.4315     2.6513     3.2755     8.0685    -0.0046     2.4347     0.3049  -999.2500
 2970.5000   -27.2368   257.8125     2.4140     2.6147     3.2304     8.0676     0.0015     2.4307     0.3138  -999.2500
 2971.0000   -27.2353   257.8125     2.3635     2.5429     3.1197     8.0825     0.0032     2.4244     0.2753  -999.2500
 2971.5000   -27.0778   257.8125     2.3020     2.4731     3.0553     8.0814     0.0106     2.4181     0.2556  -999.2500
 2972.0000   -27.0762   265.6250     2.2709     2.4220     2.9921     8.0805     0.0136     2.4125     0.2707  -999.2500
 2972.5000   -26.9187   273.4375     2.2244     2.3720     2.9303     8.0640     0.0057     2.4078     0.2977  -999.2500
 2973.0000   -26.9172   273.4375     2.1793     2.3557     2.8898     8.0631    -0.0132     2.4015     0.2979  -999.2500
 2973.5000   -27.0720   281.2500     2.1648     2.3559     2.8700     8.0619    -0.0055     2.3991     0.2980  -999.2500
 2974.0000   -27.0701   281.2500     2.1356     2.3891     2.8702     8.0610     0.0007     2.4146     0.2982  -999.2500
 2974.5000   -27.0686   296.8750     2.1203     2.4061     2.8720     8.0601    -0.0151     2.4193     0.2984  -999.2500
 2975.0000   -27.2231   304.6875     2.1074     2.4062     2.9109     8.0592    -0.0418     2.4184     0.2985  -999.2500
 2975.5000   -27.3776   312.5000     2.0789     2.3402     2.9316     8.0583    -0.0497     2.4183     0.2987  -999.2500
 2976.0000   -27.3759   328.1250     2.0508     2.2601     2.9523     8.0417    -0.0310     2.4206     0.2988  -999.2500
 2976.5000   -27.3741   328.1250     2.0373     2.1980     2.9525     8.0252    -0.0122     2.4268     0.2990  -999.2500
 2977.0000   -27.3726   335.9375     2.0097     2.1377     2.9321     8.0243     0.0092     2.4330     0.2992  -999.2500
 2977.5000   -27.3711   335.9375     1.9827     2.1082     2.8716     8.0234     0.0310     2.4353     0.2993  -999.2500
 2978.0000   -27.3696   335.9375     1.9559     2.0937     2.7539     8.0069     0.0449     2.4298     0.2995  -999.2500
 2978.5000   -27.2120   343.7500     1.9566     2.1085     2.6228     7.9747     0.0526     2.4211  -999.2500  -999.2500
 2979.0000   -27.2105   351.5625     1.9572     2.1691     2.5507     7.9424     0.0306     2.4195  -999.2500  -999.2500
 2979.5000   -27.2090   367.1875     1.9854     2.2472     2.5331     7.9415     0.0149     2.4272  -999.2500  -999.2500
 2980.0000   -27.2074   367.1875     2.0140     2.3092     2.6614     7.9406     0.0023     2.4342  -999.2500  -999.2500
 2980.5000   -27.2059   367.1875     2.0597     2.3582     2.8163     7.9085     0.0349     2.4413  -999.2500  -999.2500
 2981.0000   -27.2044   367.1875     2.1661     2.3915     2.9338     7.9076     0.0410     2.4468  -999.2500  -999.2500
 2981.5000   -27.3589   367.1875     2.2861     2.4253     2.9753     7.9067     0.0487     2.4543  -999.2500  -999.2500
 2982.0000   -27.2009   375.0000     2.4181     2.4595     2.9963     7.9057     0.0614     2.4597  -999.2500  -999.2500
 2982.5000   -27.0434   375.0000     2.5938     2.6745     3.0175  -999.2500     0.0687  -999.2500  -999.2500  -999.2500
 2983.0000   -26.8859   375.0000     2.7436     2.9287     3.0816  -999.2500     0.0499  -999.2500  -999.2500  -999.2500
 2983.5000   -26.8844   382.8125     2.9429     3.2294     3.2817  -999.2500     0.0466  -999.2500  -999.2500  -999.2500
 2984.0000   -26.7268   390.6250     3.0697     3.5117     3.6699  -999.2500     0.0543  -999.2500  -999.2500  -999.2500
 2984.5000   -26.7253   398.4375     3.1577     3.7396     4.1040  -999.2500     0.0714  -999.2500  -999.2500  -999.2500
 2985.0000   -26.7238   406.2500     3.2256     3.8457     4.4320  -999.2500     0.0869  -999.2500  -999.2500  -999.2500
 2985.5000   -26.5662   414.0625     3.1161     3.8459     4.7565  -999.2500     0.0915  -999.2500  -999.2500  -999.2500
 2986.0000   -26.4087   422.7048     2.8270     3.5870     5.0262  -999.2500     0.0945  -999.2500  -999.2500  -999.2500
 2986.5000   -26.0952   437.5000     2.5783     2.9921     4.3108  -999.2500     0.0740  -999.2500  -999.2500  -999.2500
 2987.0000   -25.6131   437.5000     2.3929     2.6347     2.8754  -999.2500     0.0536  -999.2500  -999.2500  -999.2500
 2987.5000   -25.1560   445.3125     2.2796     2.4190     2.2679  -999.2500     0.0488  -999.2500  -999.2500  -999.2500
 2988.0000   -24.9982   453.1250     2.2020     2.3938     2.4491  -999.2500     0.0405  -999.2500  -999.2500  -999.2500
 2988.5000   -24.8410   468.7500     2.4632     2.6768     3.2385  -999.2500    -0.0655  -999.2500  -999.2500  -999.2500
 2989.0000   -25.1515   476.5625     2.6606     3.0994     3.8296  -999.2500    -0.1405  -999.2500  -999.2500  -999.2500
