~VERSION INFORMATION
 VERS.                2.0:   CWLS LOG ASCII STANDARD - VERSION 2.0
 WRAP.                 NO:   ONE LINE PER DEPTH STEP
~WELL INFORMATION
#MNEM.UNIT      DATA TYPE    INFORMATION
#----------   ------------   ------------------------------
 STRT.F          387.0000:   START DEPTH
 STOP.F         2921.0000:   STOP DEPTH
 STEP.F            0.5000:   STEP LENGTH
 NULL.          -999.2500:   NO VALUE
 COMP.    FENIX & SCISSON:   COMPANY
 WELL.  FENIX  "A" #21-28:   WELL
 FLD .          N.P.R. #3:   FIELD
 LOC .      S28 T39N R78W:   LOCATION
 CNTY.            NATRONA:   COUNTY
 STAT.            WYOMING:   STATE
 CTRY. UNITED STATES OF AMERICA:   COUNTRY
 SRVC.       SCHLUMBERGER:   SERVICE COMPANY
 DATE.        30-APR-1977:   LOGDATE
 API .     49025103550000:   API NUMBER
~CURVE INFORMATION
#MNEM.UNIT       API CODE    CURVE DESCRIPTION
#----------   ------------   ------------------------------
 DEPT.F                  :   
 SPR .MV     07 010 01 00:   SPONTANEOUS POTENTIAL
 ILD .OHMM   07 120 46 00:   DEEP INDUCTION RESISTIVITY
 ILM .OHMM   07 120 44 00:   INDUCTION LOG MEDIUM RESISTIVITY
 LL8 .OHMM   07 220 08 00:   LATEROLOG-8 RES.
 GRD .GAPI   45 310 01 00:   GAMMA RAY FROM DENSITY LOG
 CALD.IN     45 280 60 00:   CALIPER FROM DENSITY LOG
 CORR.G/C3   45 356 01 00:   DENSITY CORRECTION
 RHOB.G/C3   45 350 01 00:   BULK DENSITY
~PARAMETER INFORMATION
#MNEM.UNIT          VALUE    DESCRIPTION
#----------   ------------   ------------------------------
 EKB .F         4977.0000:   Kelly bushing
 EGL .F         4967.0000:   Ground level
 EDF .F            0.0000:   Drilling floor
 TD  .F         2922.0000:   Total depth
 CLNT.            A2DTECH:   Client Code
 SL  . 330' FNL & 990' FWL:   Surface Location
 DATE.        30-APR-1977:   Date Logged [DD-MMM-YYYY]
 DD  .F              2915:   Depth driller
 DL  .F              2922:   Depth logger
 BLI .F              2916:   Bottom log interval
 TLI .F               394:   Top log interval
 CS1 .              8.625:   Casing size
 CBD1.      8.625" @ 390':   Casing driller 1
 CBL1.IN              394:   Casing logger 1
 BS1 .IN            7.875:   Bit size
 BSD1.F              2915:   Depth drilled with bit1
 DFT .            KCL MUD:   Type fluid in hole
 DFD .                8.9:   Density
 DFV .                 87:   Viscosity
 DFPH.                8.5:   pH
 DFL .                9.6:   Fluid loss
 MSS .                PIT:   Source of sample
 RMS .OHMM           0.25:   Rm
 MST .F                70:   Rm Meas. temp.
 RMF .OHMM           0.22:   Rmf
 MFST.F                70:   Rmf Meas. temp.
 MFSS.               MEAS:   Source Rmf.
 RMC .OHMM           0.38:   Rmc
 MCST.F                70:   Rmc Meas. temp.
 MCSS.               CALC:   Source Rmc.
 RMB .OHMM           0.09:   Rm. at BHT
 BHT .F               109:   BHT.
 TCS .HRS            1800:   Time Circ. stopped
 TLAB.HRS            2200:   Time logger at bottom
 MRT .F               109:   Maximum recorded temp.
 LUN .                711:   Logging unit number
 LUL .             CASPER:   Logging unit location
 ENGI.              SYLER:   Recorded By
 WITN.         PETTINGILL:   Witnessed by
 ORIG.           5" PRINT:   Origin of data
 UWI .     49025103550000:   Unique Well ID
 DICO. A2D TECHNOLOGIES, INC.:   Digitizing Company
 PD  .                 GL:   Permanent Datum
 EPD .F              4967:   Elevation Permanent Datum
 LMF .                 KB:   Log Measured From
 DMF .                 KB:   Drilling Measured From
 DAPD.F                10:   Feet Above Permanent Datum
~OTHER INFORMATION
~A   DEPT      SPR        ILD        ILM        LL8         GRD      CALD       CORR       RHOB   
# ...
 1885.5000   -13.8973    10.2772    11.0003    12.2205   132.6937     8.4348     0.0206     2.4776
 1886.0000   -13.8973    10.2772    11.3091    12.6536   129.5978     8.4356     0.0214     2.4722
 1886.5000   -14.0483    10.2772    11.6265    13.1927   127.1211     8.4364     0.0153     2.4536
 1887.0000   -14.0483    10.3487    11.7879    13.4717   126.1971     8.4371     0.0091     2.4568
 1887.5000   -14.0483    10.6398    12.0348    13.6616   125.4285     8.4379     0.0122     2.4653
 1888.0000   -14.0483    10.7884    12.1175    13.7585   123.8834     8.4387     0.0169     2.4754
 1888.5000   -14.0483    10.8635    12.0323    13.8561   118.1458     8.4395     0.0185     2.4871
 1889.0000   -14.1994    10.8635    11.8651    13.8580   113.8057     8.4402     0.0169     2.4910
 1889.5000   -14.1994    10.9391    11.6192    13.9562   115.0557     8.4410     0.0170     2.4856
 1890.0000   -14.3505    10.9391    11.3784    13.8613   118.7901     8.4418     0.0178     2.4786
 1890.5000   -14.5015    10.8635    11.2203    13.4846   127.4935     8.4426     0.0201     2.4740
 1891.0000   -14.6526    10.8635    11.1415    13.0272   134.1782     8.4433     0.0225     2.4818
 1891.5000   -14.8036    10.8635    11.1403    12.7609   139.3102     8.4441     0.0217     2.4903
 1892.0000   -14.8036    10.8635    11.1391    12.6740   144.1316     8.4449     0.0186     2.4841
 1892.5000   -14.9547    10.8635    11.1380    12.6762   145.5368     8.4457     0.0161     2.4686
 1893.0000   -14.9547    10.8635    11.1368    12.9443   144.3023     8.4464     0.0139     2.4617
 1893.5000   -14.9547    10.7139    11.1357    13.0361   142.4467     8.4472     0.0125     2.4571
 1894.0000   -15.1057    10.5663    11.1345    13.1286   140.1253     8.4480     0.0110     2.4579
 1894.5000   -15.1057    10.4932    10.9769    13.0397   135.9404     8.4643     0.0101     2.4649
 1895.0000   -15.1057    10.3487    10.8234    13.0415   133.9295     8.4651     0.0095     2.4726
 1895.5000   -15.1057    10.2037    10.6028    12.7749   131.2975     8.4814     0.0095     2.4796
 1896.0000   -15.1057     9.9914    10.4448    12.6884   129.4400     8.4977     0.0087     2.4696
 1896.5000   -15.2568     9.7833    10.0915    12.5089   129.2924     8.4985     0.0095     2.4805
 1897.0000   -15.2568     9.7225     9.8750    12.2501   128.8362     8.5149     0.0129     2.4720
 1897.5000   -15.2568     9.6553     9.6019    11.9966   125.8937     8.5156     0.0198     2.4766
 1898.0000   -15.2568     9.7225     9.3440    11.4920   127.4542     8.5320     0.0220     2.4821
 1898.5000   -15.1057     9.7901     9.6319    10.5307   130.2570     8.5483     0.0205     2.4829
 1899.0000   -14.9547    10.0655    10.0424    10.0334   133.0597     8.5491     0.0166     2.4751
 1899.5000   -14.5015    10.2772    10.3260    11.7688   135.8625     8.5654     0.0135     2.4666
 1900.0000   -14.0483    10.3753    10.5929    13.2263   136.3341     8.5817     0.0105     2.4636
 1900.5000   -14.1980    10.6970    10.8148    13.9959   135.4132     8.5825     0.0089     2.4574
 1901.0000   -13.8940    11.0198    11.0414    13.8980   134.5430     8.5833     0.0090     2.4590
 1901.5000   -13.5904    10.9459    11.1947    13.6111   131.4894     8.5840     0.0132     2.4683
 1902.0000   -13.4379    10.8726    11.2715    13.3301   128.0003     8.5848     0.0197     2.4613
 1902.5000   -13.7385    10.7250    11.1920    13.0549   126.7312     8.5856     0.0220     2.4637
 1903.0000   -14.1901    10.6531    11.0365    12.7854   129.3767     8.5864     0.0220     2.4715
 1903.5000   -14.4907    10.5817    10.8078    12.6963   131.8658     8.5871     0.0212     2.4816
 1904.0000   -14.6403    10.5839    10.5838    12.4342   134.9760     8.5879     0.0096     2.4870
 1904.5000   -14.7902    10.6598    10.4367    12.2621   135.9123     8.5887     0.0142     2.4754
 1905.0000   -14.9398    10.6620    10.6554    12.0925   136.2275     8.5895     0.0214     2.4801
 1905.5000   -14.7869    10.6642    10.8036    12.2604   135.7663     8.5903     0.0267     2.4952
 1906.0000   -14.7854    10.6664    10.8022    12.9585   130.4914     8.5910     0.0274     2.4975
 1906.5000   -14.6328    10.5949    10.7263    13.4145   127.3904     8.5761     0.0223     2.4920
 1907.0000   -14.4802    10.5971    10.7252    13.4135   127.7056     8.5770     0.0203     2.4882
 1907.5000   -14.1766    10.3811    10.6498    13.2280   128.9524     8.5778     0.0358     2.4943
 1908.0000   -14.1751    10.3114    10.5750    12.7766   129.7335     8.5786     0.0327     2.5036
 1908.5000   -14.3250    10.1013    10.5007    12.1707   128.1853     8.5793     0.0288     2.5067
 1909.0000   -14.4746    10.0334    10.3548    11.7554   125.7054     8.5801     0.0280     2.5036
 1909.5000   -14.7748     9.8289    10.1402    11.4332   125.5536     8.5809     0.0241     2.4997
 1910.0000   -15.0758     9.6286     9.9300    11.4324   125.5594     8.5816     0.0195     2.5005
 1910.5000   -15.2251     9.4978     9.6569    11.4316   125.5640     8.5824     0.0225     2.5059
 1911.0000   -15.3746     9.3043     9.5227    11.3519   126.3450     8.5832     0.0326     2.5159
 1911.5000   -15.5242     9.1779     9.3904    11.0407   127.2813     8.5840     0.0310     2.5183
 1912.0000   -15.6737     9.0534     9.1958    10.8128   128.0623     8.5692     0.0240     2.5105
 1912.5000   -15.6722     9.0554     9.1312    10.7374   128.8434     8.5700     0.0310     2.4973
 1913.0000   -15.6707     8.9946     9.1302    10.7366   129.1585     8.5709     0.0349     2.4949
 1913.5000   -15.6692     8.9343     9.1293    10.7359   129.0079     8.5717     0.0287     2.5011
 1914.0000   -15.6677     8.8131     9.0651    10.7351   127.7703     8.5725     0.0186     2.5042
 1914.5000   -15.6662     8.8150     9.0015    10.5866   128.2407     8.5732     0.0092     2.5042
 1915.0000   -15.6647     8.8168     8.8763    10.4402   128.2453     8.5740     0.0046     2.5010
 1915.5000   -15.6632     8.8188     8.8754    10.4395   127.6236     8.5748     0.0061     2.4871
 1916.0000   -15.6617     8.9437     8.8131    10.4387   126.4946     8.5755     0.0115     2.4863
 1916.5000   -15.6602     9.0078     8.8736    10.4380   123.6315     8.5763     0.0200     2.4927
 1917.0000   -15.6586     9.1355     9.1226    10.6566   121.5868     8.5771     0.0294     2.5123
 1917.5000   -15.6571     9.2651     9.6429    10.9553   121.7469     8.5779     0.0371     2.5150
 1918.0000   -15.6556     9.4618     9.9826    11.2625   122.0630     8.5629     0.0342     2.5087
 1918.5000   -15.6538     9.5297    10.1920    11.4983   122.6888     8.5638     0.0245     2.5126
 1919.0000   -15.6523     9.5317    10.1907    11.5777   123.6251     8.5646     0.0231     2.5172
 1919.5000   -15.6508     9.6000    10.1897    11.6574   124.0955     8.5654     0.0223     2.5118
 1920.0000   -15.6493     9.6020    10.1886    11.3377   123.4790     8.5504     0.0215     2.5002
 1920.5000   -15.4967     9.6708    10.1875    11.1036   123.0178     8.5514     0.0215     2.4901
 1921.0000   -15.4952     9.6728    10.1865    11.4149   122.8660     8.5366     0.0214     2.4962
 1921.5000   -15.4937     9.7422    10.3999    11.9815   122.5601     8.5374     0.0222     2.5001
 1922.0000   -15.4922     9.7442    10.4716    12.2324   122.2541     8.5381     0.0230     2.4970
 1922.5000   -15.4907     9.7463    10.4702    12.3168   123.9680     8.5234     0.0198     2.4915
 1923.0000   -15.6406     9.7483    10.5424    11.9790   126.7676     8.5241     0.0191     2.4954
 1923.5000   -15.6388     9.7503    10.5410    11.6507   129.7226     8.5094     0.0221     2.5016
 1924.0000   -15.6373     9.7525    10.5399    11.4102   132.2116     8.5101     0.0221     2.5031
 1924.5000   -15.6358     9.8224    10.3934    11.3306   132.6821     8.5264     0.0213     2.5000
 1925.0000   -15.7853     9.8929    10.1780    11.3298   131.4445     8.5272     0.0244     2.5054
 1925.5000   -15.7838     9.9638     9.8981    11.3290   128.8094     8.5280     0.0291     2.5077
