~VERSION INFORMATION
 VERS.                2.0:   CWLS LOG ASCII STANDARD - VERSION 2.0
 WRAP.                 NO:   ONE LINE PER DEPTH STEP
~WELL INFORMATION
#MNEM.UNIT      DATA TYPE    INFORMATION
#----------   ------------   ------------------------------
 STRT.F          200.0000:   START DEPTH
 STOP.F         3124.0000:   STOP DEPTH
 STEP.F            0.5000:   STEP LENGTH
 NULL.          -999.2500:   NO VALUE
 COMP.    FENIX & SCISSON:   COMPANY
 WELL. FENIX SCISSON #18-27:   WELL
 FLD .                NPR:   FIELD
 LOC .      S27 T39N R78W:   LOCATION
 CNTY.            NATRONA:   COUNTY
 STAT.            WYOMING:   STATE
 CTRY. UNITED STATES OF AMERICA:   COUNTRY
 SRVC.              WELEX:   SERVICE COMPANY
 DATE.        26-SEP-1977:   LOGDATE
 API .     49025104210000:   API NUMBER
~CURVE INFORMATION
#MNEM.UNIT       API CODE    CURVE DESCRIPTION
#----------   ------------   ------------------------------
 DEPT.F                  :   
 CALD.IN     45 280 60 00:   CALIPER FROM DENSITY LOG
 GRD .GAPI   45 310 01 00:   GAMMA RAY FROM DENSITY LOG
 RHOB.G/C3   45 350 01 00:   BULK DENSITY
 CORR.G/C3   45 356 01 00:   DENSITY CORRECTION
 NPHI.DEC    42 890 03 00:   NEUTRON POROSITY SANDSTONE
 SPR .MV     07 010 01 00:   SPONTANEOUS POTENTIAL
 GURD.OHMM   07 220 05 00:   GUARD LOG RESISTIVITY
 ILD .OHMM   07 120 46 00:   DEEP INDUCTION RESISTIVITY
 ILM .OHMM   07 120 44 00:   INDUCTION LOG MEDIUM RESISTIVITY
 TENR.LBS    07 635 01 00:   TENSION FROM RESISTIVITY
~PARAMETER INFORMATION
#MNEM.UNIT          VALUE    DESCRIPTION
#----------   ------------   ------------------------------
 EKB .F         5080.0000:   Kelly bushing
 EGL .F         5070.0000:   Ground level
 EDF .F            0.0000:   Drilling floor
 EPD .F            0.0000:   Permanent datum
 TD  .F         3117.0000:   Total depth
 DATE.        26-SEP-1977:   Date logged
 CLNT.            A2DTECH:   Client Code
 SL  . 330' FSL & 1650' FWL:   Surface Location
 PD  .                 GL:   Permanent Datum
 DAPD.F                10:   Feet Above Permanent Datum
 DD  .F              3115:   Depth driller
 DL  .F              3117:   Depth logger
 BLI .F              3115:   Bottom log interval
 TLI .F               200:   Top log interval
 CS1 .IN            8.625:   Casing size
 CBD1.      8.625" @ 219':   Casing driller 1
 CBL1.F               220:   Casing logger 1
 BS1 .IN            7.875:   Bit size
 BSD1.F              3115:   Depth drilled with bit1
 DFT .            KCL MUD:   Type fluid in hole
 DFD .                9.1:   Density
 DFV .                 35:   Viscosity
 DFPH.                 11:   pH
 DFL .               17.2:   Fluid loss
 MSS .           FLOWLINE:   Source of sample
 RMS .OHMM            .59:   Rm
 MST .F                98:   Rm Meas. temp.
 RMF .OHMM            .56:   Rmf
 MFST.F                98:   Rmf Meas. temp.
 RMC .OHMM            .24:   Rmc
 MCST.F                98:   Rmc Meas. temp.
 MFSS.               MEAS:   Source Rmf.
 MCSS.               MEAS:   Source Rmc.
 RMB .OHMM            .48:   Rm. at BHT
 BHT .F               116:   BHT.
 TCS .HRS               4:   Time Circ. stopped
 MRT .F               116:   Maximum recorded temp.
 LUN .               8611:   Logging unit number
 LUL .             CASPER:   Logging unit location
 ENGI.            C. DOAK:   Recorded By
 WITN.         PETTINGILL:   Witnessed by
 ORIG.           5" PRINT:   Origin of data
 UWI .     49025104210000:   Unique Well ID
 DICO. A2D TECHNOLOGIES, INC.:   Digitizing Company
~OTHER INFORMATION
~A   DEPT     CALD        GRD       RHOB       CORR         NPHI      SPR       GURD        ILD        ILM        TENR  
# ...
 2109.5000     8.1019   122.6598     2.4407     0.0077     0.3855   -69.1825    15.1939     8.8865    10.2926   738.3616
 2110.0000     8.1019   129.0028     2.4288     0.0038     0.3779   -68.7835    15.6194     8.8870    10.6780   738.3541
 2110.5000     8.1017   131.1857     2.4199     0.0038     0.3696   -68.3846    15.6202     8.9694    10.3885   738.3466
 2111.0000     8.1016   126.6346     2.4080     0.0019     0.3620   -68.1841    15.6210     8.9698    10.3890   738.3391
 2111.5000     8.1015   125.8466     2.4020    -0.0001     0.3493   -67.7851    15.6217     8.9704    10.3896   738.3315
 2112.0000     8.1013   130.2099     2.3951    -0.0020     0.3386   -67.5832    15.6225     8.9709    10.3901   718.3687
 2112.5000     8.1012   135.9593     2.3912    -0.0020     0.3314   -67.7775    15.4800     8.6479    10.3907   748.2941
 2113.0000     8.1010   132.9930     2.3902    -0.0019     0.3294   -67.9717    14.9224     8.2604    10.5838   748.2862
 2113.5000     8.1009   126.2610     2.4061    -0.0019     0.3302   -67.7705    11.8602     8.0366    10.0171   748.2801
 2114.0000     8.1007   122.1028     2.4200     0.0041     0.3326   -67.7670    19.6610     7.9635    15.7701   738.2952
 2114.5000     8.1006   127.0627     2.4230     0.0061     0.3378   -67.7635    30.0058     7.8911    15.2012   748.2649
 2115.0000     8.1005   128.2561     2.4231     0.0062     0.3414   -67.9577    14.7886     7.8195    10.5860   738.2802
 2115.5000     8.1003   127.4680     2.4171     0.0042     0.3421   -67.5589    14.2011     7.5380    10.0193   738.2727
 2116.0000     8.1002   127.0763     2.3943    -0.0037     0.3378   -67.5554    14.5210     7.3337    10.0198   738.2652
 2116.5000     8.1000   128.2698     2.3933    -0.0056     0.3366   -67.5519    14.6555     7.2671    10.2060   748.2344
 2117.0000     8.0999   128.2734     2.3695    -0.0096     0.3449   -67.5484    14.6562     7.2011    10.0209   748.2268
 2117.5000     8.0997   127.8817     2.3655    -0.0095     0.3509   -67.3473    13.8181     7.1357     9.5719   748.2192
 2118.0000     8.0996   132.4451     2.3725    -0.0154     0.3569   -67.3438    12.2646     7.1361     9.3124   738.2348
 2118.5000     8.0995   132.4470     2.3775    -0.0075     0.3588   -67.1427    11.2296     7.0067     9.0599   738.2273
 2119.0000     8.0993   130.8662     2.3845    -0.0054     0.3588   -67.1392    11.2302     7.0071     9.0603   738.2198
 2119.5000     8.0992   123.1436     2.3884    -0.0054     0.3588   -66.9388    11.5446     7.0074     9.0609   748.1885
 2120.0000     8.0990   120.7707     2.3964    -0.0053     0.3577   -66.9353    14.1320     7.0724     9.2293   748.1809
 2120.5000     8.0989   118.7932     2.4044    -0.0013     0.3588   -66.9318    13.3240     7.1380     9.4008   748.1733
 2121.0000     8.0987   114.4373     2.4094    -0.0033     0.3608   -66.7307    13.0823     7.2042     9.5755   748.1657
 2121.5000     8.0986   112.0633     2.4124    -0.0032     0.3644   -66.7273    13.3253     7.3381     9.7534   748.1581
 2122.0000     8.0985   109.6891     2.4213    -0.0032     0.3716   -66.5262    13.6980     7.5434     9.8438   738.1991
 2122.5000     8.0983   107.3148     2.4214    -0.0012     0.3759   -66.7203    13.5735     7.8981     9.8444   738.1917
 2123.0000     8.0982   109.6975     2.4214     0.0009     0.3728   -66.7169    13.6994     7.8264     9.8448   738.1840
 2123.5000     8.0980   112.8731     2.4135     0.0009     0.3628   -66.7134    13.4509     7.8268     9.8453   748.1274
 2124.0000     8.0979   118.4266     2.4105     0.0029     0.3569   -66.7099    12.9667     7.8272     9.8458   748.1213
 2124.5000     8.0978   122.7919     2.4065     0.0030     0.3569   -66.7065    12.8489     7.7562     9.6673   748.1137
 2125.0000     8.0976   128.7431     2.4036    -0.0010     0.3565   -66.7030    12.3183     7.8281     9.2343   748.1061
 2125.5000     8.0975   132.3149     2.4036    -0.0009     0.3565   -66.6996    12.2064     7.2079     9.1504   748.0984
 2126.0000     8.0973   135.0948     2.4036     0.0011     0.3581   -66.6961    12.2070     7.2748     9.1508   758.0657
 2126.5000     8.0972   137.2765     2.4056     0.0031     0.3604   -66.6926    12.2076     7.2087     9.0677   748.0832
 2127.0000     8.0970   130.7429     2.4096     0.0052     0.3644   -66.6892    12.4346     7.2091     9.0682   748.0756
 2127.5000     8.0969   128.3686     2.4156     0.0052     0.3684   -66.4881    12.5500     7.2760     9.0687   748.0680
 2128.0000     8.0968   124.8047     2.4176     0.0072     0.3775   -66.4847    12.6666     7.2764     8.9042   748.0601
 2128.5000     8.0966   120.4485     2.4166     0.0092     0.3823   -66.0861    12.5513     7.3439     9.0697   748.0525
 2129.0000     8.0965   112.9192     2.4097     0.0073     0.3851   -66.0826    12.2107     7.5493     9.0702   758.0192
 2129.5000     8.0963   110.1478     2.4047     0.0073     0.3851   -66.0792    12.3921     7.8320     9.0707   748.0373
 2130.0000     8.0962   109.7555     2.4008     0.0074     0.3867   -66.0757    12.5070     7.8324     8.9883   748.0297
 2130.5000     8.0960   112.1389     2.4028     0.0034     0.3907   -65.8747    12.5075     7.4132     8.9067   738.0481
 2131.0000     8.0959   111.7466     2.4048     0.0035     0.3922   -65.6738    12.5081     8.2766     8.7741   748.0145
 2131.5000     8.0958   115.3198     2.4048     0.0015     0.3903   -65.6703    12.1691     7.7621     8.3041   748.0069
 2132.0000     8.0956   117.3061     2.4019    -0.0004     0.3855   -65.4693    11.1028     7.0173     8.3045   747.9993
 2132.5000     8.0955   123.2590     2.3929    -0.0044     0.3791   -65.2684    10.2230     7.0824     8.9383   747.9917
 2133.0000     8.0953   128.2190     2.3920    -0.0043     0.3696   -65.4625    12.1710     7.1480     8.9091   747.9838
 2133.5000     8.0952   123.2679     2.3920    -0.0063     0.3664   -65.4590    13.4643     7.1485     8.6677   747.9762
 2134.0000     8.0950   118.5133     2.3940    -0.0042     0.3640   -65.4556    13.4650     7.1489     8.6681   747.9701
 2134.5000     8.0949   116.1381     2.3990    -0.0022     0.3632   -65.4522    13.2208     7.0840     8.8292   747.9625
 2135.0000     8.0948   110.9865     2.4050    -0.0002     0.3648   -65.6463    12.6286     7.0197     8.5899   747.9549
 2135.5000     8.0946   108.2144     2.4129     0.0019     0.3672   -65.8403    11.9527     6.8294     8.5904   747.9473
 2136.0000     8.0945   104.4490     2.4259     0.0039     0.3704   -66.0344    11.4173     6.5837     8.5908   747.9397
 2136.5000     8.0943   110.6025     2.4378     0.0079     0.3704   -66.0309    10.8063     6.7678     7.9833   757.9049
 2137.0000     8.0942   117.3496     2.4428     0.0079     0.3700   -66.2250    10.6104     6.7682     7.8636   757.8972
 2137.5000     8.0941   121.9156     2.4438     0.0100     0.3716   -66.2215    10.6109     6.7686     7.7921   747.9169
 2138.0000     8.0939   119.7374     2.4429     0.0100     0.3744   -66.4156    10.7093     6.7690     7.7213   747.9090
 2138.5000     8.0938   117.7594     2.4439     0.0120     0.3767   -66.2153    10.9082     6.8948     7.7217   747.8999
 2139.0000     8.0936   114.1937     2.4479     0.0101     0.3803   -66.0130    10.9088     7.0876     7.7934   747.8938
 2139.5000     8.0935   112.6113     2.4568     0.0121     0.3835   -66.0103    10.9093     7.3529     7.9383   757.8584
 2140.0000     8.0933   114.5981     2.4449     0.0082     0.3922   -66.0075    10.9099     7.6985     8.8640   767.8228
 2140.5000     8.0932   118.1727     2.4251     0.0062     0.3958   -65.6098    11.3183     7.9868     8.8642   757.8430
 2141.0000     8.0931   118.9704     2.4191     0.0043     0.3930   -65.8032    11.4232     8.2101     8.8647   747.8634
 2141.5000     8.0929   116.9913     2.4172     0.0043     0.3891   -65.6023    11.5291     8.2861     9.2818   747.8558
 2142.0000     8.0928   111.2424     2.4132     0.0024     0.3831   -65.5988    11.8515     8.5178     9.5416   747.8482
 2142.5000     8.0926   115.8098     2.4291     0.0044     0.3807   -65.3980    11.9613     9.0003    10.0827   747.8405
