~VERSION INFORMATION
 VERS.                2.0:   CWLS LOG ASCII STANDARD - VERSION 2.0
 WRAP.                 NO:   ONE LINE PER DEPTH STEP
~WELL INFORMATION
#MNEM.UNIT      DATA TYPE    INFORMATION
#----------   ------------   ------------------------------
 STRT.F            0.0000:   START DEPTH
 STOP.F         3110.5000:   STOP DEPTH
 STEP.F            0.5000:   STEP LENGTH
 NULL.          -999.2500:   NO VALUE
 COMP. LAWRENCE  ALLISON AND ASSOCIATES:   COMPANY
 WELL. LAWRENCE NPR 3 "X" #72-15:   WELL
 FLD .                NPR:   FIELD
 LOC .      S15 T38N R78W:   LOCATION
 CNTY.            NATRONA:   COUNTY
 STAT.            WYOMING:   STATE
 CTRY. UNITED STATES OF AMERICA:   COUNTRY
 SRVC.           WIRELINE:   SERVICE COMPANY
 DATE.        16-JAN-1988:   LOGDATE
 API .     49025111930000:   API NUMBER
~CURVE INFORMATION
#MNEM.UNIT       API CODE    CURVE DESCRIPTION
#----------   ------------   ------------------------------
 DEPT.F                  :   
 TENR.LBS    07 635 01 00:   TENSION FROM RESISTIVITY
 GRR .GAPI   07 310 01 00:   GAMMA RAY FROM RESISTIVITY
 SPR .MV     07 010 01 00:   SPONTANEOUS POTENTIAL
 RFOC.OHMM   07 220 04 00:   RESISTIVITY FOCUSED LOG RES.
 RILD.OHMM   07 120 46 00:   DEEP INDUCTION RESISTIVITY
 RILM.OHMM   07 120 44 00:   INDUCTION LOG MEDIUM RESISTIVITY
 TEND.LBS    45 635 01 00:   TENSION FROM DENSITY LOG
 RHOB.G/C3   45 350 01 00:   BULK DENSITY
 CORR.G/C3   45 356 01 00:   DENSITY CORRECTION
 CNC .DEC    42 890 03 00:   NEUTRON PORISITY SANDSTONE
 CALR.IN     07 280 01 00:   CALIPER FROM RESISTIVITY
~PARAMETER INFORMATION
#MNEM.UNIT          VALUE    DESCRIPTION
#----------   ------------   ------------------------------
 EKB .F         5240.0000:   Kelly bushing
 EGL .F         5229.0000:   Ground level
 EDF .F            0.0000:   Drilling floor
 TD  .F         3090.0000:   Total depth
 DATE.        16-JAN-1988:   Date logged
 CLNT.            A2DTECH:   Client Code
 SL  . 814' FNL & 1208' FEL:   Surface Location
 PD  .                 GL:   Permanent Datum
 DD  .F              3085:   Depth driller
 DL  .F              3090:   Depth logger
 BLI .F              3089:   Bottom log interval
 CS1 .IN            8.625:   Casing size
 CBD1.      8.625" @ 610':   Casing driller 1
 CBL1.F               613:   Casing logger 1
 BS1 .IN            7.875:   Bit size
 DFT .            KCL/GEL:   Type fluid in hole
 DFD .                8.8:   Density
 DFV .                 40:   Viscosity
 DFPH.                8.5:   pH
 DFL .                 10:   Fluid loss
 MSS .           FLOWLINE:   Source of sample
 RMS .OHMM           .543:   Rm
 MST .F                65:   Rm Meas. temp.
 RMF .OHMM           .349:   Rmf
 MFST.F                65:   Rmf Meas. temp.
 RMC .OHMM           .557:   Rmc
 MCST.F                65:   Rmc Meas. temp.
 MFSS.               CALC:   Source Rmf.
 RMB .OHMM           .258:   Rm. at BHT
 BHT .F               114:   BHT.
 TCS .HRS               5:   Time Circ. stopped
 MRT .F               114:   Maximum recorded temp.
 LUN .            HL-6321:   Logging unit number
 LUL .           GILLETTE:   Logging unit location
 ENGI.               CAIN:   Recorded By
 WITN.             STRONG:   Witnessed by
 ORIG.           5" PRINT:   Origin of data
 UWI .     49025111930000:   Unique Well ID
 DICO. A2D TECHNOLOGIES, INC.:   Digitizing Company
 DAPD.F                11:   Feet Above Permanent Datum
 BSD1.F              3085:   Depth drilled with bit1
 MCSS.               CALC:   Source Rmc.
 EPD .F              5229:   Elevation Permanent Datum
 LMF .                 KB:   Log Measured From
 DMF .                 KB:   Drilling Measured From
~OTHER INFORMATION
~A    DEPT    TENR         GRR       SPR       RFOC       RILD       RILM       TEND       RHOB       CORR        CNC       CALR   
# ...
 1098.0000   -56.7560    91.0420   -55.6010     8.8280     9.0940     8.3300  -999.2500  -999.2500  -999.2500  -999.2500     8.8010
 1098.5000   -56.0850    88.4990   -55.9190     8.8850     9.0880     8.3300  -999.2500  -999.2500  -999.2500  -999.2500     8.7980
 1099.0000   -55.4130    86.6180   -55.6360     8.8850     9.0820     8.3300  -999.2500  -999.2500  -999.2500  -999.2500     8.7960
 1099.5000   -54.8050    87.5630   -55.0860     8.8850     9.0760     8.3030  -999.2500  -999.2500  -999.2500  -999.2500     8.7930
 1100.0000   -54.8050    89.3940   -55.0040     8.8850     9.0700     8.2490  -999.2500  -999.2500  -999.2500  -999.2500     8.7910
 1100.5000   -54.8050    91.0280   -54.9220     8.8850     9.0640     8.1950  -999.2500  -999.2500  -999.2500  -999.2500     8.7880
 1101.0000   -54.8050    91.0360   -54.8390     8.8630     9.0580     8.1410  -999.2500  -999.2500  -999.2500  -999.2500     8.7850
 1101.5000   -54.8050    89.6740   -54.7570     8.7860     9.0510     8.0910  -999.2500  -999.2500  -999.2500  -999.2500     8.7830
 1102.0000   -54.8050    87.3910   -54.6820     8.7100     9.0150     8.0530  -999.2500  -999.2500  -999.2500  -999.2500     8.7810
 1102.5000   -54.8050    83.7360   -54.7140     8.6330     8.9760     8.0140  -999.2500  -999.2500  -999.2500  -999.2500     8.7830
 1103.0000   -54.8050    86.0290   -54.7800     8.5640     8.9360     7.9760  -999.2500  -999.2500  -999.2500  -999.2500     8.7840
 1103.5000   -54.8050    89.1390   -54.8470     8.5520     8.8960     7.9370  -999.2500  -999.2500  -999.2500  -999.2500     8.7850
 1104.0000   -54.8050    92.2690   -54.9660     8.5420     8.8560     7.8990  -999.2500  -999.2500  -999.2500  -999.2500     8.7860
 1104.5000   -54.8050    96.6720   -55.1410     8.5320     8.8040     7.8600  -999.2500  -999.2500  -999.2500  -999.2500     8.7880
 1105.0000   -53.9310   101.2960   -55.3170     8.5210     8.8250     7.8090  -999.2500  -999.2500  -999.2500  -999.2500     8.7890
 1105.5000   -52.1150   102.2420   -55.4760     8.5110     8.8570     7.8490  -999.2500  -999.2500  -999.2500  -999.2500     8.7900
 1106.0000   -50.2980    98.8740   -55.4790     8.5010     8.8890     7.9060  -999.2500  -999.2500  -999.2500  -999.2500     8.7910
 1106.5000   -48.4820    94.0490   -55.4780     8.4850     8.9210     7.9640  -999.2500  -999.2500  -999.2500  -999.2500     8.7920
 1107.0000   -46.6660    91.4770   -55.5010     8.5350     8.9520     8.0210  -999.2500  -999.2500  -999.2500  -999.2500     8.7940
 1107.5000   -44.8490    89.7850   -55.5260     8.6400     8.9840     8.0670  -999.2500  -999.2500  -999.2500  -999.2500     8.7950
 1108.0000   -43.0330    90.3280   -55.5520     8.7450     9.0160     8.1110  -999.2500  -999.2500  -999.2500  -999.2500     8.7960
 1108.5000   -41.2170    94.4400   -55.5780     8.8500     9.0480     8.1560  -999.2500  -999.2500  -999.2500  -999.2500     8.7970
 1109.0000   -39.4000    97.5070   -55.6040     8.8930     9.0790     8.2000  -999.2500  -999.2500  -999.2500  -999.2500     8.7990
 1109.5000   -37.5840    96.3490   -55.6300     8.9040     9.1110     8.2440  -999.2500  -999.2500  -999.2500  -999.2500     8.8000
 1110.0000   -35.7680    94.7620   -55.6560     8.9150     9.1350     8.2880  -999.2500  -999.2500  -999.2500  -999.2500     8.8010
 1110.5000   -36.2170    93.1790   -55.6810     8.9260     9.1380     8.3300  -999.2500  -999.2500  -999.2500  -999.2500     8.8020
 1111.0000   -39.3390    91.5870   -55.7070     8.9370     9.1410     8.3850  -999.2500  -999.2500  -999.2500  -999.2500     8.8030
 1111.5000   -42.4610    89.9240   -55.7330     8.9490     9.1440     8.4360  -999.2500  -999.2500  -999.2500  -999.2500     8.8050
 1112.0000   -45.5830    90.1200   -55.7590     8.9600     9.1470     8.4850  -999.2500  -999.2500  -999.2500  -999.2500     8.8060
 1112.5000   -48.7050    92.3170   -55.7850     8.9710     9.1500     8.5050  -999.2500  -999.2500  -999.2500  -999.2500     8.8070
 1113.0000   -51.8270    96.0880   -55.8100     8.9820     9.1520     8.5280  -999.2500  -999.2500  -999.2500  -999.2500     8.8080
 1113.5000   -54.9490    98.2910   -55.8360     8.9930     9.1550     8.5510  -999.2500  -999.2500  -999.2500  -999.2500     8.8100
 1114.0000   -58.0710    96.5120   -55.8620     9.0040     9.1580     8.5630  -999.2500  -999.2500  -999.2500  -999.2500     8.8110
 1114.5000   -61.1920    94.5480   -55.8760     9.0150     9.1610     8.5640  -999.2500  -999.2500  -999.2500  -999.2500     8.8120
 1115.0000   -64.3140    92.5710   -55.8780     9.0270     9.1640     8.5640  -999.2500  -999.2500  -999.2500  -999.2500     8.8130
 1115.5000   -64.3210    90.7650   -55.9280     9.0380     9.1670     8.5640  -999.2500  -999.2500  -999.2500  -999.2500     8.8140
 1116.0000   -63.7340    89.7640   -55.9780     9.0490     9.1700     8.5640  -999.2500  -999.2500  -999.2500  -999.2500     8.8160
 1116.5000   -63.1460    89.5570   -56.0280     9.0510     9.1720     8.5330  -999.2500  -999.2500  -999.2500  -999.2500     8.8170
 1117.0000   -62.5580    88.8740   -56.0750     9.0510     9.1750     8.4610  -999.2500  -999.2500  -999.2500  -999.2500     8.8180
 1117.5000   -61.9710    87.5220   -56.0690     9.0510     9.1780     8.4080  -999.2500  -999.2500  -999.2500  -999.2500     8.8190
 1118.0000   -61.3830    87.1910   -56.0520     9.0510     9.1810     8.4160  -999.2500  -999.2500  -999.2500  -999.2500     8.8200
 1118.5000   -60.7960    87.5990   -56.0350     9.0510     9.1840     8.4230  -999.2500  -999.2500  -999.2500  -999.2500     8.8220
 1119.0000   -60.2080    91.9270   -56.0190     9.0510     9.1870     8.4300  -999.2500  -999.2500  -999.2500  -999.2500     8.8230
 1119.5000   -59.6200    95.5080   -56.0020     9.0510     9.1900     8.4370  -999.2500  -999.2500  -999.2500  -999.2500     8.8240
 1120.0000   -59.0330    94.7300   -55.9860     9.0510     9.1920     8.4440  -999.2500  -999.2500  -999.2500  -999.2500     8.8250
 1120.5000   -58.4450    93.3460   -55.9690     9.0510     9.1950     8.4510  -999.2500  -999.2500  -999.2500  -999.2500     8.8270
 1121.0000   -57.8570    94.2700   -55.9530     9.0510     9.1980     8.4580  -999.2500  -999.2500  -999.2500  -999.2500     8.8280
 1121.5000   -57.2700    96.4840   -55.9360     9.0510     9.2010     8.4650  -999.2500  -999.2500  -999.2500  -999.2500     8.8290
 1122.0000   -56.6820    98.5850   -55.9190     9.0510     9.2040     8.4730  -999.2500  -999.2500  -999.2500  -999.2500     8.8300
 1122.5000   -56.0940    98.6150   -55.9030     9.0510     9.2070     8.4790  -999.2500  -999.2500  -999.2500  -999.2500     8.8310
 1123.0000   -55.5070    98.6060   -55.8860     9.0510     9.2100     8.4850  -999.2500  -999.2500  -999.2500  -999.2500     8.8330
 1123.5000   -54.9190    98.6290   -55.8560     9.0510     9.2120     8.4380  -999.2500  -999.2500  -999.2500  -999.2500     8.8340
 1124.0000   -56.0760    97.0280   -55.8030     9.0510     9.2140     8.4000  -999.2500  -999.2500  -999.2500  -999.2500     8.8350
 1124.5000   -57.6530    98.7960   -55.7510     9.0510     9.2190     8.3610  -999.2500  -999.2500  -999.2500  -999.2500     8.8360
 1125.0000   -59.2300   101.0660   -55.6980     9.0520     9.1040     8.2990  -999.2500  -999.2500  -999.2500  -999.2500     8.8380
 1125.5000   -60.8080   103.1130   -55.6460     8.9960     8.9120     8.1470  -999.2500  -999.2500  -999.2500  -999.2500     8.8390
 1126.0000   -62.3850   103.2270   -55.5940     8.8890     8.7200     7.9940  -999.2500  -999.2500  -999.2500  -999.2500     8.8400
 1126.5000   -63.9620   102.2070   -55.5410     8.7580     8.5270     7.8410  -999.2500  -999.2500  -999.2500  -999.2500     8.8410
 1127.0000   -65.5400   103.6160   -55.4880     8.6270     8.3350     7.7340  -999.2500  -999.2500  -999.2500  -999.2500     8.8410
 1127.5000   -67.1170   106.5500   -55.4780     8.4950     8.1430     7.6380  -999.2500  -999.2500  -999.2500  -999.2500     8.8400
 1128.0000   -68.6940   109.3740   -55.4780     8.3640     8.0670     7.5430  -999.2500  -999.2500  -999.2500  -999.2500     8.8400
