~VERSION INFORMATION
 VERS.                2.0:   CWLS LOG ASCII STANDARD - VERSION 2.0
 WRAP.                 NO:   ONE LINE PER DEPTH STEP
~WELL INFORMATION
#MNEM.UNIT      DATA TYPE    INFORMATION
#----------   ------------   ------------------------------
 STRT.F          590.0000:   START DEPTH
 STOP.F         3428.0000:   STOP DEPTH
 STEP.F            0.5000:   STEP LENGTH
 NULL.          -999.2500:   NO VALUE
 COMP.    FENIX & SCISSON:   COMPANY
 WELL. FENIX NPR 3 "AX" #25-27:   WELL
 FLD .                NPR:   FIELD
 LOC .      S27 T39N R78W:   LOCATION
 CNTY.            NATRONA:   COUNTY
 STAT.            WYOMING:   STATE
 CTRY. UNITED STATES OF AMERICA:   COUNTRY
 SRVC.       SCHLUMBERGER:   SERVICE COMPANY
 DATE.        13-AUG-1981:   LOGDATE
 API .     49025108780000:   API NUMBER
~CURVE INFORMATION
#MNEM.UNIT       API CODE    CURVE DESCRIPTION
#----------   ------------   ------------------------------
 DEPT.F                  :   
 CALD.IN     45 280 60 00:   CALIPER FROM DENSITY LOG
 GRD .GAPI   45 310 01 00:   GAMMA RAY FROM DENSITY LOG
 CORR.G/C3   45 356 01 00:   DENSITY CORRECTION
 RHOB.G/C3   45 350 01 00:   BULK DENSITY
 NPHI.DEC    42 890 03 00:   NEUTRON POROSITY SANDSTONE
 TENR.LBS    07 635 01 00:   TENSION
 SPR .MV     07 010 01 00:   SPONTANEOUS POTENTIAL
 ILD .OHMM   07 120 46 00:   INDUCTION LOG DEEP RESISTIVITY
 ILM .OHMM   07 120 44 00:   INDUCTION LOG MEDIUM RESISTIVITY
 SFL .OHMM   07 220 01 00:   SHALLOW FOCUSED LOG RESISTIVITY
 TEND.LBS    45 635 01 00:   TENSION FROM DENSITY LOG
~PARAMETER INFORMATION
#MNEM.UNIT          VALUE    DESCRIPTION
#----------   ------------   ------------------------------
 EKB .F         5057.0000:   Kelly bushing
 EGL .F         5047.0000:   Ground level
 EDF .F            0.0000:   Drilling floor
 TD  .F         3415.0000:   Total depth
 DATE.        13-AUG-1981:   Date logged
 CLNT.            A2DTECH:   Client Code
 SL  . 2100' FSL & 1050' FWL:   Surface Location
 PD  .                 GL:   Permanent Datum
 EPD .F              5047:   Elevation Permanent Datum
 LMF .                 KB:   Log Measured From
 DMF .                 KB:   Drilling Measured From
 DAPD.F                10:   Feet Above Permanent Datum
 DD  .F              3400:   Depth driller
 DL  .F              3415:   Depth logger
 BLI .F              3409:   Bottom log interval
 TLI .F               603:   Top log interval
 CS1 .IN            9.625:   Casing size
 CBD1.      9.625" @ 607':   Casing driller 1
 CBL1.F               603:   Casing logger 1
 BS1 .IN            7.875:   Bit size
 BSD1.F              3400:   Depth drilled with bit1
 DFT .                FGM:   Type fluid in hole
 DFD .                8.7:   Density
 DFV .                 36:   Viscosity
 DFPH.                  9:   pH
 DFL .                 13:   Fluid loss
 MSS .           MUD/TANK:   Source of sample
 RMS .OHMM           1.69:   Rm
 MST .F                75:   Rm Meas. temp.
 RMF .OHMM           1.34:   Rmf
 MFST.F                75:   Rmf Meas. temp.
 MFSS.               MEAS:   Source Rmf.
 RMB .OHMM           1.09:   Rm. at BHT
 BHT .F               120:   BHT.
 TCS .HRS            2145:   Time Circ. stopped
 TLAB.HRS            0200:   Time logger at bottom
 MRT .F               120:   Maximum recorded temp.
 LUN .               8039:   Logging unit number
 LUL .               CSPR:   Logging unit location
 ENGI.            PURPICH:   Recorded By
 WITN.              FIVAS:   Witnessed by
 ORIG.           5" PRINT:   Origin of data
 UWI .     49025108780000:   Unique Well ID
 DICO. A2D TECHNOLOGIES, INC.:   Digitizing Company
~OTHER INFORMATION
~A   DEPT     CALD         GRD      CORR       RHOB         NPHI     TENR        SPR        ILD        ILM        SFL       TEND   
# ...
 3365.5000     8.0280  -999.2500     0.0440     2.5550     0.2730  1105.0551   -55.8000     5.9400     5.3720     6.2740  1175.5950
 3366.0000     8.0330  -999.2500     0.0340     2.5360     0.2670  1105.0551   -55.9080     5.9400     5.6230     7.1540  1174.4570
 3366.5000     8.0380  -999.2500     0.0210     2.5380     0.2510  1105.0551   -55.9800     5.9400     5.7790     8.4110  1173.2729
 3367.0000     8.0450  -999.2500     0.0270     2.5480     0.2340  1105.0551   -56.0450     5.9340     5.8860     9.6670  1172.0900
 3367.5000     8.0550  -999.2500     0.0410     2.5580     0.2270  1105.0551   -55.8620     5.9130     5.8860    11.0500  1170.9070
 3368.0000     8.0660  -999.2500     0.0500     2.5580     0.2330  1105.0551   -55.6620     5.8840     5.7090    10.2800  1169.7230
 3368.5000     8.0760  -999.2500     0.0450     2.5440  -999.2500  1105.0551   -55.4650     5.8880     5.5720     9.0360  1168.5400
 3369.0000     8.0860  -999.2500     0.0350     2.5210  -999.2500  1105.0551   -55.5400     5.6180     5.3160     7.7920  1167.3560
 3369.5000     8.0970  -999.2500     0.0240     2.4970  -999.2500  1105.0551   -55.6330     5.3750     5.0320     6.5480  1166.1730
 3370.0000     8.0870  -999.2500     0.0150     2.4730  -999.2500  1105.0551   -55.6540     5.1320     4.7480     5.1800  1164.9900
 3370.5000     8.0750  -999.2500     0.0090     2.4480  -999.2500  1105.0551   -55.6550     4.8890     4.4350     5.3340  1163.8060
 3371.0000     8.0630  -999.2500     0.0050     2.4590  -999.2500  1105.0551   -55.6540     4.6460     4.3840     5.5540  1162.6230
 3371.5000     8.0510  -999.2500     0.0130     2.4810  -999.2500  1105.0551   -55.6360     4.4530     4.3110     5.7740  1161.4390
 3372.0000     8.0380  -999.2500     0.0170     2.5080  -999.2500  1105.0551   -55.5670     4.3750     4.2380     5.9950  1160.2560
 3372.5000     8.0380  -999.2500     0.0200     2.5090  -999.2500  1105.0551   -55.5000     4.2980     4.1650     6.1050  1159.0730
 3373.0000     8.0380  -999.2500     0.0160     2.4990  -999.2500  1105.0551   -55.4050     4.2200     4.0920     5.9130  1157.8890
 3373.5000     8.0380  -999.2500     0.0080     2.4880  -999.2500  1105.0551   -55.2200     4.1430     4.0120     5.6400  1156.7061
 3374.0000     8.0380  -999.2500     0.0060     2.4870  -999.2500  1105.0551   -55.0200     4.0660     3.8750     5.3680  1155.7540
 3374.5000     8.0380  -999.2500     0.0100     2.4920  -999.2500  1105.0551   -54.6760     3.9590     3.7240     5.0950  1154.3790
 3375.0000     8.0380  -999.2500     0.0160     2.4990  -999.2500  1105.0551   -54.4610     3.7830     3.5730     4.8220  1152.9980
 3375.5000     8.0380  -999.2500     0.0240     2.5050  -999.2500  1105.0551   -54.2670     3.6060     3.4210     4.5490  1151.6180
 3376.0000     8.0380  -999.2500     0.0280     2.5080  -999.2500  1105.0551   -54.2660     3.4300     3.2700     4.2770  1150.2371
 3376.5000     8.0380  -999.2500     0.0240     2.5080  -999.2500  1105.0551   -54.2670     3.3420     3.1640     3.8680  1148.8560
 3377.0000     8.0380  -999.2500     0.0230     2.5110  -999.2500  1105.0551   -54.3540     3.3120     3.2040     3.9920  1147.4760
 3377.5000     8.0380  -999.2500     0.0280     2.5190  -999.2500  1105.0551   -54.5330     3.4390     3.2840     4.2410  1146.0950
 3378.0000     8.0380  -999.2500     0.0370     2.5280  -999.2500  1105.0551   -54.6800     3.5370     3.3630     4.3550  1144.0031
 3378.5000     8.0380  -999.2500     0.0430     2.5290  -999.2500  1105.0551   -54.7370     3.6360     3.4430     4.3150  1141.7430
 3379.0000     8.0380  -999.2500     0.0330     2.5200  -999.2500  1105.0551   -54.7940     3.7340     3.5230     4.4840  1139.4840
 3379.5000     8.0380  -999.2500     0.0210     2.5080  -999.2500  1105.0551   -54.8540     3.8480     3.6110     4.6470  1137.2250
 3380.0000     8.0380  -999.2500     0.0140     2.5010  -999.2500  1105.0551   -55.1450     4.0180     3.7710     4.7640  1138.6899
 3380.5000     8.0370  -999.2500     0.0120     2.5100  -999.2500  1105.0551   -55.4710     4.1870     3.9320     4.8370  1145.3170
 3381.0000     8.0130  -999.2500     0.0190     2.5230  -999.2500  1105.0551   -55.6530     4.3570     4.0930     5.0950  1151.9440
 3381.5000     7.9800  -999.2500     0.0290     2.5370  -999.2500  1105.0551   -55.6530     4.5260     4.2530     5.5680  1155.7540
 3382.0000     7.9370  -999.2500     0.0420     2.5460  -999.2500  1105.0551   -55.5820     4.6960     4.4140     6.0410  1146.3990
 3382.5000     7.8450  -999.2500     0.0640     2.5390  -999.2500  1105.0551   -55.4100     4.8660     4.5740     6.5130  1148.8840
 3383.0000     7.5950  -999.2500     0.1000     2.5280  -999.2500  1105.0551   -55.2210     5.0350     4.7350     6.7700  1151.3690
 3383.5000     7.3300  -999.2500     0.1440     2.5170  -999.2500  1105.0551   -55.0310     5.2050     4.8950     6.8400  1153.8540
 3384.0000     7.0560  -999.2500     0.1470  -999.2500  -999.2500  1105.0551   -54.8400     5.3240     5.0400     6.9100  1155.7540
 3384.5000  -999.2500  -999.2500  -999.2500  -999.2500  -999.2500  1105.0551   -54.6490     5.3500     5.0610     7.0010  1155.7540
 3385.0000  -999.2500  -999.2500  -999.2500  -999.2500  -999.2500  1105.0551   -54.4670     5.3720     5.0860     6.9720  1155.7540
 3385.5000  -999.2500  -999.2500  -999.2500  -999.2500  -999.2500  1105.0551   -54.5000     5.3150     5.0200     6.9140  1155.7540
 3386.0000  -999.2500  -999.2500  -999.2500  -999.2500  -999.2500  1105.0551   -54.5460     5.2620     4.9470     6.7740  1155.7540
 3386.5000  -999.2500  -999.2500  -999.2500  -999.2500  -999.2500  1105.0551   -54.5910     5.2100     4.8740     6.4410  1155.7540
 3387.0000  -999.2500  -999.2500  -999.2500  -999.2500  -999.2500  1105.0551   -54.6360     5.1580     4.8000     6.2170  1155.7540
 3387.5000  -999.2500  -999.2500  -999.2500  -999.2500  -999.2500  1105.0551   -54.6810     5.1050     4.7270     6.3320  1155.7540
 3388.0000  -999.2500  -999.2500  -999.2500  -999.2500  -999.2500  1105.0551   -54.7260     5.0530     4.6540     6.0070  1155.7540
 3388.5000  -999.2500  -999.2500  -999.2500  -999.2500  -999.2500  1105.0551   -54.7710     5.0010     4.5580     5.7120  1155.7540
 3389.0000  -999.2500  -999.2500  -999.2500  -999.2500  -999.2500  1105.0551   -54.8150     4.9480     4.5670     5.5720  1155.7540
 3389.5000  -999.2500  -999.2500  -999.2500  -999.2500  -999.2500  1105.0551   -54.8600     4.8960     4.5840     5.8140  1155.7540
 3390.0000  -999.2500  -999.2500  -999.2500  -999.2500  -999.2500  1105.0551   -54.9050     4.8590     4.6000     6.1590  1155.7540
 3390.5000  -999.2500  -999.2500  -999.2500  -999.2500  -999.2500  1105.0551   -54.9500     4.8600     4.6000     6.3900  1155.7540
 3391.0000  -999.2500  -999.2500  -999.2500  -999.2500  -999.2500  1105.0551   -54.9950     4.8630     4.5430     6.2290  1155.7540
 3391.5000  -999.2500  -999.2500  -999.2500  -999.2500  -999.2500  1105.0551   -55.0400     4.8660     4.4760     6.0490  1155.7540
 3392.0000  -999.2500  -999.2500  -999.2500  -999.2500  -999.2500  1105.0551   -55.0590     4.8680     4.5080     6.0490  1155.7540
 3392.5000  -999.2500  -999.2500  -999.2500  -999.2500  -999.2500  1105.0551   -55.0610     4.8710     4.5550     6.1940  1155.7540
 3393.0000  -999.2500  -999.2500  -999.2500  -999.2500  -999.2500  1105.0551   -55.0560     4.8740     4.6010     6.4000  1155.7540
 3393.5000  -999.2500  -999.2500  -999.2500  -999.2500  -999.2500  1105.0551   -54.8580     4.8770     4.6640     6.6060  1155.7540
 3394.0000  -999.2500  -999.2500  -999.2500  -999.2500  -999.2500  1105.0551   -54.6460     4.8790     4.6850     6.8740  1155.7540
 3394.5000  -999.2500  -999.2500  -999.2500  -999.2500  -999.2500  1105.0551   -54.4340     4.8820     4.6850     6.7990  1155.7540
 3395.0000  -999.2500  -999.2500  -999.2500  -999.2500  -999.2500  1105.0551   -54.2220     4.8850     4.6850     6.6500  1155.7540
 3395.5000  -999.2500  -999.2500  -999.2500  -999.2500  -999.2500  1105.0551   -54.0100     4.8880     4.6850     6.5010  1155.7540
