~VERSION INFORMATION
 VERS.                2.0:   CWLS LOG ASCII STANDARD - VERSION 2.0
 WRAP.                 NO:   ONE LINE PER DEPTH STEP
~WELL INFORMATION
#MNEM.UNIT      DATA TYPE    INFORMATION
#----------   ------------   ------------------------------
 STRT.F          203.5000:   START DEPTH
 STOP.F         3126.0000:   STOP DEPTH
 STEP.F            0.5000:   STEP LENGTH
 NULL.          -999.2500:   NO VALUE
 COMP.    FENIX & SCISSON:   COMPANY
 WELL. FENIX NPR 3 "AX" #88-33:   WELL
 FLD .        TEAPOT DOME:   FIELD
 LOC .      S33 T39N R78W:   LOCATION
 CNTY.            NATRONA:   COUNTY
 STAT.            WYOMING:   STATE
 CTRY. UNITED STATES OF AMERICA:   COUNTRY
 SRVC.       SCHLUMBERGER:   SERVICE COMPANY
 DATE.        23-JAN-1978:   LOGDATE
 API .     49025105610000:   API NUMBER
~CURVE INFORMATION
#MNEM.UNIT       API CODE    CURVE DESCRIPTION
#----------   ------------   ------------------------------
 DEPT.F                  :   
 CALD.IN     45 280 60 00:   CALIPER FROM DENSITY LOG
 GRD .GAPI   45 310 01 00:   GAMMA RAY FROM DENSITY LOG
 RHOB.G/C3   45 350 01 00:   BULK DENSITY
 CORR.G/C3   45 356 01 00:   DENSITY CORRECTION
 SPR .MV     05 010 01 00:   SPONTANEOUS POTENTIAL
 SN  .OHMM   05 040 16 00:   SHORT NORMAL 16"
 ILD .OHMM   05 120 46 00:   DEEP INDUCTION RESISTIVITY
~PARAMETER INFORMATION
#MNEM.UNIT          VALUE    DESCRIPTION
#----------   ------------   ------------------------------
 EKB .F         5174.0000:   Kelly bushing
 EGL .F         5164.0000:   Ground level
 EDF .F            0.0000:   Drilling floor
 TD  .F         3115.0000:   Total depth
 DATE.        23-JAN-1978:   Date logged
 CLNT.            A2DTECH:   Client Code
 PD  .                 GL:   Permanent Datum
 EPD .F              5164:   Elevation Permanent Datum
 LMF .                 KB:   Log Measured From
 DMF .                 KB:   Drilling Measured From
 DD  .F              3115:   Depth driller
 DL  .F              3115:   Depth logger
 BLI .F              3115:   Bottom log interval
 TLI .F               210:   Top log interval
 CS1 .IN            8.625:   Casing size
 CBD1.      9.625" @ 219':   Casing driller 1
 CBL1.F               219:   Casing logger 1
 BS1 .IN            7.875:   Bit size
 BSD1.F              3115:   Depth drilled with bit1
 DFT .                GEL:   Type fluid in hole
 DFD .                8.9:   Density
 DFV .                 36:   Viscosity
 DFPH.                 10:   pH
 DFL .                7.8:   Fluid loss
 MSS .           FLOWLINE:   Source of sample
 RMS .OHMM            2.2:   Rm
 MST .F                62:   Rm Meas. temp.
 RMF .OHMM           1.94:   Rmf
 MFST.F                54:   Rmf Meas. temp.
 RMC .OHMM            3.4:   Rmc
 MCST.F                54:   Rmc Meas. temp.
 MFSS.               MEAS:   Source Rmf.
 MCSS.               MEAS:   Source Rmc.
 RMB .OHMM            1.1:   Rm. at BHT
 BHT .F               114:   BHT.
 TCS .HRS             4.5:   Time Circ. stopped
 MRT .F               114:   Maximum recorded temp.
 LUN .               2958:   Logging unit number
 LUL .             CASPER:   Logging unit location
 ENGI.           REYNOLDS:   Recorded By
 WITN.           MCGINLEY:   Witnessed by
 ORIG.           5" PRINT:   Origin of data
 UWI .     49025105610000:   Unique Well ID
 DICO. A2D TECHNOLOGIES, INC.:   Digitizing Company
 DAPD.F              5164:   Feet Above Permanent Datum
 SL  . 100' FSL & 550' FEL:   Surface Location
~OTHER INFORMATION
~A   DEPT     CALD        GRD       RHOB       CORR        SPR         SN        ILD   
# ...
 3070.0000     7.4136    72.2468     2.4119     0.1610   -38.3022     6.7594     6.1087
 3070.5000     7.4138    73.2429     2.4399     0.1590   -37.1106     6.6358     5.8335
 3071.0000     7.4140    74.4378     2.4599     0.1550   -36.7148     6.1652     5.6222
 3071.5000     7.4142    76.6267     2.4617     0.1511   -35.9199     6.0522     5.4686
 3072.0000     7.4741    80.0085     2.4748     0.1251   -33.9319     5.9962     5.3684
 3072.5000     7.4544    82.7935     2.4748     0.1111   -33.3370     5.8861     5.1740
 3073.0000     7.4546    85.9765     2.4758     0.0971   -33.3393     5.6211     5.0791
 3073.5000     7.4548    90.1536     2.4838     0.0852   -33.1426     5.3679     4.9373
 3074.0000     7.4550    93.3366     2.4948     0.0712   -32.9458     5.1722     4.6961
 3074.5000     7.4751    99.3025     2.5057     0.0492   -32.9482     5.0312     4.4600
 3075.0000     7.4753   106.8594     2.5197     0.0412   -32.7514     4.7606     4.4189
 3075.5000     7.4754   110.0420     2.5297     0.0372   -32.3555     4.5881     4.2582
 3076.0000     7.4756   112.6294     2.5337     0.0293   -32.5570     4.4626     4.2621
 3076.5000     7.5156   111.0401     2.5287     0.0193   -32.3602     4.4624     4.2227
 3077.0000     7.5357   109.2528     2.5137     0.0111   -32.3626     4.4620     4.1836
 3077.5000     7.5359   113.7283     2.5087     0.0051   -32.3649     4.3003     4.1449
 3078.0000     7.5361   112.4378     2.4987    -0.0009   -32.3672     4.1452     4.1445
 3078.5000     7.5760   110.8493     2.4997    -0.0009   -32.3696     4.2608     4.2211
 3079.0000     7.5762   108.5648     2.4987    -0.0009   -32.3719     4.3797     4.3389
 3079.5000     7.5963   109.0640     2.4987     0.0031   -32.3742     4.4599     4.3385
 3080.0000     7.5965   111.3526     2.4937     0.0111   -32.3766     4.5007     4.3381
 3080.5000     7.5967   111.1550     2.4937     0.0131   -32.3789     4.5003     4.3377
 3081.0000     7.5969   109.6665     2.4927     0.0131   -32.3813     4.4999     4.3372
 3081.5000     7.6171   108.4756     2.4927     0.0151   -32.5827     4.5000     4.3770
 3082.0000     7.6172   106.6883     2.4997     0.0250   -32.3855     4.4999     4.3766
 3082.5000     7.6174   106.4915     2.5027     0.0430   -32.3878     4.4992     4.3762
 3083.0000     7.6176   105.1018     2.5127     0.0590   -32.5893     4.4578     4.3758
 3083.5000     7.6178   104.1098     2.5166     0.0770   -32.5916     4.4574     4.3353
 3084.0000     7.6180   105.0066     2.5156     0.0875   -32.7931     4.2566     4.2952
 3084.5000     7.5983   105.0079     2.5156     0.0889   -32.7954     4.2172     4.2165
 3085.0000     7.5786   103.5194     2.5176     0.1089   -32.7978     4.1782     4.2161
 3085.5000     7.5589   101.9309     2.5296     0.1185   -32.8001     4.2164     4.1771
 3086.0000     7.5591   100.7400     2.5326     0.1265   -32.6033     4.2943     4.2153
 3086.5000     7.5593   100.5432     2.5346     0.1325   -32.4065     4.2939     4.2539
 3087.0000     7.5595   100.7440     2.5356     0.1345   -32.2097     4.2935     4.2535
 3087.5000     7.5399   102.3365     2.5356     0.1296   -31.8137     4.2931     4.2924
 3088.0000     7.5202   102.9350     2.5286     0.1216   -31.6169     4.2927     4.2922
 3088.5000     7.5204   102.9366     2.5256     0.1056   -31.6192     4.1372     4.2916
 3089.0000     7.5007   102.3422     2.5246     0.0896   -31.6216     4.0989     4.2519
 3089.5000     7.4611   101.5489     2.5216     0.0797   -31.6239     4.0986     4.1358
 3090.0000     7.4613    99.9608     2.5236     0.0685   -31.8254     4.0234     4.1308
 3090.5000     7.4615    99.5648     2.5449     0.0625   -32.0269     3.9497     3.9442
 3091.0000     7.4617   100.1633     2.5409     0.0485   -32.2284     3.9132     3.9439
 3091.5000     7.4619   101.7558     2.5186     0.0485   -32.4299     3.8770     3.8714
 3092.0000     7.4621   102.5530     2.5046     0.0518   -32.4322     3.7366     3.7308
 3092.5000     7.4623   102.5550     2.5046     0.0518   -32.2349     3.7362     3.7305
 3093.0000     7.4625   102.3582     2.5006     0.0485   -32.4364     3.7017     3.6672
 3093.5000     7.4429   102.3602     2.5006     0.0525   -32.4388     3.7355     3.7007
 3094.0000     7.4232   102.1634     2.4996     0.0625   -32.6403     3.8397     3.7346
 3094.5000     7.4433   101.5690     2.4996     0.0725   -32.6426     3.9107     3.7688
 3095.0000     7.4236   104.1556     2.4996     0.0924   -32.6450     3.9103     3.8384
 3095.5000     7.4238   106.3453     2.5045     0.1064   -32.6473     4.0194     3.9094
 3096.0000     7.4239   105.5513     2.5115     0.1224   -32.6497     4.0937     3.9451
 3096.5000     7.3446   104.7576     2.5165     0.1379   -32.6520     4.0933     3.9812
 3097.0000     7.3846   104.7600     2.5305     0.1379   -32.6543     4.1689     4.0922
 3097.5000     7.4245   103.9668     2.5385     0.1339   -32.6567     4.3641     4.1679
 3098.0000     7.4247   100.7878     2.5445     0.1279   -32.8582     4.4040     4.2449
 3098.5000     7.4249    98.0064     2.5445     0.1159   -32.8606     4.4854     4.3233
 3099.0000     7.4251   100.3942     2.5385     0.1040   -32.8629     4.5264     4.3230
 3099.5000     7.4253   101.7875     2.5375     0.0920   -32.8652     4.5260     4.3225
 3100.0000     7.4255   101.9879     2.5375     0.0880   -33.0668     4.5257     4.2044
 3100.5000     7.4258    97.5080     2.5368     0.0880   -32.7221     4.5252     4.1657
 3101.0000     7.4445    98.4002     2.5355     0.0664   -32.6708     4.4853     4.0529
 3101.5000     7.4440   101.7767     2.5175     0.0664   -32.6719     4.4037     3.9066
 3102.0000     7.4435   103.1633     2.5105     0.0704   -32.6728     4.2060     3.8356
 3102.5000     7.4430   105.9414     2.5105     0.0764   -32.6740     4.0542     3.7658
 3103.0000     7.4425   105.5378     2.5115     0.0864   -32.6752     3.9078     3.7315
 3103.5000     7.4221   105.3339     2.5185     0.0924   -32.8754     3.8016     3.6636
 3104.0000     7.4216   105.3299     2.5205     0.0864   -32.8766     3.6983     3.6638
 3104.5000     7.4211   104.7275     2.5185     0.0884   -32.8777     3.6646     3.6304
 3105.0000     7.4007   104.5217     2.5055     0.0964   -33.0779     3.7328     3.5974
 3105.5000     7.4002   104.3199     2.5065     0.0944   -33.2781     3.7330     3.6308
 3106.0000     7.3799   103.7185     2.5185     0.0964   -33.2793     3.7332     3.6645
 3106.5000     7.3794   104.1110     2.5075     0.0884   -33.2804     3.8027     3.7328
 3107.0000     7.3789   104.3058     2.5035     0.0864   -33.2815     3.8029     3.8023
 3107.5000     7.3586   106.1857     2.5035     0.0864   -33.2824     3.8737     3.8376
 3108.0000     7.3579   104.4946     2.5025     0.0924   -33.0845     3.9824     3.8378
 3108.5000     7.3377   101.9052     2.5025     0.1044   -33.0856     4.1702     3.8735
 3109.0000     7.2775   103.2928     2.5015     0.1084   -32.8878     4.0197     3.9095
 3109.5000     7.1975   105.6723     2.5055     0.1104   -32.4910     3.9830     3.9097
 3110.0000     7.1176   109.8420     2.5125     0.1104   -32.2933     3.9832     3.8741
 3110.5000  -999.2500   109.8369     2.5115     0.1064   -32.0955     4.2096     3.8388
 3111.0000  -999.2500   109.4211     2.5035     0.1124   -31.8978  -999.2500  -999.2500
 3111.5000  -999.2500   109.0317     2.5035     0.1344   -32.2968  -999.2500  -999.2500
 3112.0000  -999.2500   109.6241     2.5105     0.1344   -32.8947  -999.2500  -999.2500
 3112.5000  -999.2500   110.4143     2.5115     0.1384   -32.8956  -999.2500  -999.2500
 3113.0000  -999.2500   102.3564     2.5065     0.1464   -33.0956  -999.2500  -999.2500
 3113.5000  -999.2500  -999.2500     2.5127     0.1444   -32.8979  -999.2500  -999.2500
 3114.0000  -999.2500  -999.2500     2.5036     0.1364   -33.0978  -999.2500  -999.2500
 3114.5000  -999.2500  -999.2500     2.4775     0.1344   -32.9001  -999.2500  -999.2500
 3115.0000  -999.2500  -999.2500     2.4665     0.1344   -33.1001  -999.2500  -999.2500
