~VERSION INFORMATION
 VERS.                2.0:   CWLS LOG ASCII STANDARD - VERSION 2.0
 WRAP.                 NO:   ONE LINE PER DEPTH STEP
~WELL INFORMATION
#MNEM.UNIT      DATA TYPE    INFORMATION
#----------   ------------   ------------------------------
 STRT.F         3288.0000:   START DEPTH
 STOP.F         4421.0000:   STOP DEPTH
 STEP.F            0.5000:   STEP LENGTH
 NULL.          -999.2500:   NO VALUE
 COMP.       FLUOR DANIEL:   COMPANY
 WELL. FLUOR 22 "X" #2-10:   WELL
 FLD . TEA POT DOME NAVAL PETROLEUM DO:   FIELD
 LOC .      S10 T38N R78W:   LOCATION
 CNTY.            NATRONA:   COUNTY
 STAT.            WYOMING:   STATE
 CTRY. UNITED STATES OF AMERICA:   COUNTRY
 SRVC.        HALLIBURTON:   SERVICE COMPANY
 DATE.        13-DEC-1996:   LOGDATE
 API .     49025228330000:   API NUMBER
~CURVE INFORMATION
#MNEM.UNIT       API CODE    CURVE DESCRIPTION
#----------   ------------   ------------------------------
 DEPT.F                  :   
 NPHI.DEC    42 890 03 00:   NEUTRON POROSITY SANDSTONE
 GRD .GAPI   45 310 01 00:   GAMMA RAY FROM DENSITY LOG
 CALD.IN     45 280 60 00:   CALIPER FROM DENSITY LOG
 PE  .B/E    45 358 01 00:   PHOTOELECTRIC FACTOR
 CORR.G/C3   45 356 01 00:   DENSITY CORRECTION
 TEND.LBS    45 635 01 00:   TENSION FORM DENSITY LOG
 RHOB.G/C3   45 350 01 00:   BULK DENSITY
 TENR.LBS    07 635 01 00:   TENSION FROM RESISTIVITY
 ILD .OHMM   07 120 46 00:   DEEP INDUCTION RESISTIVITY
 ILM .OHMM   07 120 44 00:   INDUCTION LOG MEDIUM RESISTIVITY
 SFL .OHMM   07 220 01 00:   SHALLOW FOCUSED LOG RESISTIVITY
~PARAMETER INFORMATION
#MNEM.UNIT          VALUE    DESCRIPTION
#----------   ------------   ------------------------------
 EKB .F         5268.0000:   Kelly bushing
 EGL .F         5258.0000:   Ground level
 EDF .F         5267.0000:   Drilling floor
 TD  .F         4435.0000:   Total depth
 CLNT.            A2DTECH:   Client Code
 SL  . 569' FNL & 1440' FWL:   Surface Location
 PD  .                 GL:   Permanent Datum
 EPD .F              5258:   Elevation Permanent Datum
 LMF .                 KB:   Log Measured From
 DMF .                 KB:   Drilling Measured From
 DAPD.F                10:   Feet Above Permanent Datum
 DATE.        13-DEC-1996:   Date Logged [DD-MMM-YYYY]
 DD  .F              4435:   Depth driller
 DL  .F              4412:   Depth logger
 BLI .F              4403:   Bottom log interval
 TLI .F              3308:   Top log interval
 CS1 .IN            9.625:   Casing size
 CBD1.     9.625" @ 3307':   Casing driller 1
 CBL1.F              3308:   Casing logger 1
 BS1 .IN              8.5:   Bit size
 BSD1.F              4435:   Depth drilled with bit1
 DFT .           POLY-KCL:   Type fluid in hole
 DFD .                  9:   Density
 DFV .                 50:   Viscosity
 DFPH.                  9:   pH
 DFL .                  7:   Fluid loss
 MSS .           MUD TANK:   Source of sample
 RMS .OHMM           0.47:   Rm
 MST .F                56:   Rm Meas. temp.
 RMF .OHMM           0.36:   Rmf
 MFST.F                61:   Rmf Meas. temp.
 MFSS.               MEAS:   Source Rmf.
 RMC .OHMM           0.48:   Rmc
 MCST.F                68:   Rmc Meas. temp.
 MCSS.               MEAS:   Source Rmc.
 RMB .OHMM           0.20:   Rm. at BHT
 BHT .F               138:   BHT.
 TCS .HRS              20:   Time Circ. stopped
 TLAB.HRS            0108:   Time logger at bottom
 MRT .F               138:   Maximum recorded temp.
 LUN .              52546:   Logging unit number
 LUL .              VERNI:   Logging unit location
 ENGI.        JOHN SAVAGE:   Recorded By
 WITN.          STEBBINGS:   Witnessed by
 ORIG.         2.5" PRINT:   Origin of data
 UWI .     49025228330000:   Unique Well ID
 DICO. A2D TECHNOLOGIES, INC.:   Digitizing Company
~OTHER INFORMATION
~A  DEPT        NPHI       GRD      CALD         PE       CORR       TEND       RHOB       TENR        ILD        ILM        SFL   
# ...
 3379.5000     0.2236   111.9068     9.4931     2.7973     0.0406  2922.5657     2.5162  2981.5637     4.5768     4.5668     5.7299
 3380.0000     0.2262   109.6075     9.5076     2.7976     0.0406  2942.6565     2.5117  2982.5579     4.2627     4.4388     5.5753
 3380.5000     0.2305   108.5932     9.5076     2.7677     0.0406  2942.2961     2.5056  2983.5757     4.0253     4.2867     5.0847
 3381.0000     0.2387   108.8761     9.5076     2.7680     0.0405  2941.9939     2.4936  2984.5930     3.7829     4.0363     4.6293
 3381.5000     0.2483   110.0810     9.5076     2.7381     0.0371  2941.6365     2.4830  2985.6104     3.5891     3.7737     4.3649
 3382.0000     0.2616   113.0993     9.5378     2.7384     0.0342  2941.3450     2.4649  2986.6277     3.3965     3.5235     4.0781
 3382.5000     0.2629   117.9302     9.5982     2.7084     0.0331  2910.8420     2.4619  2958.7480     3.2608     3.3365     3.9144
 3383.0000     0.2623   121.5526     9.6302     2.7088     0.0352  2910.5508     2.4620  2959.7102     3.1306     3.2460     3.8083
 3383.5000     0.2599   119.7370     9.6627     2.7393     0.0376  2910.2593     2.4637  2960.6724     3.1298     3.1988     3.8143
 3384.0000     0.2556   116.7130     9.6888     2.7396     0.0400  2909.9678     2.4663  2990.7041     3.1732     3.1992     3.8705
 3384.5000     0.2484   112.3721     9.6888     2.7399     0.0407  2909.6677     2.4800  2991.7148     3.2851     3.2698     3.9480
 3385.0000     0.2387   109.2140     9.6475     2.7553     0.0422  2909.3657     2.4904  2992.7324     3.6462     3.5550     4.2072
 3385.5000     0.2254   105.5780     9.6150     2.8010     0.0422  2909.0635     2.4989  2993.7498     4.2501     4.1838     4.8445
 3386.0000     0.2144   103.2389     9.5825     2.8315     0.0407  2908.7615     2.5106  2994.7671     5.1517     4.5963     5.6178
 3386.5000     0.1883   101.9829     9.5378     2.8620     0.0407  2908.4592     2.5211  2995.7849     5.5097     5.3297     6.7840
 3387.0000     0.1855   100.7271     9.5378     2.8925     0.0392  2908.1570     2.5272  2967.8882     5.5834     5.6247     7.4533
 3387.5000     0.1905    99.7734     9.5680     2.9230     0.0377  2907.8550     2.5276  2968.8506     5.5817     5.6963     7.3417
 3388.0000     0.2074    99.7704     9.5982     2.9233     0.0362  2907.5530     2.5227  2969.8123     5.2869     5.5261     6.7426
 3388.5000     0.2203   100.3711     9.5680     2.8934     0.0365  2907.1992     2.5197  2970.7849     4.7256     4.9495     5.8176
 3389.0000     0.2224   100.3682     9.5378     2.8634     0.0382  2906.9080     2.5167  2971.8022     4.2279     4.2247     5.2873
 3389.5000     0.2215   101.5737     9.5378     2.8638     0.0398  2906.6165     2.5136  2972.8201     4.0322     4.0549     5.0569
 3390.0000     0.2194   103.9877     9.5418     2.8338     0.0408  2906.3250     2.5107  2973.8374     4.2438     4.1080     5.0238
 3390.5000     0.2158   106.4017     9.5743     2.8039     0.0423  2906.0337     2.5144  2974.8547     4.5212     4.2765     5.0294
 3391.0000     0.2073   108.2194     9.5982     2.8042     0.0438  2905.7402     2.5207  2976.0664     4.7376     4.5378     5.2407
 3391.5000     0.2054   108.8653     9.5570     2.8045     0.0423  2905.4380     2.5244  2977.0281     4.8007     4.7768     6.1724
 3392.0000     0.2091   108.6164     9.4943     2.8048     0.0408  2905.1360     2.5173  2948.8369     4.7351     4.8209     6.2237
 3392.5000     0.2212   106.8532     9.4773     2.8051     0.0363  2921.9578     2.5055  2949.8828     4.7339     4.6814     5.7361
 3393.0000     0.2285   105.7825     9.4773     2.8054     0.0287  2964.9021     2.4913  2950.8723     4.5967     4.4401     5.3591
 3393.5000     0.2310   105.7795     9.5076     2.8057     0.0257  2964.6106     2.4837  2951.8896     4.3997     4.2616     5.3567
 3394.0000     0.2351   105.7764     9.5378     2.8061     0.0257  2964.3193     2.4807  2952.9070     4.2457     4.2595     5.2825
 3394.5000     0.2417   105.7734     9.5680     2.8366     0.0287  2903.6050     2.4777  2982.9941     4.1640     4.1367     5.0671
 3395.0000     0.2500   105.7698     9.5982     2.8369     0.0306  2903.3135     2.4778  3013.0811     3.9915     4.0167     4.8452
 3395.5000     0.2573   106.3716     9.6284     2.8674     0.0337  2872.8096     2.4808  3014.2759     3.8077     3.8065     4.5296
 3396.0000     0.2699   106.9728     9.5949     2.8677     0.0384  2872.5076     2.4854  3015.2380     3.5104     3.5360     4.3178
 3396.5000     0.2764   108.1780     9.5076     2.8647     0.0416  2872.2056     2.4837  3016.2002     3.1929     3.1559     3.9666
 3397.0000     0.2773   111.1962     9.5138     2.8656     0.0439  2841.6917     2.4791  3017.1624     3.0654     3.0290     3.6088
 3397.5000     0.2758   114.8187     9.5765     2.8663     0.0435  2841.3896     2.4760  2986.4290     3.0729     2.9869     3.5110
 3398.0000     0.2709   116.0480     9.6284     2.8671     0.0409  2882.5635     2.4729  2960.9470     3.1567     3.0715     3.5572
 3398.5000     0.2655   115.8842     9.6152     2.8537     0.0379  2901.2085     2.4763  2962.0642     3.2765     3.2137     3.6529
 3399.0000     0.2522   113.8675     9.5525     2.8384     0.0356  2900.9062     2.4841  2963.0815     3.4526     3.4865     4.1963
 3399.5000     0.2328   111.0241     9.4773     2.8089     0.0348  2900.5449     2.4932  2980.1355     3.7829     3.7292     4.4352
 3400.0000     0.2153   110.4528     9.5276     2.8098     0.0348  2870.0422     2.5063  2994.3464     4.0643     4.0091     4.7377
 3400.5000     0.1987   109.6953     9.5980     2.7802     0.0349  2809.3276     2.5126  2958.6799     4.5392     4.3939     5.2436
 3401.0000     0.1865   108.6611     9.6281     2.7508     0.0349  2839.2476     2.5204  2943.2356     5.4667     5.2876     5.8828
 3401.5000     0.1796   107.4016     9.5977     2.7516     0.0349  2899.3794     2.5282  2944.4341     6.2555     6.0071     6.8713
 3402.0000     0.1790   104.9344     9.5674     2.7221     0.0349  2959.5107     2.5302  2945.4114     6.5126     6.0056     7.7559
 3402.5000     0.1808   104.5026     9.4766     2.6926     0.0349  2898.7915     2.5251  2946.3887     6.5108     5.9235     7.9648
 3403.0000     0.1845   106.2353     9.4427     2.6934     0.0349  2904.9109     2.5160  2947.3662     6.5080     5.7642     7.7421
 3403.5000     0.1905   107.5106     9.4159     2.6941     0.0331  2958.6365     2.5039  2948.3823     6.3232     5.5186     7.3232
 3404.0000     0.1972   107.5033     9.4540     2.6949     0.0299  2950.6406     2.4934  2949.4119     6.1241     5.2414     7.0883
 3404.5000     0.2035   105.6848     9.5165     2.6956     0.0283  2897.5833     2.4873  2950.4412     5.7828     5.0782     6.5682
 3405.0000     0.2077   103.8663     9.5237     2.7367     0.0267  2885.1904     2.4828  2951.4707     5.4269     5.0306     6.1895
 3405.5000     0.2095   102.6520     9.4910     2.7999     0.0251  2836.5559     2.4813  2952.5000     5.0973     5.0976     5.9805
 3406.0000     0.2105   102.0420     9.4755     2.9073     0.0228  2836.2537     2.4953  2953.7185     5.1653     5.1653     6.1415
 3406.5000     0.2091    99.0150     9.4451     3.0330     0.0228  2835.8960     2.5183  2954.6958     5.2342     5.3053     6.2223
 3407.0000     0.2019    91.6787     9.4148     3.1527     0.0274  2835.6047     2.5547  2955.6731     5.5233     5.8298     6.5647
 3407.5000     0.1875    85.2300     9.3844     3.2139     0.0319  2835.3135     2.5791  2986.0618     6.3505     6.5816     7.2544
 3408.0000     0.1797    79.6616     9.4145     3.2225     0.0350  2835.0217     2.5860  2987.0586     8.2506     8.3664     9.5330
 3408.5000     0.1779    81.1622     9.4143     3.1247     0.0365  2834.7305     2.5759  2988.0884     8.9745     9.4725    11.8767
 3409.0000     0.1809    84.8464     9.4444     2.9744     0.0366  2894.8621     2.5511  2989.1174     8.7957     8.8600     9.8646
 3409.5000     0.1857    91.4698     9.4415     2.8543     0.0397  2924.7822     2.5330  2960.5596     7.2470     7.5177     8.5068
