~VERSION INFORMATION
 VERS.                2.0:   CWLS LOG ASCII STANDARD - VERSION 2.0
 WRAP.                 NO:   ONE LINE PER DEPTH STEP
~WELL INFORMATION
#MNEM.UNIT      DATA TYPE    INFORMATION
#----------   ------------   ------------------------------
 STRT.F          700.5000:   START DEPTH
 STOP.F         3060.0000:   STOP DEPTH
 STEP.F            0.5000:   STEP LENGTH
 NULL.          -999.2500:   NO VALUE
 COMP.    FENIX & SCISSON:   COMPANY
 WELL.   FENIX "A" #23-34:   WELL
 FLD .           N P R #3:   FIELD
 LOC .      S34 T39N R78W:   LOCATION
 CNTY.            NATRONA:   COUNTY
 STAT.            WYOMING:   STATE
 CTRY. UNITED STATES OF AMERICA:   COUNTRY
 SRVC.       SCHLUMBERGER:   SERVICE COMPANY
 DATE.        23-APR-1977:   LOGDATE
 API .     49025103590000:   API NUMBER
~CURVE INFORMATION
#MNEM.UNIT       API CODE    CURVE DESCRIPTION
#----------   ------------   ------------------------------
 DEPT.F                  :   
 ILD .OHMM   07 120 46 00:   DEEP INDUCTION RESISTIVITY
 ILM .OHMM   07 120 44 00:   INDUCTION LOG MEDIUM RESISTIVITY
 LL8 .OHMM   07 220 08 00:   LATEROLOG-8 RES.
 SPR .MV     07 010 01 00:   SPONTANEOUS POTENTIAL
 GRD .GAPI   45 310 01 00:   GAMMA RAY FROM DENSITY LOG
 CALD.IN     45 280 60 00:   CALIPER FROM DENSITY LOG
 RHOB.G/C3   45 350 01 00:   BULK DENSITY
 CORR.G/C3   45 356 01 00:   DENSITY CORRECTION
~PARAMETER INFORMATION
#MNEM.UNIT          VALUE    DESCRIPTION
#----------   ------------   ------------------------------
 EKB .F         5094.0000:   Kelly bushing
 EGL .F         5082.0000:   Ground level
 EDF .F            0.0000:   Drilling floor
 EPD .F            0.0000:   Permanent datum
 TD  .F         3051.0000:   Total depth
 DATE.        23-APR-1977:   Date logged
 CLNT.            A2DTECH:   Client Code
 SL  . 990' FWL & 1650' FNL:   Surface Location
 PD  .                 GL:   Permanent Datum
 DD  .F              3050:   Depth driller
 DL  .F              3051:   Depth logger
 BLI .F              3045:   Bottom log interval
 CS1 .IN            8.625:   Casing size
 CBD1.      8.625" @ 718':   Casing driller 1
 CBL1.F               717:   Casing logger 1
 BS1 .IN            7.875:   Bit size
 DFT .                FGM:   Type fluid in hole
 DFD .                8.8:   Density
 DFV .                 34:   Viscosity
 DFPH.                8.5:   pH
 DFL .                8.2:   Fluid loss
 MSS .           FLOWLINE:   Source of sample
 RMS .OHMM           .155:   Rm
 MST .F                66:   Rm Meas. temp.
 RMF .OHMM           .152:   Rmf
 MFST.F                66:   Rmf Meas. temp.
 MFSS.               MEAS:   Source Rmf.
 RMB .OHMM           .085:   Rm. at BHT
 BHT .F               120:   BHT.
 TCS .HRS            0230:   Time Circ. stopped
 MRT .F               120:   Maximum recorded temp.
 LUN .               5642:   Logging unit number
 LUL .               CSPR:   Logging unit location
 ENGI.             TAYLOR:   Recorded By
 WITN.         HARRINGTON:   Witnessed by
 ORIG.           5" PRINT:   Origin of data
 UWI .     49025103590000:   Unique Well ID
 DICO. A2D TECHNOLOGIES, INC.:   Digitizing Company
 DAPD.                 12:   Feet Above Permanent Datum
 BSD1.               3050:   Depth drilled with bit1
 TLI .                717:   Top log interval
 TLAB.               0530:   Time logger at bottom
~OTHER INFORMATION
~A   DEPT      ILD        ILM        LL8        SPR         GRD      CALD       RHOB       CORR   
# ...
 1794.0000     7.9970     7.5750     9.4390   -75.6940   143.9110     8.7540     2.4660     0.0110
 1794.5000     7.9090     7.4210     9.2210   -75.6950   143.6630     8.7500     2.4760     0.0200
 1795.0000     7.8210     7.2660     9.0810   -75.6950   146.8150     8.7470     2.4850     0.0440
 1795.5000     7.7330     7.1110     9.0730   -75.7340   149.8680     8.7430     2.4880     0.0320
 1796.0000     7.6920     6.9560     9.0580   -76.0200   149.9040     8.7510     2.4670     0.0180
 1796.5000     7.6970     6.8020     9.0420   -76.3070   149.6540     8.7640     2.4440     0.0100
 1797.0000     7.7070     6.7590     9.0270   -76.5940   148.7000     8.7770     2.4540     0.0080
 1797.5000     7.7170     6.9640     9.0120   -76.8810   147.7400     8.7910     2.4820     0.0430
 1798.0000     7.7260     7.1460     8.9920   -77.1710   147.7970     8.8120     2.5000     0.0310
 1798.5000     7.7360     7.3450     8.9440   -77.4660   149.8140     8.8440     2.4930     0.0220
 1799.0000     7.7460     7.3450     8.8960   -77.3790   152.6800     8.8310     2.4870     0.0270
 1799.5000     7.7560     7.3450     8.8330   -77.2630   155.2100     8.8100     2.4810     0.0310
 1800.0000     7.7630     7.3450     9.0270   -77.1490   156.2650     8.7880     2.4780     0.0250
 1800.5000     7.6620     7.2460     9.4120   -77.0350   154.0240     8.7670     2.4860     0.0210
 1801.0000     7.5710     7.1050     9.7770   -76.9220   154.5510     8.7460     2.4930     0.0390
 1801.5000     7.4800     6.9630     9.8680   -76.8080   156.4540     8.7230     2.4980     0.0360
 1802.0000     7.3880     6.8220     8.5000   -76.6940   156.5630     8.7220     2.4990     0.0270
 1802.5000     7.2970     6.6800     8.1550   -76.5810   154.3180     8.7220     2.4590     0.0190
 1803.0000     7.2100     6.5140     7.8540   -76.4680  -999.2500     8.7220     2.4480     0.0100
 1803.5000     7.1440     6.6120     7.3560   -76.3560  -999.2500     8.7220     2.4530     0.0090
 1804.0000     7.1440     6.8220     7.2770   -76.3690  -999.2500     8.7230     2.4610     0.0220
 1804.5000     7.1440     6.8630     8.4510   -76.5480  -999.2500     8.7240     2.4690     0.0340
 1805.0000     7.2100     6.9030     9.4850   -76.7260  -999.2500     8.7250     2.4740     0.0280
 1805.5000     7.2830     6.9430     9.3770   -76.9050  -999.2500     8.7260     2.4660     0.0170
 1806.0000     7.3530     6.9830     9.0540   -77.0840  -999.2500     8.7270     2.4620     0.0220
 1806.5000     7.4240     7.0220     8.9150   -77.2630  -999.2500     8.7280     2.4690     0.0280
 1807.0000     7.4820     7.0790     8.9150   -77.4440  -999.2500     8.7290     2.4740     0.0220
 1807.5000     7.4050     6.9930     8.9150   -77.4800  -999.2500     8.7300     2.4680     0.0250
 1808.0000     7.3270     6.8470     8.9150   -77.4800  -999.2500     8.7300     2.4620     0.0200
 1808.5000     7.2770     6.6360     8.7610   -77.4480   147.5500     8.7310     2.4600     0.0130
 1809.0000     7.3500     6.7200     8.4900   -77.2510   148.0740     8.7320     2.4600     0.0150
 1809.5000     7.4120     6.8610     8.2050   -77.0540   150.0620     8.7330     2.4600     0.0170
 1810.0000     7.4740     7.0020     8.5440   -76.8570   152.0250     8.7340     2.4620     0.0090
 1810.5000     7.5370     7.1440     8.9010   -76.6600   153.3430     8.7350     2.4570     0.0110
 1811.0000     7.5990     7.2100     9.1930   -76.4630   151.6380     8.7360     2.4470     0.0120
 1811.5000     7.6610     7.1330     9.4230   -76.2670   149.3070     8.7370     2.4240     0.0040
 1812.0000     7.6920     6.9830     9.2880   -76.0990   147.3090     8.7370     2.4440     0.0070
 1812.5000     7.6550     6.8330     9.1340   -76.1510   147.3320     8.7380     2.4700     0.0340
 1813.0000     7.6040     6.6970     8.9800   -76.2060   152.2230     8.7390     2.4690     0.0220
 1813.5000     7.5530     6.6970     8.8260   -76.2640   155.1270     8.7400     2.4540     0.0190
 1814.0000     7.5010     6.8210     8.6720   -76.3830   156.2970     8.7410     2.4460     0.0260
 1814.5000     7.4500     6.9170     8.5180   -76.7620   154.0190     8.7420     2.4770     0.0320
 1815.0000     7.3980     6.9490     8.4350   -77.1310   152.8280     8.7340     2.4690     0.0260
 1815.5000     7.3470     6.9280     8.6570   -77.4990   150.7840     8.7200     2.4620     0.0290
 1816.0000     7.2960     6.8820     8.8750   -77.8680   148.5310     8.7060     2.4650     0.0310
 1816.5000     7.2100     6.8360     8.9980   -78.0540   145.8560     8.6920     2.4680     0.0280
 1817.0000     7.2100     6.7890     8.8300   -77.7440   144.3870     8.6770     2.4870     0.0430
 1817.5000     7.2100     6.7430     8.6290   -77.5270   145.7900     8.6630     2.5070     0.0650
 1818.0000     7.2740     6.6970     8.5130   -77.3110   147.4210     8.6490     2.5130     0.0550
 1818.5000     7.3360     6.7580     8.6860   -77.0970   147.6380     8.6430     2.5190     0.0440
 1819.0000     7.3980     6.8320     8.8290   -76.8820   148.1600     8.6430     2.5260     0.0510
 1819.5000     7.4600     6.9060     8.9150   -76.6670   148.7350     8.6430     2.5280     0.0610
 1820.0000     7.5220     6.9800     8.8830   -76.4530   149.0890     8.6430     2.4980     0.0580
 1820.5000     7.5840     7.0550     8.8330   -76.2380   149.3200     8.6430     2.4480     0.0100
 1821.0000     7.6460     7.1290     9.0180   -76.0230   149.4530     8.6430     2.4510     0.0170
 1821.5000     7.7080     7.2030     9.2580   -75.8100   149.9400     8.6430     2.4550     0.0190
 1822.0000     7.7700     7.2770     9.5100   -75.5950   151.6970     8.6430     2.4480     0.0070
 1822.5000     7.8320     7.3520     9.5100   -75.5990   153.5550     8.6430     2.4540     0.0060
 1823.0000     7.8940     7.4260     9.4000   -75.7820   154.3750     8.6430     2.4680     0.0150
 1823.5000     7.9560     7.5000     9.2830   -75.9650   153.8550     8.6430     2.4820     0.0260
 1824.0000     8.0180     7.5510     9.2510   -76.1500   152.2300     8.6430     2.4900     0.0260
 1824.5000     8.0790     7.4450     9.5780   -76.3350   149.7940     8.6430     2.4820     0.0230
 1825.0000     8.1410     7.3640     9.8680   -76.5200   146.5930     8.6430     2.4650     0.0300
 1825.5000     8.2030     7.2840     9.7820   -76.6780   145.3370     8.6430     2.4480     0.0140
 1826.0000     8.2650     7.2100     9.6870   -76.5450   146.6850     8.6430     2.4410     0.0180
 1826.5000     8.3270     7.4870     9.5980   -76.4120   145.2930     8.6420     2.4560     0.0270
 1827.0000     8.3890     7.7410     9.5980   -76.2810   142.8070     8.6250     2.4580     0.0320
 1827.5000     8.4350     7.9810     9.8260   -76.1490   143.6260     8.6080     2.4510     0.0230
 1828.0000     8.3350     8.0550     9.9590   -76.0180   147.8020     8.5900     2.4440     0.0170
 1828.5000     8.2560     8.0550    10.0520   -75.8870   152.9630     8.5730     2.4550     0.0180
 1829.0000     8.1770     7.9270     9.9920   -75.7560   157.2380     8.5550     2.4470     0.0090
 1829.5000     8.0980     7.7290     9.9440   -75.6250   156.2870     8.5380     2.4370     0.0080
 1830.0000     8.0180     7.5300     9.8960   -75.4930   153.6900     8.5200     2.4380     0.0100
 1830.5000     7.9390     7.3320     9.7930   -75.3620   153.2870     8.5040     2.4450     0.0170
 1831.0000     7.8600     7.1330     9.4190   -75.2290   153.5020     8.5050     2.4520     0.0140
 1831.5000     7.7810     7.0140     8.7590   -75.1110   153.7500     8.5070     2.4600     0.0170
 1832.0000     7.7020     7.0140     8.3580   -75.3680   154.2720     8.5080     2.4740     0.0170
 1832.5000     7.6210     7.0790     8.9220   -75.6410   154.1710     8.5100     2.4550     0.0080
 1833.0000     7.6210     7.1610     9.7770   -75.9130   154.0800     8.5120     2.4410     0.0100
 1833.5000     7.7630     7.2680     9.9590   -76.1850   153.7460     8.5130     2.4520     0.0160
 1834.0000     7.8800     7.3740     9.7210   -76.4530   152.8510     8.5150     2.4490     0.0180
