~VERSION INFORMATION
 VERS.                2.0:   CWLS LOG ASCII STANDARD - VERSION 2.0
 WRAP.                 NO:   ONE LINE PER DEPTH STEP
~WELL INFORMATION
#MNEM.UNIT      DATA TYPE    INFORMATION
#----------   ------------   ------------------------------
 STRT.F          190.0000:   START DEPTH
 STOP.F         3215.0000:   STOP DEPTH
 STEP.F            0.5000:   STEP LENGTH
 NULL.          -999.2500:   NO VALUE
 COMP.    FENIX & SCISSON:   COMPANY
 WELL.  FENIX "AX" #78-34:   WELL
 FLD . NAVAL PET. RES. NO. 3:   FIELD
 LOC .      S34 T39N R78W:   LOCATION
 CNTY.            NATRONA:   COUNTY
 STAT.            WYOMING:   STATE
 CTRY. UNITED STATES OF AMERICA:   COUNTRY
 SRVC.       SCHLUMBERGER:   SERVICE COMPANY
 DATE.        16-DEC-1980:   LOGDATE
 API .     49025108670000:   API NUMBER
~CURVE INFORMATION
#MNEM.UNIT       API CODE    CURVE DESCRIPTION
#----------   ------------   ------------------------------
 DEPT.F                  :   
 TEND.LBS    45 635 01 00:   TENSION FORM DENSITY LOG
 GRD .GAPI   45 310 01 00:   GAMMA RAY FROM DENSITY LOG
 CALD.IN     45 280 60 00:   CALIPER FROM DENSITY LOG
 CORR.G/C3   45 356 01 00:   DENSITY CORRECTION
 RHOB.G/C3   45 350 01 00:   BULK DENSITY
 SPR .MV     07 010 01 00:   SPONTANEOUS POTENTIAL
 TENR.LBS    07 635 01 00:   TENSION FROM RESISTIVITY
 ILD .OHMM   07 120 46 00:   DEEP INDUCTION RESISTIVITY
 ILM .OHMM   07 120 44 00:   INDUCTION LOG MEDIUM RESISTIVITY
 SFL .OHMM   07 220 01 00:   SHALLOW FOCUSED LOG RESISTIVITY
~PARAMETER INFORMATION
#MNEM.UNIT          VALUE    DESCRIPTION
#----------   ------------   ------------------------------
 EKB .F         5068.0000:   Kelly bushing
 EGL .F         5058.0000:   Ground level
 EDF .F            0.0000:   Drilling floor
 EPD .F            0.0000:   Permanent datum
 TD  .F         3202.0000:   Total depth
 CLNT.            A2DTECH:   Client Code
 SL  . 542' FSL & 693' FEL:   Surface Location
 PD  .                 GL:   Permanent Datum
 DAPD.F                10:   Feet Above Permanent Datum
 DATE.        16-DEC-1980:   Date Logged [DD-MMM-YYYY]
 DD  .F              3200:   Depth driller
 DL  .F              3202:   Depth logger
 BLI .F              3199:   Bottom log interval
 TLI .F               193:   Top log interval
 CS1 .IN            8.625:   Casing size
 CBD1.      8.625" @ 215':   Casing driller 1
 CBL1.F               193:   Casing logger 1
 BS1 .IN            7.875:   Bit size
 BSD1.F              3200:   Depth drilled with bit1
 DFT .               LSND:   Type fluid in hole
 DFD .                9.1:   Density
 DFV .                 35:   Viscosity
 DFPH.                  8:   pH
 DFL .                 16:   Fluid loss
 MSS .            MUD PIT:   Source of sample
 RMS .OHMM            2.9:   Rm
 MST .F                56:   Rm Meas. temp.
 RMF .OHMM            2.4:   Rmf
 MFST.F                56:   Rmf Meas. temp.
 MFSS.               MEAS:   Source Rmf.
 RMC .OHMM            2.7:   Rmc
 MCST.F                56:   Rmc Meas. temp.
 MCSS.               CALC:   Source Rmc.
 RMB .OHMM           1.35:   Rm. at BHT
 BHT .F               120:   BHT.
 TCS .HRS            2100:   Time Circ. stopped
 MRT .F               120:   Maximum recorded temp.
 LUN .               8161:   Logging unit number
 ENGI.             SITTON:   Recorded By
 WITN.              FIVAS:   Witnessed by
 ORIG.           5" PRINT:   Origin of data
 UWI .     49025108670000:   Unique Well ID
 DICO. A2D TECHNOLOGIES, INC.:   Digitizing Company
~OTHER INFORMATION
~A   DEPT     TEND         GRD      CALD       CORR       RHOB        SPR       TENR        ILD        ILM        SFL   
  190.0000  -999.2500    57.9898  -999.2500  -999.2500  -999.2500  -999.2500  -999.2500  -999.2500  -999.2500  -999.2500
  190.5000  -999.2500    55.6519  -999.2500  -999.2500  -999.2500  -999.2500  -999.2500  -999.2500  -999.2500  -999.2500
  191.0000  -999.2500    53.9056  -999.2500  -999.2500  -999.2500  -999.2500  -999.2500  -999.2500  -999.2500  -999.2500
  191.5000  -999.2500    52.1594  -999.2500  -999.2500  -999.2500  -999.2500  -999.2500  -999.2500  -999.2500  -999.2500
  192.0000  -999.2500    53.7554  -999.2500  -999.2500  -999.2500  -999.2500  -999.2500  -999.2500  -999.2500  -999.2500
  192.5000  -999.2500    55.7747  -999.2500  -999.2500  -999.2500  -999.2500  -999.2500  -999.2500  -999.2500  -999.2500
  193.0000   251.0040    56.0995     8.4707    -0.2503  -999.2500   -97.9321   115.6156  1711.9366    28.4256     0.2814
  193.5000   251.0040    55.8253     8.4865    -0.1168     2.4372   -92.3191   130.0288  1116.1788    28.6596     0.2033
  194.0000   251.0040    56.1573     8.5051     0.0100     2.5655   -90.1034   129.1170  1365.6266    30.2859     0.2048
  194.5000   251.0040    59.4406     8.6663     0.1446     2.5951   -91.8759   128.3784  1932.7832    28.6726     0.6536
  195.0000   251.0040    63.9074     9.1555     0.1728     2.5439   -99.7194   127.6276  1816.8685    23.4789     2.0362
  195.5000   251.0040    66.0073     9.2896     0.1400     2.4280  -100.8863   126.7462   980.6182    19.9019     5.4441
  196.0000   251.0040    69.2906     9.4090     0.1197     2.4125  -101.4771   126.0167   489.7384    15.4205     7.9732
  196.5000   251.0040    70.5030     9.4988     0.1167     2.4196  -101.3294   125.2872   151.9913     9.9835     7.8002
  197.0000   251.0040    70.5325     9.5737     0.1112     2.4213  -100.5908   109.5427    11.0528     6.4635     7.2474
  197.5000   260.2719    70.5680     9.6783     0.1042     2.4212  -100.0000   108.8133     5.9243     6.0325     7.5078
  198.0000   275.4093    70.8927     9.7977     0.1137     2.4345   -99.5569   123.0988   372.4762     5.9969     8.0516
  198.5000   291.1647    71.5133     9.9473     0.1184     2.4502   -97.0458   122.3693  1004.7781     6.2550     8.3408
  199.0000   285.3671    74.2050    10.0679     0.1200     2.4548   -92.3929   121.6216   445.7799     7.9705     8.1748
  199.5000   279.3229    76.6007    10.0820     0.1216     2.4556   -87.5923   120.7280    13.8415     8.2551     7.7932
  200.0000   273.2786    75.4462    10.0978     0.1256     2.4658   -82.4367   119.9985     7.2652     7.8695     7.4294
  200.5000   267.2344    74.5875    10.1580     0.1303     2.4783   -75.1638   134.4664     6.5065     7.3990     7.1192
  201.0000   261.1901    75.7999    10.4548     0.1186     2.4729   -68.4285   133.5546     6.2753     7.0535     6.8001
  201.5000   255.1061    77.8998    10.9884     0.0850     2.4550   -62.2238   132.8251     6.7923     6.8649     6.6647
  202.0000   251.8627    80.6193    11.8770     0.0646     2.4613   -58.3182   132.0957     7.2527     7.2813     6.5763
  202.5000   254.7590    81.5079    12.0703     0.0585     2.4746   -57.2133   131.3662     7.8656     7.4149     6.4465
  203.0000   257.6589    80.0575    12.1009     0.0539     2.4808   -56.2485   130.6306     8.0915     6.7358     6.4053
  203.5000   260.5508    80.0936    12.1167     0.0461     2.4817   -55.4781   129.8799     7.9294     6.5105     6.4106
  204.0000   263.4309    80.7142    12.1178     0.0352     2.4770   -54.7671   128.9954     7.4538     6.3795     6.4150
  204.5000   266.3109    81.0390    12.1190     0.0259     2.4707   -54.2034   128.2659     7.1047     6.4727     6.4717
  205.0000   269.1910    81.3637    11.9425     0.0220     2.4618   -53.7485   127.5364     6.8663     6.4761     6.6051
  205.5000   267.5571    81.0895    11.6032     0.0236     2.4570   -53.4254   126.8070     6.8704     6.4350     6.7952
  206.0000   256.9050    82.3091    11.1161     0.0283     2.4788   -53.1447   126.0775     7.0711     6.3455     6.8945
  206.5000   246.2518    84.7048    11.0135     0.0419     2.4921   -52.8478   125.3480     7.2717     6.1811     6.9954
  207.0000   235.6286    85.9172    11.0293     0.0535     2.5014   -52.6585   124.6185     7.4806     6.1410     6.9038
  207.5000   230.9237    86.2426    11.0599     0.0653     2.5077   -52.4253   123.8739     7.6422     6.3612     6.8134
  208.0000   230.9237    84.7988    11.1201     0.0943     2.5109   -52.2375   122.9772     7.6998     6.6800     6.8181
  208.5000   230.9237    82.7567    11.1507     0.1178     2.4992   -52.0737   137.4451     7.7579     6.8709     6.9189
  209.0000   230.9237    82.7856    11.0632     0.0990     2.4651   -51.7563   136.5333     7.8707     6.5049     7.0201
  209.5000   230.9237    85.1813    10.8867     0.0467     2.4340   -51.5057   135.8038     7.9300     6.1160     7.0736
  210.0000   230.9237    89.6481    10.8138     0.0303     2.4325   -51.2933   120.0593     7.9898     6.2073     7.2772
  210.5000   230.9237    92.6356    10.7112     0.0256     2.4499   -50.4478   134.5272     8.1128     6.7453     7.4866
  211.0000   230.9237    91.7769    10.6383     0.0225     2.4609   -50.3091   133.6154     8.2252     7.5901     7.6489
  211.5000   230.9237    91.2130    10.5505     0.0195     2.4669   -50.1098   132.8829     8.3448     7.9156     7.7607
  212.0000   230.9237    90.3550    10.4776     0.0195     2.4731   -50.0548   132.1321     8.3496     7.7563     7.7661
  212.5000   230.9237    91.5927    10.4194     0.0243     2.4988   -50.0263   131.2446     8.2381     7.7070     7.6655
  213.0000   230.9237    93.4536    10.3760     0.0439     2.5214   -50.0350   130.5151     8.2440     7.6581     7.6707
  213.5000   230.9237    96.3665    10.3771     0.0510     2.5308   -49.9742   129.7856     8.2487     7.6104     7.6216
  214.0000   230.9237    99.6498    10.3783     0.0510     2.5363   -50.0906   129.0562     8.3109     7.6160     7.5741
  214.5000   230.9237   102.0456    10.3643     0.0432     2.5309   -50.2029   128.3267     8.3736     7.7248     7.6861
  215.0000   230.9237   103.5538    10.3064     0.0362     2.5201   -50.4046   127.5972     8.3883     7.7834     7.7447
  215.5000   230.9237   104.4703    10.3074     0.0292     2.4968   -50.9442   126.8678     8.4427     7.8960     7.9127
  216.0000   230.9237   103.6116    10.2933     0.0191     2.4836   -51.0861   126.1261     8.6251     8.0101     8.0934
  216.5000   230.9237   101.2736    10.2795     0.0106     2.4781   -51.0788   125.2264     8.7506     8.1823     8.2608
  217.0000   230.9237    98.0481    10.2660     0.0090     2.4801   -51.0703   124.4970     8.8779     8.3006     8.3816
  217.5000   230.9237    97.4852    10.2522     0.0122     2.4884   -50.2662   123.7675     9.0071     8.4790     8.5633
  218.0000   230.9237    97.8106    10.2384     0.0177     2.4939   -50.3721   123.0380     9.1381     8.6016     8.6886
  218.5000   230.9237    97.2544    10.2247     0.0193     2.4963   -50.3032   122.3085     9.2070     8.7325     8.8156
  219.0000   230.9237    95.8040    10.2259     0.0186     2.4946   -50.2747   121.5791     9.4126     8.8533     8.8216
  219.5000   230.9237    94.0578    10.2269     0.0187     2.4909   -50.0951   120.8496     9.6775     8.8581     8.8889
  220.0000   230.9237    92.0157    10.2129     0.0203     2.4817   -49.9432   120.1201     9.8183     8.8628     8.8963
  220.5000   230.9237    90.2694    10.2142     0.0297     2.4677   -49.9233   134.4057    10.0304     8.8676     8.9023
  221.0000   230.9237    88.2273    10.1856     0.0407     2.4460   -49.7509   133.4938    10.3185     9.0582     8.9701
  221.5000   230.9237    84.7059     9.9943     0.0486     2.4336   -49.5567   132.7643    10.6149     9.7787     9.1646
  222.0000   230.9237    82.3669     9.8178     0.0471     2.4445   -49.5043   132.0349    10.7693    10.2688    11.2104
  222.5000   230.9237    82.6927     9.7300     0.0408     2.4834   -49.3319   131.3054    10.9260    10.3457    12.9871
  223.0000   230.9237    85.7131     9.6719     0.0409     2.5255   -49.3110   130.5759    11.0084    10.2104    12.6279
