~VERSION INFORMATION
 VERS.                2.0:   CWLS LOG ASCII STANDARD - VERSION 2.0
 WRAP.                 NO:   ONE LINE PER DEPTH STEP
~WELL INFORMATION
#MNEM.UNIT      DATA TYPE    INFORMATION
#----------   ------------   ------------------------------
 STRT.F          200.5000:   START DEPTH
 STOP.F         3118.5000:   STOP DEPTH
 STEP.F            0.5000:   STEP LENGTH
 NULL.          -999.2500:   NO VALUE
 COMP.    FENIX & SCISSON:   COMPANY
 WELL. FENIX SCISSON "A" #16-27:   WELL
 FLD .                NPR:   FIELD
 LOC .      S27 T39N R78W:   LOCATION
 CNTY.            NATRONA:   COUNTY
 STAT.            WYOMING:   STATE
 CTRY. UNITED STATES OF AMERICA:   COUNTRY
 SRVC.       SCHLUMBERGER:   SERVICE COMPANY
 DATE.        31-AUG-1977:   LOGDATE
 API .     49025104180000:   API NUMBER
~CURVE INFORMATION
#MNEM.UNIT       API CODE    CURVE DESCRIPTION
#----------   ------------   ------------------------------
 DEPT.F                  :   
 CALD.IN     45 280 60 00:   CALIPER FROM DENSITY LOG
 GRD .GAPI   45 310 01 00:   GAMMA RAY FROM DENSITY LOG
 DPHI.DEC    42 890 03 00:   DENSITY POROSITY SANDSTONE
 RHOB.G/C3   45 350 01 00:   BULK DENSITY
 CORR.G/C3   45 356 01 00:   DENSITY CORRECTION
 SPR .MV     07 010 01 00:   SPONTANEOUS POTENTIAL
 GURD.OHMM   07 220 05 00:   GUARD LOG RESISTIVITY
 ILD .OHMM   07 120 46 00:   DEEP INDUCTION RESISTIVITY
 ILM .OHMM   07 120 44 00:   INDUCTION LOG MEDIUM RESISTIVITY
~PARAMETER INFORMATION
#MNEM.UNIT          VALUE    DESCRIPTION
#----------   ------------   ------------------------------
 EKB .F         5095.0000:   Kelly bushing
 EGL .F         5085.0000:   Ground level
 EDF .F            0.0000:   Drilling floor
 TD  .F         3121.0000:   Total depth
 DATE.        31-AUG-1977:   Date logged
 CLNT.            A2DTECH:   Client Code
 SL  . 1430' FSL & 330' FNL:   Surface Location
 PD  .                 GL:   Permanent Datum
 EPD .F              5085:   Elevation Permanent Datum
 LMF .                 KB:   Log Measured From
 DMF .                 KB:   Drilling Measured From
 DAPD.F                10:   Feet Above Permanent Datum
 DD  .F              3120:   Depth driller
 DL  .F              3121:   Depth logger
 BLI .F              3119:   Bottom log interval
 TLI .F               200:   Top log interval
 CS1 .IN            8.625:   Casing size
 CBD1.      8.625" @ 206':   Casing driller 1
 CBL1.F               215:   Casing logger 1
 BS1 .IN            7.875:   Bit size
 BSD1.F              3120:   Depth drilled with bit1
 DFT .            KCL/MUD:   Type fluid in hole
 DFD .                  9:   Density
 DFV .                 36:   Viscosity
 DFPH.                 11:   pH
 DFL .                8.4:   Fluid loss
 MSS .           FLOWLINE:   Source of sample
 RMS .OHMM            2.5:   Rm
 MST .F                89:   Rm Meas. temp.
 RMF .OHMM           2.45:   Rmf
 MFST.F                89:   Rmf Meas. temp.
 RMC .OHMM           3.30:   Rmc
 MCST.F                89:   Rmc Meas. temp.
 MFSS.               FANN:   Source Rmf.
 MCSS.                KIT:   Source Rmc.
 RMB .OHMM           1.91:   Rm. at BHT
 BHT .F               116:   BHT.
 TCS .HRS              12:   Time Circ. stopped
 MRT .F               116:   Maximum recorded temp.
 LUN .               9585:   Logging unit number
 LUL .             CASPEN:   Logging unit location
 ENGI.         G. BENTSEN:   Recorded By
 WITN.      W. PETTINGILL:   Witnessed by
 ORIG.           5" PRINT:   Origin of data
 UWI .     49025104180000:   Unique Well ID
 DICO. A2D TECHNOLOGIES, INC.:   Digitizing Company
~OTHER INFORMATION
~A   DEPT     CALD         GRD      DPHI       RHOB        CORR       SPR       GURD        ILD        ILM   
# ...
  967.0000     8.9701    62.5555     0.0972     2.4920     0.0359   -64.8952    11.7163     6.8892     7.0818
  967.5000     8.9701    62.5562     0.0972     2.4900     0.0359   -64.8922    11.8257     6.8901     7.0827
  968.0000     8.9899    62.5570     0.1016     2.4860     0.0319   -64.6914    12.0462     6.8906     7.0832
  968.5000     9.0096    62.5577     0.1052     2.4811     0.0319   -64.6884    12.0476     6.8918     7.0845
  969.0000     9.0097    62.5585     0.1084     2.4781     0.0299   -64.4876    12.0491     6.8927     7.0853
  969.5000     9.0097    62.5592     0.1092     2.4761     0.0279   -64.6825    12.0506     7.0863     7.2832
  970.0000     9.0097    62.5600     0.1092     2.4701     0.0279   -64.6795    11.7248     7.0221     7.2177
  970.5000     9.0098    62.5607     0.1092     2.4671     0.0219   -64.2809    11.5130     7.0232     7.2187
  971.0000     8.9901    62.5615     0.1084     2.4671     0.0219   -64.2779    11.8358     7.0239     7.2195
  971.5000     8.9902    62.5622     0.1080     2.4681     0.0238   -64.4728    11.9463     7.0250     7.2205
  972.0000     9.0099    62.5629     0.1080     2.4700     0.0258   -64.8654    11.9478     7.0258     7.2214
  972.5000     8.9705    62.5637     0.1068     2.4710     0.0198   -64.8625    12.1705     7.0267     7.2223
  973.0000     8.9706    62.5644     0.1060     2.4710     0.0198   -64.8595    12.2842     6.9633     7.1575
  973.5000     8.9706    62.5652     0.1044     2.4740     0.0238   -64.8565    12.2857     6.9640     7.1582
  974.0000     8.9509    62.5659     0.1048     2.4760     0.0258   -65.0514    12.0638     6.9012     7.0940
  974.5000     8.9510    62.5667     0.1056     2.4740     0.0278   -64.8506    11.9550     6.9019     7.0947
  975.0000     8.9510    62.5674     0.1060     2.4720     0.0258   -64.8476    11.9565     6.9026     7.0954
  975.5000     8.9511    62.5682     0.1036     2.4780     0.0278   -64.8446    11.8487     6.9038     7.0967
  976.0000     8.9511    62.5690     0.0997     2.4789     0.0278   -64.8417    11.7420     6.9043     7.0972
  976.5000     8.9512    62.5697     0.0989     2.4799     0.0238   -64.8387    11.7434     6.9053     7.0983
  977.0000     8.9512    62.5704     0.1001     2.4799     0.0258   -64.8357    11.7448     6.8430     7.0346
  977.5000     8.9512    62.5712     0.1013     2.4789     0.0238   -64.8327    11.8545     6.8439     7.0354
  978.0000     8.9513    62.9600     0.1033     2.4759     0.0218   -65.0276    11.5341     6.7821     6.9723
  978.5000     8.9513    63.3548     0.1041     2.4739     0.0198   -65.0246    11.5355     6.7832     6.9734
  979.0000     8.9513    64.1436     0.1029     2.4739     0.0237   -65.0216    11.7505     6.8466     7.0382
  979.5000     8.9514    64.9323     0.1013     2.4789     0.0277   -65.0187    11.7520     6.8470     7.0386
  980.0000     8.9514    65.3270     0.0997     2.4809     0.0297   -65.2135    11.6461     6.9114     7.1044
  980.5000     8.9515    65.7216     0.0977     2.4839     0.0337   -65.0127    11.7548     6.9761     7.1706
  981.0000     8.9515    66.5103     0.0973     2.4858     0.0317   -65.0097    11.7560     6.9769     7.1715
  981.5000     8.9515    66.9049     0.0977     2.4848     0.0317   -65.0068    11.8658     6.7883     6.9786
  982.0000     8.9516    66.9056     0.0989     2.4838     0.0317   -64.6082    11.8672     6.7270     6.9160
  982.5000     8.9516    66.9062     0.0989     2.4838     0.0317   -64.6052    11.6529     6.7277     6.9167
  983.0000     8.9517    66.9069     0.0993     2.4838     0.0317   -64.6022    11.5479     6.7285     6.9175
  983.5000     8.9320    66.9075     0.0993     2.4858     0.0356   -64.5993    11.3393     6.7296     6.9186
  984.0000     8.9321    66.5142     0.0937     2.4888     0.0316   -64.5963    11.2371     6.7302     6.9192
  984.5000     8.9150    66.5149     0.0929     2.4918     0.0316   -64.5933    11.3421     6.7312     6.9203
  985.0000     8.9321    66.1216     0.0909     2.4938     0.0316   -64.7882    11.3435     6.9208     7.1140
  985.5000     8.9519    65.7284     0.0886     2.5007     0.0396   -64.7852    11.4494     6.9211     7.1144
  986.0000     8.9519    65.7291     0.0866     2.5007     0.0376   -64.7822    11.7703     6.9218     7.1151
  986.5000     8.9520    65.3358     0.0854     2.5017     0.0376   -64.9770    11.9897     6.7966     6.9871
  987.0000     8.9520    65.3365     0.0874     2.5017     0.0376   -64.9741    12.1016     6.7351     6.9243
  987.5000     8.9520    64.9433     0.0898     2.5007     0.0396   -65.1689    11.9926     6.7363     6.9255
  988.0000     8.9127    64.5501     0.0930     2.4987     0.0336   -65.1659    11.7760     6.7368     6.9260
  988.5000     8.8734    64.1569     0.0941     2.4977     0.0316   -64.7679    11.7774     6.7999     6.9904
  989.0000     8.8734    64.1576     0.0969     2.4917     0.0276   -64.7650    11.4592     6.8010     6.9916
  989.5000     8.8734    63.7644     0.0993     2.4867     0.0256   -64.9598    11.2522     6.8017     6.9923
  990.0000     8.8735    63.7651     0.1017     2.4787     0.0256   -64.7590    11.7817     6.7404     6.9296
  990.5000     8.8735    63.7659     0.1053     2.4777     0.0116   -64.7561    11.6756     6.6796     6.8674
  991.0000     8.8736    63.7666     0.1057     2.4737     0.0096   -64.7531    11.5704     6.6804     6.8683
  991.5000     8.8933    63.7673     0.1077     2.4727     0.0096   -64.9479    11.6784     6.6814     6.8693
  992.0000     8.8933    64.1618     0.1101     2.4657     0.0076   -64.9449    11.2591     6.7436     6.9329
  992.5000     8.8934    64.5564     0.1129     2.4568     0.0056   -64.9420    11.2605     6.7446     6.9339
  993.0000     8.8934    65.3447     0.1145     2.4567     0.0036   -64.9390    11.4703     6.8077     6.9985
  993.5000     8.8935    65.7392     0.1149     2.4557     0.0056   -64.9360    11.5774     6.8087     6.9995
  994.0000     8.8935    66.1401     0.1149     2.4557     0.0016   -64.9331    11.7932     6.8092     7.2619
  994.5000     8.8935    66.1405     0.1145     2.4577     0.0016   -64.9301    11.9033     6.8103     7.1962
  995.0000     8.8936    67.3228     0.1121     2.4577     0.0016   -64.7293    11.7961     6.8113     7.0021
  995.5000     8.8936    67.3231     0.1093     2.4637     0.0056   -64.7263    11.7975     6.8748     7.0671
  996.0000     8.8937    67.3237     0.1050     2.4687     0.0095   -64.7234    11.9077     7.0034     7.1985
  996.5000     8.8937    67.3244     0.1006     2.4746     0.0235   -64.5226    11.6926     7.0043     7.1994
  997.0000     8.8938    67.7188     0.1010     2.4786     0.0275   -64.5196    11.2728     7.0046     7.1997
  997.5000     8.8544    67.7195     0.1058     2.4766     0.0255   -64.7144    11.1713     6.8154     7.0063
  998.0000     8.8545    67.7200     0.1074     2.4726     0.0235   -64.9093    11.2756     6.6920     6.8802
  998.5000     8.8545    67.7207     0.1074     2.4716     0.0255   -64.9057    11.1740     6.6928     6.8810
  999.0000     8.8546    66.5343     0.1070     2.4716     0.0235   -64.9045    11.3822     6.6937     6.8819
  999.5000     8.8546    66.5347     0.1046     2.4736     0.0234   -65.0988    11.8090     6.6947     6.8829
 1000.0000     8.8546    66.5353     0.1002     2.4786     0.0274   -65.0970    11.3850     6.6957     6.8839
 1000.5000     8.8547    66.5360     0.0998     2.4801     0.0291   -65.2824    10.6787     6.7500     6.9394
 1001.0000     8.8543    66.5278     0.1010     2.4826     0.0274   -65.4867    10.3893     6.7587     6.9484
 1001.5000     8.8541    66.5238     0.1010     2.4806     0.0274   -65.2869    10.9780     6.7591     6.9488
 1002.0000     8.8539    66.5199     0.0998     2.4796     0.0254   -65.2849    10.9788     6.7600     6.9497
 1002.5000     8.8537    66.5159     0.0998     2.4825     0.0234   -65.2829    10.9798     6.8230     7.0141
 1003.0000     8.8535    66.5120     0.0994     2.4845     0.0234   -65.2809    10.9806     6.8235     7.0146
