~VERSION INFORMATION
 VERS.                2.0:   CWLS LOG ASCII STANDARD - VERSION 2.0
 WRAP.                 NO:   ONE LINE PER DEPTH STEP
~WELL INFORMATION
#MNEM.UNIT      DATA TYPE    INFORMATION
#----------   ------------   ------------------------------
 STRT.F          502.0000:   START DEPTH
 STOP.F         4210.0000:   STOP DEPTH
 STEP.F            0.5000:   STEP LENGTH
 NULL.          -999.2500:   NO VALUE
 COMP.   FENIX & SCISSION:   COMPANY
 WELL. FENIX NPR 3 "JX" #43-34:   WELL
 FLD .              N P R:   FIELD
 LOC .      S34 T39N R78W:   LOCATION
 CNTY.            NATRONA:   COUNTY
 STAT.            WYOMING:   STATE
 CTRY. UNITED STATES OF AMERICA:   COUNTRY
 SRVC.              WELEX:   SERVICE COMPANY
 DATE.        05-FEB-1979:   LOGDATE
 API .     49025107690000:   API NUMBER
~CURVE INFORMATION
#MNEM.UNIT       API CODE    CURVE DESCRIPTION
#----------   ------------   ------------------------------
 DEPT.F                  :   
 TENR.LBS    07 635 01 00:   TENSION FROM RESISTIVITY
 SPR .MV     07 010 01 00:   SPONTANEOUS POTENTIAL
 SFL .OHMM   07 220 01 00:   SHALLOW FOCUSED LOG RESISTIVITY
 ILD .OHMM   07 120 46 00:   DEEP INDUCTION RESISTIVITY
 ILM .OHMM   07 120 44 00:   INDUCTION LOG MEDIUM RESISTIVITY
 TEND.LBS    45 635 01 00:   TENSION FROM DENSITY LOG
 CALD.IN     45 280 60 00:   CALIPER FROM DENSITY LOG
 GRD .GAPI   45 310 01 00:   GAMMA RAY FROM DENSITY LOG
 CORR.G/C3   45 356 01 00:   DENSITY CORRECTION
 NPHI.DEC    42 890 03 00:   NEUTRON POROSITY SANDSTONE
 RHOB.G/C3   45 350 01 00:   BULK DENSITY
~PARAMETER INFORMATION
#MNEM.UNIT          VALUE    DESCRIPTION
#----------   ------------   ------------------------------
 EKB .F         5108.0000:   Kelly bushing
 EGL .F         5098.0000:   Ground level
 TD  .F         4204.0000:   Total depth
 DATE.        05-FEB-1979:   Date logged
 CLNT.            A2DTECH:   Client Code
 SL  . 1627' FNL & 2110' FWL:   Surface Location
 PD  .                 GL:   Permanent Datum
 DD  .F              4200:   Depth driller
 DL  .F              4204:   Depth logger
 BLI .F              4202:   Bottom log interval
 CS1 .IN            8.625:   Casing size
 CBD1.      8.625" @ 506':   Casing driller 1
 CBL1.F               506:   Casing logger 1
 BS1 .IN            7.875:   Bit size
 DFT .           CHEM/GEL:   Type fluid in hole
 DFD .                9.2:   Density
 DFV .                 55:   Viscosity
 DFPH.                9.5:   pH
 DFL .                5.7:   Fluid loss
 MSS .            MUD/PIT:   Source of sample
 RMS .OHMM            1.1:   Rm
 MST .F                52:   Rm Meas. temp.
 RMF .OHMM            .45:   Rmf
 MFST.F                52:   Rmf Meas. temp.
 RMC .OHMM            1.8:   Rmc
 MCST.F                52:   Rmc Meas. temp.
 MFSS.               MEAS:   Source Rmf.
 RMB .OHMM           5.06:   Rm. at BHT
 BHT .F               128:   BHT.
 TCS .HRS               8:   Time Circ. stopped
 MRT .F               128:   Maximum recorded temp.
 LUN .               9685:   Logging unit number
 LUL .             CASPER:   Logging unit location
 ENGI.        KEIN/JOINER:   Recorded By
 WITN.        J. DINSMORE:   Witnessed by
 ORIG.           5" PRINT:   Origin of data
 UWI .     49025107690000:   Unique Well ID
 DICO. A2D TECHNOLOGIES, INC.:   Digitizing Company
 DAPD.F                10:   Feet Above Permanent Datum
 BSD1.F              4200:   Depth drilled with bit1
 MCSS.               MEAS:   Source Rmc.
 EPD .F              5098:   Elevation Permanent Datum
 LMF .                 KB:   Log Measured From
 DMF .                 KB:   Drilling Measured From
 TLI .F               500:   Top log interval
~OTHER INFORMATION
~A   DEPT     TENR        SPR        SFL        ILD        ILM        TEND        CALD       GRD        CORR       NPHI       RHOB 
  502.0000  -999.2500   -65.1390  -999.2500  -999.2500  -999.2500   744.4670     8.8600    71.6000     0.0750     0.3580     2.0010
  502.5000  -999.2500   -67.9560  -999.2500  -999.2500  -999.2500   744.4670     8.8690    71.6000     0.0900     0.3560     2.0010
  503.0000  -999.2500   -67.3630  -999.2500  -999.2500  -999.2500   743.4760     8.8790    72.3760     0.1360     0.3560     2.0010
  503.5000  -999.2500   -66.7700  -999.2500  -999.2500  -999.2500   742.0450     8.8890    73.5100     0.1880     0.3530     2.0010
  504.0000   620.0000   -66.1780     6.8080     3.3810     0.9660   740.6130     8.9000    74.8000     0.2470     0.3490     2.0030
  504.5000   620.0000   -65.5850     6.8080     3.3810     0.9660   739.1820     8.9510    77.0210     0.2660     0.3450     2.1570
  505.0000   625.0490   -65.0900     6.8080     3.3810     0.9660   737.7510     9.0200    79.5990     0.2290     0.3420     2.0010
  505.5000   629.6150   -65.0700     6.9800     3.3810     0.7860   737.8590     9.1470    80.9290     0.1980     0.3390     1.9750
  506.0000   634.1800   -64.7970     7.3150     5.4580     0.4060   735.6040     9.4780    83.6820     0.1540     0.3300     1.8940
  506.5000   638.7450   -64.5980     7.6510     4.9800     0.3510   734.1730    11.0090    85.0960     0.1070     0.3300     1.9560
  507.0000   643.3100   -64.3970     7.9860     5.5710     0.2610   732.7420    11.9230    84.0940     0.0750     0.3330     1.9480
  507.5000   646.3300   -64.2000     8.1890     5.7280     0.2650   731.3100    12.4780    83.3630     0.0630     0.3360     2.1730
  508.0000   650.1580   -64.0140     8.4890     6.0960     0.2560   729.8790    12.9650    82.5540     0.0680     0.3400     2.2460
  508.5000   654.7230   -63.8200     8.8110     6.1750     0.4290   728.4480    13.0790    81.9940     0.0710     0.3440     2.3000
  509.0000   660.0000   -63.6060     8.9980     6.4840     0.6370   727.0170    13.1770    82.0050     0.0750     0.3440     2.2920
  509.5000   660.0000   -63.5410     9.2670     7.0640     0.8340   725.5860    13.2630    82.0050     0.0790     0.3440     2.2750
  510.0000   660.0000   -63.5470     9.1420     7.0570     1.7420   724.1540    13.3560    82.0340     0.0840     0.3440     2.2660
  510.5000   660.0000   -63.5450     9.0630     7.0300     4.5390   722.7230    13.4520    82.8040     0.1040     0.3450     2.2600
  511.0000   660.0000   -63.5460     8.9710     7.0030     5.3640   721.2920    13.5090    83.7740     0.1080     0.3470     2.2520
  511.5000   660.0000   -63.5450     8.8790     6.9760     5.6670   719.8610    13.5280    85.1280     0.1000     0.3480     2.2350
  512.0000   660.0000   -63.5420     8.8110     6.9350     6.2030   718.4300    13.5500    85.8900     0.1130     0.3480     2.1970
  512.5000   660.0000   -63.4920     8.8110     7.3050     6.8080   716.9980    13.7730    86.7810     0.1290     0.3460     2.1560
  513.0000   660.0000   -63.4420     8.7910     8.1850     6.7700   715.5670    13.9880    87.6160     0.1120     0.3460     2.1360
  513.5000   660.0000   -63.3860     8.7180     8.1250     6.7140   714.1360    14.2130    88.7560     0.0930     0.3470     2.1750
  514.0000   660.0000   -63.3400     8.6450     8.0360     6.6580   712.7050    14.4310    89.8830     0.0750     0.3470     2.2250
  514.5000   660.2870   -63.2810     8.5730     7.6420     6.5730   711.2740    14.6540    91.0200     0.0820     0.3480     2.2160
  515.0000   660.6100   -63.2260     8.4920     7.4120     6.6470   709.8420    14.7480    92.1450     0.0950     0.3470     2.2040
  515.5000   660.9340   -63.2150     8.4380     7.8890     6.9380   708.4110    14.8290    93.3130     0.1030     0.3460     2.1880
  516.0000   661.2570   -62.7700     8.3270     7.7830     7.2290   706.9800    14.8790    94.6050     0.1020     0.3490     2.1730
  516.5000   661.5810   -61.8150     8.2170     7.4310     7.5190   705.5490    14.8790    96.0050     0.1010     0.3520     2.0590
  517.0000   661.9040   -60.8650     8.4080     7.2360     7.6040   704.2250    14.1160    97.5480     0.1000     0.3530     1.9580
  517.5000   662.2270   -61.8570     8.7970     7.1050     6.2820   706.7310    13.4470    99.0120     0.0960     0.3510     1.8920
  518.0000   662.5510   -62.9320     8.7630     6.9740     5.8650   709.0610    12.7360   102.1300     0.0900     0.3510     1.9140
  518.5000   662.8740   -63.8960     8.6960     6.8430     5.8310   711.3900    12.2930   104.8590     0.0830     0.3480     2.1170
  519.0000   663.1980   -63.4980     8.6300     6.7120     5.7980   713.7200    12.1020   107.9810     0.1200     0.3440     2.0970
  519.5000   663.5210   -63.1790     8.5630     6.5810     5.7650   716.0500    11.8900   108.7720     0.1740     0.3410     2.0470
  520.0000   663.8440   -62.7690     8.4920     6.4420     5.7310   718.3800    11.6460   107.4070     0.2130     0.3370     2.0010
  520.5000   664.1680   -62.6920     8.4920     6.6080     5.6980   720.7100    10.8250   106.2900     0.1500     0.3360     1.9460
  521.0000   664.4910   -62.6170     8.4920     6.7850     5.6630   723.0400    10.1360   105.1670     0.1330     0.3430     1.8950
  521.5000   664.8150   -62.5530     8.4920     6.9350     5.6530   725.3700    10.0890   103.9510     0.0910     0.3400     1.9350
  522.0000   665.1380   -62.4830     8.4920     6.8760     5.6340   727.7000    10.1720   103.7020     0.0490     0.3420     2.0850
  522.5000   665.4610   -62.4150     8.4920     6.7980     5.6160   730.0290    10.1270   103.9850     0.0250     0.3470     2.1780
  523.0000   665.7850   -62.3470     8.5010     6.7200     5.5970   732.3590    10.0680   104.1860     0.0650     0.3450     2.2150
  523.5000   666.1080   -62.2790     8.4810     6.6420     5.5790   734.6890    10.0700   104.3250     0.0870     0.3400     2.1870
  524.0000   666.4320   -62.2110     8.3060     6.5620     5.5610   737.0190    10.2730   103.4620     0.1020     0.3400     2.1400
  524.5000   666.7550   -62.1420     8.1810     6.6920     5.5420   739.3490    10.4570   102.6430     0.1080     0.3410     2.0570
  525.0000   667.0780   -62.0760     8.1870     6.8260     5.5240   741.6790    10.6640   101.6270     0.1000     0.3410     1.8990
  525.5000   667.4020   -62.0050     8.1840     6.9350     5.5050   744.4670    10.5760   101.4330     0.0730     0.3410     1.9170
  526.0000   667.7250   -61.9460     8.1860     6.7700     5.4870   744.2620    10.4000   102.4930     0.0500     0.3410     1.9170
  526.5000   668.0480   -61.8630     8.1920     6.6300     5.4690   744.0080    10.4730   102.0110     0.0580     0.3420     2.0990
  527.0000   668.3720   -61.7920     8.1850     6.4910     5.4500   743.7530    10.5920   101.3500     0.0920     0.3420     2.2100
  527.5000   668.6950   -61.7180     7.9590     6.3250     5.4320   743.4990    10.7140   102.1730     0.1240     0.3400     2.1760
  528.0000   669.0190   -61.6450     7.7330     6.3930     5.4130   743.2440    10.8340   102.6300     0.1230     0.3360     2.0770
  528.5000   669.3420   -61.5720     7.4650     6.4780     5.3950   742.9900    10.7920   101.9800     0.1240     0.3320     1.9990
  529.0000   669.6650   -61.4990     7.4970     6.5620     5.3770   742.7350    10.6230   101.4970     0.0860     0.3310     1.9500
  529.5000   669.9890   -61.4250     7.5350     6.4420     5.3580   742.4810    10.6360   101.2470     0.0510     0.3320     1.9630
  530.0000   670.3120   -61.3520     7.5740     6.3730     5.3400   742.2260    10.6360   101.5090     0.0300     0.3380     1.9700
  530.5000   670.6360   -61.2800     7.6040     6.2080     5.3220   741.9720    10.6540   101.7070     0.0580     0.3460     2.1960
  531.0000   670.9590   -61.1990     7.6040     6.0440     5.3030   741.7180    10.6830   101.9250     0.0850     0.3540     2.2540
  531.5000   671.2820   -61.1650     7.6040     5.9850     5.2850   741.4630    10.9760   101.1970     0.1000     0.3570     2.2510
  532.0000   671.6060   -61.2190     7.6040     5.9850     5.2660   741.2090    11.2540    99.9560     0.1150     0.3520     2.2310
