~VERSION INFORMATION
 VERS.                2.0:   CWLS LOG ASCII STANDARD - VERSION 2.0
 WRAP.                 NO:   ONE LINE PER DEPTH STEP
~WELL INFORMATION
#MNEM.UNIT      DATA TYPE    INFORMATION
#----------   ------------   ------------------------------
 STRT.F          204.0000:   START DEPTH
 STOP.F         3104.0000:   STOP DEPTH
 STEP.F            0.5000:   STEP LENGTH
 NULL.          -999.2500:   NO VALUE
 COMP.    FENIX & SCISSON:   COMPANY
 WELL. FENIX NPR 83 "AX" #3-10:   WELL
 FLD .                NPR:   FIELD
 LOC .      S10 T38N R78W:   LOCATION
 CNTY.            NATRONA:   COUNTY
 STAT.            WYOMING:   STATE
 CTRY. UNITED STATES OF AMERICA:   COUNTRY
 SRVC.              WELEX:   SERVICE COMPANY
 DATE.        14-JUL-1977:   LOGDATE
 API .     49025103980000:   API NUMBER
~CURVE INFORMATION
#MNEM.UNIT       API CODE    CURVE DESCRIPTION
#----------   ------------   ------------------------------
 DEPT.F                  :   
 ILD .OHMM   07 120 46 00:   DEEP INDUCTION RESISTIVITY
 GURD.OHMM   07 220 05 00:   GUARD LOG RESISTIVITY
 ILM .OHMM   07 120 44 00:   INDUCTION LOG MEDIUM RESISTIVITY
 SPR .MV     07 010 01 00:   SPONTANEOUS POTENTIAL
 CALD.IN     45 280 60 00:   CALIPER FROM DENSITY LOG
 GRD .GAPI   45 310 01 00:   GAMMA RAY FROM DENSITY LOG
 RHOB.G/C3   45 350 01 00:   BULK DENSITY
 CORR.G/C3   45 356 01 00:   DENSITY CORRECTION
 NPHI.DEC    42 890 03 00:   NEUTRON POROSITY SANDSTONE
~PARAMETER INFORMATION
#MNEM.UNIT          VALUE    DESCRIPTION
#----------   ------------   ------------------------------
 EKB .F         5176.0000:   Kelly bushing
 EGL .F         5166.0000:   Ground level
 TD  .F         3105.0000:   Total depth
 DATE.        14-JUL-1977:   Date logged
 CLNT.            A2DTECH:   Client Code
 SL  . 1650' FNL & 100' FEL:   Surface Location
 PD  .                 GL:   Permanent Datum
 DD  .F              3094:   Depth driller
 DL  .F              3105:   Depth logger
 BLI .F              3103:   Bottom log interval
 CS1 .IN            8.625:   Casing size
 CBD1.      8.625" @ 218':   Casing driller 1
 CBL1.F               220:   Casing logger 1
 BS1 .IN            7.875:   Bit size
 DFT .            KCL/GEL:   Type fluid in hole
 DFD .                9.4:   Density
 DFV .                 36:   Viscosity
 DFPH.                  8:   pH
 DFL .                 12:   Fluid loss
 MSS .           FLOWLINE:   Source of sample
 RMS .OHMM           1.54:   Rm
 MST .F               100:   Rm Meas. temp.
 RMF .OHMM            1.5:   Rmf
 MFST.F               100:   Rmf Meas. temp.
 RMC .OHMM           3.47:   Rmc
 MCST.F               100:   Rmc Meas. temp.
 MFSS.               FANN:   Source Rmf.
 RMB .OHMM           1.36:   Rm. at BHT
 BHT .F               113:   BHT.
 TCS .HRS             2.5:   Time Circ. stopped
 MRT .F               113:   Maximum recorded temp.
 LUN .               8766:   Logging unit number
 LUL .             CASPER:   Logging unit location
 ENGI. G. BENTSEN/T. JOYNER:   Recorded By
 WITN.      B. HARRINGTON:   Witnessed by
 ORIG.           5" PRINT:   Origin of data
 UWI .     49025103980000:   Unique Well ID
 DICO. A2D TECHNOLOGIES, INC.:   Digitizing Company
 DAPD.F                10:   Feet Above Permanent Datum
 BSD1.F              3094:   Depth drilled with bit1
 MCSS.                KIT:   Source Rmc.
 TLI .F               210:   Top log interval
 EPD .F              5166:   Elevation Permanent Datum
 LMF .                 KB:   Log Measured From
 DMF .                 KB:   Drilling Measured From
~OTHER INFORMATION
~A   DEPT      ILD       GURD        ILM        SPR       CALD        GRD       RHOB       CORR       NPHI   
# ...
 2284.5000     5.4830     9.2810     6.1800   -55.7890     9.0350   113.3740     2.4870     0.0240     0.3990
 2285.0000     5.6370     9.0080     6.2340   -55.8020     9.0290   111.6620     2.4720     0.0230     0.3920
 2285.5000     5.7910     8.6660     6.4400   -55.8160     9.0280   109.9480     2.4680     0.0230     0.3950
 2286.0000     5.9460     8.8690     6.6840   -55.8290     9.0280   108.2220     2.4860     0.0220     0.4010
 2286.5000     6.1000     9.6950     6.9280   -55.8430     9.0270   106.4940     2.4710     0.0240     0.4050
 2287.0000     6.2180    10.6440     7.3070   -55.8560     9.0260   107.9720     2.4650     0.0260     0.4070
 2287.5000     6.2880    11.9220     7.2570   -55.8700     9.0250   109.9350     2.4810     0.0270     0.4110
 2288.0000     6.3590    11.6200     7.1450   -55.8830     9.0240   111.8990     2.4930     0.0270     0.4100
 2288.5000     6.4290    10.9580     7.0420   -55.8970     9.0230   113.8300     2.5000     0.0250     0.4080
 2289.0000     6.5000    10.2960     7.3640   -55.9100     9.0220   114.8510     2.4690     0.0240     0.4060
 2289.5000     6.5700     9.6330     7.7450   -55.9240     9.0220   114.0700     2.4810     0.0260     0.4050
 2290.0000     6.6410     9.0360     8.0880   -55.9370     9.0210   113.3200     2.4950     0.0240     0.4100
 2290.5000     6.7110     9.4690     8.1180   -55.9510     9.0200   112.5020     2.4710     0.0180     0.4150
 2291.0000     6.7820    10.3260     8.1770   -55.9640     9.0190   114.0180     2.4410     0.0120     0.4150
 2291.5000     6.8520    11.3300     8.2360   -55.9780     9.0180   116.3320     2.4170     0.0080     0.4090
 2292.0000     6.9110    13.4440     8.2950   -55.9910     9.0170   118.6640     2.4380     0.0060     0.4020
 2292.5000     6.8970    13.0640     8.3550   -56.0050     9.0170   120.9920     2.4650     0.0100     0.4010
 2293.0000     6.8830    12.1120     8.3930   -56.0180     9.0160   123.3180     2.4930     0.0170     0.4040
 2293.5000     6.8690    10.8040     8.3930   -56.0310     9.0150   125.6440     2.4920     0.0230     0.4070
 2294.0000     6.8550     9.7300     8.3400   -56.0450     9.0140   127.9700     2.4710     0.0210     0.4090
 2294.5000     6.7790    10.9700     8.0450   -56.0580     9.0130   130.2960     2.4550     0.0190     0.4120
 2295.0000     6.5960    12.4860     7.6550   -56.0720     9.0120   132.6220     2.4380     0.0170     0.4150
 2295.5000     6.4140    11.2580     6.9250   -56.0850     9.0110   134.9490     2.4230     0.0150     0.4130
 2296.0000     6.2310     9.2250     6.9810   -56.0990     9.0110   137.2770     2.4300     0.0130     0.4150
 2296.5000     6.0490     6.8490     7.0910   -56.1120     9.0100   139.5820     2.4350     0.0140     0.4130
 2297.0000     5.9720     8.3610     7.2020   -56.1260     9.0170   141.5100     2.4410     0.0180     0.4120
 2297.5000     5.9000     9.8770     7.3070   -56.1350     9.0240   143.9210     2.4510     0.0230     0.4120
 2298.0000     5.8280    10.4740     6.7550   -56.0520     9.0310   146.3870     2.4610     0.0270     0.4140
 2298.5000     5.7560    11.0710     6.2290   -55.9680     9.0380   148.8400     2.4690     0.0320     0.4150
 2299.0000     5.4900    11.3840     5.7030   -55.8840     9.0450   151.2930     2.4650     0.0360     0.4180
 2299.5000     5.1960     9.2970     5.1770   -55.8020     9.0530   153.7490     2.4610     0.0400     0.4210
 2300.0000     4.9010     7.1070     4.9110   -55.7440     9.0600   156.1680     2.4560     0.0440     0.4070
 2300.5000     4.5200     7.2970     4.8660   -55.7560     9.0670   157.7480     2.4600     0.0480     0.4010
 2301.0000     4.6440     7.6770     4.8660   -55.7660     9.0740   157.3240     2.4650     0.0520     0.3980
 2301.5000     4.8210     7.9400     4.9840   -55.7770     9.0810   156.9380     2.4650     0.0530     0.3950
 2302.0000     4.9980     5.9630     5.3070   -55.7870     9.0880   156.5370     2.4570     0.0510     0.3990
 2302.5000     5.1750     7.4750     6.3850   -55.7970     9.0950   156.3540     2.4560     0.0490     0.3980
 2303.0000     5.3520    10.4460     6.9130   -55.8080     9.1020   158.0880     2.4680     0.0470     0.3990
 2303.5000     5.5290    12.7320     6.4250   -55.8180     9.1100   159.7720     2.4790     0.0450     0.4010
 2304.0000     5.7060    13.5170     6.2450   -55.8280     9.1170   161.4490     2.4830     0.0420     0.4030
 2304.5000     5.8830    14.1060     6.3610   -55.8390     9.1240   163.1400     2.4710     0.0400     0.4070
 2305.0000     6.0740    11.9470     6.3180   -55.8490     9.1310   162.5900     2.4600     0.0380     0.4100
 2305.5000     6.0740    10.3440     6.2450   -55.8590     9.1400   161.7140     2.4600     0.0370     0.4140
 2306.0000     5.7980     9.8440     6.0780   -55.8700     9.1480   160.5230     2.4640     0.0390     0.4170
 2306.5000     5.5890     9.1690     5.8480   -55.8800     9.1560   157.7470     2.4630     0.0400     0.4250
 2307.0000     5.3800     7.7230     5.5820   -55.8900     9.1640   154.9810     2.4610     0.0420     0.4250
 2307.5000     5.1540     7.0420     5.2390   -55.9010     9.1730   152.2180     2.4600     0.0430     0.4260
 2308.0000     4.8950     9.0360     4.8960   -55.9110     9.1810   149.4570     2.4670     0.0440     0.4220
 2308.5000     4.6360     8.0500     4.5540   -55.9210     9.1960   146.6950     2.4880     0.0460     0.4350
 2309.0000     4.3770     6.3550     4.2110   -55.9320     9.2230   143.9340     2.5070     0.0430     0.4370
 2309.5000     4.1180     5.1910     4.0450   -55.9410     9.2500   141.1730     2.5040     0.0370     0.4410
 2310.0000     3.8590     4.3560     4.0080   -55.9410     9.2770   138.4110     2.5020     0.0440     0.4470
 2310.5000     3.7430     4.7330     4.0080   -55.9410     9.3040   135.4410     2.5040     0.0420     0.4470
 2311.0000     3.6770     5.7470     4.0450   -55.9410     9.3310   134.3050     2.5060     0.0380     0.4460
 2311.5000     3.6110     5.5510     4.0430   -55.9410     9.3580   135.1090     2.5070     0.0350     0.4410
 2312.0000     3.5450     5.1910     4.0380   -55.9410     9.3660   136.1330     2.5090     0.0320     0.4370
 2312.5000     3.4890     4.9570     4.0340   -55.9410     9.3710   137.2090     2.5070     0.0290     0.4410
 2313.0000     3.5360     5.4290     4.0290   -55.9410     9.3750   137.0060     2.5040     0.0270     0.4450
 2313.5000     3.5840     5.8400     4.0250   -55.9410     9.3800   136.3890     2.5020     0.0270     0.4480
 2314.0000     3.6330     6.1870     4.0210   -55.9410     9.3840   135.7620     2.4990     0.0260     0.4450
 2314.5000     3.6820     5.7640     4.0160   -55.9410     9.3890   135.1380     2.4960     0.0260     0.4410
 2315.0000     3.7300     5.9080     4.0120   -55.9410     9.3930   134.5150     2.4930     0.0260     0.4370
 2315.5000     3.7790     5.5890     4.0080   -55.9410     9.3970   133.8900     2.4930     0.0260     0.4310
 2316.0000     3.8280     5.6390     4.0460   -55.9410     9.4020   133.2410     2.4950     0.0250     0.4330
 2316.5000     3.8760     5.7470     4.0790   -55.9410     9.4060   133.6430     2.4980     0.0260     0.4290
 2317.0000     3.9250     5.6210     4.1110   -55.9410     9.4110   134.2860     2.5010     0.0320     0.4340
 2317.5000     3.9740     5.4570     4.1440   -55.9410     9.4150   134.9280     2.5030     0.0370     0.4430
 2318.0000     4.0220     5.2880     4.1770   -55.9410     9.4200   135.5250     2.5060     0.0430     0.4510
 2318.5000     4.0710     5.4760     4.2100   -55.9410     9.4240   136.7250     2.5070     0.0480     0.4510
 2319.0000     4.1210     5.8000     4.2370   -55.9410     9.4280   138.0440     2.5060     0.0540     0.4570
 2319.5000     4.0990     5.6920     4.2490   -55.9410     9.4330   139.3610     2.5050     0.0520     0.4630
 2320.0000     4.0620     5.5490     4.2620   -55.9410     9.4370   140.6790     2.5040     0.0460     0.4720
 2320.5000     4.0250     5.4050     4.2760   -55.9410     9.4410   142.0050     2.5030     0.0390     0.4700
