~VERSION INFORMATION
 VERS.                2.0:   CWLS LOG ASCII STANDARD - VERSION 2.0
 WRAP.                 NO:   ONE LINE PER DEPTH STEP
~WELL INFORMATION
#MNEM.UNIT      DATA TYPE    INFORMATION
#----------   ------------   ------------------------------
 STRT.F            0.0000:   START DEPTH
 STOP.F         5673.0000:   STOP DEPTH
 STEP.F            0.5000:   STEP LENGTH
 NULL.          -999.2500:   NO VALUE
 COMP.       FLUOR DANIEL:   COMPANY
 WELL.   FLUOR "X" #63-10:   WELL
 FLD .             NPR #3:   FIELD
 LOC .      S10 T38N R78W:   LOCATION
 CNTY.            NATRONA:   COUNTY
 STAT.            WYOMING:   STATE
 CTRY. UNITED STATES OF AMERICA:   COUNTRY
 SRVC.      WESTERN ATLAS:   SERVICE COMPANY
 DATE.        02-MAR-1996:   LOGDATE
 API .     49025227690000:   API NUMBER
~CURVE INFORMATION
#MNEM.UNIT       API CODE    CURVE DESCRIPTION
#----------   ------------   ------------------------------
 DEPT.F                  :   
 GRD .GAPI   45 310 01 00:   GAMMA RAY FROM DENSITY LOG
 TEND.LBS    45 635 01 00:   TENSION FROM DENSITY LOG
 CALD.IN     45 280 60 00:   CALIPER FROM DENSITY LOG
 ZCOR.G/C3   45 356 01 00:   DENSITY CORRECTION
 ZDEN.G/C3   45 350 01 00:   BULK DENSITY
 CNC .DEC    42 890 03 00:   COMPENSATED NEUTRON POROSITY SANDSTONE
 SPR .MV     11 010 01 00:   SPONTANEOUS POTENTIAL FROM RESISTIVITY
 RD  .OHMM   11 220 10 00:   RESISTIVITY DEEP
 RS  .OHMM   11 220 09 00:   RESISTIVITY SHALLOW
~PARAMETER INFORMATION
#MNEM.UNIT          VALUE    DESCRIPTION
#----------   ------------   ------------------------------
 EKB .F         5196.0000:   Kelly bushing
 EGL .F         5186.0000:   Ground level
 EDF .F         5195.0000:   Drilling floor
 TD  .F         5674.0000:   Total depth
 CLNT.            A2DTECH:   Client Code
 SL  . 1688' FNL & 1730' FEL:   Surface Location
 PD  .                 GL:   Permanent Datum
 EPD .F              5186:   Elevation Permanent Datum
 LMF .                 KB:   Log Measured From
 DMF .                 KB:   Drilling Measured From
 DAPD.F                10:   Feet Above Permanent Datum
 DATE.        02-MAR-1996:   Date Logged [DD-MMM-YYYY]
 DD  .F              5674:   Depth driller
 DL  .F              5674:   Depth logger
 BLI .F              5663:   Bottom log interval
 CS1 .IN            9.625:   Casing size
 CBD1.      9.625" @ 448':   Casing driller 1
 CBL1.F               448:   Casing logger 1
 BS1 .IN             8.75:   Bit size
 BSD1.F              5674:   Depth drilled with bit1
 DFT .               CHEM:   Type fluid in hole
 DFD .                9.7:   Density
 DFV .                 53:   Viscosity
 DFPH.                9.0:   pH
 DFL .                9.2:   Fluid loss
 MSS .           FLOWLINE:   Source of sample
 RMS .OHMM          0.628:   Rm
 MST .F                71:   Rm Meas. temp.
 RMF .OHMM          0.477:   Rmf
 MFST.F                71:   Rmf Meas. temp.
 MFSS.               MEAS:   Source Rmf.
 RMC .OHMM          0.779:   Rmc
 MCST.F                71:   Rmc Meas. temp.
 MCSS.               MEAS:   Source Rmc.
 RMB .OHMM          0.251:   Rm. at BHT
 BHT .F               178:   BHT.
 TCS .F               4.5:   Time Circ. stopped
 MRT .HRS             178:   Maximum recorded temp.
 LUN .            HL-6530:   Logging unit number
 LUL .             CASPER:   Logging unit location
 ENGI.      PAT RASMUSSEN:   Recorded By
 ORIG.           5" PRINT:   Origin of data
 UWI .     49025227690000:   Unique Well ID
 WITN.         LAFRENIERE:   Witnessed by
 DICO.   A2D TECHNOLOGIES:   Digitizing Company
~OTHER INFORMATION
~A  DEPTH      GRD       TEND       CALD       ZCOR       ZDEN        CNC        SPR         RD         RS
# ...
 5621.0000  -999.2500   517.7731     8.7559     0.0724     2.7487     0.0787   -77.1718   677.4622   432.7923
 5621.5000  -999.2500   532.8364     8.7563     0.0783     2.7311     0.0879   -77.3238   636.3930   417.8152
 5622.0000  -999.2500   555.3973     8.7567     0.0707     2.7119     0.1008   -77.1746   585.6038   339.3672
 5622.5000  -999.2500   570.4768     8.7722     0.0662     2.7022     0.1117   -76.8752   411.5790   259.0171
 5623.0000  -999.2500   570.5476     8.7727     0.0663     2.6834     0.1189   -76.2742   298.7217   208.6498
 5623.5000  -999.2500   570.6183     8.7731     0.1051     2.6651     0.1294   -75.6663   271.7410   179.3347
 5624.0000  -999.2500   570.6896     8.7735     0.0961     2.6571     0.1312   -74.7713   255.2913   170.7729
 5624.5000  -999.2500   570.7776     8.7740     0.0495     2.6646     0.1300   -73.8691   251.5437   174.2624
 5625.0000  -999.2500   570.8484     8.7745     0.0389     2.6706     0.1261   -73.1175   284.9673   187.9127
 5625.5000  -999.2500   585.9117     8.7900     0.0435     2.6729     0.1162   -72.6527   336.2796   208.3420
 5626.0000  -999.2500   600.9750     8.7904     0.0524     2.6752     0.1105   -72.5179   375.4915   240.8085
 5626.5000  -999.2500   608.5597     8.7908     0.0449     2.6857  -999.2500   -72.5197   365.1612   221.3641
 5627.0000  -999.2500   616.1267     8.7914     0.0252     2.6782  -999.2500   -72.5211   302.9172   170.2005
 5627.5000  -999.2500   616.1975     8.7918     0.0208     2.6500  -999.2500   -72.6735   231.3035   118.7354
 5628.0000  -999.2500   608.7706     8.7922     0.0268     2.5700  -999.2500   -72.9759   181.5698    92.5226
 5628.5000  -999.2500   608.8605     8.7776     0.0327     2.5407  -999.2500   -72.8267   133.7228    87.4869
 5629.0000  -999.2500   623.9238     8.7781     0.0388     2.5317  -999.2500   -72.3766   121.5478    85.0564
 5629.5000  -999.2500   638.9871     8.7786     0.0447     2.5302  -999.2500   -71.7757   114.9817    80.9956
 5630.0000  -999.2500   646.5541     8.7790     0.0476     2.5332  -999.2500   -71.0040   106.5388    71.9757
 5630.5000  -999.2500   662.3936     8.7794     0.0491     2.5355  -999.2500   -70.2728    97.7588    60.9304
 5631.0000  -999.2500   699.1871     8.7799     0.0476     2.5318  -999.2500   -69.3706    84.1840    55.2799
 5631.5000  -999.2500   714.2504     8.7804     0.0505     2.5288  -999.2500   -68.1672    76.9320    53.0060
 5632.0000  -999.2500   714.3212     8.7808     0.0580     2.5318  -999.2500   -65.7593    81.8467    58.3612
 5632.5000  -999.2500   661.9182     8.7812     0.0670     2.5483  -999.2500   -64.5559   100.6662    63.5627
 5633.0000  -999.2500   654.4927     8.7666     0.0761     2.5709  -999.2500   -63.6534   127.2907    78.4780
 5633.5000  -999.2500   654.5812     8.7671     0.0834     2.5839  -999.2500   -62.9021   151.2526    96.5192
 5634.0000  -999.2500   662.1482     8.7676     0.0893     2.5964  -999.2500   -62.1509   174.8964   101.2545
 5634.5000  -999.2500   677.2115     8.7529     0.0803     2.5949  -999.2500   -61.7005   177.2129    97.7497
 5635.0000  -999.2500   692.2924     8.7684     0.0559     2.5874  -999.2500   -61.2501   152.1732    85.0807
 5635.5000  -999.2500   692.3632     8.7689     0.0472     2.5782  -999.2500   -61.1009   140.9995    79.3554
 5636.0000  -999.2500   684.9377     8.7694     0.0487     2.5672  -999.2500   -61.2533   137.1194    77.1501
 5636.5000  -999.2500   685.0085     8.7548     0.0652     2.5589  -999.2500   -61.4053   136.1322    76.0420
 5637.0000  -999.2500   707.5858     8.7552     0.0756     2.5499  -999.2500   -61.7079   133.3049    74.9589
 5637.5000  -999.2500   737.6415     8.7707     0.0771     2.5454  -999.2500   -62.0231   129.6375    72.8764
 5638.0000  -999.2500   745.2086     8.7862     0.0740     2.5484  -999.2500   -62.6147   123.4766    69.8696
 5638.5000  -999.2500   745.2794     8.7866     0.0740     2.5507  -999.2500   -63.0679   115.2033    66.9956
 5639.0000  -999.2500   746.3126     8.7871     0.0725     2.5499  -999.2500   -63.3705   107.4843    63.3574
 5639.5000  -999.2500   752.9348     8.7725     0.0724     2.5477  -999.2500   -63.3720   103.0927    61.5968
 5640.0000  -999.2500   760.5018     8.7730     0.0754     2.5665  -999.2500   -63.5243   105.9474    65.5101
 5640.5000  -999.2500   798.0538     8.7734     0.0799     2.5958  -999.2500   -63.5257   111.9396    71.1410
 5641.0000  -999.2500   866.1498     8.7738     0.0993     2.6221  -999.2500   -63.3765   113.4753    73.6055
 5641.5000  -999.2500   880.6719     8.7592     0.1128     2.6513  -999.2500   -62.1735   110.2317    72.5477
 5642.0000  -999.2500   858.2362     8.7598     0.1007     2.6740  -999.2500   -61.2709   102.2372    67.1996
 5642.5000  -999.2500   858.3247     8.7602     0.0842     2.6860  -999.2500   -61.7245    90.8832    56.1131
 5643.0000  -999.2500   888.3809     8.7606     0.0647     2.6796  -999.2500   -62.6295    78.5879    47.8155
 5643.5000  -999.2500   903.4614  -999.2500  -999.2500  -999.2500  -999.2500   -63.3843    76.9507    46.1882
 5644.0000  -999.2500   903.5322  -999.2500  -999.2500  -999.2500  -999.2500   -63.9881    79.6350    52.6390
 5644.5000  -999.2500   918.5955  -999.2500  -999.2500  -999.2500  -999.2500   -64.8932    88.3085    66.0971
 5645.0000  -999.2500   933.6588  -999.2500  -999.2500  -999.2500  -999.2500   -65.6526   115.5898    90.1649
 5645.5000  -999.2500   941.2258  -999.2500  -999.2500  -999.2500  -999.2500   -66.1012   222.7715   142.2366
 5646.0000  -999.2500   933.8004  -999.2500  -999.2500  -999.2500  -999.2500   -66.4038   351.3959   199.4959
 5646.5000  -999.2500   933.8887  -999.2500  -999.2500  -999.2500  -999.2500   -66.4052   406.1627   200.7764
 5647.0000  -999.2500   948.9520  -999.2500  -999.2500  -999.2500  -999.2500   -66.4066   378.9239   185.9512
 5647.5000  -999.2500   949.0255  -999.2500  -999.2500  -999.2500  -999.2500   -66.2578   277.5912   146.9172
 5648.0000  -999.2500   941.5973  -999.2500  -999.2500  -999.2500  -999.2500   -66.1082   174.6799   101.0849
 5648.5000  -999.2500   949.1821  -999.2500  -999.2500  -999.2500  -999.2500   -65.8087   128.8456    68.1137
 5649.0000  -999.2500   964.2454  -999.2500  -999.2500  -999.2500  -999.2500   -65.5090    94.3894    50.9195
 5649.5000  -999.2500   972.5545  -999.2500  -999.2500  -999.2500  -999.2500   -65.2092    82.1856    44.0146
 5650.0000  -999.2500   979.3971  -999.2500  -999.2500  -999.2500  -999.2500   -64.7588    76.1509    41.9132
 5650.5000  -999.2500   986.9642  -999.2500  -999.2500  -999.2500  -999.2500   -63.8570    75.6070    43.3597
 5651.0000  -999.2500  1002.0273  -999.2500  -999.2500  -999.2500  -999.2500   -62.9551    77.1656    45.1731
 5651.5000  -999.2500  1009.5952  -999.2500  -999.2500  -999.2500  -999.2500   -62.0529    78.2191    46.4219
 5652.0000  -999.2500  1009.6829  -999.2500  -999.2500  -999.2500  -999.2500   -61.0001    77.6177    46.3484
 5652.5000  -999.2500  1017.2499  -999.2500  -999.2500  -999.2500  -999.2500   -60.2485    74.4825    44.7865
 5653.0000  -999.2500  1077.2906  -999.2500  -999.2500  -999.2500  -999.2500   -59.0454    68.0663    41.4849
 5653.5000  -999.2500  1137.3314  -999.2500  -999.2500  -999.2500  -999.2500   -58.5947    61.3492    36.3587
 5654.0000  -999.2500  1152.4125  -999.2500  -999.2500  -999.2500  -999.2500   -59.6507    54.5325    32.0829
 5654.5000  -999.2500  1159.9795  -999.2500  -999.2500  -999.2500  -999.2500   -59.6465    50.8786    31.6260
 5655.0000  -999.2500  1157.7314  -999.2500  -999.2500  -999.2500  -999.2500   -58.5996    50.1706    32.4961
 5655.5000  -999.2500  1152.0284  -999.2500  -999.2500  -999.2500  -999.2500   -58.2999    50.8524    33.8822
 5656.0000  -999.2500  1145.2170  -999.2500  -999.2500  -999.2500  -999.2500   -58.4519    51.9039    33.1387
 5656.5000  -999.2500  1175.2728  -999.2500  -999.2500  -999.2500  -999.2500   -58.6177    50.8227    31.3392
 5657.0000  -999.2500  1242.8098  -999.2500  -999.2500  -999.2500  -999.2500   -59.0575    45.8072    29.6373
