~VERSION INFORMATION
 VERS.                2.0:   CWLS LOG ASCII STANDARD - VERSION 2.0
 WRAP.                 NO:   ONE LINE PER DEPTH STEP
~WELL INFORMATION
#MNEM.UNIT      DATA TYPE    INFORMATION
#----------   ------------   ------------------------------
 STRT.F          200.0000:   START DEPTH
 STOP.F         3135.5000:   STOP DEPTH
 STEP.F            0.5000:   STEP LENGTH
 NULL.          -999.2500:   NO VALUE
 COMP.    FENOX & SCISSON:   COMPANY
 WELL. FENIX NPR 23 "AX" #3-11:   WELL
 FLD .                NPR:   FIELD
 LOC .      S11 T38N R78W:   LOCATION
 CNTY.            NATRONA:   COUNTY
 STAT.            WYOMING:   STATE
 CTRY. UNITED STATES OF AMERICA:   COUNTRY
 SRVC.       SCHLUMBERGER:   SERVICE COMPANY
 DATE.        06-NOV-1977:   LOGDATE
 API .     49025104320000:   API NUMBER
~CURVE INFORMATION
#MNEM.UNIT       API CODE    CURVE DESCRIPTION
#----------   ------------   ------------------------------
 DEPT.F                  :   
 CALD.IN     45 280 60 00:   CALIPER FROM DENSITY LOG
 GRD .GAPI   45 310 01 00:   GAMMA RAY FROM DENSITY LOG
 RHOB.G/C3   45 350 01 00:   BULK DENSITY
 CORR.G/C3   45 356 01 00:   DENSITY CORRECTION
 SPR .MV     07 010 01 00:   SPONTANEOUS POTENTIAL
 LL8 .OHMM   07 220 08 00:   LATEROLOG-8 RES.
 ILD .OHMM   07 120 46 00:   DEEP INDUCTION RESISTIVITY
 ILM .OHMM   07 120 44 00:   INDUCTION LOG MEDIUM RESISTIVITY
~PARAMETER INFORMATION
#MNEM.UNIT          VALUE    DESCRIPTION
#----------   ------------   ------------------------------
 EKB .F         5176.0000:   Kelly bushing
 EGL .F         5171.0000:   Ground level
 TD  .F         3138.0000:   Total depth
 DATE.        06-NOV-1977:   Date logged
 CLNT.            A2DTECH:   Client Code
 SL  . 1650' FNL & 750' FWL:   Surface Location
 PD  .                 GL:   Permanent Datum
 EPD .F              5171:   Elevation Permanent Datum
 LMF .                 KB:   Log Measured From
 DMF .                 KB:   Drilling Measured From
 DAPD.F                 5:   Feet Above Permanent Datum
 DD  .F              3138:   Depth driller
 DL  .F              3135:   Depth logger
 BLI .F              3134:   Bottom log interval
 TLI .F               196:   Top log interval
 CS1 .IN            8.625:   Casing size
 CBD1.      8.625" @ 205':   Casing driller 1
 CBL1.F               205:   Casing logger 1
 BS1 .IN            7.875:   Bit size
 BSD1.F              3138:   Depth drilled with bit1
 DFT .            KCL/MUD:   Type fluid in hole
 DFD .                8.8:   Density
 DFV .                 34:   Viscosity
 DFPH.                 11:   pH
 DFL .                  6:   Fluid loss
 MSS .            MUD/PIT:   Source of sample
 RMS .OHMM           0.27:   Rm
 MST .F                48:   Rm Meas. temp.
 RMF .OHMM           0.29:   Rmf
 MFST.F                48:   Rmf Meas. temp.
 RMC .OHMM           0.39:   Rmc
 MCST.F                48:   Rmc Meas. temp.
 MFSS.               MEAS:   Source Rmf.
 MCSS.               CALC:   Source Rmc.
 RMB .OHMM           0.12:   Rm. at BHT
 BHT .F               104:   BHT.
 TCS .HRS            1500:   Time Circ. stopped
 TLAB.HRS            1930:   Time logger at bottom
 MRT .F               104:   Maximum recorded temp.
 LUN .               7711:   Logging unit number
 LUL .               CSPR:   Logging unit location
 ENGI.       CRAIG/SAYLER:   Recorded By
 WITN.         PETTINGILL:   Witnessed by
 ORIG.           5" PRINT:   Origin of data
 UWI .     49025104320000:   Unique Well ID
 DICO. A2D TECHNOLOGIES, INC.:   Digitizing Company
~OTHER INFORMATION
~A   DEPT     CALD        GRD       RHOB       CORR        SPR        LL8        ILD        ILM   
# ...
 1536.5000     8.2854   105.3651     2.5514     0.0118   -62.8999     8.8069     9.0094     9.8744
 1537.0000     8.2860   105.5855     2.5524     0.0178   -63.1011     8.8878     9.0092     9.8737
 1537.5000     8.2664   105.6827     2.5605     0.0239   -62.9026     9.2595     9.0912    10.0555
 1538.0000     8.2669   105.9914     2.5705     0.0259   -62.9040     9.6048     9.0910     9.6048
 1538.5000     8.2871   105.0953     2.5796     0.0279   -62.9053     9.6042     9.0900     9.6042
 1539.0000     8.2679   102.6932     2.5666     0.0149   -62.7068     9.2580     9.0898     9.2580
 1539.5000     8.2684    99.9900     2.5606     0.0109   -62.7082     9.3425     9.1728     9.3425
 1540.0000     8.2689    99.6962     2.5506     0.0110   -62.7095     9.4280     9.1725     9.4280
 1540.5000     8.2692    99.4025     2.5456     0.0130   -62.7109     9.1717     9.2563     9.1717
 1541.0000     8.2699    99.1088     2.5446     0.0120   -62.7123     9.0480     9.1712     9.1712
 1541.5000     8.2905    98.8165     2.5386     0.0070   -62.7136     8.9648     9.1705     9.1705
 1542.0000     8.2709    98.8240     2.5407     0.0041   -62.7150     8.9643     9.0863     9.0863
 1542.5000     8.2714    99.4338     2.5407     0.0041   -62.7163     8.9639     9.0028     9.0028
 1543.0000     8.2921   100.6461     2.5427     0.0061   -62.9175     8.9632     9.1689     9.1689
 1543.5000     8.2757   103.0630     2.5478     0.0031   -62.7191     9.1290     9.2527     9.1689
 1544.0000     8.2730   105.1788     2.5508    -0.0018   -62.7204     9.4704     9.3374     9.1689
 1544.5000     8.2735   105.1863     2.5498    -0.0008   -62.7218     9.5574     9.4228     9.1689
 1545.0000     8.2938   104.5914     2.5518     0.0012   -62.7231     9.7341     9.5090     9.1689
 1545.5000     8.2745   104.2977     2.5499     0.0012   -62.5247     9.7335     9.5084     9.1689
 1546.0000     8.2750   103.4015     2.5519     0.0043   -62.7258     9.7329     9.8627     9.1689
 1546.5000     8.2755   102.5054     2.5549     0.0073   -62.7275     9.7324     9.5073     9.1689
 1547.0000     8.2760   102.8141     2.5620     0.0093   -62.5290     9.5067     9.5067     9.1689
 1547.5000     8.2765   104.6287     2.5670     0.0104   -62.5304     9.1639     9.1639     9.1689
 1548.0000     8.2770   106.1421     2.5560     0.0184   -62.7316     9.0798     9.0798     9.1689
 1548.5000     8.2775   107.0528     2.5490     0.0114   -62.7329     9.1628     9.1628     9.1689
 1549.0000     8.2783   106.7606     2.5621     0.0155   -62.7343     9.1623     9.1623     9.1689
 1549.5000     8.2785   106.4684     2.5621     0.0175   -62.7356     9.5039     9.5039     9.1689
 1550.0000     8.2790   105.2696     2.5581     0.0075   -62.5372    10.0406    10.0406     9.1689
 1550.5000     8.2996   102.8675     2.5531     0.0125   -62.7383     9.3301     9.3301     9.1689
 1551.0000     8.3000   102.2714     2.5582     0.0156   -62.7397     9.2449     9.2449     9.1689
 1551.5000     8.2805   101.9792     2.5682     0.0166   -62.5413     9.1594     9.1594     9.1689
 1552.0000     8.2609   102.8902     2.5672     0.0146   -62.5426     9.3283     9.5882     9.1689
 1552.5000     8.2614   102.8977     2.5623     0.0076   -62.5440     9.0748     9.0748     9.1689
 1553.0000     8.2619   102.6039     2.5533     0.0037   -62.7451     8.9094     8.9094     9.1689
 1553.5000     8.2624   102.0090     2.5503     0.0017   -62.7465     9.0737     9.0737     9.1689
 1554.0000     8.2830   100.8117     2.5493    -0.0013   -62.5489     9.4986     9.4986    10.1277
 1554.5000     8.2836   100.5180     2.5503    -0.0003   -62.5494     9.9031     9.4981    10.1275
 1555.0000     8.2640   100.2243     2.5544     0.0018   -62.7506     9.6332     9.6732    10.1268
 1555.5000     8.2645    99.0270     2.5574     0.0058   -62.7519     9.6326     9.8515    10.2195
 1556.0000     8.2650    97.5285     2.5684     0.0108   -62.5535     9.9014    10.0332    10.3129
 1556.5000     8.2655    96.9336     2.5755     0.0189   -62.5549    10.1775     9.6714    10.4068
 1557.0000     8.2660    96.0375     2.5715     0.0179   -62.5562     9.5829     9.2377    10.1243
 1557.5000     8.2665    95.7437     2.5735     0.0149   -62.5576     9.4945     9.4946    10.1237
 1558.0000     8.2670    96.0524     2.5886     0.0160   -62.5589     9.4074     9.2370    10.1233
 1558.5000     8.2671    98.1682     2.5946     0.0190   -62.5606     9.4071     9.9388    10.1230
 1559.0000     8.2679   100.5852     2.6017     0.0200   -62.7617     9.4063    10.1219    10.1220
 1559.5000     8.2684   102.7010     2.5827     0.0050   -62.7630     9.1507    10.0293    10.1211
 1560.0000     8.2689   103.6120     2.5737     0.0061   -62.7644     9.2344     9.8461     9.8461
 1560.5000     8.2694   106.6314     2.5797     0.0131   -62.7658     9.8455    10.1199    10.1199
 1561.0000     8.2699   107.8451     2.5817     0.0191   -62.7671     9.9866    10.0270    10.0270
 1561.5000     8.2904   107.2502     2.5868     0.0222   -62.7685     9.9861     9.4900     9.4900
 1562.0000     8.2910   104.8481     2.5918     0.0272   -62.5701     9.8036     9.5768     9.5768
 1562.5000     8.2714   103.3496     2.5758     0.0202   -62.5714     9.5364     9.4888     9.4888
 1563.0000     8.2719   102.4535     2.5478     0.0022   -62.5728     9.4486     9.4883     9.4883
 1563.5000     8.2724   102.7663     2.5348    -0.0038   -62.5742     9.4479     9.4877     9.4877
 1564.0000     8.2930   102.7708     2.5338    -0.0027   -62.7753     9.4473     9.4869     9.9318
 1564.5000     8.2734   101.2723     2.5358     0.0023   -62.7766     8.9400     9.4867     9.9314
 1565.0000     8.2739    99.7726     2.5428     0.0023   -62.5782     8.8577     9.4860     9.8900
 1565.5000     8.2946   100.3825     2.5489     0.0034   -62.5796     8.9389     9.5727     9.7994
 1566.0000     8.2951   101.8959     2.5519     0.0024   -62.5810     9.1883     9.5723     9.7091
 1566.5000     8.2755   104.9153     2.5519     0.0024   -62.5823     8.9378     9.4841     9.6197
 1567.0000     8.2756   106.7299     2.5510    -0.0016   -62.7834     8.6147     9.4839     9.5311
 1567.5000     8.2765   107.6409     2.5490    -0.0016   -62.3850     8.6937     9.4832     9.5307
 1568.0000     8.2770   107.0460     2.5460    -0.0005   -62.5864     9.3104     9.4826     9.5301
 1568.5000     8.2571   105.5475     2.5430     0.0005   -62.7875     9.3098     9.5693     9.5296
 1569.0000     8.2780   104.9526     2.5360     0.0015   -62.5891     9.1404     9.3949     9.5289
 1569.5000     8.2584   105.5624     2.5371     0.0106   -62.5905     9.3944     9.6561     9.7049
 1570.0000     8.2790   107.0758     2.5501     0.0156   -62.5918     9.3939     9.4802     9.8843
 1570.5000     8.2795   105.8785     2.5612     0.0197   -62.5935     9.4796     9.4796     9.8838
 1571.0000     8.2800   104.6812     2.5582     0.0177   -62.5948     9.1379     9.4793     9.7928
 1571.5000     8.2805   103.4839     2.5502     0.0087   -62.5962     9.3920     9.3920     9.6138
 1572.0000     8.2810   103.4914     2.5482     0.0027   -62.5975     9.3058     9.3058     9.6132
 1572.5000     8.2815   103.1977     2.5492     0.0088   -62.5989     9.0529     9.3910     9.5247
 1573.0000     8.2820   104.4114     2.5563     0.0108   -62.6002     9.1357     9.1357     9.5242
 1573.5000     8.2624   105.3224     2.5633     0.0098   -62.6016     9.1352     9.1352     9.7860
 1574.0000     8.2830   105.6311     2.5613     0.0088   -62.6030     9.4756     8.9688     9.8082
 1574.5000     8.2634   105.6385     2.5554     0.0089   -62.6043     9.3886     9.3886     9.8304
 1575.0000     8.2639   106.8508     2.5584     0.0089   -62.6057     9.5617     9.5617     9.8527
 1575.5000     8.2644   108.0630     2.5644     0.0079   -62.6070     9.4739     9.4739     9.8751
 1576.0000     8.2649   107.1669     2.5745     0.0089   -62.6084     9.4336     9.4733     9.8975
 1576.5000     8.2856   105.9696     2.5715     0.0130   -62.6098     9.4330     9.4728     9.9200
