~VERSION INFORMATION
 VERS.                2.0:   CWLS LOG ASCII STANDARD - VERSION 2.0
 WRAP.                 NO:   ONE LINE PER DEPTH STEP
~WELL INFORMATION
#MNEM.UNIT      DATA TYPE    INFORMATION
#----------   ------------   ------------------------------
 STRT.F          480.0000:   START DEPTH
 STOP.F         4609.5000:   STOP DEPTH
 STEP.F            0.5000:   STEP LENGTH
 NULL.          -999.2500:   NO VALUE
 COMP.   FENNIX & SCISSON:   COMPANY
 WELL. FENNIX NPR-3 "LX" #58-14:   WELL
 FLD .              NPR-3:   FIELD
 LOC .      S14 T38N R78W:   LOCATION
 CNTY.            NATRONA:   COUNTY
 STAT.            WYOMING:   STATE
 CTRY. UNITED STATES OF AMERICA:   COUNTRY
 SRVC.       SCHLUMBERGER:   SERVICE COMPANY
 DATE.        08-MAR-1978:   LOGDATE
 API .     49025105920000:   API NUMBER
~CURVE INFORMATION
#MNEM.UNIT       API CODE    CURVE DESCRIPTION
#----------   ------------   ------------------------------
 DEPT.F                  :   
 SPR .MV     07 010 01 00:   SPONTANEOUS POTENTIAL
 SFL .OHMM   07 220 01 00:   SHALLOW FOCUSED LOG RESISTIVITY
 ILD .OHMM   07 120 46 00:   DEEP INDUCTION RESISTIVITY
 ILM .OHMM   07 120 44 00:   INDUCTION LOG MEDIUM RESISTIVITY
 CALD.IN     45 280 60 00:   CALIPER FROM DENSITY LOG
 GRD .GAPI   45 310 01 00:   GAMMA RAY FROM DENSITY LOG
 CORR.G/C3   45 356 01 00:   DENSITY CORRECTION
 RHOB.G/C3   45 350 01 00:   BULK DENSITY
 NPHI.DEC    42 890 03 00:   NEUTRON POROSITY SANDSTONE
~PARAMETER INFORMATION
#MNEM.UNIT          VALUE    DESCRIPTION
#----------   ------------   ------------------------------
 EKB .F         5320.0000:   Kelly bushing
 EGL .F         5310.0000:   Ground level
 EDF .F            0.0000:   Drilling floor
 TD  .F         4635.0000:   Total depth
 DATE.        08-MAR-1978:   Date logged
 CLNT.            A2DTECH:   Client Code
 SL  . 810' FSL & 1830' FEL:   Surface Location
 PD  .                 GL:   Permanent Datum
 DD  .F              4635:   Depth driller
 DL  .F              4608:   Depth logger
 BLI .F              4607:   Bottom log interval
 DFT .                FGM:   Type fluid in hole
 DFD .                9.1:   Density
 DFV .                 38:   Viscosity
 DFPH.                 11:   pH
 MSS .           FLOWLINE:   Source of sample
 RMS .OHMM           1.53:   Rm
 MST .F                58:   Rm Meas. temp.
 RMF .OHMM           1.06:   Rmf
 MFST.F                58:   Rmf Meas. temp.
 MFSS.               MEAS:   Source Rmf.
 RMB .OHMM           0.68:   Rm. at BHT
 BHT .F               131:   BHT.
 TCS .HRS            0630:   Time Circ. stopped
 MRT .F               131:   Maximum recorded temp.
 LUN .               8039:   Logging unit number
 LUL .               CSPP:   Logging unit location
 ENGI.           PETERSON:   Recorded By
 ORIG.           5" PRINT:   Origin of data
 UWI .     49025105920000:   Unique Well ID
 DICO. A2D TECHNOLOGIES, INC.:   Digitizing Company
 DAPD.                 20:   Feet Above Permanent Datum
 BSD1.               4635:   Depth drilled with bit1
 EPD .               5310:   Elevation Permanent Datum
 LMF .                 KB:   Log Measured From
 DMF .                 KB:   Drilling Measured From
 TLI .                508:   Top log interval
 CS1 .              8.625:   Casing size
 CBL1.                508:   Casing logger 1
 BS1 .              7.875:   Bit size
~OTHER INFORMATION
~A   DEPT      SPR        SFL        ILD        ILM       CALD         GRD      CORR       RHOB         NPHI 
# ...
 1064.0000   -13.2680     7.4200     9.0980     8.0440    12.4040    79.4600    -0.0020     2.4230     0.2850
 1064.5000   -13.2180     7.4940     9.0880     8.0440    12.4010    78.6650    -0.0010     2.4180     0.2760
 1065.0000   -13.1720     7.5360     9.0780     8.0440    12.3990    80.6900     0.0020     2.4240     0.2720
 1065.5000   -13.2560     7.5050     9.0690     8.0440    12.3960    82.7820     0.0030     2.4280     0.2690
 1066.0000   -13.3490     7.4810     9.0590     8.0440    12.3930    81.2550    -0.0030     2.4300     0.2700
 1066.5000   -13.2890     7.3830     9.0500     8.0450    12.3910    78.0310    -0.0050     2.4330     0.2710
 1067.0000   -13.1920     7.2300     9.0400     8.0140    12.3880    76.7690    -0.0050     2.4380     0.2700
 1067.5000   -13.0930     7.1320     9.0300     7.9650    12.3850    78.2770    -0.0030     2.4420     0.2700
 1068.0000   -12.9930     7.1320     9.0210     7.9150    12.3830    79.6360     0.0000     2.4390     0.2730
 1068.5000   -12.9710     7.1320     9.0110     7.8640    12.3800    80.5430    -0.0020     2.4290     0.2750
 1069.0000   -12.9700     7.1320     9.0010     7.8140    12.3870    80.4310    -0.0040     2.4200     0.2770
 1069.5000   -12.9720     7.1320     8.9920     7.7640    12.4030    79.9710    -0.0050     2.4160     0.2800
 1070.0000   -13.0420     7.2280     8.9140     7.7130    12.4190    78.1900    -0.0030     2.4180     0.2850
 1070.5000   -13.2900     7.3560     8.7780     7.6800    12.4350    77.6890    -0.0010     2.4200     0.2910
 1071.0000   -13.5280     7.4850     8.7420     7.6800    12.4510    78.6670     0.0040     2.4280     0.2900
 1071.5000   -13.7660     7.6130     8.7420     7.6800    12.4660    77.6650     0.0090     2.4380     0.2850
 1072.0000   -14.0040     7.7510     8.7420     7.6800    12.4770    75.9790     0.0140     2.4440     0.2770
 1072.5000   -14.2420     7.7130     8.7420     7.6800    12.4730    72.4870     0.0190     2.4400     0.2720
 1073.0000   -14.5110     7.6600     8.9320     7.6820    12.4690    69.9240     0.0250     2.4280     0.2790
 1073.5000   -14.8070     7.6080     9.1390     7.6770    12.4650    66.8900     0.0290     2.4180     0.2860
 1074.0000   -15.2180     7.4700     9.5550     7.9700    12.4610    61.6790     0.0280     2.4000     0.2890
 1074.5000   -15.7400     7.6490    10.1710     8.1200    12.4620    58.5280     0.0180     2.3850     0.2730
 1075.0000   -16.2600     8.2590    10.7880     8.2700    12.4710    58.7580     0.0090     2.3910     0.2540
 1075.5000   -16.7360     9.4630    11.4420     9.6380    12.4790    61.0220     0.0050     2.4140     0.2320
 1076.0000   -16.9130    11.7690    12.1840    10.8800    12.4880    63.6450     0.0090     2.4330     0.2160
 1076.5000   -17.0770    13.5000    12.9270    11.4240    12.4970    64.9740     0.0130     2.4370     0.2220
 1077.0000   -17.2420    15.0850    13.4390    11.8420    12.5050    65.2930     0.0170     2.4280     0.2330
 1077.5000   -17.4580    14.8360    13.9220    12.1570    12.5140    66.8130     0.0160     2.4080     0.2490
 1078.0000   -17.7300    14.1200    14.2710    12.3620    12.5140    68.4740     0.0150     2.3870     0.2610
 1078.5000   -18.0020    13.1060    13.8370    12.5380    12.5080    68.3990     0.0110     2.3670     0.2710
 1079.0000   -18.2730    12.4580    13.4350    12.2350    12.5010    67.8250     0.0070     2.3550     0.2750
 1079.5000   -18.5450    11.9900    13.0320    11.9710    12.4950    68.0660     0.0050     2.3510     0.2790
 1080.0000   -18.8280    11.5210    12.6540    11.4850    12.4880    69.5360     0.0040     2.3480     0.2850
 1080.5000   -18.9080    11.0520    12.2230    11.0290    12.4810    70.8270     0.0050     2.3470     0.2980
 1081.0000   -18.9110    10.5830    11.8170    10.5730    12.4540    71.0040     0.0100     2.3520     0.2990
 1081.5000   -18.9110    10.2720    11.4300    10.2300    12.4050    71.1540     0.0160     2.3580     0.2980
 1082.0000   -18.9110    10.1550    11.2610    10.1920    12.3560    71.8410     0.0160     2.3610     0.2980
 1082.5000   -18.9110    10.0420    11.0990    10.1570    12.3070    72.0940     0.0110     2.3610     0.3000
 1083.0000   -18.9120    10.0860    10.9370    10.1210    12.2580    70.0470     0.0080     2.3570     0.3090
 1083.5000   -18.9070    10.1360    10.8030    10.0850    12.2080    68.7180     0.0060     2.3510     0.3190
 1084.0000   -18.7840    10.0420    10.7580    10.0490    12.2070    67.9710     0.0060     2.3450     0.3210
 1084.5000   -18.6610     9.5890    10.7130    10.0140    12.2170    70.7660     0.0060     2.3470     0.3050
 1085.0000   -18.5430     9.5440    10.6680     9.9780    12.2280    73.1970     0.0060     2.3540     0.3000
 1085.5000   -18.3050     9.5000    10.6240     9.9500    12.2380    75.1700     0.0040     2.3630     0.2990
 1086.0000   -18.0520     9.3070    10.5010     9.6660    12.2410    76.7310     0.0020     2.3710     0.2990
 1086.5000   -17.7980     9.1170    10.3600     9.4420    12.2430    77.5290     0.0000     2.3680     0.2970
 1087.0000   -17.5430     8.9270    10.2200     9.2980    12.2440    76.7090    -0.0010     2.3640     0.2940
 1087.5000   -17.2880     8.7370    10.1320     9.1550    12.2460    75.7980     0.0010     2.3670     0.2930
 1088.0000   -17.0320     8.5810    10.1230     9.0720    12.2470    75.1260     0.0110     2.3780     0.2960
 1088.5000   -16.8460     8.6090    10.1150     8.9890    12.2490    74.9110     0.0170     2.3930     0.2980
 1089.0000   -16.7060     8.6440    10.1060     8.9050    12.2500    75.4480     0.0220     2.4100     0.2950
 1089.5000   -16.5650     8.6780    10.0970     8.9320    12.2510    76.6600     0.0280     2.4210     0.2910
 1090.0000   -16.4250     8.7130    10.0880     8.9590    12.2530    77.9220     0.0310     2.4230     0.2890
 1090.5000   -16.3360     8.7420    10.0790     8.9880    12.2540    78.4260     0.0270     2.4180     0.2920
 1091.0000   -16.3370     8.5960    10.0710     8.9560    12.2560    78.9070     0.0240     2.4130     0.2930
 1091.5000   -16.3370     8.4420    10.0620     8.9230    12.2570    79.4730     0.0230     2.4100     0.2910
 1092.0000   -16.3410     8.2790    10.0530     8.8900    12.2590    80.1820     0.0220     2.4060     0.2900
 1092.5000   -16.1950     8.1160    10.0480     8.8570    12.2570    79.1400     0.0170     2.4000     0.2890
 1093.0000   -16.0110     7.9700     9.9230     8.8230    12.2440    77.4410     0.0100     2.3940     0.2880
 1093.5000   -15.8260     8.1370     9.7650     8.6990    12.2310    75.1960     0.0010     2.3860     0.2870
 1094.0000   -15.7300     8.2810     9.6070     8.5700    12.2180    72.9630    -0.0030     2.3850     0.2880
 1094.5000   -15.7060     8.3470     9.4490     8.4400    12.2050    71.2630     0.0040     2.3920     0.2930
 1095.0000   -15.6810     7.9870     9.2920     8.3110    12.1930    72.0340     0.0110     2.4020     0.2990
 1095.5000   -15.6570     7.6730     9.1460     8.1820    12.1800    74.4020     0.0170     2.4120     0.2990
 1096.0000   -15.6330     7.3860     9.0810     8.0440    12.1670    76.9260     0.0130     2.4060     0.2970
 1096.5000   -15.6090     7.2660     9.0150     8.0120    12.1540    77.9270     0.0080     2.3960     0.2970
 1097.0000   -15.5850     7.2660     8.9490     7.9790    12.1410    76.9330     0.0020     2.3890     0.2970
 1097.5000   -15.5590     7.3020     8.9050     7.9700    12.1080    75.9570     0.0040     2.3970     0.2960
 1098.0000   -15.4850     7.4160     9.0360     7.9700    12.0740    76.0010     0.0080     2.4140     0.2910
 1098.5000   -15.2690     7.5310     9.2190     7.9700    12.0400    76.6490     0.0160     2.4310     0.2830
 1099.0000   -15.0600     7.6580     9.4020     8.1120    12.0060    78.3560     0.0170     2.4330     0.2830
 1099.5000   -14.8520     7.8170     9.5850     8.2690    11.9840    77.9940     0.0170     2.4280     0.2840
 1100.0000   -14.6430     8.0890     9.7680     8.4260    11.9910    77.2520     0.0170     2.4250     0.2820
