~VERSION INFORMATION
 VERS.                2.0:   CWLS LOG ASCII STANDARD - VERSION 2.0
 WRAP.                 NO:   ONE LINE PER DEPTH STEP
~WELL INFORMATION
#MNEM.UNIT      DATA TYPE    INFORMATION
#----------   ------------   ------------------------------
 STRT.F          206.0000:   START DEPTH
 STOP.F         2974.0000:   STOP DEPTH
 STEP.F            0.5000:   STEP LENGTH
 NULL.          -999.2500:   NO VALUE
 COMP.    FENIX & SCISSON:   COMPANY
 WELL.    FENIX AX #32-21:   WELL
 FLD .                NPR:   FIELD
 LOC .      S21 T39N R78W:   LOCATION
 CNTY.            NATRONA:   COUNTY
 STAT.            WYOMING:   STATE
 CTRY. UNITED STATES OF AMERICA:   COUNTRY
 SRVC.              WELEX:   SERVICE COMPANY
 DATE.        29-JUL-1977:   LOGDATE
 API .     49025104050000:   API NUMBER
~CURVE INFORMATION
#MNEM.UNIT       API CODE    CURVE DESCRIPTION
#----------   ------------   ------------------------------
 DEPT.F                  :   
 SPR .MV     07 010 01 00:   SPONTANEOUS POTENTIAL
 RILM.OHMM   07 120 44 00:   INDUCTION LOG MEDIUM RESISTIVITY
 RILD.OHMM   07 120 46 00:   INDUCTION LOG DEEP RESISTIVITY
 SGRD.OHMM   07 220 05 00:   SHALLOW GUARD LOG RESISTIVITY
 CALD.IN     45 280 60 00:   CALIPER FROM DENSITY LOG
 RHOB.G/C3   45 350 01 00:   BULK DENSITY
 DCOR.G/C3   45 356 01 00:   DENSITY CORRECTION
 GRD .GAPI   45 310 01 00:   GAMMA RAY FROM DENSITY LOG
~PARAMETER INFORMATION
#MNEM.UNIT          VALUE    DESCRIPTION
#----------   ------------   ------------------------------
 EKB .F         4995.0000:   Kelly bushing
 EGL .F         4985.0000:   Ground level
 EDF .F            0.0000:   Drilling floor
 EPD .F         4985.0000:   Permanent datum
 TD  .F         2978.0000:   Total depth
 DATE.        29-JUL-1977:   Date logged
 CLNT.            A2DTECH:   Client Code
 SL  . 1040' FNL & 1500' FWL:   Surface Location
 PD  .                 GL:   Permanent Datum
 LMF .                 KB:   Log Measured From
 DMF .                 KB:   Drilling Measured From
 DAPD.F                10:   Feet Above Permanent Datum
 DD  .F              2972:   Depth driller
 DL  .F              2978:   Depth logger
 BLI .F              2976:   Bottom log interval
 TLI .F               120:   Top log interval
 CS1 .IN            8.625:   Casing size
 CBD1.      8.625" @ 205':   Casing driller 1
 CBL1.F               220:   Casing logger 1
 BS1 .IN            7.875:   Bit size
 BSD1.F              2972:   Depth drilled with bit1
 DFT .                KCL:   Type fluid in hole
 DFD .                9.2:   Density
 DFV .                 43:   Viscosity
 DFPH.                 10:   pH
 DFL .                  8:   Fluid loss
 MSS .            MUD PIT:   Source of sample
 RMS .OHMM            .21:   Rm
 MST .F                91:   Rm Meas. temp.
 RMF .OHMM            .18:   Rmf
 MFST.F                91:   Rmf Meas. temp.
 RMC .OHMM            .23:   Rmc
 MCST.F                91:   Rmc Meas. temp.
 MFSS.               MEAS:   Source Rmf.
 MCSS.               MEAS:   Source Rmc.
 RMB .OHMM            .17:   Rm. at BHT
 BHT .F               110:   BHT.
 TCS .HRS               3:   Time Circ. stopped
 MRT .F               110:   Maximum recorded temp.
 LUN .               9685:   Logging unit number
 LUL .             CASPER:   Logging unit location
 ENGI.   T JOYNER/ E HOCH:   Recorded By
 WITN.         PETTINGILL:   Witnessed by
 ORIG.     2.5", 5" PRINT:   Origin of data
 UWI .     49025104050000:   Unique Well ID
 DICO. A2D TECHNOLOGIES, INC.:   Digitizing Company
~OTHER INFORMATION
~A   DEPT      SPR       RILM       RILD       SGRD       CALD       RHOB       DCOR         GRD  
# ...
  935.0000   -64.2050     6.9230     7.0640     9.5800     9.0550     2.5390     0.0570   118.8430
  935.5000   -63.9590     6.9760     7.1170     9.6280     9.0570     2.5330     0.0470   117.8920
  936.0000   -64.0000     7.0300     7.1290     9.6760     9.0600     2.5220     0.0380   117.4070
  936.5000   -64.0390     7.1140     7.1410     9.7340     9.0530     2.5110     0.0290   117.6290
  937.0000   -64.0900     7.0720     7.1520     9.7060     9.0380     2.5050     0.0190   117.7740
  937.5000   -64.1340     6.9700     7.1640     9.6720     9.0240     2.5060     0.0190   117.3990
  938.0000   -64.1800     6.8670     7.1760     9.6380     9.0100     2.5060     0.0250   117.0030
  938.5000   -64.2270     6.7650     7.1870     9.6030     8.9960     2.5070     0.0300   116.6510
  939.0000   -64.2720     6.6620     7.1990     9.5680     8.9820     2.5090     0.0360   117.1430
  939.5000   -64.3190     6.5590     7.2110     9.5330     8.9670     2.5110     0.0400   117.6720
  940.0000   -64.3650     6.4570     7.2230     9.4980     8.9530     2.5150     0.0450   117.3670
  940.5000   -64.4110     6.3540     7.2340     9.4620     8.9410     2.5210     0.0500   116.5430
  941.0000   -64.4570     6.2520     7.2450     9.4270     8.9440     2.5260     0.0540   115.7330
  941.5000   -64.5030     6.1490     7.1980     9.3920     8.9470     2.5310     0.0550   115.6120
  942.0000   -64.5500     6.0470     7.1470     9.3570     8.9500     2.5250     0.0520   116.0980
  942.5000   -64.5930     5.9330     7.0970     9.3220     8.9540     2.5200     0.0490   116.6130
  943.0000   -64.6460     5.9750     7.0460     9.2870     8.9570     2.5190     0.0470   115.4890
  943.5000   -64.6820     6.0590     6.9950     9.2520     8.9600     2.5210     0.0450   116.6560
  944.0000   -64.7280     6.1420     6.9440     9.2170     8.9630     2.5250     0.0500   116.3760
  944.5000   -64.4660     6.2520     6.8930     9.1820     8.9670     2.5310     0.0540   116.7720
  945.0000   -64.1140     6.2400     6.8460     9.1470     8.9700     2.5340     0.0600   117.3970
  945.5000   -63.9270     6.2220     6.8080     9.1120     8.9740     2.5310     0.0530   118.2030
  946.0000   -63.9500     6.2040     6.7710     9.0770     8.9770     2.5270     0.0510   118.9760
  946.5000   -63.9440     6.1870     6.7330     9.0440     8.9800     2.5270     0.0590   119.7450
  947.0000   -63.9430     6.1690     6.6960     8.9760     8.9770     2.5320     0.0670   119.5890
  947.5000   -63.9460     6.1510     6.6580     8.9120     8.9750     2.5370     0.0660   119.3980
  948.0000   -63.9440     6.1160     6.6200     8.8480     8.9730     2.5320     0.0720   119.1970
  948.5000   -63.9410     6.0250     6.5830     8.7840     8.9700     2.5280     0.0760   119.0340
  949.0000   -63.9570     5.9340     6.5450     8.7200     8.9680     2.5240     0.0780   119.3300
  949.5000   -63.8130     5.8430     6.5080     8.6560     8.9660     2.5170     0.0700   119.6910
  950.0000   -63.4780     5.8070     6.4700     8.5920     8.9630     2.5080     0.0630   119.5960
  950.5000   -63.1710     5.9310     6.4320     8.5280     8.9610     2.4980     0.0550   119.1540
  951.0000   -63.2230     6.0340     6.3950     8.4640     8.9590     2.4890     0.0470   118.7690
  951.5000   -63.2860     6.1380     6.3570     8.4000     8.9560     2.4790     0.0390   118.3430
  952.0000   -63.3650     6.0900     6.3200     8.3360     8.9540     2.4770     0.0320   118.3840
  952.5000   -63.4330     6.0430     6.2820     8.2460     8.9510     2.4750     0.0330   118.7810
  953.0000   -63.5050     5.9950     6.2520     8.2790     8.9490     2.4780     0.0340   119.2320
  953.5000   -63.5900     5.9480     6.2770     8.3330     8.9470     2.4850     0.0350   118.9370
  954.0000   -63.6880     5.9000     6.2980     8.3880     8.9440     2.4920     0.0360   117.3750
  954.5000   -63.7860     5.8530     6.3190     8.4420     8.9420     2.4920     0.0300   116.4530
  955.0000   -63.8990     5.8050     6.3390     8.4970     8.9410     2.4830     0.0250   116.3750
  955.5000   -63.8490     5.7580     6.3600     8.5510     8.9510     2.4750     0.0200   115.8240
  956.0000   -63.5570     5.7010     6.3860     8.6060     8.9600     2.4730     0.0150   114.8570
  956.5000   -63.3680     5.7740     6.4140     8.6600     8.9690     2.4700     0.0100   113.8920
  957.0000   -63.1470     5.8650     6.4430     8.7150     8.9790     2.4700     0.0100   114.2060
  957.5000   -62.9370     5.9560     6.4710     8.7690     8.9880     2.4730     0.0140   114.5840
  958.0000   -62.7220     6.0470     6.5000     8.8240     8.9970     2.4800     0.0180   115.0480
  958.5000   -62.5030     6.1380     6.5280     8.8780     9.0060     2.4880     0.0210   115.4250
  959.0000   -62.3520     6.2060     6.5570     8.9160     9.0160     2.4880     0.0250   115.7160
  959.5000   -62.3530     6.2740     6.5850     8.9530     9.0250     2.4840     0.0290   114.6280
  960.0000   -62.3490     6.3420     6.6080     8.9910     9.0340     2.4840     0.0330   113.7280
  960.5000   -62.3510     6.4110     6.6080     9.0280     9.0430     2.4920     0.0360   112.6790
  961.0000   -62.3510     6.4790     6.6080     9.0630     9.0530     2.5000     0.0400   113.2150
  961.5000   -62.3480     6.5470     6.6080     9.0950     9.0620     2.5090     0.0450   112.8750
  962.0000   -62.3570     6.6160     6.6080     9.1280     9.0710     2.5210     0.0570   112.2590
  962.5000   -62.2760     6.6840     6.6070     9.1600     9.0810     2.5420     0.0710   112.4180
  963.0000   -62.1060     6.7520     6.6070     9.1930     9.0890     2.5390     0.0700   112.5350
  963.5000   -61.9450     6.8200     6.6360     9.2260     9.0990     2.5300     0.0670   111.8200
  964.0000   -61.7840     6.8890     6.7100     9.2620     9.0900     2.5220     0.0630   111.1560
  964.5000   -61.6210     6.9570     6.7830     9.2980     9.0800     2.5140     0.0610   110.4270
  965.0000   -61.4590     7.0220     6.8560     9.3340     9.0690     2.5130     0.0630   109.7660
  965.5000   -61.2970     7.0860     6.9280     9.3690     9.0580     2.5150     0.0640   108.8020
  966.0000   -61.1350     7.1500     7.0010     9.4570     9.0470     2.5200     0.0660   107.9100
  966.5000   -60.9720     7.2140     7.0740     9.5780     9.0370     2.5230     0.0680   106.9880
  967.0000   -60.8100     7.2770     7.1470     9.6990     9.0260     2.5230     0.0670   106.0550
  967.5000   -60.6480     7.3410     7.2200     9.8210     9.0150     2.5240     0.0650   105.4780
  968.0000   -60.4860     7.4050     7.2920     9.9180     9.0040     2.5250     0.0630   105.7850
  968.5000   -60.3250     7.4680     7.3650    10.0170     8.9930     2.5270     0.0610   106.0080
  969.0000   -60.1600     7.5190     7.4380    10.1000     8.9830     2.5240     0.0600   106.6990
  969.5000   -59.9970     7.2710     7.5110    10.1820     8.9720     2.5210     0.0600   108.0150
  970.0000   -59.7130     7.0640     7.5840    10.2650     8.9610     2.5190     0.0570   108.6390
  970.5000   -59.3730     6.8570     7.6560    10.3470     8.9510     2.5190     0.0510   108.5930
  971.0000   -59.0390     6.6080     7.7290    10.4300     8.9410     2.5130     0.0440   108.6810
  971.5000   -58.7810     6.6700     7.8020    10.5130     8.9530     2.5060     0.0370   109.8010
  972.0000   -58.8680     6.7310     7.8170    10.5950     8.9650     2.4980     0.0310   110.9660
  972.5000   -58.9420     7.2680     7.8320    10.6780     8.9780     2.4930     0.0230   111.4470
  973.0000   -59.0310     7.7150     7.8480    10.5170     8.9900     2.4950     0.0220   111.3620
  973.5000   -59.1130     8.1620     7.8630    10.2910     9.0030     2.5000     0.0270   111.7260
  974.0000   -59.1950     8.8780     7.8790    10.4010     9.0150     2.5050     0.0320   113.1240
  974.5000   -59.2800     8.6680     7.8940    10.5840     9.0280     2.5100     0.0370   114.0940
  975.0000   -59.3630     8.1420     7.9090    10.8770     9.0400     2.5140     0.0420   113.3740
