~VERSION INFORMATION
 VERS.                2.0:   CWLS LOG ASCII STANDARD - VERSION 2.0
 WRAP.                 NO:   ONE LINE PER DEPTH STEP
~WELL INFORMATION
#MNEM.UNIT      DATA TYPE    INFORMATION
#----------   ------------   ------------------------------
 STRT.F          190.0000:   START DEPTH
 STOP.F         3050.0000:   STOP DEPTH
 STEP.F            0.5000:   STEP LENGTH
 NULL.          -999.2500:   NO VALUE
 COMP.    FENIX & SCISSON:   COMPANY
 WELL. FENIX NPR 3 "AX" #86-29:   WELL
 FLD .      NPR - WILDCAT:   FIELD
 LOC .      S29 T39N R78W:   LOCATION
 CNTY.            NATRONA:   COUNTY
 STAT.            WYOMING:   STATE
 CTRY. UNITED STATES OF AMERICA:   COUNTRY
 SRVC.              WELEX:   SERVICE COMPANY
 DATE.        24-JUN-1977:   LOGDATE
 API .     49025103830000:   API NUMBER
~CURVE INFORMATION
#MNEM.UNIT       API CODE    CURVE DESCRIPTION
#----------   ------------   ------------------------------
 DEPT.F                  :   
 SPR .MV     07 010 01 00:   SPONTANEOUS POTENTIAL
 ILD .OHMM   07 120 46 00:   DEEP INDUCTION RESISTIVITY
 ILM .OHMM   07 120 44 00:   INDUCTION LOG MEDIUM RESISTIVITY
 SGRD.OHMM   07 220 05 00:   SHALLOW SHORT GUARD RESISTIVITY
 GRD .GAPI   45 310 01 00:   GAMMA RAY FROM DENSITY LOG
 CALD.IN     45 280 60 00:   CALIPER FROM DENSITY LOG
 RHOB.G/C3   45 350 01 00:   BULK DENSITY
 CORR.G/C3   45 356 01 00:   DENSITY CORRECTION
~PARAMETER INFORMATION
#MNEM.UNIT          VALUE    DESCRIPTION
#----------   ------------   ------------------------------
 EKB .F         5056.0000:   Kelly bushing
 EGL .F         5046.0000:   Ground level
 EDF .F            0.0000:   Drilling floor
 TD  .F         3051.0000:   Total depth
 DATE.        24-JUN-1977:   Date logged
 CLNT.            A2DTECH:   Client Code
 SL  . 1746' FSL & 534' FEL:   Surface Location
 PD  .                 GL:   Permanent Datum
 EPD .F              5046:   Elevation Permanent Datum
 LMF .                 KB:   Log Measured From
 DMF .                 KB:   Drilling Measured From
 DAPD.F                10:   Feet Above Permanent Datum
 DD  .F              3038:   Depth driller
 DL  .F              3051:   Depth logger
 BLI .F              3049:   Bottom log interval
 TLI .F               200:   Top log interval
 CS1 .IN            8.625:   Casing size
 CBD1.      8.625" @ 217':   Casing driller 1
 CBL1.F               213:   Casing logger 1
 BS1 .IN            7.875:   Bit size
 BSD1.F              3038:   Depth drilled with bit1
 DFT .            KCL/MUD:   Type fluid in hole
 DFD .                8.7:   Density
 DFV .                134:   Viscosity
 DFPH.                7.5:   pH
 DFL .                7.2:   Fluid loss
 MSS .           FLOWLINE:   Source of sample
 RMS .OHMM            .62:   Rm
 MST .F                82:   Rm Meas. temp.
 RMF .OHMM            .28:   Rmf
 MFST.F                82:   Rmf Meas. temp.
 RMC .OHMM            .78:   Rmc
 MCST.F                82:   Rmc Meas. temp.
 MFSS.               MEAS:   Source Rmf.
 MCSS.               MEAS:   Source Rmc.
 RMB .OHMM            .45:   Rm. at BHT
 BHT .F               111:   BHT.
 TCS .HRS               2:   Time Circ. stopped
 MRT .F               111:   Maximum recorded temp.
 LUN .               8766:   Logging unit number
 LUL .             CASPER:   Logging unit location
 ENGI.          D. LAWSON:   Recorded By
 WITN.      B. HARRINGTON:   Witnessed by
 ORIG.           5" PRINT:   Origin of data
 UWI .     49025103830000:   Unique Well ID
 DICO. A2D TECHNOLOGIES, INC.:   Digitizing Company
~OTHER INFORMATION
~A   DEPT      SPR        ILD        ILM       SGRD        GRD       CALD         RHOB      CORR  
# ...
  959.5000   -63.4590     9.1500     9.9660    13.4950    73.2820     9.4920     2.4800     0.0200
  960.0000   -63.4700     9.1300     9.9660    13.9900    74.0810     9.4830     2.4770     0.0190
  960.5000   -63.4810     9.1110     9.9660    13.7930    74.8780     9.4750     2.4750     0.0170
  961.0000   -63.4920     9.0910     9.9660    13.3290    75.6750     9.4780     2.4720     0.0150
  961.5000   -63.5040     9.0720     9.9660    12.8820    76.4740     9.4820     2.4680     0.0140
  962.0000   -63.5150     9.0520     9.9660    12.8820    77.2780     9.4850     2.4660     0.0120
  962.5000   -63.5260     9.0330     9.9660    13.0080    78.1160     9.4880     2.4680     0.0120
  963.0000   -63.5380     9.0130     9.9660    13.1290    78.5280     9.4920     2.4720     0.0120
  963.5000   -63.5490     8.9930     9.9660    13.2500    78.9400     9.4950     2.4750     0.0130
  964.0000   -63.5600     8.9740     9.9660    13.3630    79.3560     9.4970     2.4780     0.0140
  964.5000   -63.5710     8.9540     9.9660    13.2320    79.6960     9.4990     2.4820     0.0140
  965.0000   -63.5830     8.9290     9.9670    13.1090    79.1540     9.5020     2.4850     0.0150
  965.5000   -63.5940     8.9720     9.9520    12.9860    78.6230     9.5040     2.4890     0.0160
  966.0000   -63.6050     9.0360     9.9320    12.8630    78.0970     9.5060     2.4930     0.0170
  966.5000   -63.6170     9.0940     9.9110    12.7410    77.5720     9.5080     2.4980     0.0180
  967.0000   -63.6280     9.0010     9.8900    12.6180    77.0470     9.5110     2.5040     0.0180
  967.5000   -63.6390     8.8470     9.8350    12.5330    76.5220     9.5130     2.5070     0.0180
  968.0000   -63.6500     8.9050     9.7040    12.6710    75.9950     9.5150     2.5060     0.0180
  968.5000   -63.6620     9.0180     9.5730    12.8580    75.4660     9.5170     2.5010     0.0180
  969.0000   -63.6730     9.0940     9.4330    13.6280    75.0350     9.5200     2.4970     0.0170
  969.5000   -63.6840     9.0610     9.4570    13.9900    75.7140     9.5220     2.4920     0.0150
  970.0000   -63.6950     9.0370     9.4890    13.5940    76.3730     9.5240     2.4870     0.0140
  970.5000   -63.7070     9.0120     9.5220    13.2410    77.0270     9.5260     2.4840     0.0130
  971.0000   -63.7180     8.9880     9.5550    13.1200    76.8950     9.5290     2.4820     0.0150
  971.5000   -63.7290     8.9640     9.6030    13.1200    75.9820     9.5310     2.4830     0.0180
  972.0000   -63.7270     8.9390     9.5210    13.1200    75.0700     9.5330     2.4840     0.0220
  972.5000   -63.7090     8.9250     9.2820    13.1200    74.6110     9.5350     2.4880     0.0260
  973.0000   -63.6910     8.9180     9.0430    13.1260    74.6090     9.5380     2.4910     0.0300
  973.5000   -63.6730     8.9110     8.8470    13.1600    74.6070     9.5400     2.4950     0.0340
  974.0000   -63.6550     8.9040     8.8550    13.1940    74.6030     9.5420     2.4990     0.0340
  974.5000   -63.6370     8.8970     8.8620    13.2410    74.3340     9.5440     2.5000     0.0340
  975.0000   -63.6190     8.8910     8.8690    13.1500    74.0340     9.5470     2.4980     0.0340
  975.5000   -63.6010     8.8840     8.8760    12.9200    73.8410     9.5490     2.4950     0.0310
  976.0000   -63.5830     8.8770     8.8830    12.6910    73.9470     9.5510     2.4910     0.0280
  976.5000   -63.5650     8.8700     8.8900    12.6480    74.0470     9.5530     2.4910     0.0240
  977.0000   -63.5470     8.8630     8.8970    12.6480    74.1400     9.5510     2.4940     0.0220
  977.5000   -63.5290     8.8570     8.9040    12.8240    74.0980     9.5490     2.4960     0.0220
  978.0000   -63.5120     8.8480     8.9110    13.0370    73.6520     9.5470     2.4980     0.0210
  978.5000   -63.4940     8.8790     8.9180    13.2410    73.2210     9.5450     2.4980     0.0210
  979.0000   -63.4760     8.9280     8.9250    13.3060    72.7920     9.5430     2.4970     0.0210
  979.5000   -63.4580     8.9780     9.0060    13.3630    72.3610     9.5410     2.4990     0.0210
  980.0000   -63.4400     9.0280     9.1760    13.1110    71.9260     9.5390     2.5020     0.0240
  980.5000   -63.4220     9.0780     9.3470    12.9000    71.4750     9.5370     2.5050     0.0260
  981.0000   -63.4040     9.1270     9.5180    13.0130    71.5230     9.5350     2.5080     0.0280
  981.5000   -63.3860     9.1770     9.6260    13.1630    71.6230     9.5330     2.5100     0.0310
  982.0000   -63.3680     9.2270     9.6640    13.2560    71.7230     9.5310     2.5130     0.0320
  982.5000   -63.3500     9.2630     9.7030    13.3100    71.8170     9.5290     2.5090     0.0320
  983.0000   -63.3320     9.2690     9.7410    13.3630    72.1580     9.5270     2.5040     0.0320
  983.5000   -63.3140     9.2740     9.7800    13.4170    72.5940     9.5250     2.4990     0.0310
  984.0000   -63.2960     9.2800     9.8180    13.4860    73.0310     9.5230     2.4940     0.0270
  984.5000   -63.2780     9.2850     9.8560    13.4650    73.4690     9.5210     2.4890     0.0240
  985.0000   -63.2610     9.2910     9.8950    13.4240    73.9070     9.5190     2.4870     0.0200
  985.5000   -63.2430     9.2960     9.9330    13.3630    74.3410     9.5170     2.4870     0.0200
  986.0000   -63.2250     9.3020     9.9840    13.5480    74.7770     9.5150     2.4880     0.0190
  986.5000   -63.2070     9.3070    10.1140    13.9900    74.7660     9.5120     2.4890     0.0190
  987.0000   -63.1890     9.3120    10.2450    13.9420    74.3090     9.5100     2.4920     0.0190
  987.5000   -63.1710     9.3180    10.4340    13.8770    73.8520     9.5080     2.4950     0.0200
  988.0000   -63.1530     9.3230    10.3920    13.8120    73.3920     9.5060     2.4980     0.0210
  988.5000   -63.1550     9.3290    10.2750    13.7470    72.9360     9.5040     2.5030     0.0220
  989.0000   -63.1860     9.3340    10.1570    13.6820    72.4790     9.5020     2.5030     0.0230
  989.5000   -63.2180     9.3390    10.0400    13.6170    72.5170     9.5000     2.5030     0.0240
  990.0000   -63.2490     9.3470     9.9760    13.5520    73.0520     9.4980     2.5040     0.0250
  990.5000   -63.2800     9.3370    10.0740    13.4860    73.5860     9.4960     2.5070     0.0260
  991.0000   -63.3120     9.3200    10.1520    13.6050    74.1200     9.4940     2.5100     0.0270
  991.5000   -63.3430     9.3030    10.2300    13.7260    74.6230     9.4950     2.5120     0.0290
  992.0000   -63.3740     9.2850    10.3080    13.8460    75.0910     9.4960     2.5090     0.0300
  992.5000   -63.4060     9.2680    10.4010    13.9670    75.5360     9.4970     2.5010     0.0280
  993.0000   -63.4370     9.2510    10.5030    13.9900    75.9800     9.4980     2.4940     0.0260
  993.5000   -63.4680     9.2340    10.6050    13.9100    76.4220     9.4990     2.4870     0.0240
  994.0000   -63.5000     9.2170    10.7250    13.4860    76.8650     9.5000     2.4850     0.0220
  994.5000   -63.5310     9.1990    10.6190    13.5610    77.3070     9.5010     2.4860     0.0200
  995.0000   -63.5620     9.1820    10.4920    13.6790    77.7460     9.5020     2.4880     0.0200
  995.5000   -63.5940     9.1650    10.3650    13.8620    78.1790     9.5030     2.4910     0.0200
  996.0000   -63.6250     9.1480    10.2440    13.7100    78.9170     9.5040     2.4930     0.0200
  996.5000   -63.6560     9.1300    10.3500    13.3700    79.6260     9.5050     2.4910     0.0200
  997.0000   -63.6880     9.1130    10.4510    13.1200    80.3290     9.5060     2.4880     0.0200
  997.5000   -63.7190     9.0960    10.5520    13.2750    81.0310     9.5070     2.4850     0.0200
  998.0000   -63.7450     9.0590    10.6520    13.3980    81.7330     9.5080     2.4820     0.0200
  998.5000   -63.7660     9.0190    10.7250    13.4860    82.2070     9.5090     2.4780     0.0200
  999.0000   -63.7870     8.9790    10.5710    13.2910    82.4540     9.5100     2.4760     0.0200
  999.5000   -63.8080     8.9390    10.4510    13.1380    82.7010     9.5110     2.4790     0.0200
