~VERSION INFORMATION
 VERS.                2.0:   CWLS LOG ASCII STANDARD - VERSION 2.0
 WRAP.                 NO:   ONE LINE PER DEPTH STEP
~WELL INFORMATION
#MNEM.UNIT      DATA TYPE    INFORMATION
#----------   ------------   ------------------------------
 STRT.F           20.0000:   START DEPTH
 STOP.F         4128.0000:   STOP DEPTH
 STEP.F            0.5000:   STEP LENGTH
 NULL.          -999.2500:   NO VALUE
 COMP. LAWRENCE-ALLISON & ASSOCIATES:   COMPANY
 WELL. LAWRENCE "X" #53-3:   WELL
 FLD .             NPR #3:   FIELD
 LOC .       S3 T38N R78W:   LOCATION
 CNTY.            NATRONA:   COUNTY
 STAT.            WYOMING:   STATE
 CTRY. UNITED STATES OF AMERICA:   COUNTRY
 SRVC.      DRESSER ATLAS:   SERVICE COMPANY
 DATE.        18-SEP-1983:   LOGDATE
 API .     49025109370000:   API NUMBER
~CURVE INFORMATION
#MNEM.UNIT       API CODE    CURVE DESCRIPTION
#----------   ------------   ------------------------------
 DEPT.F                  :   
 NPHI.DEC    42 890 03 00:   NEUTRON POROSITY SANDSTONE
 TEND.LBS    45 635 01 00:   TENSION FORM DENSITY LOG
 CORR.G/C3   45 356 01 00:   DENSITY CORRECTION
 RHOB.G/C3   45 350 01 00:   BULK DENSITY
 CALD.IN     45 280 60 00:   CALIPER FROM DENSITY LOG
 GRR .GAPI   07 310 01 00:   GAMMA RAY FROM RESISTIVITY
 TENR.LBS    06 635 01 00:   TENSION FROM RESISTIVITY
 SPR .MV     07 010 01 00:   SPONTANEOUS POTENTIAL
 RILD.OHMM   07 120 46 00:   DEEP INDUCTION RESISTIVITY
 RILM.OHMM   07 120 44 00:   INDUCTION LOG MEDIUM RESISTIVITY
 RSFL.OHMM   07 220 01 00:   SPHERICALLY FOCUSED RESISTIVITY
 TENS.LBS    60 635 01 00:   TENSION FROM SONIC
 DT  .US/F   60 520 00 00:   DELTA TIME
~PARAMETER INFORMATION
#MNEM.UNIT          VALUE    DESCRIPTION
#----------   ------------   ------------------------------
 EKB .F         5214.0000:   Kelly bushing
 EGL .F         5204.0000:   Ground level
 EDF .F            0.0000:   Drilling floor
 TD  .F         4117.0000:   Total depth
 CLNT.            A2DTECH:   Client Code
 PD  .                 GL:   Permanent Datum
 EPD .F              5204:   Elevation Permanent Datum
 LMF .                 KB:   Log Measured From
 DMF .                 KB:   Drilling Measured From
 DAPD.F                10:   Feet Above Permanent Datum
 DATE.        18-SEP-1983:   Date Logged [DD-MMM-YYYY]
 DD  .F              4117:   Depth driller
 DL  .F              4113:   Depth logger
 BLI .F              4110:   Bottom log interval
 TLI .F                 0:   Top log interval
 CS1 .IN            9.625:   Casing size
 CBD1.      9.625" @ 523':   Casing driller 1
 CBL1.F               523:   Casing logger 1
 BS1 .IN            7.875:   Bit size
 BSD1.F              4117:   Depth drilled with bit1
 DFT .            GEL KCL:   Type fluid in hole
 DFD .                9.0:   Density
 DFV .                 42:   Viscosity
 DFPH.                8.5:   pH
 DFL .                 10:   Fluid loss
 MSS .               TANK:   Source of sample
 RMS .OHMM           0.35:   Rm
 MST .F                68:   Rm Meas. temp.
 RMF .OHMM          0.266:   Rmf
 MFST.F                68:   Rmf Meas. temp.
 MFSS.               MEAS:   Source Rmf.
 RMC .OHMM          0.443:   Rmc
 MCST.F                68:   Rmc Meas. temp.
 MCSS.               CALC:   Source Rmc.
 RMB .OHMM          0.185:   Rm. at BHT
 BHT .F               130:   BHT.
 TCS .HRS               4:   Time Circ. stopped
 MRT .F               130:   Maximum recorded temp.
 LUN .               6270:   Logging unit number
 LUL .              WLSTN:   Logging unit location
 ENGI.             REEVES:   Recorded By
 WITN.             STRONG:   Witnessed by
 ORIG.           5" PRINT:   Origin of data
 UWI .     49025109370000:   Unique Well ID
 DICO. A2D TECHNOLOGIES, INC.:   Digitizing Company
~OTHER INFORMATION
~A   DEPT     NPHI       TEND       CORR       RHOB       CALD         GRR      TENR        SPR       RILD       RILM       RSFL       TENS         DT   
# ...
 1216.0000     0.2750   -61.5980     0.0058     2.5105    10.2569   106.2278   -80.1245   -77.7513     8.1592     8.0841     8.1695  -999.2500  -999.2500
 1216.5000     0.2695   -65.2631    -0.0168     2.5030    10.2560   107.1008   -80.5573   -78.2014     8.1539     8.0776     8.1652  -999.2500  -999.2500
 1217.0000     0.2584   -65.1575    -0.0500     2.5030    10.2699   107.9816   -80.9901   -78.6515     8.1482     8.0711     8.1608  -999.2500  -999.2500
 1217.5000     0.2513   -65.0255    -0.0320     2.5037    10.2687   109.7665   -81.4230   -78.9543     8.1433     8.1229     8.1564  -999.2500  -999.2500
 1218.0000     0.2485   -61.1491    -0.0199     2.5052    10.2675   109.1275   -81.5430   -78.8152     8.1372     8.1751     8.2396  -999.2500  -999.2500
 1218.5000     0.2467   -57.2727    -0.0124     2.5052    10.2665   105.4490   -79.3674   -78.2365     8.2504     8.2854     8.3247  -999.2500  -999.2500
 1219.0000     0.2425   -53.3937    -0.0019     2.5059    10.2656   101.7627   -76.5299   -77.5083     8.3326     8.3989     8.4412  -999.2500  -999.2500
 1219.5000     0.2386   -49.4935     0.0071     2.5104    10.2497    99.3000   -73.6925   -76.9295     8.4804     8.4511     8.5594  -999.2500  -999.2500
 1220.0000     0.2362   -45.6171     0.0192     2.5212    10.2341    96.2294   -71.9672   -76.4959     8.5984     8.5669     8.6792  -999.2500  -999.2500
 1220.5000     0.2449   -45.5115     0.0267     2.5366    10.2332   100.5477   -73.3860   -76.3549     8.7180     8.6869     8.8272  -999.2500  -999.2500
 1221.0000     0.2485   -49.1766     0.0146     2.5411    10.2322   104.6702   -74.8047   -76.3652     8.9020     8.8668     8.9249  -999.2500  -999.2500
 1221.5000     0.2449   -49.0446    -0.0005     2.5381    10.2164   106.7667   -76.2234   -75.7864     9.0258     8.9865     8.9838  -999.2500  -999.2500
 1222.0000     0.2413   -52.7361     0.0236     2.5313    10.2155   105.8196   -77.6421   -75.4980     9.0871     9.1096     9.0430  -999.2500  -999.2500
 1222.5000     0.2395   -56.3726     0.0281     2.5283    10.2145   103.6573   -79.0609   -75.0665     9.1459     9.2325     9.1038  -999.2500  -999.2500
 1223.0000     0.2437   -60.0399     0.0129     2.5260    10.2133   101.8025   -80.4796   -74.6350     9.2066     9.2918     9.0980  -999.2500  -999.2500
 1223.5000     0.2515   -63.7050     0.0024     2.5305    10.2123   100.5556   -81.5430   -74.3466     9.1336     9.2843     9.0935  -999.2500  -999.2500
 1224.0000     0.2524   -67.3436     0.0380     2.5425    10.2114    99.9089   -81.5430   -74.2076     9.0624     9.2750     9.0886  -999.2500  -999.2500
 1224.5000     0.2457   -71.0087     0.0672     2.5387    10.2250   100.1895   -81.5430   -74.3652     8.9915     9.2011     9.0830  -999.2500  -999.2500
 1225.0000     0.2400   -74.6738     0.0490     2.5274    10.2239   100.7663   -81.0595   -74.3755     8.9206     9.1937     9.0133  -999.2500  -999.2500
 1225.5000     0.2433   -74.5418     0.0188     2.5174    10.2229    99.8146   -80.5543   -74.5310     8.8512     9.1845     8.9441  -999.2500  -999.2500
 1226.0000     0.2536   -74.6831    -0.0174     2.5101    10.2219    98.8649   -80.0482   -74.8338     8.7810     9.1112     8.8105  -999.2500  -999.2500
 1226.5000     0.2635   -78.1012    -0.0370     2.5153    10.2207    99.4418   -79.5425   -75.1386     8.7127     9.0386     8.6801  -999.2500  -999.2500
 1227.0000     0.2668   -77.9692    -0.0175     2.5206    10.2198   102.4786   -79.0368   -75.4414     8.5828     8.9020     8.5517  -999.2500  -999.2500
 1227.5000     0.2563   -77.8636     0.0012     2.5265    10.2044   105.4509   -78.5311   -75.7442     8.5157     8.7660     8.4860  -999.2500  -999.2500
 1228.0000     0.2484   -77.7315     0.0157     2.5243    10.2179   106.6356   -78.0254   -76.3495     8.5102     8.6961     8.4806  -999.2500  -999.2500
 1228.5000     0.2391   -77.6259     0.0171     2.5167    10.2167   106.6045   -77.5197   -76.9410     8.5045     8.6268     8.5381  -999.2500  -999.2500
 1229.0000     0.2400   -73.7495     0.0080     2.5092    10.2157   107.7815   -77.0140   -77.2438     8.6215     8.7432     8.5582  -999.2500  -999.2500
 1229.5000     0.2409   -69.8718    -0.0086     2.5032    10.2001   108.0544   -76.5084   -77.5466     8.6163     8.8011     8.6527  -999.2500  -999.2500
 1230.0000     0.2335   -65.9703    -0.0327     2.5024    10.2138   108.9362   -76.0027   -77.7041     8.6904     8.9199     8.7210  -999.2500  -999.2500
 1230.5000     0.2262   -65.8647    -0.0297     2.5054    10.2127   108.8963   -75.4970   -77.7124     8.8012     8.9772     8.7694  -999.2500  -999.2500
 1231.0000     0.2211   -69.5324    -0.0132     2.5115    10.2116   107.0415   -74.9913   -77.7206     8.8519     8.9682     8.8910  -999.2500  -999.2500
 1231.5000     0.2343   -69.3977    -0.0042     2.5196    10.2107   104.5788   -74.4856   -77.5816     8.9111     8.9612     8.9506  -999.2500  -999.2500
 1232.0000     0.2457   -73.0892     0.0064     2.5248    10.2095   103.0031   -73.9799   -77.0028     8.9044     8.9520     9.0104  -999.2500  -999.2500
 1232.5000     0.2466   -72.9572     0.0216     2.5301    10.2085   101.4694   -73.4742   -76.8617     8.8986     8.9457     9.0052  -999.2500  -999.2500
 1233.0000     0.2460   -72.8507     0.0380     2.5315    10.2076   100.8382   -72.9686   -76.7248     8.8924     8.9636     9.0006  -999.2500  -999.2500
 1233.5000     0.2459   -72.7195     0.0289     2.5308    10.2066   104.4467   -72.4629   -76.7351     8.8870     8.9950     8.9949  -999.2500  -999.2500
 1234.0000     0.2436   -72.6139     0.0047     2.5292    10.2054   106.5433   -71.9572   -76.7433     8.9446     8.9860     8.9904  -999.2500  -999.2500
 1234.5000     0.2424   -68.7375    -0.0119     2.5225    10.2193   107.7203   -72.5427   -76.6022     8.9398     9.0437     8.9858  -999.2500  -999.2500
 1235.0000     0.2463   -64.8347    -0.0240     2.5104    10.2181   107.6892   -73.7305   -76.1610     8.9340     8.9716     8.9812  -999.2500  -999.2500
 1235.5000     0.2520   -60.9583    -0.0316     2.5022    10.2318   105.8266   -74.9182   -75.5919     8.9271     8.9638     8.9756  -999.2500  -999.2500
 1236.0000     0.2562   -60.8527    -0.0301     2.4999    10.2306   103.9719   -76.1060   -75.1583     8.9218     8.9561     8.9710  -999.2500  -999.2500
 1236.5000     0.2595   -56.9759    -0.0241     2.5052    10.2297   102.4210   -77.2938   -74.8720     8.9164     8.8840     8.9665  -999.2500  -999.2500
 1237.0000     0.2616   -56.8627    -0.0210     2.5171    10.2287   105.2282   -78.4816   -74.8823     8.9945     8.8751     8.9964  -999.2500  -999.2500
 1237.5000     0.2667   -56.7386    -0.0181     2.5231    10.2275   107.2143   -79.6693   -74.8906     9.0344     8.8687     9.0218  -999.2500  -999.2500
 1238.0000     0.2751   -56.1356    -0.0121     2.5268    10.2414   108.3990   -80.8717   -74.8988     9.0513     8.8611     9.0169  -999.2500  -999.2500
 1238.5000     0.2715   -56.5273    -0.0001     2.5268    10.2402   110.1917   -80.9978   -74.9072     9.0890     8.8534     9.0119  -999.2500  -999.2500
 1239.0000     0.2640   -56.3953     0.0120     2.5290    10.2390   110.1528   -79.7329   -74.9174     9.0160     8.8449     9.0724  -999.2500  -999.2500
 1239.5000     0.2532   -56.2971     0.0285     2.5335    10.2530   106.4743   -78.4514   -75.0729     9.0106     8.8378     9.1322  -999.2500  -999.2500
 1240.0000     0.2436   -59.9547     0.0391     2.5368    10.2518   103.0998   -77.1729   -75.5230     9.0051     8.8305     9.1646  -999.2500  -999.2500
 1240.5000     0.2294   -56.0784     0.0451     2.5380    10.2508   101.8451   -75.8960   -76.1224     8.9984     8.8219     9.1890  -999.2500  -999.2500
 1241.0000     0.2264   -59.7171     0.0465     2.5409    10.2350   102.1180   -74.6180   -76.5724     8.9930     8.8148     9.1831  -999.2500  -999.2500
 1241.5000     0.2315   -59.6114     0.0405     2.5432    10.2340   102.0869   -73.3431   -77.0225     8.9872     8.8077     9.1126  -999.2500  -999.2500
