~VERSION INFORMATION
 VERS.                2.0:   CWLS LOG ASCII STANDARD - VERSION 2.0
 WRAP.                 NO:   ONE LINE PER DEPTH STEP
~WELL INFORMATION
#MNEM.UNIT      DATA TYPE    INFORMATION
#----------   ------------   ------------------------------
 STRT.F          198.0000:   START DEPTH
 STOP.F         3252.0000:   STOP DEPTH
 STEP.F            0.5000:   STEP LENGTH
 NULL.          -999.2500:   NO VALUE
 COMP. FENIX & SCISSON - U.S. NAVY:   COMPANY
 WELL.   FENIX A X #21-33:   WELL
 FLD .              NPR-3:   FIELD
 LOC .      S33 T39N R78W:   LOCATION
 CNTY.            NATRONA:   COUNTY
 STAT.            WYOMING:   STATE
 CTRY. UNITED STATES OF AMERICA:   COUNTRY
 SRVC.              WELEX:   SERVICE COMPANY
 DATE.        06-JUN-1977:   LOGDATE
 API .     49025103750000:   API NUMBER
~CURVE INFORMATION
#MNEM.UNIT       API CODE    CURVE DESCRIPTION
#----------   ------------   ------------------------------
 DEPT.F                  :   
 CALD.IN     45 280 60 00:   CALIPER FROM DENSITY LOG
 GRD .GAPI   45 310 01 00:   GAMMA RAY FROM DENSITY LOG
 RHOB.G/C3   45 350 01 00:   BULK DENSITY
 CORR.G/C3   45 356 01 00:   DENSITY CORRECTION
 NPHI.DEC    42 890 01 00:   NEUTRON POROSITY LIMESTONE
 SPR .MV     07 010 01 00:   SPONTANEOUS POTENTIAL
 GURD.OHMM   07 220 05 00:   GUARD LOG RESISTIVITY
 FORX.OHMM   07 220 00 00:   FORMATION FACTOR
~PARAMETER INFORMATION
#MNEM.UNIT          VALUE    DESCRIPTION
#----------   ------------   ------------------------------
 EKB .F         5147.0000:   Kelly bushing
 EGL .F         5137.0000:   Ground level
 EDF .F            0.0000:   Drilling floor
 EPD .F            0.0000:   Permanent datum
 TD  .F         3254.0000:   Total depth
 CLNT.            A2DTECH:   Client Code
 SL  . 660' FNL & 1320' FWL:   Surface Location
 PD  .                 GL:   Permanent Datum
 DAPD.F                10:   Feet Above Permanent Datum
 DATE.        06-JUN-1977:   Date Logged [DD-MMM-YYYY]
 DD  .F              3249:   Depth driller
 DL  .F              3254:   Depth logger
 BLI .F              3252:   Bottom log interval
 TLI .F               200:   Top log interval
 CS1 .IN            8.625:   Casing size
 CBD1.      8.625" @ 204':   Casing driller 1
 CBL1.F               221:   Casing logger 1
 BS1 .IN            7.875:   Bit size
 BSD1.F              3249:   Depth drilled with bit1
 DFT .            KCL MUD:   Type fluid in hole
 DFD .                  9:   Density
 DFV .                134:   Viscosity
 DFPH.                7.5:   pH
 DFL .                7.8:   Fluid loss
 MSS .           FLOWLINE:   Source of sample
 RMS .OHMM           0.64:   Rm
 MST .F                85:   Rm Meas. temp.
 RMF .OHMM           0.61:   Rmf
 MFST.F                85:   Rmf Meas. temp.
 MFSS.           FANN KIT:   Source Rmf.
 RMC .OHMM              1:   Rmc
 MCST.F                85:   Rmc Meas. temp.
 MCSS.           FANN KIT:   Source Rmc.
 RMB .OHMM           0.46:   Rm. at BHT
 BHT .F               116:   BHT.
 TCS .HRS             2.5:   Time Circ. stopped
 MRT .F               116:   Maximum recorded temp.
 LUN .               8611:   Logging unit number
 LUL .             CASPER:   Logging unit location
 ENGI.            C. DOAK:   Recorded By
 WITN.      B. HARRINGTON:   Witnessed by
 ORIG.           5" PRINT:   Origin of data
 UWI .     49025103750000:   Unique Well ID
 DICO. A2D TECHNOLOGIES, INC.:   Digitizing Company
~OTHER INFORMATION
~A   DEPT     CALD         GRD      RHOB       CORR       NPHI        SPR       GURD       FORX   
# ...
 2182.5000     8.8750   118.3581     2.4496     0.0300     0.3823   -39.5604     8.8522     4.8191
 2183.0000     8.8466   118.9740     2.4592     0.0301     0.3832   -39.5429    10.5997     4.4691
 2183.5000     8.8177   114.2464     2.4623     0.0302     0.3838   -39.5253     8.5533     4.1732
 2184.0000     8.8040   110.4048     2.4556     0.0303     0.3844   -39.5078     6.9497     4.7599
 2184.5000     8.8055   113.1715     2.4437     0.0304     0.3853   -39.4903     5.9273     4.7134
 2185.0000     8.7915   116.4191     2.4386     0.0290     0.3856   -39.4727    10.4596     4.0634
 2185.5000     8.7929   118.5299     2.4349     0.0276     0.3855   -39.4552     9.4947     3.6409
 2186.0000     8.7941   119.4502     2.4290     0.0262     0.3855   -39.4376     9.9063     4.3551
 2186.5000     8.7952   119.4777     2.4374     0.0279     0.3858   -39.4201     8.2690     4.8631
 2187.0000     8.7964   119.5052     2.4480     0.0324     0.3867   -39.4026    10.4657     4.9658
 2187.5000     8.7827   119.8303     2.4712     0.0340     0.3872   -39.3850     7.2469     4.6690
 2188.0000     8.7841   119.2625     2.4631     0.0311     0.3875   -39.3675    10.9888     4.4202
 2188.5000     8.7701   118.6948     2.4534     0.0297     0.3878   -39.3499    10.5430     4.3610
 2189.0000     8.7567   117.4921     2.4386     0.0298     0.3877   -39.3324    10.1852     4.6826
 2189.5000     8.7578   116.9640     2.4259     0.0284     0.3877   -39.3148     8.6271     5.0820
 2190.0000     8.7739   118.7841     2.4036     0.0256     0.3877   -39.2971     9.2470     5.1482
 2190.5000     8.7601   116.1330     2.4052     0.0242     0.3870   -39.2794    10.1898     5.0792
 2191.0000     8.7613   113.1843     2.4240     0.0288     0.3860   -39.2903    10.6235     4.9424
 2191.5000     8.7644   112.3121     2.4401     0.0319     0.3851   -39.4306    10.2634     4.8762
 2192.0000     8.7636   112.9417     2.4496     0.0335     0.3869   -39.5713     6.5897     4.9795
 2192.5000     8.7651   111.7787     2.4519     0.0336     0.3884   -39.7115    11.1557     5.0847
 2193.0000     8.7662   111.2109     2.4543     0.0367     0.3899   -39.8535    10.0564     4.8137
 2193.5000     8.7674   111.9366     2.4566     0.0368     0.3905   -39.9990    10.0447     4.1388
 2194.0000     8.7685   116.6299     2.4589     0.0384     0.3902   -40.2680    11.0053     4.3887
 2194.5000     8.7697   119.0383     2.4598     0.0385     0.3892   -40.2460    11.7980     5.3416
 2195.0000     8.7709   120.8515     2.4598     0.0386     0.3879   -40.1314    11.7996     5.0919
 2195.5000     8.7720   121.1766     2.4577     0.0387     0.3857   -40.0200    11.8012     5.2353
 2196.0000     8.7732   119.7160     2.4510     0.0373     0.3844   -39.9087    11.4804     5.8863
 2196.5000     8.7746   117.9578     2.4624     0.0329     0.3835   -39.7975    11.4023     5.8879
 2197.0000     8.7758   118.5805     2.4677     0.0315     0.3834   -39.6863     9.1372     5.8895
 2197.5000     8.7769   119.2039     2.4633     0.0272     0.3843   -39.5751    10.7911     5.7312
 2198.0000     8.7781   119.2376     2.4551     0.0228     0.3852   -39.4639     8.9517     5.4258
 2198.5000     8.7641   118.3722     2.4463     0.0199     0.3867   -39.3526    10.4991     4.9950
 2199.0000     8.7655   116.0188     2.4374     0.0200     0.3882   -39.2418    10.0732     4.7309
 2199.5000     8.7816   113.6653     2.4382     0.0186     0.3897   -39.1299     8.2988     4.8981
 2200.0000     8.7679   110.5812     2.4465     0.0172     0.3916   -39.0746    10.6499     4.9670
 2200.5000     8.7840   109.6829     2.4619     0.0203     0.3933   -39.0835    10.6154     4.2125
 2201.0000     8.8001   108.7853     2.4646     0.0203     0.3949   -39.2482     9.5173     3.4372
 2201.5000     8.8012   108.5475     2.4535     0.0157     0.3961   -39.4089    10.6546     2.8790
 2202.0000     8.8024   108.5694     2.4461     0.0115     0.3970   -39.5683    11.1078     3.8286
 2202.5000     8.8036   108.8850     2.4402     0.0086     0.3976   -39.7276    10.4384     4.9480
 2203.0000     8.8048   109.4987     2.4366     0.0072     0.3979   -39.8869     9.1527     5.1668
 2203.5000     8.8060   111.0066     2.4434     0.0057     0.3976   -40.0463     8.1939     5.3191
 2204.0000     8.7922   114.0048     2.4398     0.0043     0.3969   -40.2078    11.5857     5.4750
 2204.5000     8.7937   115.2102     2.4264     0.0029     0.3947   -40.2562     8.4263     4.6863
 2205.0000     8.7949   112.2515     2.4145     0.0030     0.3928   -40.2536     7.5433     4.5577
 2205.5000     8.7960   108.9904     2.4279     0.0031     0.3922   -40.1217     7.9741     4.6259
 2206.0000     8.8121   106.6235     2.4410     0.0031     0.3922   -39.8397     4.6469     4.8305
 2206.5000     8.8133   105.1505     2.4541     0.0047     0.3928   -39.8018     5.5645     4.0799
 2207.0000     8.8591   105.1684     2.4667     0.0123     0.3931   -39.7645     7.6054     3.3264
 2207.5000     8.8602   106.7657     2.4688     0.0183     0.3931   -39.7284     7.6869     3.0281
 2208.0000     8.8763   110.9715     2.4588     0.0214     0.3924   -39.6920    10.9733     2.9031
 2208.5000     8.8775   111.4803     2.4496     0.0215     0.3915   -39.6557     6.2198     3.8333
 2209.0000     8.8935   111.1998     2.4377     0.0215     0.3902   -39.6193     7.4482     4.0313
 2209.5000     8.8947   112.4140     2.4482     0.0216     0.3877   -39.5829    10.3865     3.8931
 2210.0000     8.8959   114.8161     2.4551     0.0217     0.3851   -39.5465     5.1973     3.6026
 2210.5000     8.8970   117.2181     2.4596     0.0232     0.3808   -39.5100     7.2476     3.7619
 2211.0000     8.8982   120.5144     2.4605     0.0248     0.3774   -39.4735     7.6084     4.0415
 2211.5000     8.8994   117.5513     2.4553     0.0279     0.3749   -39.4684     4.1086     3.6094
 2212.0000     8.9006   111.3095     2.4517     0.0280     0.3727   -39.4684     6.4453     3.2696
 2212.5000     8.9167   108.3465     2.4488     0.0280     0.3708   -39.4685     6.9894     3.0472
 2213.0000     8.9181   108.9602     2.4444     0.0281     0.3683   -39.4685    12.6208     3.1847
 2213.5000     8.9193   111.0642     2.4400     0.0282     0.3665   -39.4685     6.7684     3.4778
 2214.0000     8.9204   110.7685     2.4356     0.0238     0.3646   -39.4685     8.3321     3.9119
 2214.5000     8.9216   110.2051     2.4319     0.0223     0.3633   -39.4685     4.6257     4.2061
 2215.0000     8.9228   110.5251     2.4380     0.0209     0.3614   -39.4685     5.3878     3.5747
 2215.5000     8.9239   111.4369     2.4463     0.0195     0.3608   -39.4685    12.4557     3.1251
 2216.0000     8.9102   110.2622     2.4494     0.0211     0.3605   -39.4685     8.6906     2.9329
 2216.5000     8.9114   106.7030     2.4511     0.0212     0.3607   -39.4685     6.9161     3.7110
 2217.0000     8.9126   103.1438     2.4566     0.0227     0.3601   -39.4685     8.6930     4.2200
 2217.5000     8.9286   100.4788     2.4706     0.0243     0.3582   -39.4685    12.8130     4.3747
 2218.0000     8.9298    99.3041     2.4827     0.0304     0.3576   -39.4685     9.6626     3.8799
 2218.5000     8.9310    98.7212     2.4947     0.0364     0.3566   -39.4685     6.7776     4.2885
 2219.0000     8.9322   100.8296     2.5045     0.0410     0.3566   -39.4685    10.4860     4.7739
 2219.5000     8.9333   103.5297     2.5039     0.0425     0.3579   -39.4685     6.2388     4.7095
 2220.0000     8.9345   105.0376     2.5017     0.0456     0.3609   -39.4685    11.6370     4.0276
 2220.5000     8.9357   104.4590     2.5003     0.0457     0.3636   -39.4685     7.1678     4.0044
 2221.0000     8.9220   104.5012     2.5004     0.0442     0.3645   -39.4685     5.0707     4.4952
 2221.5000     8.9234   105.7783     2.5012     0.0443     0.3648   -39.4685     6.3295     4.5891
 2222.0000     8.9094   108.0928     2.5021     0.0429     0.3645   -39.4685     8.6451     3.7108
 2222.5000     8.8957   109.6007     2.4999     0.0430     0.3639   -39.4685    12.3087     2.9579
