~VERSION INFORMATION
 VERS.                2.0:   CWLS LOG ASCII STANDARD - VERSION 2.0
 WRAP.                 NO:   ONE LINE PER DEPTH STEP
~WELL INFORMATION
#MNEM.UNIT      DATA TYPE    INFORMATION
#----------   ------------   ------------------------------
 STRT.F           89.5000:   START DEPTH
 STOP.F         1300.5000:   STOP DEPTH
 STEP.F            0.5000:   STEP LENGTH
 NULL.          -999.2500:   NO VALUE
 COMP.            US NAVY:   COMPANY
 WELL. US NPR 3 "S" #62-11:   WELL
 FLD .             TEAPOT:   FIELD
 LOC .      S11 T38N R78W:   LOCATION
 CNTY.            NATRONA:   COUNTY
 STAT.            WYOMING:   STATE
 CTRY. UNITED STATES OF AMERICA:   COUNTRY
 SRVC.       SCHLUMBERGER:   SERVICE COMPANY
 DATE.        20-JUL-1964:   LOGDATE
 API .     49025063660000:   API NUMBER
~CURVE INFORMATION
#MNEM.UNIT       API CODE    CURVE DESCRIPTION
#----------   ------------   ------------------------------
 DEPT.F                  :   
 CALS.IN     60 280 50 00:   CALIPER FROM SONIC LOG
 DT  .US/F   60 520 33 00:   DELTA TIME
 SPR .MV     05 010 01 00:   SPONTANEOUS POTENTIAL FROM RES.
 ASN .OHMM   05 041 16 00:   AMPLIFIED SHORT NORMAL 16"
 ILD .OHMM   05 120 46 00:   INDUCTION LOG DEEP
~PARAMETER INFORMATION
#MNEM.UNIT          VALUE    DESCRIPTION
#----------   ------------   ------------------------------
 EKB .F         5223.0000:   Kelly bushing
 EGL .F         5215.0000:   Ground level
 EDF .F            0.0000:   Drilling floor
 TD  .F         1303.0000:   Total depth
 DATE.        20-JUL-1964:   Date logged
 CLNT.            A2DTECH:   Client Code
 PD  .                 GL:   Permanent Datum
 EPD .F              5215:   Elevation Permanent Datum
 LMF .                 KB:   Log Measured From
 DMF .                 KB:   Drilling Measured From
 DAPD.F                 8:   Feet Above Permanent Datum
 DD  .F              1303:   Depth driller
 DL  .F              1300:   Depth logger
 BLI .F              1299:   Bottom log interval
 TLI .F                94:   Top log interval
 CS1 .IN            12.25:   Casing size
 CBD1.       12.25" @ 10':   Casing driller 1
 BS1 .IN               11:   Bit size
 BSD1.F              1303:   Depth drilled with bit1
 DFT .            GEL/OIL:   Type fluid in hole
 DFD .                9.8:   Density
 DFV .                 60:   Viscosity
 DFL .                 10:   Fluid loss
 MSS .           FLOWLINE:   Source of sample
 RMS .OHMM           3.13:   Rm
 MST .F                86:   Rm Meas. temp.
 RMF .OHMM           1.81:   Rmf
 MFST.F                86:   Rmf Meas. temp.
 RMC .OHMM           3.39:   Rmc
 MCST.F                86:   Rmc Meas. temp.
 MFSS.                 FP:   Source Rmf.
 MCSS.                 FP:   Source Rmc.
 TCS .HRS             2.5:   Time Circ. stopped
 LUN .               4507:   Logging unit number
 LUL .               CSPR:   Logging unit location
 ENGI.             DANNER:   Recorded By
 WITN.         JORGENESEN:   Witnessed by
 ORIG.       2", 5" PRINT:   Origin of data
 UWI .     49025063660000:   Unique Well ID
 DICO. A2D TECHNOLOGIES, INC.:   Digitizing Company
~OTHER INFORMATION
~A   DEPT     CALS         DT        SPR        ASN          ILD 
# ...
 1065.5000  -999.2500  -999.2500   -34.3320     9.5580     8.1860
 1066.0000  -999.2500  -999.2500   -34.2980     9.5530     8.1940
 1066.5000  -999.2500  -999.2500   -34.0460     9.5370     8.2740
 1067.0000  -999.2500  -999.2500   -33.8400     9.5290     8.4180
 1067.5000  -999.2500  -999.2500   -33.8300     9.5190     8.5350
 1068.0000  -999.2500  -999.2500   -33.8750     9.4490     8.5780
 1068.5000  -999.2500  -999.2500   -33.8870     9.3230     8.6090
 1069.0000  -999.2500  -999.2500   -33.9130     9.1680     8.5510
 1069.5000  -999.2500  -999.2500   -33.9400     9.0520     8.4400
 1070.0000  -999.2500  -999.2500   -33.9560     8.9010     8.2440
 1070.5000  -999.2500  -999.2500   -33.9880     8.5390     7.8300
 1071.0000  -999.2500  -999.2500   -34.0030     8.1490     7.4360
 1071.5000  -999.2500  -999.2500   -33.9380     7.8280     7.0850
 1072.0000  -999.2500  -999.2500   -33.8050     7.4330     6.5990
 1072.5000  -999.2500  -999.2500   -33.6770     7.1160     6.0700
 1073.0000  -999.2500  -999.2500   -33.5530     6.7960     5.4390
 1073.5000  -999.2500  -999.2500   -33.4130     6.2510     4.7400
 1074.0000  -999.2500  -999.2500   -33.2980     5.7340     4.1270
 1074.5000  -999.2500  -999.2500   -33.1610     5.2860     3.4190
 1075.0000  -999.2500  -999.2500   -33.0290     4.7780     2.7430
 1075.5000  -999.2500  -999.2500   -32.9210     4.3050     2.4990
 1076.0000  -999.2500  -999.2500   -32.6020     3.8240     2.4310
 1076.5000  -999.2500  -999.2500   -32.3040     3.3230     2.2480
 1077.0000  -999.2500  -999.2500   -32.3630     3.1050     2.1250
 1077.5000  -999.2500  -999.2500   -32.4910     3.0460     2.0180
 1078.0000  -999.2500  -999.2500   -32.5870     3.0460     2.0230
 1078.5000  -999.2500  -999.2500   -32.6440     3.2080     2.4290
 1079.0000  -999.2500  -999.2500   -32.4810     3.4930     2.9370
 1079.5000  -999.2500  -999.2500   -32.2360     3.9580     3.4300
 1080.0000  -999.2500  -999.2500   -32.1120     4.4970     4.1410
 1080.5000  -999.2500  -999.2500   -32.1560     5.2810     4.8470
 1081.0000  -999.2500  -999.2500   -32.2670     5.9440     5.5140
 1081.5000  -999.2500  -999.2500   -32.3440     6.3660     6.2130
 1082.0000  -999.2500  -999.2500   -32.4290     6.7960     6.6110
 1082.5000  -999.2500  -999.2500   -32.5200     7.0410     6.8170
 1083.0000  -999.2500  -999.2500   -32.6030     7.2920     7.0740
 1083.5000  -999.2500  -999.2500   -32.6860     7.5570     7.2070
 1084.0000  -999.2500  -999.2500   -32.7810     7.8130     7.2590
 1084.5000  -999.2500  -999.2500   -32.8530     7.9070     7.4130
 1085.0000  -999.2500  -999.2500   -32.8440     7.9650     7.5860
 1085.5000  -999.2500  -999.2500   -32.8140     8.0510     7.5960
 1086.0000  -999.2500  -999.2500   -32.8000     8.0900     7.4570
 1086.5000  -999.2500  -999.2500   -32.7770     8.1250     7.3340
 1087.0000  -999.2500  -999.2500   -32.7590     8.1530     7.2430
 1087.5000  -999.2500  -999.2500   -32.7380     8.1810     7.1150
 1088.0000  -999.2500  -999.2500   -32.7170     8.2140     7.0040
 1088.5000  -999.2500  -999.2500   -32.7000     8.2380     6.9620
 1089.0000  -999.2500  -999.2500   -32.6700     8.2750     6.9370
 1089.5000  -999.2500  -999.2500   -32.5790     8.2990     6.8970
 1090.0000  -999.2500  -999.2500   -32.3260     8.2440     6.8670
 1090.5000  -999.2500  -999.2500   -32.1030     8.1610     6.8300
 1091.0000  -999.2500  -999.2500   -32.1760     8.0990     6.7970
 1091.5000  -999.2500  -999.2500   -32.3570     8.0160     6.8170
 1092.0000  -999.2500  -999.2500   -32.4840     7.9520     6.8610
 1092.5000  -999.2500  -999.2500   -32.6550     7.9580     6.8990
 1093.0000  -999.2500  -999.2500   -32.7940     8.0250     6.9410
 1093.5000  -999.2500  -999.2500   -32.8180     8.1170     6.9820
 1094.0000  -999.2500  -999.2500   -32.7590     8.2020     7.0190
 1094.5000  -999.2500  -999.2500   -32.6790     8.3080     7.0650
 1095.0000  -999.2500  -999.2500   -32.8050     8.3550     7.0990
 1095.5000  -999.2500  -999.2500   -33.0480     8.2520     7.1450
 1096.0000  -999.2500  -999.2500   -33.1540     8.1400     7.1910
 1096.5000  -999.2500  -999.2500   -33.3250     8.0790     7.0640
 1097.0000  -999.2500  -999.2500   -33.4190     8.0070     6.8060
 1097.5000  -999.2500  -999.2500   -33.1690     7.9580     6.5840
 1098.0000  -999.2500  -999.2500   -32.8940     7.8990     6.3110
 1098.5000  -999.2500  -999.2500   -32.6580     7.7680     6.0960
 1099.0000  -999.2500  -999.2500   -32.4810     7.6120     5.8920
 1099.5000  -999.2500  -999.2500   -32.5570     7.4370     5.3170
 1100.0000  -999.2500  -999.2500   -32.6630     7.1780     4.8150
 1100.5000  -999.2500  -999.2500   -32.7160     6.8160     4.8680
 1101.0000  -999.2500  -999.2500   -32.8130     6.5640     5.0420
 1101.5000  -999.2500  -999.2500   -32.8820     6.5260     5.1680
 1102.0000  -999.2500  -999.2500   -32.9620     6.6290     5.4060
 1102.5000  -999.2500  -999.2500   -33.0460     6.8500     5.7050
 1103.0000  -999.2500  -999.2500   -33.1100     7.1400     6.0260
 1103.5000  -999.2500  -999.2500   -33.2100     7.4950     6.3450
 1104.0000  -999.2500  -999.2500   -33.1040     7.8330     6.6760
 1104.5000  -999.2500  -999.2500   -32.8040     8.0910     6.9830
 1105.0000  -999.2500  -999.2500   -32.7710     8.3630     7.2040
 1105.5000  -999.2500  -999.2500   -32.9690     8.6220     7.4230
 1106.0000  -999.2500  -999.2500   -33.1540     8.8560     7.6420
 1106.5000  -999.2500  -999.2500   -33.3340     9.0550     7.7840
 1107.0000  -999.2500  -999.2500   -33.3400     9.1660     7.8750
 1107.5000  -999.2500  -999.2500   -33.1210     9.2890     7.9410
 1108.0000  -999.2500  -999.2500   -32.8980     9.4220     8.0080
 1108.5000  -999.2500  -999.2500   -32.6960     9.5100     8.0810
 1109.0000  -999.2500  -999.2500   -32.4570     9.5780     8.1400
 1109.5000  -999.2500  -999.2500   -32.2920     9.5240     8.2190
 1110.0000  -999.2500  -999.2500   -32.2670     9.5000     8.2800
 1110.5000  -999.2500  -999.2500   -32.2880     9.5460     8.2340
 1111.0000  -999.2500  -999.2500   -32.2750     9.5010     8.1400
 1111.5000  -999.2500  -999.2500   -32.2750     9.5130     8.0620
 1112.0000  -999.2500  -999.2500   -32.2940     9.5590     7.9760
 1112.5000  -999.2500  -999.2500   -32.2560     9.5880     7.8900
 1113.0000  -999.2500  -999.2500   -32.3100     9.5850     7.8120
 1113.5000  -999.2500  -999.2500   -32.5980     9.5120     7.7210
 1114.0000  -999.2500  -999.2500   -32.9970     9.4290     7.6440
 1114.5000  -999.2500  -999.2500   -33.3050     9.3660     7.5870
 1115.0000  -999.2500  -999.2500   -33.3330     9.2890     7.5050
 1115.5000  -999.2500  -999.2500   -33.1780     9.1440     7.4180
 1116.0000  -999.2500  -999.2500   -32.9940     9.0050     7.3330
 1116.5000  -999.2500  -999.2500   -32.8690     8.9330     7.2420
 1117.0000  -999.2500  -999.2500   -33.0330     8.8940     7.1680
 1117.5000  -999.2500  -999.2500   -33.2420     8.8510     7.0610
 1118.0000  -999.2500  -999.2500   -33.1710     8.8140     7.0080
 1118.5000  -999.2500  -999.2500   -33.0410     8.8210     7.0840
 1119.0000  -999.2500  -999.2500   -32.9410     8.8610     7.1260
 1119.5000  -999.2500  -999.2500   -32.8200     8.8950     7.1220
 1120.0000  -999.2500  -999.2500   -32.7090     8.9340     7.1480
 1120.5000  -999.2500  -999.2500   -32.5930     8.9570     7.1600
 1121.0000  -999.2500  -999.2500   -32.4860     8.9360     7.1750
 1121.5000  -999.2500  -999.2500   -32.3580     8.9050     7.1920
 1122.0000  -999.2500  -999.2500   -32.2910     8.8770     7.1930
 1122.5000  -999.2500  -999.2500   -32.3900     8.8600     7.2140
 1123.0000  -999.2500  -999.2500   -32.5120     8.8720     7.2420
 1123.5000  -999.2500  -999.2500   -32.5980     8.8910     7.2650
 1124.0000  -999.2500  -999.2500   -32.7060     8.9060     7.2910
 1124.5000  -999.2500  -999.2500   -32.8060     8.9220     7.3160
 1125.0000  -999.2500  -999.2500   -32.9010     8.9400     7.3400
 1125.5000  -999.2500  -999.2500   -33.0080     8.9560     7.3670
 1126.0000  -999.2500  -999.2500   -33.1040     8.9520     7.3910
