~VERSION INFORMATION
 VERS.                2.0:   CWLS LOG ASCII STANDARD - VERSION 2.0
 WRAP.                 NO:   ONE LINE PER DEPTH STEP
~WELL INFORMATION
#MNEM.UNIT      DATA TYPE    INFORMATION
#----------   ------------   ------------------------------
 STRT.F          200.0000:   START DEPTH
 STOP.F         3150.0000:   STOP DEPTH
 STEP.F            0.5000:   STEP LENGTH
 NULL.          -999.2500:   NO VALUE
 COMP.  FENIX AND SCISSON:   COMPANY
 WELL.  FENIX "AX" #88-10:   WELL
 FLD .              NPR 3:   FIELD
 LOC .      S10 T38N R78W:   LOCATION
 CNTY.            NATRONA:   COUNTY
 STAT.            WYOMING:   STATE
 CTRY. UNITED STATES OF AMERICA:   COUNTRY
 SRVC.              WELEX:   SERVICE COMPANY
 DATE.        13-JUN-1977:   LOGDATE
 API .     49025103780000:   API NUMBER
~CURVE INFORMATION
#MNEM.UNIT       API CODE    CURVE DESCRIPTION
#----------   ------------   ------------------------------
 DEPT.F                  :   
 CALD.IN     45 280 60 00:   CALIPER FROM DENSITY LOG
 GRD .GAPI   45 310 01 00:   GAMMA RAY FROM DENSITY LOG
 RHOB.G/C3   45 350 01 00:   BULK DENSITY
 CORR.G/C3   45 356 01 00:   DENSITY CORRECTION
 SPR .MV     07 010 01 00:   SPONTANEOUS POTENTIAL
 GURD.OHMM   07 220 05 00:   GUARD LOG RESISTIVITY
 ILD .OHMM   07 120 46 00:   INDUCTION LOG DEEP RESISTIVITY
 ILM .OHMM   07 120 44 00:   INDUCTION LOG MEDIUM RESISTIVITY
~PARAMETER INFORMATION
#MNEM.UNIT          VALUE    DESCRIPTION
#----------   ------------   ------------------------------
 EKB .F         5264.0000:   Kelly bushing
 EGL .F         5254.0000:   Ground level
 EDF .F            0.0000:   Drilling floor
 TD  .F         3160.0000:   Total depth
 DATE.        13-JUN-1977:   Date logged
 CLNT.            A2DTECH:   Client Code
 SL  . 430' FSL & 330' FEL:   Surface Location
 PD  .                 GL:   Permanent Datum
 EPD .F              5254:   Elevation Permanent Datum
 LMF .                 KB:   Log Measured From
 DMF .                 KB:   Drilling Measured From
 DAPD.F                10:   Feet Above Permanent Datum
 DD  .F              3160:   Depth driller
 DL  .F              3151:   Depth logger
 BLI .F              3149:   Bottom log interval
 CS1 .IN            8.625:   Casing size
 CBD1.      8.625" @ 208':   Casing driller 1
 BS1 .IN            7.875:   Bit size
 BSD1.F              3160:   Depth drilled with bit1
 DFT .            KCL MUD:   Type fluid in hole
 DFD .                9.1:   Density
 DFV .                 31:   Viscosity
 DFPH.                7.5:   pH
 DFL .                 20:   Fluid loss
 MSS .           FLOWLINE:   Source of sample
 RMS .OHMM            .90:   Rm
 MST .F                60:   Rm Meas. temp.
 RMF .OHMM            .53:   Rmf
 MFST.F                60:   Rmf Meas. temp.
 RMC .OHMM           1.47:   Rmc
 MCST.F                60:   Rmc Meas. temp.
 MFSS.               MEAS:   Source Rmf.
 MCSS.               MEAS:   Source Rmc.
 RMB .OHMM            .46:   Rm. at BHT
 BHT .F               116:   BHT.
 TCS .HRS               8:   Time Circ. stopped
 MRT .F               116:   Maximum recorded temp.
 LUN .               8611:   Logging unit number
 LUL .             CASPER:   Logging unit location
 ENGI.            C. DOAK:   Recorded By
 WITN.         D. RHOADES:   Witnessed by
 ORIG.           5" PRINT:   Origin of data
 UWI .     49025103780000:   Unique Well ID
 DICO. A2D TECHNOLOGIES, INC.:   Digitizing Company
~OTHER INFORMATION
~A   DEPT       CALD       GRD      RHOB       CORR        SPR       GURD        ILD        ILM   
# ...
  605.0000    11.2813    99.3268     2.4719     0.0090   -66.7060     9.7817     7.2244     7.7054
  605.5000    11.2819    98.5499     2.4729     0.0150   -66.7099     9.6021     7.1571     7.5633
  606.0000    11.2824    98.1668     2.4729     0.0170   -66.7138     9.3394     7.1564     7.4931
  606.5000    11.3026    98.1775     2.4730     0.0171   -66.7177     9.3379     7.0245     7.2878
  607.0000    11.3032    98.1883     2.4740     0.0151   -66.7217     9.2511     6.9593     7.2201
  607.5000    11.3037    98.1991     2.4730     0.0132   -66.9228     9.2497     6.7688     7.0872
  608.0000    11.3240    97.8159     2.4651     0.0132   -66.7295     9.2483     6.7058     7.0867
  608.5000    11.3048    98.2206     2.4571     0.0093   -66.7334     9.1623     6.5220     6.9560
  609.0000    11.2857    97.8374     2.4502     0.0054   -66.7373     9.2454     6.4023     6.8911
  609.5000    11.2862    97.8482     2.4462     0.0014   -66.7412     9.2439     6.1697     6.8202
  610.0000    11.2868    98.2529     2.4443     0.0015   -66.9423     9.2425     6.0563     6.6970
  610.5000    11.2676    98.2637     2.4413     0.0015   -66.7490     8.4299     5.8365     6.4582
  611.0000    11.2682    98.6684     2.4443     0.0016   -66.7529     8.2007     5.7294     6.3417
  611.5000    11.3081    99.8612     2.4463    -0.0003   -66.7568     5.5228     5.6763     6.2838
  612.0000    11.3087    99.4780     2.4643    -0.0003   -66.5635     5.1787     5.7275     6.3396
  612.5000    11.3289    99.4888     2.4792     0.0017   -66.5674     9.3205     5.9415     6.5722
  613.0000    11.3492    99.1056     2.4852     0.0018   -66.3741     9.9379     6.1632     6.8132
  613.5000    11.3498    99.1164     2.4853     0.0038   -66.3780    10.0280     6.5118     7.1916
  614.0000    11.3306    97.9451     2.4853     0.0039   -66.1847    10.1190     6.8176     7.5235
  614.5000    11.3509    98.3499     2.4893     0.0000   -66.1886    10.4960     7.1375     7.8247
  615.0000    11.3317    97.5725     2.4873     0.0060   -66.3898    10.9875     7.7521     7.9690
  615.5000    11.3520    94.8247     2.4854     0.0120   -66.1972    11.0872     8.1155     8.1905
  616.0000    11.3525    94.8353     2.4854     0.0140   -66.2011    11.0854     8.2652     8.4962
  616.5000    11.3531    95.6342     2.4834     0.0161   -66.0078    11.0837     8.3400     8.6526
  617.0000    11.3536    97.6155     2.4824     0.0161   -66.2090    11.0820     8.3387     8.7312
  617.5000    11.3542    98.0204     2.4785     0.0182   -66.2129    11.0802     8.3377     8.7298
  618.0000    11.3547    97.6370     2.4745     0.0182   -66.2168    11.0785     8.3364     8.7287
  618.5000    11.3552    97.6478     2.4726     0.0143   -66.2207    10.9755     8.3348     8.7274
  619.0000    11.3755    95.6877     2.4726     0.0163   -66.2246    11.0750     8.2572     8.6461
  619.5000    11.4155    94.9101     2.4756     0.0184   -66.2293    10.8718     8.1803     8.6448
  620.0000    11.4358    93.3440     2.4786     0.0164   -66.2324    10.5737     8.1793     8.5640
  620.5000    11.4757    93.7488     2.4836     0.0244   -66.0391    10.5727     8.1029     8.4848
  621.0000    11.4960    94.5479     2.4866     0.0245   -66.2402    10.5711     8.1019     8.4830
  621.5000    11.5160    95.3470     2.4787     0.0205   -66.2441    10.5694     8.1006     8.4819
  622.0000    11.6154    95.7519     2.4648     0.0206   -66.2480    10.5678     8.0999     8.4027
  622.5000    11.6751    93.7914     2.4539     0.0187   -66.0547    10.5661     8.0979     8.4014
  623.0000    11.6954    93.8020     2.4499     0.0207   -66.2559    10.5645     8.0969     8.4003
  623.5000    11.6959    94.9955     2.4469     0.0207   -66.2598    10.5628     8.0954     8.3993
  624.0000    11.7162    96.1912     2.4480     0.0188   -66.4609    10.5612     8.0946     8.3977
  624.5000    11.7168    97.3826     2.4460     0.0228   -66.4648    10.2726     8.0929     8.3964
  625.0000    11.6976    97.3934     2.4460     0.0249   -66.6659    10.1771     8.0914     8.3180
  625.5000    11.6193    97.4042     2.4441     0.0229   -66.8671    10.0825     7.6555     8.0901
  626.0000    11.5410    97.4149     2.4481     0.0230   -67.0690     9.9884     7.6545     7.8689
  626.5000    11.4627    97.4257     2.4461     0.0230   -67.0729     9.1944     7.2424     7.7243
  627.0000    11.4238    97.8308     2.4451     0.0310   -67.2740     9.0262     6.9797     7.4441
  627.5000    11.3849    98.2359     2.4342     0.0371   -67.4752     8.6198     6.6649     7.1739
  628.0000    11.3855    97.8523     2.4183     0.0391   -67.6763     8.0072     6.1912     6.6639
  628.5000    11.3466    97.8631     2.3855     0.0431   -67.6802     7.5773     5.5944     6.1947
  629.0000    11.3274    97.4795     2.3696     0.0452   -67.6841     7.1700     5.1021     5.6587
  629.5000    11.3477    97.4902     2.3428     0.0472   -67.4908     6.9739     4.4031     4.8959
  630.0000    11.3482    97.1066     2.3239     0.0413   -67.4947     6.1305     3.8171     4.2548
  630.5000    11.3488    95.1451     2.2552     0.0433   -67.3014     5.4890     3.3090     3.6976
  631.0000    11.3691    92.7891     2.2413     0.0374   -67.1081     4.3488     2.9634     2.9633
  631.5000    11.3696    91.2219     2.1919     0.0335   -66.9148     3.7267     2.6113     2.7275
  632.0000    11.3110    90.8380     2.1424     0.0256   -66.5242     3.1936     2.3975     2.3323
  632.5000    11.3707    86.9038     2.0929     0.0197   -66.5281     2.6770     2.3535     1.9944
  633.0000    11.3908    85.3362     2.0494     0.0078   -66.3348     2.7303     2.3317     1.9578
  633.5000    11.5494    84.9521     2.0385    -0.0081   -66.3387     2.5599     2.4410     2.1069
  634.0000    11.6091    86.5406     2.0435    -0.0280   -66.3427     2.2302     2.6269     2.3742
  634.5000    11.6294    89.3127     2.0455    -0.0279   -66.3466     4.2189     2.7502     2.9876
  635.0000    11.6497    92.0850     2.3134    -0.0199   -66.3505     7.7731     3.0707     3.8645
  635.5000    11.6108    93.6739     2.4744     0.0100   -66.1587     8.1373     3.3971     4.2755
  636.0000    11.4539    93.6845     2.4834     0.0120   -66.1611     7.9149     4.2356     4.8621
  636.5000    11.3554    93.6952     2.4764     0.0101   -66.1650     7.8411     4.9518     5.4948
  637.0000    11.3757    93.7058     2.4775     0.0102   -65.9717     8.4375     5.7361     6.3489
  637.5000    11.3960    94.9003     2.4805     0.0102   -65.9756     9.1633     6.7676     7.0210
  638.0000    11.3175    94.9110     2.4775     0.0103   -65.9803     9.1619     7.2167     7.4184
  638.5000    11.3971    95.3163     2.4785     0.0103   -65.9842     9.1601     7.3493     7.5549
  639.0000    11.3779    97.6948     2.4796     0.0104   -65.9881     9.2432     7.3484     7.6236
  639.5000    11.3785    98.1002     2.4806     0.0104   -65.7948     9.2418     7.3471     7.6226
  640.0000    11.3988    98.1110     2.4876     0.0105   -65.7987     9.2403     7.3464     7.5514
  640.5000    11.3796    98.5164     2.4866     0.0105   -65.6054     9.2389     7.3448     7.5505
  641.0000    11.3999    99.7113     2.4816     0.0106   -65.6093     9.3227     7.3437     7.5491
  641.5000    11.3807   100.1146     2.4757     0.0106   -65.6132     9.3212     7.2753     7.6177
  642.0000    11.4010   100.1277     2.4777     0.0107   -65.6171     9.3198     7.2076     7.6871
  642.5000    11.3818   100.1385     2.4827     0.0107   -65.6210     9.3183     7.1407     7.6859
  643.0000    11.3823    99.7546     2.4887     0.0108   -65.6249     9.3169     7.0093     7.7312
  643.5000    11.4026    99.3707     2.4967     0.0108   -65.6288     9.7531     6.8805     7.5916
  644.0000    11.3835    99.7763     2.4997     0.0108   -65.6327     9.3140     6.8166     7.7531
  644.5000    11.4037   100.1819     2.5007     0.0109   -65.6366     9.3125     6.8152     7.6811
  645.0000    11.3846   100.1927     2.5007     0.0109   -65.6405     9.7482     6.6899     7.6094
