~VERSION INFORMATION
 VERS.                2.0:   CWLS LOG ASCII STANDARD - VERSION 2.0
 WRAP.                 NO:   ONE LINE PER DEPTH STEP
~WELL INFORMATION
#MNEM.UNIT      DATA TYPE    INFORMATION
#----------   ------------   ------------------------------
 STRT.F           80.0000:   START DEPTH
 STOP.F         2730.0000:   STOP DEPTH
 STEP.F            0.5000:   STEP LENGTH
 NULL.          -999.2500:   NO VALUE
 COMP.          U.S. NAVY:   COMPANY
 WELL. US NPR 3 "AX" #57-20:   WELL
 FLD .             TEAPOT:   FIELD
 LOC .      S20 T39N R78W:   LOCATION
 CNTY.            NATRONA:   COUNTY
 STAT.            WYOMING:   STATE
 CTRY. UNITED STATES OF AMERICA:   COUNTRY
 SRVC.       SCHLUMBERGER:   SERVICE COMPANY
 DATE.        31-JUL-1964:   LOGDATE
 API .     49025066320000:   API NUMBER
~CURVE INFORMATION
#MNEM.UNIT       API CODE    CURVE DESCRIPTION
#----------   ------------   ------------------------------
 DEPT.F                  :   
 SPR .MV     01 010 01 00:   SPONTANEOUS POTENTIAL FROM RES.
 LN  .OHMM   01 060 39 00:   LONG NORMAL 39"
 ASN .OHMM   01 041 16 00:   AMPLIFIED SHORT NORMAL 16"
 LAT .OHMM   01 070 00 00:   LATERAL
 GRN .GAPI   35 310 30 00:   GAMMA RAY
 NEUT.NAPI   35 330 01 00:   NEUTRON
~PARAMETER INFORMATION
#MNEM.UNIT          VALUE    DESCRIPTION
#----------   ------------   ------------------------------
 EKB .F         5019.0000:   Kelly bushing
 EGL .F         5011.0000:   Ground level
 TD  .F         2696.0000:   Total depth
 DATE.        31-JUL-1964:   Date logged
 CLNT.            A2DTECH:   Client Code
 PD  .                 GL:   Permanent Datum
 EPD .F              5011:   Elevation Permanent Datum
 LMF .                 KB:   Log Measured From
 DMF .                 KB:   Drilling Measured From
 DAPD.F                 8:   Feet Above Permanent Datum
 DD  .F              2690:   Depth driller
 DL  .F              2696:   Depth logger
 BLI .F              2695:   Bottom log interval
 TLI .F                82:   Top log interval
 CS1 .IN            12.25:   Casing size
 CBD1.       12.25" @ 15':   Casing driller 1
 BS1 .IN               11:   Bit size
 BSD1.F              2690:   Depth drilled with bit1
 DFT .                GEL:   Type fluid in hole
 MSS .           FLOWLINE:   Source of sample
 RMS .OHMM           2.48:   Rm
 MST .F                83:   Rm Meas. temp.
 RMF .OHMM           1.87:   Rmf
 MFST.F                83:   Rmf Meas. temp.
 MFSS.                 FP:   Source Rmf.
 MCSS.                 FP:   Source Rmc.
 TCS .HRS               4:   Time Circ. stopped
 LUN .               3527:   Logging unit number
 LUL .               CSPR:   Logging unit location
 ENGI.            WINKLER:   Recorded By
 WITN.          GORGENSEN:   Witnessed by
 ORIG.         2.5" PRINT:   Origin of data
 UWI .     49025066320000:   Unique Well ID
 DICO.   A2D TECHNOLOGIES:   Digitizing Company
~OTHER INFORMATION
~A   DEPT      SPR         LN        ASN        LAT        GRN       NEUT   
# ...
 1848.0000   -36.9030    13.5950    15.8530    15.6940  -999.2500  -999.2500
 1848.5000   -36.8890    13.3690    15.1320    15.6550  -999.2500  -999.2500
 1849.0000   -36.8320    13.1420    14.4340    15.4580  -999.2500  -999.2500
 1849.5000   -36.7830    12.9170    13.6970    15.2900  -999.2500  -999.2500
 1850.0000   -36.7310    12.6900    13.2380    15.1110  -999.2500  -999.2500
 1850.5000   -36.6800    12.4630    13.0510    14.9350  -999.2500  -999.2500
 1851.0000   -36.6300    12.2410    12.8240    14.7590  -999.2500  -999.2500
 1851.5000   -36.5790    12.0030    12.6120    14.5830  -999.2500  -999.2500
 1852.0000   -36.5280    11.8180    12.3960    14.4070  -999.2500  -999.2500
 1852.5000   -36.4770    11.7030    12.1800    14.2300  -999.2500  -999.2500
 1853.0000   -36.4260    11.5570    11.9630    14.0560  -999.2500  -999.2500
 1853.5000   -36.3750    11.4830    11.7530    13.8690  -999.2500  -999.2500
 1854.0000   -36.3240    11.5030    11.5150    13.6950  -999.2500  -999.2500
 1854.5000   -36.2730    11.5090    11.3750    13.5360  -999.2500  -999.2500
 1855.0000   -36.2220    11.5210    11.3950    13.3630  -999.2500  -999.2500
 1855.5000   -36.1690    11.5300    11.3820    13.1960  -999.2500  -999.2500
 1856.0000   -36.1330    11.5400    11.4370    13.0240  -999.2500  -999.2500
 1856.5000   -36.1340    11.5500    11.6140    12.8570  -999.2500  -999.2500
 1857.0000   -36.1330    11.5600    11.7890    12.6850  -999.2500  -999.2500
 1857.5000   -36.1330    11.5710    11.9690    12.5130  -999.2500  -999.2500
 1858.0000   -36.1330    11.5810    12.1450    12.3990  -999.2500  -999.2500
 1858.5000   -36.1330    11.5910    12.3230    12.5730  -999.2500  -999.2500
 1859.0000   -36.1330    11.6010    12.5010    12.7270  -999.2500  -999.2500
 1859.5000   -36.1330    11.6110    12.6780    12.8920  -999.2500  -999.2500
 1860.0000   -36.1330    11.6220    12.8570    13.0530  -999.2500  -999.2500
 1860.5000   -36.1330    11.6320    13.0330    13.2150  -999.2500  -999.2500
 1861.0000   -36.1330    11.6420    13.2130    13.3470  -999.2500  -999.2500
 1861.5000   -36.1330    11.6520    13.3890    13.2400  -999.2500  -999.2500
 1862.0000   -36.1330    11.6630    13.5530    13.1270  -999.2500  -999.2500
 1862.5000   -36.1330    11.6720    13.5680    13.0070  -999.2500  -999.2500
 1863.0000   -36.1330    11.6800    13.6300    12.8940  -999.2500  -999.2500
 1863.5000   -36.1330    11.6410    13.6920    12.7770  -999.2500  -999.2500
 1864.0000   -36.1330    11.5980    13.7590    12.6610  -999.2500  -999.2500
 1864.5000   -36.1330    11.5540    13.8220    12.5460  -999.2500  -999.2500
 1865.0000   -36.1340    11.5120    13.8880    12.4280  -999.2500  -999.2500
 1865.5000   -36.1560    11.4680    13.9510    12.3130  -999.2500  -999.2500
 1866.0000   -36.1810    11.4250    14.0180    12.1920  -999.2500  -999.2500
 1866.5000   -36.2070    11.3820    14.0790    12.1840  -999.2500  -999.2500
 1867.0000   -36.2320    11.3390    14.1490    12.3030  -999.2500  -999.2500
 1867.5000   -36.2580    11.2910    14.1060    12.4580  -999.2500  -999.2500
 1868.0000   -36.2830    11.2450    14.0410    12.6070  -999.2500  -999.2500
 1868.5000   -36.3090    11.1900    13.9750    12.7570  -999.2500  -999.2500
 1869.0000   -36.3340    11.1370    13.9110    12.9080  -999.2500  -999.2500
 1869.5000   -36.3600    11.0820    13.8460    13.0570  -999.2500  -999.2500
 1870.0000   -36.3850    11.0290    13.7810    13.2120  -999.2500  -999.2500
 1870.5000   -36.4110    10.9750    13.7180    13.3540  -999.2500  -999.2500
 1871.0000   -36.4360    10.9210    13.6480    13.5210  -999.2500  -999.2500
 1871.5000   -36.4620    10.8670    13.5970    13.4770  -999.2500  -999.2500
 1872.0000   -36.4850    10.8130    13.4520    13.2980  -999.2500  -999.2500
 1872.5000   -36.5170    10.7590    13.2420    13.1480  -999.2500  -999.2500
 1873.0000   -36.4790    10.7050    13.0550    12.9890  -999.2500  -999.2500
 1873.5000   -36.3850    10.6510    12.8540    12.8320  -999.2500  -999.2500
 1874.0000   -36.3030    10.5970    12.6760    12.6760  -999.2500  -999.2500
 1874.5000   -36.2180    10.5440    12.3800    12.5190  -999.2500  -999.2500
 1875.0000   -36.1330    10.4900    11.9730    12.3620  -999.2500  -999.2500
 1875.5000   -36.0480    10.4350    11.6020    12.2050  -999.2500  -999.2500
 1876.0000   -35.9620    10.3830    11.1810    12.0480  -999.2500  -999.2500
 1876.5000   -35.8800    10.3240    10.9770    11.8910  -999.2500  -999.2500
 1877.0000   -35.7870    10.3030    10.9430    11.7340  -999.2500  -999.2500
 1877.5000   -35.7520    10.3300    10.7870    11.5770  -999.2500  -999.2500
 1878.0000   -35.7940    10.3490    10.6560    11.4200  -999.2500  -999.2500
 1878.5000   -35.8250    10.3710    10.5160    11.2630  -999.2500  -999.2500
 1879.0000   -35.8620    10.3930    10.3760    11.1060  -999.2500  -999.2500
 1879.5000   -35.8960    10.4140    10.2390    10.9490  -999.2500  -999.2500
 1880.0000   -35.9310    10.4360    10.0980    10.7920  -999.2500  -999.2500
 1880.5000   -35.9660    10.4570     9.8730    10.6350  -999.2500  -999.2500
 1881.0000   -36.0000    10.4790     9.6040    10.4800  -999.2500  -999.2500
 1881.5000   -36.0360    10.4890     9.6620    10.3160  -999.2500  -999.2500
 1882.0000   -36.0690    10.4680     9.8440    10.2450  -999.2500  -999.2500
 1882.5000   -36.1050    10.4470    10.0100    10.4210  -999.2500  -999.2500
 1883.0000   -36.1450    10.4250     9.9660    10.5930  -999.2500  -999.2500
 1883.5000   -36.2710    10.4040     9.7220    10.7740  -999.2500  -999.2500
 1884.0000   -36.3820    10.3820     9.9080    10.9500  -999.2500  -999.2500
 1884.5000   -36.5000    10.3620    10.7640    11.1280  -999.2500  -999.2500
 1885.0000   -36.6130    10.3390    10.8120    11.3050  -999.2500  -999.2500
 1885.5000   -36.7280    10.3180    11.2330    11.4820  -999.2500  -999.2500
 1886.0000   -36.8430    10.3060    11.5990    11.6610  -999.2500  -999.2500
 1886.5000   -36.9560    10.4010    12.0000    11.8350  -999.2500  -999.2500
 1887.0000   -37.0730    10.4960    12.3200    12.0180  -999.2500  -999.2500
 1887.5000   -37.1860    10.5950    11.9980    12.1920  -999.2500  -999.2500
 1888.0000   -37.2930    10.6910    11.9070    12.3510  -999.2500  -999.2500
 1888.5000   -37.2540    10.7870    11.8180    12.1840  -999.2500  -999.2500
 1889.0000   -37.2040    10.8860    11.7520    11.9950  -999.2500  -999.2500
 1889.5000   -37.1510    10.9800    11.6670    11.7950  -999.2500  -999.2500
 1890.0000   -37.1020    11.0770    11.5940    11.6070  -999.2500  -999.2500
 1890.5000   -37.0500    11.0270    11.5920    11.4060  -999.2500  -999.2500
 1891.0000   -36.9990    10.9580    11.7520    11.3950  -999.2500  -999.2500
 1891.5000   -36.9480    10.8870    11.9500    11.5770  -999.2500  -999.2500
 1892.0000   -36.8970    10.8190    12.1390    11.8090  -999.2500  -999.2500
 1892.5000   -36.8460    10.7490    12.3390    12.0300  -999.2500  -999.2500
 1893.0000   -36.7950    10.6800    12.5230    12.2620  -999.2500  -999.2500
 1893.5000   -36.7440    10.6110    12.7140    12.4790  -999.2500  -999.2500
 1894.0000   -36.6930    10.5420    12.4880    12.7060  -999.2500  -999.2500
 1894.5000   -36.6420    10.4720    12.0880    12.5950  -999.2500  -999.2500
 1895.0000   -36.5900    10.4030    11.6950    12.3300  -999.2500  -999.2500
 1895.5000   -36.5430    10.3330    11.3310    12.0810  -999.2500  -999.2500
 1896.0000   -36.4860    10.2650    10.8970    11.8290  -999.2500  -999.2500
 1896.5000   -36.4200    10.1920    10.8390    11.5770  -999.2500  -999.2500
 1897.0000   -36.3600    10.1320    10.3070    11.3260  -999.2500  -999.2500
 1897.5000   -36.2980    10.0130     9.8320    11.0740  -999.2500  -999.2500
 1898.0000   -36.2370     9.8500     9.8140    10.8200  -999.2500  -999.2500
 1898.5000   -36.1760     9.7010     9.7120    10.5740  -999.2500  -999.2500
 1899.0000   -36.1140     9.5470     9.7010    10.3080  -999.2500  -999.2500
 1899.5000   -36.0530     9.3950     9.7480    10.1900  -999.2500  -999.2500
