~VERSION INFORMATION
 VERS.                2.0:   CWLS LOG ASCII STANDARD - VERSION 2.0
 WRAP.                 NO:   ONE LINE PER DEPTH STEP
~WELL INFORMATION
#MNEM.UNIT      DATA TYPE    INFORMATION
#----------   ------------   ------------------------------
 STRT.F          466.5000:   START DEPTH
 STOP.F         3184.0000:   STOP DEPTH
 STEP.F            0.5000:   STEP LENGTH
 NULL.          -999.2500:   NO VALUE
 COMP. LAWRENCE ALLISON AND ASSOCIATES:   COMPANY
 WELL. LAWRENCE 66 "X" #3-28:   WELL
 FLD .              N P R:   FIELD
 LOC .      S28 T39N R78W:   LOCATION
 CNTY.            NATRONA:   COUNTY
 STAT.            WYOMING:   STATE
 CTRY. UNITED STATES OF AMERICA:   COUNTRY
 SRVC.      DRESSER ATLAS:   SERVICE COMPANY
 DATE.        16-APR-1986:   LOGDATE
 API .     49025111340000:   API NUMBER
~CURVE INFORMATION
#MNEM.UNIT       API CODE    CURVE DESCRIPTION
#----------   ------------   ------------------------------
 DEPT.F                  :   
 RHOB.G/C3   45 350 01 00:   BULK DENSITY
 CORR.G/C3   45 356 01 00:   DENSITY CORRECTION
 TEND.LBS    45 635 01 00:   TENSION FROM DENSITY LOG
 NPHI.DEC    42 890 03 00:   NEUTRON POROSITY SANDSTONE
 DT  .US/F   60 520 00 00:   DELTA TIME
 TENS.LBS    51 635 01 00:   TENSION
 CALR.IN     07 280 01 00:   CALIPER FROM RESISTIVITY
 SPR .MV     07 010 01 00:   SPONTANEOUS POTENTIAL
 TENR.LBS    07 635 01 00:   TENSION FROM RESISTIVITY
 RFOC.OHMM   07 220 04 00:   RESISTIVITY FOCUSED LOG RES.
 GRR .GAPI   07 310 01 00:   GAMMA RAY FROM RESISTIVITY
 RILD.OHMM   07 120 46 00:   DEEP INDUCTION RESISTIVITY
 RILM.OHMM   07 120 44 00:   INDUCTION LOG MEDIUM RESISTIVITY
~PARAMETER INFORMATION
#MNEM.UNIT          VALUE    DESCRIPTION
#----------   ------------   ------------------------------
 EKB .F         5071.0000:   Kelly bushing
 EGL .F         5059.0000:   Ground level
 TD  .F         3176.0000:   Total depth
 DATE.        16-APR-1986:   Date logged
 CLNT.            A2DTECH:   Client Code
 SL  . 1685' FEL & 1915'FSL:   Surface Location
 PD  .                 GL:   Permanent Datum
 EPD .F              5059:   Elevation Permanent Datum
 LMF .                 KB:   Log Measured From
 DD  .F              3176:   Depth driller
 DL  .F              3176:   Depth logger
 BLI .F              3174:   Bottom log interval
 TLI .F               480:   Top log interval
 CS1 .IN            8.625:   Casing size
 BS1 .IN            7.875:   Bit size
 DFT .        POLYMER KCL:   Type fluid in hole
 DFD .                  9:   Density
 DFV .                 40:   Viscosity
 DFPH.                8.5:   pH
 DFL .               10.2:   Fluid loss
 MSS .           FLOWLINE:   Source of sample
 RMS .OHMM           .226:   Rm
 MST .F                65:   Rm Meas. temp.
 RMF .OHMM           .169:   Rmf
 MFST.F                65:   Rmf Meas. temp.
 RMC .OHMM           .283:   Rmc
 MCST.F                65:   Rmc Meas. temp.
 MFSS.               CALC:   Source Rmf.
 MCSS.               CALC:   Source Rmc.
 RMB .OHMM           .118:   Rm. at BHT
 BHT .F               125:   BHT.
 TCS .HRS               5:   Time Circ. stopped
 MRT .F               125:   Maximum recorded temp.
 LUN .               6264:   Logging unit number
 LUL .           GILLETTE:   Logging unit location
 ENGI.             MILLER:   Recorded By
 WITN.             STRONG:   Witnessed by
 ORIG.           5" PRINT:   Origin of data
 UWI .     49025111340000:   Unique Well ID
 DICO. A2D TECHNOLOGIES, INC.:   Digitizing Company
 DMF .                 KB:   Drilling Measured From
 DAPD.F                12:   Feet Above Permanent Datum
 CBD1.      8.625" @ 475':   Casing driller 1
 CBL1.F               480:   Casing logger 1
 BSD1.F              3176:   Depth drilled with bit1
~OTHER INFORMATION
~A   DEPT     RHOB       CORR       TEND       NPHI         DT       TENS       CALR        SPR       TENR       RFOC         GRR      RILD       RILM   
# ...
 1012.5000  -999.2500  -999.2500  -999.2500  -999.2500  -999.2500  -999.2500    11.2640   -68.1920   -95.9620     7.3630    92.2620     8.1480     7.8100
 1013.0000  -999.2500  -999.2500  -999.2500  -999.2500  -999.2500  -999.2500    11.2790   -67.6320   -91.6250     7.1720    91.5250     8.1240     7.7270
 1013.5000  -999.2500  -999.2500  -999.2500  -999.2500  -999.2500  -999.2500    11.2930   -67.3120   -85.1250     7.0430    91.8090     8.1010     7.6440
 1014.0000  -999.2500  -999.2500  -999.2500  -999.2500  -999.2500  -999.2500    11.3070   -66.9860   -78.6250     6.9670    92.0890     8.0770     7.5620
 1014.5000  -999.2500  -999.2500  -999.2500  -999.2500  -999.2500  -999.2500    11.3210   -66.7340   -75.0000     7.0620    93.3660     8.0510     7.4990
 1015.0000  -999.2500  -999.2500  -999.2500  -999.2500  -999.2500  -999.2500    11.3280   -67.1160   -75.0000     7.1620    95.0130     8.0250     7.4990
 1015.5000  -999.2500  -999.2500  -999.2500  -999.2500  -999.2500  -999.2500    11.3230   -67.5130   -91.2000     7.1280    96.6860     7.9980     7.4990
 1016.0000  -999.2500  -999.2500  -999.2500  -999.2500  -999.2500  -999.2500    11.3180   -68.3450  -122.4000     7.0640    98.3700     7.9720     7.4990
 1016.5000  -999.2500  -999.2500  -999.2500  -999.2500  -999.2500  -999.2500    11.3130   -69.2000  -119.5000     7.0000    98.6320     7.9450     7.4990
 1017.0000  -999.2500  -999.2500  -999.2500  -999.2500  -999.2500  -999.2500    11.3080   -70.0660   -89.9170     6.9350    98.9510     7.9230     7.4990
 1017.5000  -999.2500  -999.2500  -999.2500  -999.2500  -999.2500  -999.2500    11.3030   -70.4090   -59.5830     6.8400   100.3900     7.9120     7.4990
 1018.0000  -999.2500  -999.2500  -999.2500  -999.2500  -999.2500  -999.2500    11.2980   -70.7300   -45.0000     6.8830   101.7980     7.9010     7.5000
 1018.5000  -999.2500  -999.2500  -999.2500  -999.2500  -999.2500  -999.2500    11.2930   -71.0510   -45.0000     6.9660   100.3920     7.8900     7.5000
 1019.0000  -999.2500  -999.2500  -999.2500  -999.2500  -999.2500  -999.2500    11.2880   -71.3080   -45.0000     7.0500    98.6610     7.8800     7.4930
 1019.5000  -999.2500  -999.2500  -999.2500  -999.2500  -999.2500  -999.2500    11.2840   -71.5440   -63.6670     7.0960    98.2590     7.8690     7.4590
 1020.0000  -999.2500  -999.2500  -999.2500  -999.2500  -999.2500  -999.2500    11.2790   -71.5840   -98.3330     7.0650    98.9170     7.8580     7.4250
 1020.5000  -999.2500  -999.2500  -999.2500  -999.2500  -999.2500  -999.2500    11.2750   -71.2450  -135.0000     7.0400    95.6300     7.8340     7.3920
 1021.0000  -999.2500  -999.2500  -999.2500  -999.2500  -999.2500  -999.2500    11.2710   -70.9120  -122.7500     7.0150    92.5270     7.7970     7.3580
 1021.5000  -999.2500  -999.2500  -999.2500  -999.2500  -999.2500  -999.2500    11.2670   -70.5780  -109.7500     6.9900    90.3170     7.7610     7.3240
 1022.0000  -999.2500  -999.2500  -999.2500  -999.2500  -999.2500  -999.2500    11.2620   -70.2450   -96.7500     6.9670    91.4750     7.7240     7.2910
 1022.5000  -999.2500  -999.2500  -999.2500  -999.2500  -999.2500  -999.2500    11.2580   -69.9230   -83.7500     6.9110    95.5560     7.6880     7.2570
 1023.0000  -999.2500  -999.2500  -999.2500  -999.2500  -999.2500  -999.2500    11.2540   -69.6130   -70.7500     6.8590    99.5840     7.6510     7.2250
 1023.5000  -999.2500  -999.2500  -999.2500  -999.2500  -999.2500  -999.2500    11.2500   -69.0680   -67.6360     6.8060   100.5420     7.6140     7.2000
 1024.0000  -999.2500  -999.2500  -999.2500  -999.2500  -999.2500  -999.2500    11.2460   -68.4080   -72.3640     6.7540    98.4650     7.5780     7.1760
 1024.5000  -999.2500  -999.2500  -999.2500  -999.2500  -999.2500  -999.2500    11.2430   -68.0730   -77.0910     6.7150    95.4330     7.5410     7.1620
 1025.0000  -999.2500  -999.2500  -999.2500  -999.2500  -999.2500  -999.2500    11.2390   -68.0060   -81.8180     6.7690    92.3830     7.5050     7.1840
 1025.5000  -999.2500  -999.2500  -999.2500  -999.2500  -999.2500  -999.2500    11.2360   -67.9440   -85.7390     6.8120    91.0650     7.4680     7.1990
 1026.0000  -999.2500  -999.2500  -999.2500  -999.2500  -999.2500  -999.2500    11.2320   -67.8120   -88.0000     6.8600    92.4320     7.4310     7.2140
 1026.5000  -999.2500  -999.2500  -999.2500  -999.2500  -999.2500  -999.2500    11.2290   -67.4260   -90.2610     6.9150    96.7360     7.5150     7.2290
 1027.0000  -999.2500  -999.2500  -999.2500  -999.2500  -999.2500  -999.2500    11.2250   -67.0530   -92.5220     6.9670    96.4640     7.6010     7.2550
 1027.5000  -999.2500  -999.2500  -999.2500  -999.2500  -999.2500  -999.2500    11.2210   -66.5860   -95.0000     6.8720    94.8190     7.6870     7.2820
 1028.0000  -999.2500  -999.2500  -999.2500  -999.2500  -999.2500  -999.2500    11.2180   -66.6230   -95.0000     6.7770    93.2730     7.7730     7.3300
 1028.5000  -999.2500  -999.2500  -999.2500  -999.2500  -999.2500  -999.2500    11.2140   -67.3630   -85.3330     6.8600    92.3350     7.8590     7.3980
 1029.0000  -999.2500  -999.2500  -999.2500  -999.2500  -999.2500  -999.2500    11.2110   -68.3390   -68.0000     6.9480    94.4760     7.9450     7.4660
 1029.5000  -999.2500  -999.2500  -999.2500  -999.2500  -999.2500  -999.2500    11.2020   -69.3240   -69.5260     7.0310    96.5750     8.0310     7.5340
 1030.0000  -999.2500  -999.2500  -999.2500  -999.2500  -999.2500  -999.2500    11.1920   -70.2020   -75.0000     7.0650    98.6550     8.1160     7.6800
 1030.5000  -999.2500  -999.2500  -999.2500  -999.2500  -999.2500  -999.2500    11.1810   -70.6330   -80.4740     7.0980    98.6890     8.2020     7.9120
 1031.0000  -999.2500  -999.2500  -999.2500  -999.2500  -999.2500  -999.2500    11.1710   -71.0700   -83.2000     7.1300    94.6880     8.2880     8.1480
 1031.5000  -999.2500  -999.2500  -999.2500  -999.2500  -999.2500  -999.2500    11.1610   -71.5100   -72.8000     7.1620    90.2510     8.3740     8.1950
 1032.0000  -999.2500  -999.2500  -999.2500  -999.2500  -999.2500  -999.2500    11.1500   -71.8920   -66.0000     7.3400    86.8460     8.4600     8.3110
 1032.5000  -999.2500  -999.2500  -999.2500  -999.2500  -999.2500  -999.2500    11.1400   -72.0770   -70.0000     7.4640    86.4570     8.5460     8.4280
 1033.0000  -999.2500  -999.2500  -999.2500  -999.2500  -999.2500  -999.2500    11.1290   -72.0130   -74.0000     7.5770    87.9450     8.6320     8.5440
 1033.5000  -999.2500  -999.2500  -999.2500  -999.2500  -999.2500  -999.2500    11.1190   -71.9520   -57.6670     7.6910    89.5730     8.7180     8.6600
 1034.0000  -999.2500  -999.2500  -999.2500  -999.2500  -999.2500  -999.2500    11.1100   -71.8910   -35.0000     7.7810    89.4090     8.8040     8.7770
 1034.5000  -999.2500  -999.2500  -999.2500  -999.2500  -999.2500  -999.2500    11.1100   -71.8300   -23.3570     7.7120    88.0140     8.8750     8.8930
 1035.0000  -999.2500  -999.2500  -999.2500  -999.2500  -999.2500  -999.2500    11.1100   -71.7700   -56.7860     7.6550    84.5900     8.9290     9.0100
 1035.5000  -999.2500  -999.2500  -999.2500  -999.2500  -999.2500  -999.2500    11.1100   -71.7190   -90.2140     7.6020    80.8180     8.9820     9.1260
 1036.0000  -999.2500  -999.2500  -999.2500  -999.2500  -999.2500  -999.2500    11.1100   -71.3060  -103.3890     7.5690    77.0820     9.1030     9.2430
 1036.5000  -999.2500  -999.2500  -999.2500  -999.2500  -999.2500  -999.2500    11.1100   -70.8590  -100.5000     7.7550    75.4040     9.6010     9.3590
 1037.0000  -999.2500  -999.2500  -999.2500  -999.2500  -999.2500  -999.2500    11.1070   -70.4160   -97.6110     8.2150    78.2280    10.0700     9.4760
 1037.5000  -999.2500  -999.2500  -999.2500  -999.2500  -999.2500  -999.2500    11.1010   -70.0000   -95.0000     8.6190    82.1290    10.0060     9.5920
 1038.0000  -999.2500  -999.2500  -999.2500  -999.2500  -999.2500  -999.2500    11.0940   -69.6240  -115.0000     8.8520    86.0860     9.9460     9.7090
