~VERSION INFORMATION
 VERS.                2.0:   CWLS LOG ASCII STANDARD - VERSION 2.0
 WRAP.                 NO:   ONE LINE PER DEPTH STEP
~WELL INFORMATION
#MNEM.UNIT      DATA TYPE    INFORMATION
#----------   ------------   ------------------------------
 STRT.F          200.0000:   START DEPTH
 STOP.F         3000.0000:   STOP DEPTH
 STEP.F            0.5000:   STEP LENGTH
 NULL.          -999.2500:   NO VALUE
 COMP.    FENIX & SCISSON:   COMPANY
 WELL.   FENIX "A" #65-28:   WELL
 FLD .              NPR 3:   FIELD
 LOC .      S28 T39N R78W:   LOCATION
 CNTY.            NATRONA:   COUNTY
 STAT.            WYOMING:   STATE
 CTRY. UNITED STATES OF AMERICA:   COUNTRY
 SRVC.              WELEX:   SERVICE COMPANY
 DATE.        25-JUL-1977:   LOGDATE
 API .     49025104010000:   API NUMBER
~CURVE INFORMATION
#MNEM.UNIT       API CODE    CURVE DESCRIPTION
#----------   ------------   ------------------------------
 DEPT.F                  :   
 GRD .GAPI   45 310 01 00:   GAMMA RAY FROM DENSITY LOG
 CALD.IN     45 280 60 00:   CALIPER FROM DENSITY LOG
 RHOB.G/C3   45 350 01 00:   BULK DENSITY
 DCOR.G/C3   45 356 01 00:   DENSITY CORRECTION
 SPR .MV     07 010 01 00:   SPONTANEOUS POTENTIAL
 RILM.OHMM   07 120 44 00:   INDUCTION LOG MEDIUM RESISTIVITY
 RILD.OHMM   07 120 46 00:   DEEP INDUCTION RESISTIVITY
 SGRD.OHMM   07 220 05 00:   SHALLOW GUARD
~PARAMETER INFORMATION
#MNEM.UNIT          VALUE    DESCRIPTION
#----------   ------------   ------------------------------
 EKB .F         5069.0000:   Kelly bushing
 EGL .F         5059.0000:   Ground level
 EDF .F            0.0000:   Drilling floor
 TD  .F         3006.0000:   Total depth
 DATE.        25-JUL-1977:   Date logged
 CLNT.            A2DTECH:   Client Code
 SL  . 2310' FSL & 1650' FEL:   Surface Location
 PD  .                 GL:   Permanent Datum
 EPD .F              5059:   Elevation Permanent Datum
 LMF .                 KB:   Log Measured From
 DMF .                 KB:   Drilling Measured From
 DAPD.F                10:   Feet Above Permanent Datum
 DD  .F              3006:   Depth driller
 DL  .F              3006:   Depth logger
 BLI .F              3004:   Bottom log interval
 TLI .F               200:   Top log interval
 CS1 .IN            8.625:   Casing size
 CBD1.      8.625" @ 205':   Casing driller 1
 CBL1.F               220:   Casing logger 1
 BS1 .IN            7.875:   Bit size
 BSD1.F              3006:   Depth drilled with bit1
 DFT .            KCL MUD:   Type fluid in hole
 DFD .                8.9:   Density
 DFV .                 39:   Viscosity
 DFPH.                7.5:   pH
 DFL .                7.2:   Fluid loss
 MSS .           FLOWLINE:   Source of sample
 RMS .OHMM           0.29:   Rm
 MST .F                78:   Rm Meas. temp.
 RMF .OHMM           0.19:   Rmf
 MFST.F                78:   Rmf Meas. temp.
 RMC .OHMM           0.80:   Rmc
 MCST.F                78:   Rmc Meas. temp.
 MFSS.               FANN:   Source Rmf.
 MCSS.                KIT:   Source Rmc.
 RMB .OHMM           0.20:   Rm. at BHT
 BHT .F               113:   BHT.
 TCS .HRS               3:   Time Circ. stopped
 MRT .F               113:   Maximum recorded temp.
 LUN .               8766:   Logging unit number
 LUL .             CASPER:   Logging unit location
 ENGI.         G. BENTSEN:   Recorded By
 WITN.      B. HARRINGTON:   Witnessed by
 ORIG.           5" PRINT:   Origin of data
 UWI .     49025104010000:   Unique Well ID
 DICO. A2D TECHNOLOGIES, INC.:   Digitizing Company
~OTHER INFORMATION
~A   DEPT       GRD        CALD       RHOB      DCOR       SPR       RILM         RILD       SGRD 
# ...
 2225.0000    67.6480     8.4110     2.5080     0.0380   -40.7300     7.3530     6.6470    10.0600
 2225.5000    70.3100     8.4100     2.5080     0.0390   -40.7750     6.9280     6.4960     9.1860
 2226.0000    68.0330     8.4090     2.5020     0.0400   -40.8000     6.8380     6.3450     8.4320
 2226.5000    68.6170     8.4080     2.4960     0.0420   -40.7400     6.8210     6.1950     8.1910
 2227.0000    69.9230     8.4070     2.4920     0.0390   -40.6810     6.8210     6.1490     8.5750
 2227.5000    68.5380     8.4070     2.4900     0.0350   -40.6230     6.9400     6.1280    10.1940
 2228.0000    66.7540     8.4060     2.4980     0.0360   -40.5720     7.3390     6.1110    12.0320
 2228.5000    64.9760     8.4050     2.5020     0.0390   -40.5240     7.0750     6.1810    11.7890
 2229.0000    63.6690     8.4040     2.5050     0.0370   -40.4750     7.2960     6.2660    11.4970
 2229.5000    64.7840     8.4030     2.5040     0.0330   -40.4270     7.5430     6.4370    11.2060
 2230.0000    65.8570     8.4020     2.5010     0.0280   -40.3780     7.1400     6.6080    10.9150
 2230.5000    66.7950     8.4010     2.5010     0.0330   -40.3300     7.4120     6.7790    10.5850
 2231.0000    67.0130     8.4000     2.5010     0.0350   -40.2820     7.6130     6.9500    10.7990
 2231.5000    67.2470     8.4000     2.5020     0.0330   -40.2310     7.9150     7.1210    11.3430
 2232.0000    67.4840     8.3990     2.5020     0.0320   -40.2770     8.3600     7.2920    12.0300
 2232.5000    67.9950     8.3980     2.5030     0.0300   -40.3620     9.1430     7.4630    12.7170
 2233.0000    68.7930     8.3970     2.5030     0.0280   -40.4490     8.5760     7.6340    13.3070
 2233.5000    69.5900     8.3960     2.5010     0.0260   -40.5360     8.3190     7.7540    12.6520
 2234.0000    70.3960     8.3950     2.4960     0.0240   -40.6210     8.1860     7.6550    12.0540
 2234.5000    70.4080     8.3970     2.4910     0.0260   -40.6710     8.1390     7.5430    11.4560
 2235.0000    69.9370     8.4000     2.4870     0.0280   -40.7230     8.1170     7.6420    11.1830
 2235.5000    70.3970     8.4040     2.4860     0.0300   -40.7740     8.3570     7.8340    11.7000
 2236.0000    70.8800     8.4070     2.4840     0.0320   -40.7970     8.5400     8.0250    12.6590
 2236.5000    71.3590     8.4110     2.4830     0.0340   -40.7500     8.7340     8.2670    13.6780
 2237.0000    71.8340     8.4140     2.4850     0.0360   -40.7050     8.7970     7.9440    14.5830
 2237.5000    72.3570     8.4180     2.4880     0.0380   -40.6590     8.8950     7.5090    14.4500
 2238.0000    74.1440     8.4210     2.4900     0.0370   -40.6160     8.6740     7.1400    13.4960
 2238.5000    76.0490     8.4250     2.4870     0.0370   -40.6680     8.3830     7.2820    12.2550
 2239.0000    77.9650     8.4280     2.4820     0.0400   -40.7270     8.1780     7.7510    12.4550
 2239.5000    79.8730     8.4320     2.4780     0.0420   -40.7860     7.9740     8.4190    12.8290
 2240.0000    79.8020     8.4330     2.4750     0.0410   -40.8440     7.7700     7.5290    12.1500
 2240.5000    79.5770     8.4200     2.4740     0.0400   -40.9030     7.5650     6.8840    10.9720
 2241.0000    81.0180     8.4070     2.4710     0.0390   -40.9610     7.3610     7.5560    10.0190
 2241.5000    82.1950     8.3940     2.4680     0.0390   -41.0090     7.1570     8.0430    10.6060
 2242.0000    80.7910     8.3810     2.4650     0.0380   -41.0080     7.0230     8.3430    11.8560
 2242.5000    82.3150     8.3740     2.4630     0.0400   -41.0080     6.9350     8.1050    12.5960
 2243.0000    84.4420     8.3730     2.4590     0.0420   -41.0100     6.8840     7.7140    11.7530
 2243.5000    86.5760     8.3720     2.4540     0.0440   -40.9180     6.9470     7.3230    11.0350
 2244.0000    88.7080     8.3710     2.4480     0.0460   -40.8070     6.0550     6.9310     9.9030
 2244.5000    90.8290     8.3700     2.4430     0.0480   -40.6970     6.1670     6.5400     9.3210
 2245.0000    92.9710     8.3690     2.4430     0.0490   -40.5860     6.1410     6.3970     9.2270
 2245.5000    93.4070     8.3680     2.4470     0.0500   -40.4770     6.1110     6.4420     9.6590
 2246.0000    90.5940     8.3670     2.4520     0.0500   -40.4420     6.1960     6.6230     9.3400
 2246.5000    92.0210     8.3660     2.4550     0.0500   -40.5050     6.3440     6.9370     9.0590
 2247.0000    93.7090     8.3650     2.4530     0.0500   -40.5670     6.6080     7.6330    11.5630
 2247.5000    91.5580     8.3640     2.4440     0.0460   -40.6130     6.8710     8.4190    14.3810
 2248.0000    94.0560     8.3630     2.4360     0.0430   -40.6140     7.1350     8.2890    16.4560
 2248.5000    97.1860     8.3620     2.4330     0.0400   -40.5550     7.4990     8.1400    16.5780
 2249.0000    95.9210     8.3610     2.4310     0.0400   -40.4750     7.9710     7.9900    15.8710
 2249.5000    95.2400     8.3600     2.4340     0.0430   -40.4730     8.4440     7.8250    15.0700
 2250.0000    96.8640     8.3590     2.4390     0.0470   -40.7200     9.0590     7.8560    14.2690
 2250.5000    97.5490     8.3580     2.4440     0.0500   -40.9560     9.0020     7.8970    14.1300
 2251.0000    95.6080     8.3570     2.4490     0.0540   -41.1930     8.8300     7.5110    14.0660
 2251.5000    93.7650     8.3560     2.4540     0.0520   -41.4280     8.6030     7.1580    13.5080
 2252.0000    94.4780     8.3550     2.4590     0.0510   -41.5660     8.3640     6.7590    12.0480
 2252.5000    97.8030     8.3640     2.4660     0.0500   -41.3930     8.1250     6.9410     9.9280
 2253.0000    95.7920     8.3730     2.4770     0.0480   -41.2300     7.6870     7.1400    10.3450
 2253.5000    92.6720     8.3820     2.4870     0.0470   -41.1990     7.1460     6.4450    11.0810
 2254.0000    89.4910     8.3910     2.4980     0.0450   -41.5940     6.6050     5.6270     9.6850
 2254.5000    86.3180     8.4000     2.5080     0.0430   -41.7210     6.0640     5.1340     8.0300
 2255.0000    83.6580     8.4090     2.5050     0.0420   -41.6100     5.5240     4.8280     6.9310
 2255.5000    82.5230     8.4180     2.4990     0.0410   -41.4950     5.1780     4.5710     6.5900
 2256.0000    81.3930     8.4260     2.4940     0.0380   -41.4220     4.8760     4.2760     6.2490
 2256.5000    80.9970     8.4350     2.4990     0.0330   -41.5420     4.4760     4.2820     5.8380
 2257.0000    82.1460     8.4370     2.5090     0.0350   -41.6580     4.7490     4.2890     6.0530
 2257.5000    83.2540     8.4390     2.5180     0.0390   -41.7770     4.9960     4.2960     6.6220
 2258.0000    84.3800     8.4400     2.5160     0.0380   -41.7600     4.8060     4.3030     7.2060
 2258.5000    84.3620     8.4420     2.5120     0.0310   -41.7110     4.5180     4.3100     7.4750
 2259.0000    83.7510     8.4440     2.5110     0.0280   -41.6620     4.5780     4.3270     7.0330
 2259.5000    83.1360     8.4460     2.5140     0.0300   -41.6130     4.6840     4.4010     6.7590
 2260.0000    83.1040     8.4470     2.5150     0.0340   -41.7080     4.7910     4.4740     6.9420
 2260.5000    83.9370     8.4490     2.5120     0.0290   -42.0400     4.9060     4.5480     7.1020
 2261.0000    84.7650     8.4510     2.5080     0.0270   -42.1240     5.2300     4.6210     7.3390
 2261.5000    85.5810     8.4530     2.5080     0.0320   -42.0000     5.2000     4.6950     7.3080
 2262.0000    84.2620     8.4550     2.5100     0.0390   -41.8740     5.1350     4.7680     7.2490
 2262.5000    82.6000     8.4540     2.5100     0.0440   -41.7470     5.2560     4.8420     7.1890
 2263.0000    83.2920     8.4540     2.5080     0.0440   -41.6210     5.3760     4.9160     7.1300
 2263.5000    85.4170     8.4530     2.5080     0.0440   -41.4950     5.3440     4.9890     7.0750
 2264.0000    86.8700     8.4520     2.5090     0.0440   -41.4180     5.3150     5.0420     7.2120
 2264.5000    84.8280     8.4520     2.5100     0.0470   -41.4920     5.2870     5.0330     7.3390
 2265.0000    83.7870     8.4510     2.5100     0.0500   -41.5630     5.2580     5.0250     7.4070
