~VERSION INFORMATION
 VERS.                2.0:   CWLS LOG ASCII STANDARD - VERSION 2.0
 WRAP.                 NO:   ONE LINE PER DEPTH STEP
~WELL INFORMATION
#MNEM.UNIT      DATA TYPE    INFORMATION
#----------   ------------   ------------------------------
 STRT.F          297.0000:   START DEPTH
 STOP.F         2946.0000:   STOP DEPTH
 STEP.F            0.5000:   STEP LENGTH
 NULL.          -999.2500:   NO VALUE
 COMP.    FENIX & SCISSON:   COMPANY
 WELL. FENIX & SCISSON SH "X" #17-10:   WELL
 FLD .             NPR #3:   FIELD
 LOC .      S10 T38N R78W:   LOCATION
 CNTY.            NATRONA:   COUNTY
 STAT.            WYOMING:   STATE
 CTRY. UNITED STATES OF AMERICA:   COUNTRY
 SRVC.       SCHLUMBERGER:   SERVICE COMPANY
 DATE.        05-APR-1977:   LOGDATE
 API .     49025103310000:   API NUMBER
~CURVE INFORMATION
#MNEM.UNIT       API CODE    CURVE DESCRIPTION
#----------   ------------   ------------------------------
 DEPT.F                  :   
 SPR .MV     07 010 01 00:   SPONTANEOUS POTENTIAL
 ILD .OHMM   07 120 46 00:   DEEP INDUCTION RESISTIVITY
 ILM .OHMM   07 120 44 00:   INDUCTION LOG MEDIUM RESISTIVITY
 LL8 .OHMM   07 220 08 00:   LATEROLOG-8 RES.
 CALD.IN     45 280 60 00:   CALIPER FROM DENSITY LOG
 GRD .GAPI   45 310 01 00:   GAMMA RAY FROM DENSITY LOG
 CORR.G/C3   45 356 01 00:   DENSITY CORRECTION
 RHOB.G/C3   45 350 01 00:   BULK DENSITY
~PARAMETER INFORMATION
#MNEM.UNIT          VALUE    DESCRIPTION
#----------   ------------   ------------------------------
 EKB .F         5270.0000:   Kelly bushing
 EGL .F         5260.0000:   Ground level
 TD  .F         2950.0000:   Total depth
 CLNT.            A2DTECH:   Client Code
 SL  . 205' FWL & 1115' FSL:   Surface Location
 DATE.        05-APR-1977:   Date Logged [DD-MMM-YYYY]
 DD  .F              2950:   Depth driller
 DL  .F              2948:   Depth logger
 BLI .F              2946:   Bottom log interval
 TLI .F               310:   Top log interval
 CS1 .              10.75:   Casing size
 CBD1.      10.75" @ 300':   Casing driller 1
 CBL1.IN              310:   Casing logger 1
 BS1 .IN            8.625:   Bit size
 BSD1.F              2950:   Depth drilled with bit1
 DFT .                KCL:   Type fluid in hole
 DFD .                9.0:   Density
 DFV .                 33:   Viscosity
 DFL .                  9:   Fluid loss
 MSS .            MUD PIT:   Source of sample
 RMS .OHMM          0.153:   Rm
 MST .F                60:   Rm Meas. temp.
 RMF .OHMM          0.130:   Rmf
 MFST.F                60:   Rmf Meas. temp.
 MFSS.               MEAS:   Source Rmf.
 RMC .OHMM          0.229:   Rmc
 MCST.F                60:   Rmc Meas. temp.
 MCSS.               CALC:   Source Rmc.
 RMB .OHMM           0.08:   Rm. at BHT
 BHT .F               115:   BHT.
 TCS .HRS               6:   Time Circ. stopped
 MRT .F               115:   Maximum recorded temp.
 LUN .               7689:   Logging unit number
 LUL .               CODY:   Logging unit location
 ENGI.             RASMUS:   Recorded By
 WITN.              LYONS:   Witnessed by
 ORIG.         2.5" PRINT:   Origin of data
 UWI .     49025103310000:   Unique Well ID
 DICO. A2D TECHNOLOGIES, INC.:   Digitizing Company
 PD  .                 GL:   Permanent Datum
 EPD .               5260:   Elevation Permanent Datum
 LMF .                 KB:   Log Measured From
 DMF .                 KB:   Drilling Measured From
 DAPD.                 10:   Feet Above Permanent Datum
~OTHER INFORMATION
~A   DEPT      SPR        ILD        ILM        LL8       CALD        GRD       CORR       RHOB   
# ...
 2200.5000   -52.0497     3.6406     4.1192     7.6166    10.1041   117.2573     0.0547     2.5590
 2201.0000   -52.0410     3.6416     4.1575     8.7332    10.1157   117.8488     0.0249     2.5325
 2201.5000   -52.0324     3.6426     4.1590     8.9708     9.5800   120.1938     0.0159     2.5207
 2202.0000   -52.0235     3.8096     4.2582     8.9745     9.4341   121.6615     0.0073     2.5203
 2202.5000   -52.0147     3.9802     4.5355     9.1024     9.3469   122.5445     0.0136     2.5281
 2203.0000   -52.0059     4.1235     4.8387     9.1061     9.3182   124.0123     0.0193     2.5399
 2203.5000   -51.9971     4.1815     5.1123     9.1260     9.3190   125.1877     0.0206     2.5472
 2204.0000   -51.9882     4.1826     5.3280     9.2396     9.3490   124.9010     0.0210     2.5517
 2204.5000   -51.9794     4.1838     5.5528     9.3711     9.3791   125.4916     0.0270     2.5561
 2205.0000   -51.9706     4.1849     5.5547     9.3749     9.4091   127.8366     0.0403     2.5591
 2205.5000   -51.9617     4.1860     5.4068     9.3531     9.4392   129.6243     0.0652     2.5635
 2206.0000   -51.9530     4.1872     5.2628     9.0476     9.4399   124.9242     0.0613     2.5679
 2206.5000   -51.9441     4.1884     4.9169     8.0784     9.4406   121.7136     0.0553     2.5724
 2207.0000   -51.9353     4.1897     4.9186     7.2838     9.4707   119.6726     0.0493     2.5768
 2207.5000   -51.9264     4.1908     4.9202     7.0413     9.4714   121.1404     0.0517     2.5827
 2208.0000   -51.9159     4.1920     4.9896     7.4624     9.5015   122.6081     0.0560     2.5930
 2208.5000   -51.9071     4.1931     5.0600     7.9687     9.5315   120.5464     0.0408     2.5900
 2209.0000   -52.1925     4.1942     5.1313     8.3892     9.5323   119.9881     0.0347     2.5824
 2209.5000   -52.1838     4.1382     5.2753     8.8709     9.5623   120.3093     0.0337     2.5738
 2210.0000   -52.1750     4.1395     5.3497     9.2052     9.5630   120.5845     0.0387     2.5745
 2210.5000   -52.1663     4.1976     5.3515     9.4175     9.5931   118.3663     0.0417     2.5862
 2211.0000   -51.8634     4.1988     5.3533     9.2922     9.5938   115.8344     0.0390     2.5946
 2211.5000   -51.8546     4.2578     5.3552     9.2968     9.5945   115.6311     0.0402     2.5809
 2212.0000   -51.8459     4.3771     5.3571     9.3006     9.5953   118.9084     0.0278     2.5595
 2212.5000   -51.8371     4.4386     5.3589     9.3045     9.5667   119.2739     0.0116     2.5494
 2213.0000   -52.1225     4.5631     5.3607     9.3696     9.5675   122.1930     0.0092     2.5427
 2213.5000   -52.1138     4.5643     5.3625     9.5713     9.5682   125.2325     0.0129     2.5415
 2214.0000   -52.1050     4.6284     5.3643     9.7076     9.5689   125.6015     0.0249     2.5475
 2214.5000   -52.0963     4.6297     5.3552     9.7116     9.5697   122.4253     0.0421     2.5609
 2215.0000   -52.0875     4.6309     5.2832     9.7156     9.5704   121.3356     0.0423     2.5666
 2215.5000   -52.0788     4.6322     5.1413     9.5871     9.5711   120.1589     0.0285     2.5577
 2216.0000   -52.0700     4.6335     5.0033     9.4603     9.5719   119.7767     0.0202     2.5493
 2216.5000   -52.0613     4.6347     4.8831     9.3351     9.5726   119.6721     0.0158     2.5434
 2217.0000   -52.3470     4.6360     4.8185     9.3397     9.6026   118.9688     0.0098     2.5409
 2217.5000   -52.3379     4.6372     4.8203     9.3435     9.6034   117.7485     0.0143     2.5401
 2218.0000   -52.3291     4.6385     4.8045     9.3473     9.6041   119.5770     0.0202     2.5416
 2218.5000   -52.0263     4.6398     4.7579     9.3511     9.6048   122.1087     0.0231     2.5416
 2219.0000   -52.0175     4.6411     4.7598     9.3550     9.6055   124.6230     0.0246     2.5416
 2219.5000   -52.0087     4.6424     4.7615     9.3588     9.6063   125.8164     0.0305     2.5424
 2220.0000   -52.2941     4.6436     4.7631     9.4920     9.6071   125.8091     0.0379     2.5476
 2220.5000   -52.2853     4.6449     4.8302     9.6271     9.6078   123.8271     0.0452     2.5551
 2221.0000   -52.2666     4.6461     4.8319     9.7642     9.6085   120.7926     0.0512     2.5642
 2221.5000   -51.9735     4.6474     4.8335    10.1788     9.6092   119.2585     0.0526     2.5711
 2222.0000   -51.9647     4.6487     4.8352    10.4664     9.6100   118.3871     0.0482     2.5726
 2222.5000   -51.9558     4.6499     4.8646    10.6153     9.6107   118.9776     0.0422     2.5756
 2223.0000   -51.9471     4.6513     4.9050    10.7664     9.6063   120.1530     0.0437     2.5770
 2223.5000   -51.9382     4.7166     4.9068    10.7708     9.5828   118.6968     0.0422     2.5690
 2224.0000   -51.9294     4.7179     4.9760    10.7928     9.5836   117.1540     0.0230     2.5571
 2224.5000   -51.9206     4.7192     5.0108    10.4877     9.5843   119.8780     0.0096     2.5444
 2225.0000   -51.9118     4.7205     5.0478     9.9315     9.5851   121.6382     0.0037     2.5360
 2225.5000   -51.9029     4.7218     5.0496     9.5347     9.5858   121.7100     0.0022     2.5315
 2226.0000   -51.8941     4.7231     5.0513     9.2803     9.5865   121.6491     0.0022     2.5306
 2226.5000   -51.8853     4.7244     5.0531     9.2841     9.5872   123.4099     0.0229     2.5438
 2227.0000   -51.8765     4.6991     5.0548     9.2879     9.5880   125.4625     0.0288     2.5535
 2227.5000   -51.7941     4.6627     5.0565     9.2917     9.5887   126.3445     0.0362     2.5520
 2228.0000   -51.5647     4.6640     5.0582     9.1687     9.5789   121.0047     0.0406     2.5452
 2228.5000   -51.1783     4.6653     5.0600     9.0480     9.5607   118.3933     0.0347     2.5362
 2229.0000   -50.5764     4.6665     4.9726     8.8066     9.5499   117.5156     0.0378     2.5288
 2229.5000   -50.2686     4.6678     4.8391     8.5716     9.5037   117.0109     0.0405     2.5137
 2230.0000   -50.0588     4.6692     4.7092     8.3429     9.5044   119.3559     0.0228     2.4827
 2230.5000   -49.7559     4.4826     4.5400     8.3463     9.5051   115.9782     0.0489     2.4297
 2231.0000   -49.6393     4.2449     4.1581     8.1236     9.5059   111.1723     0.1084     2.3707
 2231.5000   -49.4441     3.9114     3.2032     7.9069     9.4773   110.2032     0.1393     2.2792
 2232.0000   -49.1412     3.1430     2.3768     7.1855     9.4632   110.0223     0.1514     2.2645
 2232.5000   -49.1324     2.4913     2.1040     3.7196     9.4340   111.9692     0.1030     2.2660
 2233.0000   -48.7020     2.4920     2.0475     2.4651     9.3755   114.7571     0.0359     2.3353
 2233.5000   -48.5265     2.5620     2.5877     2.5002     9.3464   117.8792     0.0256     2.4607
 2234.0000   -48.6550     2.5625     3.6765     5.4694     9.3173   120.5425     0.0263     2.5197
 2234.5000   -49.0971     2.5632     4.2821     6.9097     9.3057   122.0409     0.0308     2.5477
 2235.0000   -49.3823     2.5686     4.3731     7.6096     9.3359   121.4424     0.0359     2.5462
 2235.5000   -49.8196     2.7222     4.2850     8.2662     9.3366   120.0059     0.0291     2.5418
 2236.0000   -49.9530     3.1736     4.2004     8.3839     9.3374   121.3804     0.0231     2.5374
 2236.5000   -50.2382     3.5958     4.2986     8.3873     9.3674   122.5267     0.0196     2.5359
 2237.0000   -50.2294     4.1127     4.6340     8.3907     9.3681   120.9017     0.0216     2.5345
 2237.5000   -50.5147     4.4695     4.9259     8.3943     9.3982   120.0303     0.0240     2.5360
 2238.0000   -50.5041     4.7017     5.0932     8.5137     9.4283   119.7437     0.0240     2.5404
 2238.5000   -50.4971     4.6647     5.1651     8.7543     9.4583   120.0419     0.0290     2.5492
 2239.0000   -50.4883     4.4150     5.1668     8.8790     9.4590   119.7534     0.0284     2.5566
 2239.5000   -50.7749     4.2066     5.3849     8.8826     9.4598   119.7602     0.0277     2.5552
 2240.0000   -50.7647     4.2079     5.6893     9.0257     9.4605   120.5261     0.0262     2.5535
 2240.5000   -50.7559     4.3258     5.8489     9.2831     9.4905   120.5713     0.0269     2.5474
