~VERSION INFORMATION
 VERS.                2.0:   CWLS LOG ASCII STANDARD - VERSION 2.0
 WRAP.                 NO:   ONE LINE PER DEPTH STEP
~WELL INFORMATION
#MNEM.UNIT      DATA TYPE    INFORMATION
#----------   ------------   ------------------------------
 STRT.F          216.0000:   START DEPTH
 STOP.F         3241.0000:   STOP DEPTH
 STEP.F            0.5000:   STEP LENGTH
 NULL.          -999.2500:   NO VALUE
 COMP.    FENIX & SCISSON:   COMPANY
 WELL.    FENIX "A" #72-4:   WELL
 FLD .             NPR #3:   FIELD
 LOC .       S4 T38N R78W:   LOCATION
 CNTY.            NATRONA:   COUNTY
 STAT.            WYOMING:   STATE
 CTRY. UNITED STATES OF AMERICA:   COUNTRY
 SRVC.              WELEX:   SERVICE COMPANY
 DATE.        09-JUL-1977:   LOGDATE
 API .     49025103900000:   API NUMBER
~CURVE INFORMATION
#MNEM.UNIT       API CODE    CURVE DESCRIPTION
#----------   ------------   ------------------------------
 DEPT.F                  :   
 CORR.G/C3   45 356 01 00:   DENSITY CORRECTION
 GRD .GAPI   45 310 01 00:   GAMMA RAY FROM DENSITY LOG
 RHOB.G/C3   45 350 01 00:   BULK DENSITY
 CALD.IN     45 280 60 00:   CALIPER FROM DENSITY LOG
 SPR .MV     07 010 01 00:   SPONTANEOUS POTENTIAL
 ILD .OHMM   07 120 46 00:   DEEP INDUCTION RESISTIVITY
 ILM .OHMM   07 120 44 00:   INDUCTION LOG MEDIUM RESISTIVITY
 SGRD.OHMM   07 220 05 00:   SHALLOW SHORT GUARD RESISTIVITY
~PARAMETER INFORMATION
#MNEM.UNIT          VALUE    DESCRIPTION
#----------   ------------   ------------------------------
 EKB .F         5192.0000:   Kelly bushing
 EGL .F         5182.0000:   Ground level
 TD  .F         3243.0000:   Total depth
 CLNT.            A2DTECH:   Client Code
 SL  . 990' FNL & 990' FEL:   Surface Location
 PD  .                 GL:   Permanent Datum
 EPD .F              5182:   Elevation Permanent Datum
 LMF .                 KB:   Log Measured From
 DMF .                 KB:   Drilling Measured From
 DAPD.F                10:   Feet Above Permanent Datum
 DATE.        09-JUL-1977:   Date Logged [DD-MMM-YYYY]
 DD  .F              3230:   Depth driller
 DL  .F              3243:   Depth logger
 BLI .F              3241:   Bottom log interval
 TLI .F               224:   Top log interval
 CS1 .IN            8.625:   Casing size
 CBD1.      8.625" @ 221':   Casing driller 1
 CBL1.F               224:   Casing logger 1
 BS1 .IN            7.875:   Bit size
 BSD1.F              3230:   Depth drilled with bit1
 DFT .                KCL:   Type fluid in hole
 DFD .                8.9:   Density
 DFV .                 44:   Viscosity
 DFPH.                7.5:   pH
 DFL .                5.8:   Fluid loss
 MSS .            MUD PIT:   Source of sample
 RMS .OHMM           0.24:   Rm
 MST .F                68:   Rm Meas. temp.
 RMF .OHMM           0.20:   Rmf
 MFST.F                68:   Rmf Meas. temp.
 MFSS.               MEAS:   Source Rmf.
 RMC .OHMM           0.31:   Rmc
 MCST.F                68:   Rmc Meas. temp.
 MCSS.               MEAS:   Source Rmc.
 RMB .OHMM           0.13:   Rm. at BHT
 BHT .F               117:   BHT.
 TCS .HRS               3:   Time Circ. stopped
 MRT .F               117:   Maximum recorded temp.
 LUN .               8766:   Logging unit number
 LUL .             CASPER:   Logging unit location
 ENGI.          T. JOYNER:   Recorded By
 WITN.         HARRINGTON:   Witnessed by
 ORIG.           5" PRINT:   Origin of data
 UWI .     49025103900000:   Unique Well ID
 DICO. A2D TECHNOLOGIES, INC.:   Digitizing Company
~OTHER INFORMATION
~A   DEPT     CORR         GRD        RHOB     CALD        SPR        ILD        ILM       SGRD   
# ...
 1431.0000     0.0251   101.6319     2.5080     9.6952   -74.2917     8.0611     8.0840    10.4218
 1431.5000     0.0281   101.3512     2.5191     9.7130   -74.2946     8.0753     8.3160     9.9337
 1432.0000     0.0297   103.1685     2.5267     9.7278   -74.2982     8.1284     8.5546     9.6007
 1432.5000     0.0290   104.0859     2.5289     9.7293   -74.3011     8.1333     8.8001     9.4086
 1433.0000     0.0275   102.9168     2.5245     9.7455   -74.3040     8.1383     8.9282     9.6161
 1433.5000     0.0246   102.0400     2.5133     9.7618   -74.3069     8.0858     9.0581     9.7627
 1434.0000     0.0224   102.3670     2.5065     9.7780   -74.3099     8.0920     9.0637     9.8967
 1434.5000     0.0194   104.5063     2.4983     9.7942   -74.3128     8.0409     9.0692     9.9717
 1435.0000     0.0150   106.2891     2.4893     9.8105   -74.3157     7.9349     9.0747    10.1877
 1435.5000     0.0127   106.9132     2.4834     9.8267   -74.3186     7.8303     8.8307    10.1219
 1436.0000     0.0128   108.1287     2.4872     9.8281   -74.3215     7.7808     8.5318     9.5825
 1436.5000     0.0136   109.0460     2.4924     9.8296   -74.3245     7.6783     8.2423     9.3244
 1437.0000     0.0151   107.5789     2.4947     9.8309   -74.3274     7.6831     8.0328     9.5943
 1437.5000     0.0156   107.0001     2.4955     9.8322   -74.3304     7.6346     7.9260     9.7908
 1438.0000     0.0167   110.0097     2.4933     9.8335   -74.3333     7.6395     7.9321    10.0145
 1438.5000     0.0182   109.1435     2.4903     9.8348   -74.3369     7.5911     7.8810    10.0904
 1439.0000     0.0197   107.6715     2.4903     9.8361   -74.3398     7.5969     7.8314    10.0267
 1439.5000     0.0220   107.0986     2.4936     9.8375   -74.3427     7.6016     7.8374    10.0329
 1440.0000     0.0235   108.0217     2.5009     9.8391   -74.3456     7.6592     7.8966     9.9006
 1440.5000     0.0258   108.6410     2.5069     9.8404   -74.4974     7.7168     7.9563     9.8396
 1441.0000     0.0281   108.9623     2.5137     9.8415   -74.5003     7.7220     7.9612     9.8457
 1441.5000     0.0289   108.3893     2.5220     9.8428   -74.5032     7.6191     7.9660     9.8517
 1442.0000     0.0297   106.6241     2.5250     9.8526   -74.5061     7.5198     7.9710     9.8577
 1442.5000     0.0290   106.0507     2.5243     9.8605   -74.5090     7.4207     7.9759     9.8637
 1443.0000     0.0282   106.0745     2.5251     9.8767   -74.5120     7.3502     7.9819     9.8698
 1443.5000     0.0275   106.0984     2.5343     9.8781   -74.5149     7.3274     8.0980     9.6723
 1444.0000     0.0261   105.8226     2.5394     9.8797   -74.5179     7.3320     8.1030     9.2834
 1444.5000     0.0246   104.9516     2.5349     9.8810   -74.5208     7.3365     8.2209     9.1611
 1445.0000     0.0217   104.9805     2.5304     9.8823   -74.5244     7.3420     8.3406     9.1669
 1445.5000     0.0187   106.1960     2.5267     9.8836   -74.5273     7.3465     8.5799     9.0472
 1446.0000     0.0180   104.4307     2.5237     9.8849   -74.5302     7.3510     8.7048     9.0528
 1446.5000     0.0188   103.8569     2.5223     9.8713   -74.5331     7.3555     8.8315     9.3133
 1447.0000     0.0211   106.2655     2.5223     9.8726   -74.5360     7.2585     8.8369     9.7153
 1447.5000     0.0226   106.8852     2.5261     9.8888   -74.5390     7.2630     8.9037     9.9949
 1448.0000     0.0241   105.1254     2.5329     9.8901   -74.5419     7.3690     8.9091    10.0010
 1448.5000     0.0249   105.7446     2.5366     9.8917   -74.5448     7.4249     8.8531     9.8692
 1449.0000     0.0257   108.1523     2.5427     9.8930   -74.5477     7.4812     8.8587     9.8752
 1449.5000     0.0265   107.5736     2.5509     9.8791   -74.5507     7.4340     8.8653     9.8812
 1450.0000     0.0285   107.0006     2.5547     9.8655   -74.5536     7.4386     8.7231    10.0255
 1450.5000     0.0285   107.9238     2.5458     9.8671   -74.4036     7.4432     8.6653     9.7092
 1451.0000     0.0278   110.0489     2.5406     9.8535   -74.4040     7.4559     8.6079     9.5142
 1451.5000     0.0286   109.1841     2.5443     9.8547   -74.4039     7.5044     8.4925     9.3231
 1452.0000     0.0308   107.4178     2.5474     9.8558   -74.3956     7.5091     8.4357     9.4586
 1452.5000     0.0286   107.7527     2.5474     9.8417   -74.3774     7.5146     8.3226     9.7286
 1453.0000     0.0257   108.9744     2.5430     9.8130   -74.4191     7.4156     8.2105     9.8008
 1453.5000     0.0227   111.0903     2.5332     9.7996   -74.5675     7.4201     8.1561     9.8054
 1454.0000     0.0228   112.0139     2.5228     9.7709   -74.4068     7.4246     8.0462     9.7423
 1454.5000     0.0243   110.8511     2.5251     9.7569   -74.5243     7.4291     7.9934     9.7471
 1455.0000     0.0258   110.5812     2.5281     9.6987   -74.4662     7.5078     7.9956     9.7526
 1455.5000     0.0274   110.6119     2.5207     9.6551   -74.4747     7.5420     7.9977     9.7572
 1456.0000     0.0289   111.5355     2.5191     9.6115   -74.4190     7.6522     8.0174     9.8978
 1456.5000     0.0289   112.1611     2.5215     9.5825   -74.4267     7.6579     8.1134    10.0405
 1457.0000     0.0305   111.5944     2.5245     9.5538   -74.6118     7.6626     8.1719    10.3271
 1457.5000     0.0313   111.6244     2.5283     9.5252   -74.5228     7.6672     8.2337    10.4760
 1458.0000     0.0313   111.6533     2.5298     9.4968   -74.1937     7.7253     8.3482    10.3349
 1458.5000     0.0291   109.2982     2.5257     9.4980   -74.5411     7.7300     8.4667    10.1889
 1459.0000     0.0261   110.5273     2.5144     9.4544   -74.5567     7.6810     8.4106    10.0641
 1459.5000     0.0232   110.8474     2.5037     9.4406   -74.4823     7.5798     8.1834     9.9316
 1460.0000     0.0217   109.3865     2.5015     9.4418   -74.4297     7.4799     8.0726     9.9362
 1460.5000     0.0218   107.6349     2.5015     9.4131   -74.4458     7.4856     8.0196     9.8712
 1461.0000     0.0225   108.8566     2.5031     9.4143   -74.4968     7.3858     8.0218     9.9456
 1461.5000     0.0233   110.0783     2.5054     9.4155   -74.5429     7.3402     7.9687     9.9502
 1462.0000     0.0234   108.9155     2.5099     9.4167   -74.5894     7.2939     7.9713     9.9550
 1462.5000     0.0234   108.0434     2.5182     9.4179   -74.6013     7.2983     7.9735     9.9714
 1463.0000     0.0234   107.7821     2.5167     9.4191   -74.6017     7.2021     7.9201    10.0346
 1463.5000     0.0227   110.1961     2.5078     9.4203   -74.6016     7.1071     7.8134    10.1091
 1464.0000     0.0205   112.0139     2.4996     9.4217   -74.6016     7.0622     7.7617     9.7699
 1464.5000     0.0176   110.8511     2.4958     9.4228   -74.6016     7.0176     7.6576     9.7059
 1465.0000     0.0168   109.6883     2.4921     9.4240   -74.6016     7.0229     7.6069     9.6435
 1465.5000     0.0161   109.1216     2.4877     9.4252   -74.6016     7.0265     7.6094     9.6492
 1466.0000     0.0169   109.1510     2.4787     9.4264   -74.6016     6.9701     7.6115     9.5837
 1466.5000     0.0177   110.6708     2.4735     9.4276   -74.6023     6.9377     7.6663     9.4598
 1467.0000     0.0177   110.9983     2.4803     9.4135   -74.6025     6.9430     7.6684     9.3990
 1467.5000     0.0178   110.7052     2.4863     9.4299   -74.5918     6.9198     7.6704     9.2752
 1468.0000     0.0186   110.4610     2.4879     9.4310   -74.4490     6.9514     7.6725     9.3440
 1468.5000     0.0186   110.1056     2.4864     9.4541   -74.5929     6.9557     7.6746     9.6775
 1469.0000     0.0188   109.3350     2.4865     9.4633   -74.6045     6.9609     7.7840     9.8852
 1469.5000     0.0209   108.7683     2.4948     9.4794   -74.6025     6.9651     7.8401     9.8898
 1470.0000     0.0225   107.6055     2.4978     9.4806   -74.8215     6.9201     7.9514     9.9632
 1470.5000     0.0225   105.8392     2.4985     9.4818   -74.8025     6.9249     8.0087     9.9690
 1471.0000     0.0218   107.6644     2.4993     9.4837   -74.7996     6.9778     8.0109     9.9037
