~VERSION INFORMATION
 VERS.                2.0:   CWLS LOG ASCII STANDARD - VERSION 2.0
 WRAP.                 NO:   ONE LINE PER DEPTH STEP
~WELL INFORMATION
#MNEM.UNIT      DATA TYPE    INFORMATION
#----------   ------------   ------------------------------
 STRT.F            0.0000:   START DEPTH
 STOP.F         4030.0000:   STOP DEPTH
 STEP.F            0.5000:   STEP LENGTH
 NULL.          -999.2500:   NO VALUE
 COMP.  FENIX AND SCISSON:   COMPANY
 WELL.  FENIX "LX" #33-10:   WELL
 FLD . TEAPOT DOME (NPR #3):   FIELD
 LOC .      S10 T38N R78W:   LOCATION
 CNTY.            NATRONA:   COUNTY
 STAT.            WYOMING:   STATE
 CTRY. UNITED STATES OF AMERICA:   COUNTRY
 SRVC.       SCHLUMBERGER:   SERVICE COMPANY
 DATE.        03-APR-1978:   LOGDATE
 API .     49025105980000:   API NUMBER
~CURVE INFORMATION
#MNEM.UNIT       API CODE    CURVE DESCRIPTION
#----------   ------------   ------------------------------
 DEPT.F                  :   
 SPR .MV     07 010 01 00:   SPONTANEOUS POTENTIAL
 ILD .OHMM   07 120 46 00:   DEEP INDUCTION RESISTIVITY
 SFL .OHMM   07 220 01 00:   SHALLOW FOCUSED LOG RESISTIVITY
 ILM .OHMM   07 120 44 00:   INDUCTION LOG MEDIUM RESISTIVITY
 NPHI.DEC    42 890 03 00:   NEUTRON POROSITY SANDSTONE
 GRD .GAPI   45 310 01 00:   GAMMA RAY FROM DENSITY LOG
 CALD.IN     45 280 60 00:   CALIPER FROM DENSITY LOG
 RHOB.G/C3   45 350 01 00:   BULK DENSITY
 CORR.G/C3   45 356 01 00:   DENSITY CORRECTION
~PARAMETER INFORMATION
#MNEM.UNIT          VALUE    DESCRIPTION
#----------   ------------   ------------------------------
 EKB .F         5232.0000:   Kelly bushing
 EGL .F         5222.0000:   Ground level
 EDF .F            0.0000:   Drilling floor
 EPD .F         5222.0000:   Permanent datum
 TD  .F         4040.0000:   Total depth
 DATE.        03-APR-1978:   Date logged
 CLNT.            A2DTECH:   Client Code
 SL  . 1700' FNL & 1700' FWL:   Surface Location
 PD  .                 GL:   Permanent Datum
 DD  .F              4040:   Depth driller
 DL  .F              4031:   Depth logger
 BLI .F              4025:   Bottom log interval
 CS1 .IN            8.625:   Casing size
 CBD1.      8.625" @ 503':   Casing driller 1
 CBL1.F               504:   Casing logger 1
 BS1 .IN            7.875:   Bit size
 DFT .           CHEM GEL:   Type fluid in hole
 DFD .                9.5:   Density
 DFV .                 43:   Viscosity
 DFPH.               11.5:   pH
 DFL .                4.4:   Fluid loss
 MSS .            MUD PIT:   Source of sample
 RMS .OHMM           1.16:   Rm
 MST .F                80:   Rm Meas. temp.
 RMF .OHMM           0.93:   Rmf
 MFST.F                80:   Rmf Meas. temp.
 RMC .OHMM           1.74:   Rmc
 MCST.F                80:   Rmc Meas. temp.
 MFSS.               MEAS:   Source Rmf.
 RMB .OHMM          0.742:   Rm. at BHT
 BHT .F               125:   BHT.
 TCS .HRS            0800:   Time Circ. stopped
 MRT .F               125:   Maximum recorded temp.
 LUN .               7660:   Logging unit number
 LUL .                GLT:   Logging unit location
 ENGI.            TOEPPER:   Recorded By
 WITN.           MCGINLEY:   Witnessed by
 ORIG.         2.5" PRINT:   Origin of data
 UWI .     49025105980000:   Unique Well ID
 DICO. A2D TECHNOLOGIES, INC.:   Digitizing Company
 DAPD.                 10:   Feet Above Permanent Datum
 BSD1.               4040:   Depth drilled with bit1
 MCSS.               CALC:   Source Rmc.
 LMF .                 KB:   Log Measured From
 DMF .                 KB:   Drilling Measured From
 TLI .                504:   Top log interval
 TLAB.               1000:   Time logger at bottom
~OTHER INFORMATION
~A    DEPT     SPR        ILD        SFL        ILM       NPHI         GRD      CALD       RHOB       CORR   
# ...
 1898.0000   -41.6110     4.2520     4.9130     4.4290     0.3550   110.2530    10.7970     2.4350     0.0320
 1898.5000   -41.7710     4.2190     4.6800     4.4290     0.3410   111.9000    10.7730     2.4780    -0.0020
 1899.0000   -41.9510     4.1920     4.8990     4.4290     0.3350   110.3720    10.7470     2.4970     0.0190
 1899.5000   -41.9590     4.0570     5.2770     4.3840     0.3620   106.3650    10.7230     2.4540     0.0510
 1900.0000   -41.7180     3.9430     5.7290     4.2680     0.3840   102.2750    10.6980     2.4240     0.0870
 1900.5000   -41.5050     3.8290     5.6250     4.1520     0.4060   101.5650    10.6720     2.3890     0.1260
 1901.0000   -41.2840     3.7150     4.7750     4.0360     0.3880   105.4290    10.6480     2.4170     0.0850
 1901.5000   -41.1860     3.6010     3.9190     3.9200     0.3700   108.8530    10.6250     2.4850     0.0150
 1902.0000   -41.1300     3.5520     3.5520     3.8240     0.3570   112.2840    10.6160     2.5140     0.0400
 1902.5000   -41.0720     3.6180     4.3270     3.9410     0.3610   116.0620    10.6030     2.5170     0.0310
 1903.0000   -41.0120     3.7590     4.9890     4.0410     0.3640   115.8560    10.5900     2.4910     0.0240
 1903.5000   -40.9520     3.9050     5.4220     4.1410     0.3690   114.6040    10.5820     2.4680     0.0420
 1904.0000   -40.9010     4.0520     5.1670     4.2410     0.3660   114.5750    10.5640     2.4850     0.0610
 1904.5000   -40.8610     4.1980     4.8960     4.3490     0.3550   115.9690    10.5450     2.5020     0.0270
 1905.0000   -41.6260     4.3440     4.7670     4.4410     0.3450   119.0320    10.5260     2.4790     0.0090
 1905.5000   -42.0290     4.4910     4.9090     4.6160     0.3350   120.2540    10.5070     2.5320     0.0040
 1906.0000   -42.3270     4.6370     5.3580     4.7920     0.3230   119.8890    10.4880     2.5080     0.0080
 1906.5000   -42.6530     4.7830     5.8070     4.9680     0.3210   119.7650    10.4690     2.5210     0.0210
 1907.0000   -43.2990     4.9300     6.2560     5.1430     0.3180   119.4310    10.4500     2.5290     0.0330
 1907.5000   -43.6820     5.0760     6.3980     5.3190     0.3160   120.4610    10.4300     2.5430     0.0440
 1908.0000   -43.8170     5.2230     6.4090     5.4940     0.3130   122.6680    10.4320     2.5320     0.0240
 1908.5000   -44.3650     5.3690     6.4340     5.6700     0.3110   124.1990    10.4460     2.5290     0.0290
 1909.0000   -44.4940     5.5150     6.4580     5.8360     0.3200   124.6440    10.4590     2.5340     0.0380
 1909.5000   -44.8670     5.6250     6.4830     5.7630     0.3340   125.8680    10.4710     2.5380     0.0480
 1910.0000   -44.8170     5.5050     6.5160     5.6520     0.3470   129.5730    10.4850     2.5410     0.0570
 1910.5000   -44.7840     5.3630     6.3220     5.5400     0.3530   133.4510    10.4970     2.5330     0.0640
 1911.0000   -45.1480     5.2200     5.9990     5.4290     0.3420   135.2190    10.5100     2.5170     0.0490
 1911.5000   -45.2170     5.0780     5.6770     5.3180     0.3340   134.5570    10.5230     2.5020     0.0350
 1912.0000   -45.2220     4.9360     5.2260     5.2060     0.3430   133.5140    10.5360     2.4860     0.0270
 1912.5000   -45.2400     4.7940     5.4900     5.0950     0.3510   137.7300    10.5490     2.4720     0.0310
 1913.0000   -44.9070     4.6520     5.9260     4.9840     0.3580   146.1580    10.5620     2.4560     0.0340
 1913.5000   -44.8910     4.5090     6.2810     4.8730     0.4080   155.1710    10.5750     2.4400     0.0420
 1914.0000   -45.1460     4.3670     6.0320     4.7610     0.4020   164.0680    10.5830     2.4010     0.0810
 1914.5000   -44.9020     4.2250     5.3760     4.6500     0.3890   173.1090    10.5620     2.3710    -0.0100
 1915.0000   -45.2600     4.1920     4.7200     4.5390     0.3700   180.3990    10.5390     2.4090     0.0290
 1915.5000   -45.2140     4.0970     4.4290     4.4270     0.3780   181.1250    10.5160     2.4600     0.0800
 1916.0000   -45.1890     3.9980     5.2820     4.3160     0.3910   181.8980    10.4920     2.4510     0.0600
 1916.5000   -45.5320     3.9000     6.5160     4.2050     0.4000   183.3170    10.4690     2.4030     0.0370
 1917.0000   -45.6130     3.7540     6.1610     4.0400     0.3970   186.8310    10.4460     2.4330     0.0150
 1917.5000   -45.7090     3.8240     4.3490     4.2930     0.3940   185.0320    10.4230     2.4490     0.0220
 1918.0000   -46.0280     4.2450     4.7300     4.7760     0.3880   181.5310    10.3990     2.4710     0.0310
 1918.5000   -46.1950     4.7340     5.9430     5.2590     0.3800   179.5310    10.3760     2.4560     0.0250
 1919.0000   -46.7320     5.2230     7.1570     5.7420     0.3730   179.9390    10.3530     2.4440     0.0180
 1919.5000   -47.5660     5.7120     8.3700     6.2250     0.3660   178.3600    10.3300     2.4320     0.0100
 1920.0000   -47.9650     6.2010     9.2410     6.7070     0.3590   174.7320    10.3070     2.4210     0.0030
 1920.5000   -48.4350     6.6900     9.2410     7.1900     0.3550   171.6290    10.3050     2.4390     0.0010
 1921.0000   -48.8670     7.1790     9.2410     7.6730     0.3530   168.2140    10.3030     2.4660     0.0190
 1921.5000   -49.1730     7.6680     9.5780     8.1560     0.3510   170.7690    10.3030     2.4600     0.0230
 1922.0000   -49.0590     8.1570    10.3120     8.9070     0.3490   173.8600    10.3020     2.4380     0.0160
 1922.5000   -48.9520     8.4290    11.0450     8.9000     0.3460   177.1650    10.3010     2.4440     0.0340
 1923.0000   -48.8340     8.4450    11.5220     8.8860     0.3570   180.2950    10.3000     2.4580     0.0520
 1923.5000   -48.7190     8.4600    11.2410     8.8710     0.3640   183.4780    10.2990     2.4710     0.0690
 1924.0000   -48.6050     8.4740    10.9030     8.8560     0.3610   186.7610    10.2980     2.4870     0.0910
 1924.5000   -48.4900     8.4890    10.7050     8.8410     0.3580   189.2690    10.2970     2.4680     0.0690
 1925.0000   -48.3760     8.5040    10.7870     8.8260     0.3650   189.8830    10.2960     2.4230     0.0160
 1925.5000   -48.2570     8.5190    10.8700     8.8110     0.3720   187.6820    10.2950     2.4410     0.0090
 1926.0000   -48.1520     8.5340    10.9030     8.7960     0.3750   185.4680    10.2940     2.4370     0.0030
 1926.5000   -48.0390     8.5490    10.7120     8.7810     0.3650   185.9720    10.2930     2.4250    -0.0030
 1927.0000   -48.3470     8.5640    10.5100     8.7660     0.3500   189.2360    10.2920     2.4120     0.0050
 1927.5000   -48.7940     8.5790    10.9540     8.7510     0.3570   191.8930    10.2910     2.4050     0.0140
 1928.0000   -49.2420     8.5850    11.3340     8.7450     0.3670   193.9110    10.2890     2.4010     0.0230
 1928.5000   -49.5950     8.7880    11.7350     8.9630     0.3660   180.4270    10.2880     2.4160     0.0170
 1929.0000   -49.5820     8.9630    11.6640     9.1510     0.3600   168.2540    10.2870     2.4210     0.0160
 1929.5000   -49.7740     9.1380    11.5880     9.3400     0.3530   154.3190    10.2860     2.4430     0.0290
 1930.0000   -50.1220     9.3130    11.5220     9.5290     0.3470   151.7490    10.2850     2.4380     0.0420
 1930.5000   -50.4550     9.4880    12.1440     9.7180     0.3390   149.1260    10.2840     2.4300     0.0220
 1931.0000   -50.7740     9.6630    12.8650     9.9070     0.3410   147.3060    10.2830     2.4210     0.0020
 1931.5000   -51.1100     9.8390    12.7920    10.0960     0.3460   145.1770    10.2820     2.4130    -0.0050
 1932.0000   -50.9830    10.0140    12.5480    10.2850     0.3440   149.7160    10.2810     2.4040     0.0070
 1932.5000   -50.6750    10.1890    12.3030    10.4730     0.3370   154.5660    10.2800     2.4140     0.0170
 1933.0000   -50.3780    10.3640    12.1750    10.6620     0.3300   157.3300    10.2790     2.4300     0.0310
 1933.5000   -50.0830    10.5390    12.9160    10.8510     0.3230   151.1170    10.2780     2.4430     0.0260
 1934.0000   -49.9190    10.7050    13.8470    11.1060     0.2990   142.6710    10.2770     2.4540     0.0150
