~VERSION INFORMATION
 VERS.                2.0:   CWLS LOG ASCII STANDARD - VERSION 2.0
 WRAP.                 NO:   ONE LINE PER DEPTH STEP
~WELL INFORMATION
#MNEM.UNIT      DATA TYPE    INFORMATION
#----------   ------------   ------------------------------
 STRT.F          199.5000:   START DEPTH
 STOP.F         2983.0000:   STOP DEPTH
 STEP.F            0.5000:   STEP LENGTH
 NULL.          -999.2500:   NO VALUE
 COMP.    FENIX & SCISSON:   COMPANY
 WELL. FENIX (UE-49) "AX" #52-29:   WELL
 FLD . U.S. NAVAL PETROLEUM RESERVE #3:   FIELD
 LOC .      S29 T39N R78W:   LOCATION
 CNTY.            NATRONA:   COUNTY
 STAT.            WYOMING:   STATE
 CTRY. UNITED STATES OF AMERICA:   COUNTRY
 SRVC.           BIRDWELL:   SERVICE COMPANY
 DATE.        07-AUG-1977:   LOGDATE
 API .     49025104090000:   API NUMBER
~CURVE INFORMATION
#MNEM.UNIT       API CODE    CURVE DESCRIPTION
#----------   ------------   ------------------------------
 DEPT.F                  :   
 GRD .GAPI   45 310 01 00:   GAMMA RAY FROM DENSITY LOG
 CALD.IN     45 280 60 00:   CALIPER FROM DENSITY LOG
 DEN .G/C3   45 350 01 00:   BULK DENSITY
 DCOR.G/C3   45 356 01 00:   DENSITY CORRECTION
 SN  .OHMM   05 040 16 00:   SHORT NORMAL 16"
 ILD .OHMM   05 120 46 00:   INDUCTION LOG DEEP RESISTIVITY
~PARAMETER INFORMATION
#MNEM.UNIT          VALUE    DESCRIPTION
#----------   ------------   ------------------------------
 EKB .F         4995.0000:   Kelly bushing
 EGL .F         4985.0000:   Ground level
 EDF .F            0.0000:   Drilling floor
 TD  .F         2973.0000:   Total depth
 DATE.         7-AUG-1977:   Date logged
 CLNT.            A2DTECH:   Client Code
 SL  . 1400' FNL & 2380' FEL:   Surface Location
 PD  .                 GL:   Permanent Datum
 EPD .F              4985:   Elevation Permanent Datum
 LMF .                 KB:   Log Measured From
 DMF .                 KB:   Drilling Measured From
 DAPD.F                10:   Feet Above Permanent Datum
 DD  .F              2972:   Depth driller
 DL  .F              2973:   Depth logger
 BLI .F              2968:   Bottom log interval
 TLI .F               216:   Top log interval
 CS1 .IN            8.625:   Casing size
 CBD1.      8.625" @ 216':   Casing driller 1
 CBL1.F               216:   Casing logger 1
 BS1 .IN            7.875:   Bit size
 BSD1.F              2972:   Depth drilled with bit1
 DFT .            GEL-KCL:   Type fluid in hole
 DFD .                8.9:   Density
 DFV .                 33:   Viscosity
 DFL .                  9:   Fluid loss
 MSS .            MUD PIT:   Source of sample
 RMS .OHMM           0.26:   Rm
 MST .F                73:   Rm Meas. temp.
 RMF .OHMM           0.26:   Rmf
 MFST.F                72:   Rmf Meas. temp.
 RMC .OHMM           0.96:   Rmc
 MCST.F                72:   Rmc Meas. temp.
 MFSS.              PRESS:   Source Rmf.
 RMB .OHMM           0.14:   Rm. at BHT
 BHT .F               130:   BHT.
 TCS .HRS               5:   Time Circ. stopped
 MRT .F               130:   Maximum recorded temp.
 LUN .               2958:   Logging unit number
 LUL .             CASPER:   Logging unit location
 ENGI.                LAW:   Recorded By
 WITN.             RHODES:   Witnessed by
 ORIG.           5" PRINT:   Origin of data
 UWI .     49025104090000:   Unique Well ID
 DICO. A2D TECHNOLOGIES, INC.:   Digitizing Company
~OTHER INFORMATION
~A   DEPT       GRD      CALD        DEN       DCOR         SN        ILD   
# ...
 1291.5000    53.3070     9.4580     2.5660     0.0220     7.9850     9.3620
 1292.0000    55.1930     9.4550     2.5700     0.0250     8.0030     9.3940
 1292.5000    58.7440     9.4510     2.5770     0.0250     8.0280     9.4330
 1293.0000    62.2690     9.4500     2.5770     0.0230     8.0520     9.4130
 1293.5000    61.2280     9.4620     2.5770     0.0160     8.0720     9.3870
 1294.0000    59.6260     9.4730     2.5610     0.0090     7.9710     9.3620
 1294.5000    61.4460     9.4840     2.5530     0.0060     7.8530     9.3360
 1295.0000    59.2640     9.4900     2.5520     0.0090     7.8730     9.3100
 1295.5000    58.9880     9.4940     2.5540     0.0100     7.9050     9.2840
 1296.0000    56.8390     9.4980     2.5490     0.0180     7.9370     9.2580
 1296.5000    54.6590     9.5010     2.5520     0.0250     7.9690     9.2320
 1297.0000    55.9240     9.5050     2.5720     0.0290     7.9990     9.2070
 1297.5000    58.8140     9.5090     2.5750     0.0310     7.9020     9.1770
 1298.0000    60.7830     9.5130     2.5770     0.0280     7.8530     9.3430
 1298.5000    55.1870     9.5160     2.5760     0.0260     7.8730     9.5200
 1299.0000    56.8840     9.5200     2.5760     0.0250     7.8870     9.2620
 1299.5000    58.8960     9.5240     2.5770     0.0250     7.9000     9.4290
 1300.0000    60.6050     9.5270     2.5750     0.0140     7.9140     9.5200
 1300.5000    56.9450     9.5280     2.5640     0.0130     7.9260     9.4370
 1301.0000    58.4940     9.5280     2.5660     0.0060     7.9410     9.3730
 1301.5000    60.2830     9.5280     2.5530     0.0010     7.9590     9.3080
 1302.0000    57.2550     9.5280     2.5470     0.0080     7.9760     9.2620
 1302.5000    58.0830     9.5280     2.5560     0.0260     7.9930     9.6480
 1303.0000    57.8220     9.5280     2.5720     0.0320     8.0110     9.7970
 1303.5000    56.9730     9.5280     2.5890     0.0270     8.0280     9.9660
 1304.0000    55.6690     9.5280     2.5890     0.0220     8.0450     9.2620
 1304.5000    55.4550     9.5280     2.5730     0.0250     8.0630    10.1510
 1305.0000    57.5810     9.5280     2.5800     0.0280     8.0720     9.4330
 1305.5000    59.7760     9.5280     2.5850     0.0290     8.0220     9.3990
 1306.0000    59.0760     9.5280     2.5880     0.0240     7.9880     9.3660
 1306.5000    59.2260     9.5280     2.5850     0.0190     7.9530     9.3470
 1307.0000    60.1860     9.5280     2.5770     0.0260     7.9260     9.3680
 1307.5000    58.9940     9.5280     2.5780     0.0320     7.9410     9.3820
 1308.0000    56.4140     9.5280     2.5810     0.0320     7.9530     9.3960
 1308.5000    57.1300     9.5280     2.5840     0.0340     7.9650     9.4100
 1309.0000    57.8990     9.5280     2.5910     0.0370     7.9770     9.4240
 1309.5000    59.2150     9.5280     2.5970     0.0360     7.9890     9.4330
 1310.0000    60.6380     9.5270     2.5970     0.0350     8.0010     9.3880
 1310.5000    59.1940     9.5250     2.5970     0.0300     8.0130     9.3550
 1311.0000    57.7480     9.5240     2.5960     0.0320     8.0260     9.3220
 1311.5000    59.6490     9.5220     2.5980     0.0250     8.0380     9.2900
 1312.0000    59.4310     9.5200     2.5810     0.0140     8.0500     9.2620
 1312.5000    56.2170     9.5180     2.5710     0.0180     8.0620     9.3430
 1313.0000    56.9510     9.5160     2.5750     0.0150     8.0720     9.4500
 1313.5000    54.4050     9.5140     2.5750     0.0080     8.0550     9.5200
 1314.0000    55.6120     9.5120     2.5600     0.0110     8.0370     9.4940
 1314.5000    58.0160     9.5100     2.5530     0.0120     8.0190     9.4740
 1315.0000    59.5130     9.5080     2.5590     0.0140     7.9990     9.4550
 1315.5000    58.2160     9.5110     2.5650     0.0150     8.0190     9.4350
 1316.0000    58.2410     9.5130     2.5670     0.0110     8.0400     9.4160
 1316.5000    59.2070     9.5160     2.5650     0.0130     8.0620     9.3960
 1317.0000    58.7240     9.5190     2.5630     0.0070     8.0710     9.3770
 1317.5000    59.7490     9.5220     2.5620     0.0060     8.0000     9.3570
 1318.0000    62.0710     9.5250     2.5580     0.0050     7.9510     9.3480
 1318.5000    59.6170     9.5280     2.5550     0.0100     7.9260     9.4320
 1319.0000    57.3360     9.5270     2.5580     0.0130     7.9390     9.4900
 1319.5000    57.6090     9.5270     2.5680     0.0210     7.9480     9.5200
 1320.0000    55.3260     9.4860     2.5770     0.0240     7.9570     9.5200
 1320.5000    55.5460     9.4280     2.5800     0.0210     7.9650     9.5200
 1321.0000    59.6880     9.4360     2.5650     0.0200     7.9740     9.5210
 1321.5000    60.9940     9.4410     2.5670     0.0130     7.9830     9.4660
 1322.0000    61.1050     9.4470     2.5540     0.0130     7.9920     9.4230
 1322.5000    63.2110     9.4530     2.5540     0.0150     7.9980     9.3800
 1323.0000    65.4690     9.4580     2.5570     0.0180     7.9670     9.3470
 1323.5000    61.2770     9.4640     2.5570     0.0220     7.9410     9.3470
 1324.0000    61.5240     9.4630     2.5670     0.0190     7.9260     9.3470
 1324.5000    60.7770     9.4350     2.5670     0.0130     7.9680     9.3470
 1325.0000    57.2520     9.4070     2.5620     0.0110     8.0030     9.3470
 1325.5000    57.6250     9.3910     2.5610     0.0130     8.0370     9.3470
 1326.0000    60.4200     9.3940     2.5660     0.0110     8.0720     9.3760
 1326.5000    61.7860     9.3970     2.5660     0.0030     7.9990     9.4230
 1327.0000    60.9460     9.4000     2.5630     0.0090     8.0420     9.5060
 1327.5000    64.8000     9.4030     2.5570     0.0150     8.0790     9.5990
 1328.0000    67.4310     9.4060     2.5740     0.0190     8.1150     9.6960
 1328.5000    56.1800     9.4090     2.5720     0.0160     8.1520     9.4330
 1329.0000    57.0860     9.3950     2.5760     0.0130     8.1880     9.6410
 1329.5000    58.8460     9.3910     2.5690     0.0120     8.2250     9.9150
 1330.0000    57.0040     9.3930     2.5650     0.0140     8.2610    10.1590
 1330.5000    53.3880     9.3960     2.5660     0.0160     8.2980    10.2170
 1331.0000    51.8780     9.3980     2.5670     0.0190     8.3340    10.2440
 1331.5000    53.5870     9.4000     2.5720     0.0200     8.3740    10.0680
 1332.0000    56.9450     9.4030     2.5710     0.0200     8.2680     9.9660
 1332.5000    57.2760     9.4050     2.5660     0.0190     8.1520    10.0320
 1333.0000    61.8090     9.4080     2.5690     0.0190     8.0460    10.1510
 1333.5000    62.1590     9.4030     2.5660     0.0200     7.9610     9.7080
 1334.0000    60.1910     9.3890     2.5670     0.0180     7.8750     9.2300
 1334.5000    59.9910     9.3740     2.5730     0.0110     7.7890     9.1220
 1335.0000    60.6780     9.3780     2.5660     0.0100     7.7110     9.0130
 1335.5000    61.7060     9.3900     2.5570     0.0100     7.7470     8.9050
 1336.0000    64.8240     9.4020     2.5580     0.0110     7.7880     8.8470
 1336.5000    70.7810     9.4150     2.5640     0.0120     7.8290     9.0110
 1337.0000    67.4780     9.4280     2.5690     0.0130     7.8700     8.9810
 1337.5000    67.4260     9.4130     2.5740     0.0120     7.9260     8.9470
 1338.0000    63.4120     9.3950     2.5730     0.0110     7.8680     8.9290
 1338.5000    56.8810     9.3760     2.5720     0.0110     7.7790     9.0430
 1339.0000    56.5540     9.3530     2.5710     0.0160     7.7110     9.1220
 1339.5000    54.8210     9.3300     2.5710     0.0170     7.9260     9.2000
 1340.0000    56.4920     9.3320     2.5790     0.0210     7.8830     9.2620
 1340.5000    59.4160     9.3340     2.5800     0.0210     7.8400     9.2620
 1341.0000    59.1610     9.3350     2.5850     0.0200     7.7980     9.2620
 1341.5000    61.5760     9.3370     2.5890     0.0180     7.7610     9.3140
 1342.0000    60.5050     9.3390     2.5770     0.0200     7.7270     9.5200
 1342.5000    58.7740     9.3400     2.5760     0.0230     7.6940     9.1680
 1343.0000    62.1260     9.3420     2.5770     0.0200     7.6600     8.9290
