~VERSION INFORMATION
 VERS.                2.0:   CWLS LOG ASCII STANDARD - VERSION 2.0
 WRAP.                 NO:   ONE LINE PER DEPTH STEP
~WELL INFORMATION
#MNEM.UNIT      DATA TYPE    INFORMATION
#----------   ------------   ------------------------------
 STRT.F          670.0000:   START DEPTH
 STOP.F         3440.0000:   STOP DEPTH
 STEP.F            0.5000:   STEP LENGTH
 NULL.          -999.2500:   NO VALUE
 COMP.    FENIX & SCISSON:   COMPANY
 WELL.   FENIX "A" #57-33:   WELL
 FLD .             NPR #3:   FIELD
 LOC .      S33 T39N R78W:   LOCATION
 CNTY.            NATRONA:   COUNTY
 STAT.            WYOMING:   STATE
 CTRY. UNITED STATES OF AMERICA:   COUNTRY
 SRVC.       SCHLUMBERGER:   SERVICE COMPANY
 DATE.        27-APR-1977:   LOGDATE
 API .     49025103600000:   API NUMBER
~CURVE INFORMATION
#MNEM.UNIT       API CODE    CURVE DESCRIPTION
#----------   ------------   ------------------------------
 DEPT.F                  :   
 SPR .MV     11 010 01 00:   SPONTANEOUS POTENTIAL FROM RES.
 MSFL.OHMM   11 270 04 00:   MICRO SPHERICALLY FOCUSED
 LLD .OHMM   11 220 10 00:   LATEROLOG LOG DEEP
 LLS .OHMM   11 220 09 00:   LATEROLOG LOG SHALLOW
 CALD.IN     45 280 60 00:   CALIPER FROM DENSITY LOG
 DRHO.G/C3   45 356 01 00:   DENSITY CORRECTION
 NPHI.DEC    42 890 03 00:   NEUTRON POROSITY SANDSTONE
 RHOB.G/C3   45 350 01 00:   BULK DENSITY
 GRD .GAPI   45 310 01 00:   GAMMA RAY FROM RESISTIVITY
~PARAMETER INFORMATION
#MNEM.UNIT          VALUE    DESCRIPTION
#----------   ------------   ------------------------------
 EKB .F         5183.0000:   Kelly bushing
 EGL .F         5172.0000:   Ground level
 EDF .F            0.0000:   Drilling floor
 TD  .F         3424.0000:   Total depth
 DATE.        27-APR-1977:   Date logged
 CLNT.            A2DTECH:   Client Code
 SL  . 990' FSL & 2310' FEL:   Surface Location
 PD  .                 GL:   Permanent Datum
 EPD .F              5172:   Elevation Permanent Datum
 LMF .                 KB:   Log Measured From
 DMF .                 KB:   Drilling Measured From
 DAPD.F                11:   Feet Above Permanent Datum
 DD  .F              3421:   Depth driller
 DL  .F              3424:   Depth logger
 BLI .F              3423:   Bottom log interval
 TLI .F               764:   Top log interval
 CS1 .IN            8.625:   Casing size
 CBD1.      8.625" @ 711':   Casing driller 1
 BS1 .IN            7.875:   Bit size
 BSD1.F              3421:   Depth drilled with bit1
 DFT .            KCL MUD:   Type fluid in hole
 DFD .                9.5:   Density
 DFV .                 41:   Viscosity
 DFPH.                  8:   pH
 DFL .               10.8:   Fluid loss
 MSS .            MUD PIT:   Source of sample
 RMS .OHMM           0.26:   Rm
 MST .F                74:   Rm Meas. temp.
 RMF .OHMM           0.21:   Rmf
 MFST.F                74:   Rmf Meas. temp.
 RMC .OHMM            .09:   Rmc
 MCST.F                74:   Rmc Meas. temp.
 MFSS.               MEAS:   Source Rmf.
 MCSS.               CALC:   Source Rmc.
 RMB .OHMM           0.15:   Rm. at BHT
 BHT .F               126:   BHT.
 TCS .HRS            0900:   Time Circ. stopped
 TLAB.HRS            1430:   Time logger at bottom
 MRT .F               126:   Maximum recorded temp.
 LUN .               7711:   Logging unit number
 LUL .               CSPR:   Logging unit location
 ENGI.             SAYLER:   Recorded By
 WITN.         PETTINGILL:   Witnessed by
 ORIG.           5" PRINT:   Origin of data
 UWI .     49025103600000:   Unique Well ID
 DICO. A2D TECHNOLOGIES, INC.:   Digitizing Company
~OTHER INFORMATION
~A   DEPT      SPR       MSFL        LLD        LLS         CALD      DRHO        NPHI       RHOB      GRD   
# ...
 1765.0000   -46.5610    10.3030     7.8760     8.7700     9.4690     0.0050     0.3080     2.5980   126.5730
 1765.5000   -46.5780    10.1690     7.7120     8.7700     9.4700     0.0020     0.2990     2.5870   128.8900
 1766.0000   -46.5940    10.0660     7.7500     8.7700     9.4710    -0.0020     0.2940     2.5620   130.9840
 1766.5000   -46.6110    10.2530     7.7870     8.7700     9.4720    -0.0040     0.3000     2.5560   131.5390
 1767.0000   -46.6280     9.7980     7.8250     8.7690     9.4740    -0.0030     0.3080     2.5530   130.6340
 1767.5000   -46.6450     9.2680     7.8620     8.7620     9.4750     0.0050     0.3160     2.5700   129.8950
 1768.0000   -46.6620     9.5370     7.8990     8.7550     9.4760     0.0120     0.2990     2.5780   129.1610
 1768.5000   -46.6790     9.7930     7.9270     8.7470     9.4920     0.0180     0.3030     2.5820   128.7240
 1769.0000   -46.6950     9.3530     7.7970     8.7400     9.5140     0.0210     0.3110     2.5890   128.5480
 1769.5000   -46.7130     8.9330     7.6700     8.7330     9.5360     0.0150     0.3190     2.6060   127.6530
 1770.0000   -46.7500     9.6020     7.5710     8.7260     9.5580     0.0130     0.3220     2.6080   126.8000
 1770.5000   -46.8870    10.1590     7.7370     8.7190     9.5420     0.0140     0.3090     2.6030   126.3760
 1771.0000   -47.0240     9.9020     7.8730     8.7120     9.5540     0.0140     0.2990     2.6100   126.5910
 1771.5000   -47.1600     9.7030     8.0080     8.7050     9.5650     0.0140     0.2920     2.6090   125.8180
 1772.0000   -47.2960    10.4520     8.2240     8.6980     9.5770     0.0110     0.2960     2.5990   126.2730
 1772.5000   -47.4330    11.0350     8.1320     8.6910     9.5890     0.0100     0.3010     2.5900   127.4820
 1773.0000   -47.5690    10.8140     8.0520     8.6830     9.6000     0.0110     0.3000     2.5850   129.3060
 1773.5000   -47.7060    10.5410     7.9720     8.6760     9.6120     0.0080     0.2990     2.5790   129.5150
 1774.0000   -47.8420    10.2680     7.8920     8.6690     9.5930     0.0060     0.3000     2.5810   129.3550
 1774.5000   -47.9800    10.0660     7.8120     8.6620     9.5910     0.0060     0.2990     2.5890   128.0480
 1775.0000   -48.1150    10.0740     7.7320     8.6550     9.5880     0.0070     0.2980     2.5970   127.7980
 1775.5000   -48.0090    10.1130     7.6520     8.6480     9.5850     0.0050     0.2990     2.5930   128.6800
 1776.0000   -47.8770    10.1590     7.5710     8.6410     9.5820     0.0030     0.2990     2.5890   129.6930
 1776.5000   -47.7440    10.1290     7.7070     8.6340     9.5790     0.0030     0.2990     2.5840   130.7580
 1777.0000   -47.6110    10.0710     7.8420     8.6260     9.5750     0.0030     0.2990     2.5850   131.2550
 1777.5000   -47.4790    10.4410     7.9780     8.6190     9.5490     0.0030     0.2990     2.5930   128.4010
 1778.0000   -47.3460    10.8340     8.1140     8.6080     9.5170     0.0030     0.2990     2.5890   126.7040
 1778.5000   -47.2150    10.4100     8.2240     8.6750     9.5100     0.0040     0.2990     2.5890   126.9560
 1779.0000   -47.0790     9.9740     8.1680     8.7810     9.4900     0.0070     0.2990     2.5880   126.0450
 1779.5000   -46.9270    10.0350     8.1110     8.8880     9.4700     0.0130     0.2970     2.5970   126.0760
 1780.0000   -47.1770    10.1120     8.0550     8.9330     9.4500     0.0190     0.2940     2.6070   127.6910
 1780.5000   -47.2590    10.1890     7.9980     8.9240     9.4300     0.0250     0.2940     2.6120   130.0870
 1781.0000   -47.3490    10.2530     7.9410     8.8730     9.4100     0.0260     0.2960     2.6150   132.3540
 1781.5000   -47.4360    10.0630     7.8840     8.8220     9.3960     0.0190     0.2990     2.6020   133.8060
 1782.0000   -47.5220     9.9010     7.8270     8.7710     9.3990     0.0130     0.2910     2.6100   132.7110
 1782.5000   -47.6090     9.7390     7.7700     8.7210     9.4020     0.0120     0.2930     2.6070   132.9320
 1783.0000   -47.6950     9.5770     7.7120     8.6700     9.4050     0.0100     0.2990     2.6050   133.4310
 1783.5000   -47.7820     9.4150     7.6410     8.6190     9.4070     0.0110     0.3000     2.6110   133.2290
 1784.0000   -47.8680     9.1830     7.6410     8.5680     9.4100     0.0120     0.2990     2.6130   130.9480
 1784.5000   -47.9540     9.3530     7.6410     8.5170     9.4120     0.0110     0.2990     2.6070   128.8580
 1785.0000   -48.0410     9.4450     7.6410     8.4540     9.4150     0.0090     0.3010     2.6000   127.9970
 1785.5000   -48.1270     9.6990     7.6410     8.4810     9.4180     0.0070     0.3080     2.5980   128.4320
 1786.0000   -48.2140     9.9530     7.6600     8.5160     9.4200     0.0110     0.3150     2.6030   130.0060
 1786.5000   -48.3010    10.0660     7.7790     8.5510     9.4230     0.0230     0.3220     2.6090   131.8300
 1787.0000   -48.3100     9.9700     7.8980     8.5860     9.4260     0.0190     0.3290     2.6090   129.7640
 1787.5000   -48.2200     9.8860     7.9270     8.6210     9.4280     0.0100     0.3240     2.6040   127.4860
 1788.0000   -48.1290     9.8030     7.8440     8.6560     9.4310     0.0030     0.3170     2.6040   126.2020
 1788.5000   -48.0380     9.7190     7.7810     8.6910     9.4330     0.0070     0.3140     2.6090   123.5330
 1789.0000   -47.9480     9.6360     7.7190     8.7260     9.4360     0.0160     0.3140     2.6140   123.0200
 1789.5000   -47.8570     9.6140     7.6410     8.7610     9.4360     0.0220     0.3130     2.6150   124.6290
 1790.0000   -47.7670     9.8280     7.7810     8.7960     9.4360     0.0210     0.3130     2.6110   127.8850
 1790.5000   -47.6770     9.9870     7.9090     8.8310     9.4360     0.0090     0.3250     2.6010   131.0770
 1791.0000   -47.5860    10.1460     8.0370     8.8660     9.4360    -0.0010     0.3200     2.5860   128.7450
 1791.5000   -47.4960    10.3050     8.1640     8.9010     9.4360    -0.0020     0.3150     2.5780   126.9520
 1792.0000   -47.4050    10.3480     8.2240     8.9360     9.4360    -0.0040     0.3030     2.5730   125.0440
 1792.5000   -47.3260    10.2040     8.1330     8.9710     9.4360    -0.0030     0.2950     2.5890   121.5910
 1793.0000   -47.4050    10.0490     8.1200     9.0060     9.4360    -0.0030     0.2890     2.6000   120.0130
 1793.5000   -47.4850     9.8830     8.1060     9.0180     9.4340    -0.0030     0.2840     2.6140   119.0420
 1794.0000   -47.5640    10.2060     8.0920     9.0400     9.4320    -0.0030     0.2840     2.6040   120.2050
 1794.5000   -47.6430    10.5250     8.0780     9.0610     9.4300     0.0030     0.2870     2.5920   121.4440
 1795.0000   -47.7210    10.8450     8.0740     9.0820     9.4280     0.0100     0.2900     2.6060   122.1050
 1795.5000   -47.8000    10.9340     8.2440     9.1040     9.4260     0.0110     0.2940     2.6010   122.1870
 1796.0000   -47.8790    10.6970     8.3470     9.1250     9.4240     0.0050     0.3010     2.5920   121.3200
 1796.5000   -47.9580    10.4840     8.3770     9.1470     9.4220     0.0020     0.3000     2.5970   120.2680
 1797.0000   -48.0370    10.2530     8.2780     9.1680     9.4200     0.0010     0.3000     2.6080   120.9540
 1797.5000   -48.1160    10.4590     8.2030     9.1830     9.4180     0.0030     0.2920     2.6230   122.2500
 1798.0000   -48.1950    10.7490     8.1280     9.1250     9.4170     0.0120     0.2880     2.6380   123.2530
 1798.5000   -48.2730    10.8340     8.0530     9.0810     9.4310     0.0160     0.2890     2.6420   120.5680
 1799.0000   -48.3130     9.9560     8.0010     9.0370     9.4440     0.0100     0.2890     2.6260   119.9020
 1799.5000   -48.3380     9.3530     8.0100     8.9930     9.4580     0.0050     0.2840     2.6130   120.1740
 1800.0000   -48.3890     9.3530     8.1050     8.9490     9.4710     0.0000     0.2790     2.5990   119.1380
 1800.5000   -48.4390    10.1000     8.2000     8.9050     9.4850     0.0010     0.2770     2.5920   118.1240
 1801.0000   -48.4890    10.8340     8.2940     8.8610     9.4980     0.0010     0.2750     2.5940   117.6570
