~VERSION INFORMATION
 VERS.                2.0:   CWLS LOG ASCII STANDARD - VERSION 2.0
 WRAP.                 NO:   ONE LINE PER DEPTH STEP
~WELL INFORMATION
#MNEM.UNIT      DATA TYPE    INFORMATION
#----------   ------------   ------------------------------
 STRT.F            7.5000:   START DEPTH
 STOP.F         3140.0000:   STOP DEPTH
 STEP.F            0.5000:   STEP LENGTH
 NULL.          -999.2500:   NO VALUE
 COMP. LAWRENCE ALLISON WEST:   COMPANY
 WELL. LAWRENCE NPR 3 "AX" #51-3:   WELL
 FLD .                NPR:   FIELD
 LOC .       S3 T38N R78W:   LOCATION
 CNTY.            NATRONA:   COUNTY
 STAT.            WYOMING:   STATE
 CTRY. UNITED STATES OF AMERICA:   COUNTRY
 SRVC.      DRESSER ATLAS:   SERVICE COMPANY
 DATE.        09-NOV-1986:   LOGDATE
 API .     49025111180000:   API NUMBER
~CURVE INFORMATION
#MNEM.UNIT       API CODE    CURVE DESCRIPTION
#----------   ------------   ------------------------------
 DEPT.F                  :   
 CALD.IN     45 280 60 00:   CALIPER FROM DENSITY LOG
 DEN .LBS    45 350 01 00:   BULK DENSITY
 CORR.G/C3   45 356 01 00:   DENSITY CORRECTION
 NPOR.DEC    42 890 03 00:   ALPHA PROCESSED NEUTRON POROSITY
 SPR .MV     07 010 01 00:   SPONTANEOUS POTENTIAL
 GRR .GAPI   07 310 01 00:   GAMMA RAY FROM RESISTIVITY
 SFL .OHMM   07 220 01 00:   SHALLOW FOCUSED LOG RESISTIVITY
 ILD .OHMM   07 120 46 00:   DEEP INDUCTION RESISTIVITY
 ILM .OHMM   07 120 44 00:   INDUCTION LOG MEDIUM RESISTIVITY
 TENR.LBS    07 635 01 00:   TENSION FROM RESISTIVITY
~PARAMETER INFORMATION
#MNEM.UNIT          VALUE    DESCRIPTION
#----------   ------------   ------------------------------
 EKB .F         5132.0000:   Kelly bushing
 EGL .F         5120.0000:   Ground level
 TD  .F         3141.0000:   Total depth
 DATE.        09-NOV-1986:   Date logged
 CLNT.            A2DTECH:   Client Code
 SL  . 249' FNL & 2195' FEL:   Surface Location
 PD  .                 GL:   Permanent Datum
 EPD .F              5120:   Elevation Permanent Datum
 LMF .                 KB:   Log Measured From
 DMF .                 KB:   Drilling Measured From
 DAPD.F                12:   Feet Above Permanent Datum
 DD  .F              3141:   Depth driller
 DL  .F              3132:   Depth logger
 BLI .F              3126:   Bottom log interval
 CS1 .IN            8.625:   Casing size
 CBD1.      8.625" @ 690':   Casing driller 1
 CBL1.F               690:   Casing logger 1
 BS1 .IN            7.875:   Bit size
 BSD1.F              3141:   Depth drilled with bit1
 DFT .        KCL/POLYMER:   Type fluid in hole
 DFD .                8.9:   Density
 DFV .                 34:   Viscosity
 DFPH.                9.5:   pH
 DFL .                9.5:   Fluid loss
 MSS .           FLOWLINE:   Source of sample
 RMS .OHMM           .368:   Rm
 MST .F                66:   Rm Meas. temp.
 RMF .OHMM           .296:   Rmf
 MFST.F                66:   Rmf Meas. temp.
 RMC .OHMM           .468:   Rmc
 MCST.F                66:   Rmc Meas. temp.
 MFSS.               MEAS:   Source Rmf.
 MCSS.               CALC:   Source Rmc.
 RMB .OHMM           .282:   Rm. at BHT
 BHT .F               120:   BHT.
 TCS .HRS             3.5:   Time Circ. stopped
 MRT .F               120:   Maximum recorded temp.
 LUN .            HL-6274:   Logging unit number
 LUL .           GILLETTE:   Logging unit location
 ENGI.             RAUTIO:   Recorded By
 WITN.             STRONG:   Witnessed by
 ORIG.        2" 5" PRINT:   Origin of data
 UWI .     49025111180000:   Unique Well ID
 DICO. A2D TECHNOLOGIES, INC.:   Digitizing Company
~OTHER INFORMATION
~A    DEPT    CALD        DEN       CORR       NPOR        SPR         GRR       SFL        ILD        ILM       TENR   
# ...
 1984.0000  -999.2500  -999.2500  -999.2500  -999.2500   -72.9634   132.7871    10.1216     8.2822     8.6755   -65.0493
 1984.5000  -999.2500  -999.2500  -999.2500  -999.2500   -73.1689   133.9823    10.4056     8.3584     8.6744   -64.8521
 1985.0000  -999.2500  -999.2500  -999.2500  -999.2500   -73.1729   132.7696    10.6976     8.3573     8.6733   -64.6548
 1985.5000  -999.2500  -999.2500  -999.2500  -999.2500   -72.9761   131.5568    10.8963     8.3562     8.6717   -64.4576
 1986.0000  -999.2500  -999.2500  -999.2500  -999.2500   -72.9800   131.5489    10.9964     8.2780     8.6710   -64.2603
 1986.5000  -999.2500  -999.2500  -999.2500  -999.2500   -72.1808   131.5410    10.9949     8.2005     8.4319   -64.0631
 1987.0000  -999.2500  -999.2500  -999.2500  -999.2500   -71.9840   133.5410    10.5934     8.1994     8.3530   -63.8659
 1987.5000  -999.2500  -999.2500  -999.2500  -999.2500   -71.7879   133.5331    10.1124     8.2748     8.3519   -63.6687
 1988.0000  -999.2500  -999.2500  -999.2500  -999.2500   -71.7919   131.5171     9.9254     8.1216     8.1973   -63.4715
 1988.5000  -999.2500  -999.2500  -999.2500  -999.2500   -71.9967   127.8948     9.8325     8.0456     8.1963   -63.2742
 1989.0000  -999.2500  -999.2500  -999.2500  -999.2500   -72.0007   129.8948     9.8313     8.0446     8.1195   -63.0770
 1989.5000  -999.2500  -999.2500  -999.2500  -999.2500   -72.4062   133.0997     9.8300     8.0435     8.0435   -62.8798
 1990.0000  -999.2500  -999.2500  -999.2500  -999.2500   -72.4102   131.8869     9.9202     8.0425     8.0425   -62.6826
 1990.5000  -999.2500  -999.2500  -999.2500  -999.2500   -72.6150   132.2806    10.0113     8.0415     8.0415   -62.4854
 1991.0000  -999.2500  -999.2500  -999.2500  -999.2500   -72.4181   131.0678    10.0100     8.0404     8.0404   -62.2883
 1991.5000  -999.2500  -999.2500  -999.2500  -999.2500   -72.4221   130.6583    10.1018     8.0394     8.1899   -62.0911
 1992.0000  -999.2500  -999.2500  -999.2500  -999.2500   -72.4261   130.6503    10.1003     8.1131     8.4198   -61.8939
 1992.5000  -999.2500  -999.2500  -999.2500  -999.2500   -72.4301   131.0440    10.0989     8.1876     8.5763   -61.6573
 1993.0000  -999.2500  -999.2500  -999.2500  -999.2500   -72.4340   133.0440    10.0976     8.1866     8.6551   -61.4601
 1993.5000  -999.2500  -999.2500  -999.2500  -999.2500   -72.4380   135.4457    10.0963     8.1855     8.6540   -61.2629
 1994.0000  -999.2500  -999.2500  -999.2500  -999.2500   -72.4420   135.8378    10.0950     8.1089     8.4939   -61.0658
 1994.5000  -999.2500  -999.2500  -999.2500  -999.2500   -72.4436   133.4202    10.0006     8.1079     8.2597   -60.8686
 1995.0000  -999.2500  -999.2500  -999.2500  -999.2500   -72.4499   131.0027     9.9993     7.9578     8.0320   -60.6714
 1995.5000  -999.2500  -999.2500  -999.2500  -999.2500   -72.4539   130.9947     9.9057     7.8105     7.8833   -60.4743
 1996.0000  -999.2500  -999.2500  -999.2500  -999.2500   -72.2570   131.7900     9.9045     7.5952     7.8095   -60.2771
 1996.5000  -999.2500  -999.2500  -999.2500  -999.2500   -72.2618   133.3884     9.8118     7.5241     7.8085   -70.1512
 1997.0000  -999.2500  -999.2500  -999.2500  -999.2500   -72.0650   135.7901     9.8105     7.3849     7.7354   -69.9539
 1997.5000  -999.2500  -999.2500  -999.2500  -999.2500   -72.0689   136.1837     9.7191     7.3839     7.7344   -69.7567
 1998.0000  -999.2500  -999.2500  -999.2500  -999.2500   -72.0729   136.5774     9.7175     7.3148     7.7335   -89.6223
 1998.5000  -999.2500  -999.2500  -999.2500  -999.2500   -72.0737   133.3566     9.6267     7.3820     7.7325   -59.2914
 1999.0000  -999.2500  -999.2500  -999.2500  -999.2500   -72.4825   133.7503     9.5366     7.3811     7.7319   -59.0943
 1999.5000  -999.2500  -999.2500  -999.2500  -999.2500   -72.4864   135.3503     9.5354     7.4489     7.7307   -58.8972
 2000.0000  -999.2500  -999.2500  -999.2500  -999.2500   -72.4904   138.1536     9.6227     7.5172     7.7293   -58.6606
 2000.5000  -999.2500  -999.2500  -999.2500  -999.2500   -72.1291   138.1446     9.7729     7.5162     7.8501   -58.4611
 2001.0000  -999.2500  -999.2500  -999.2500  -999.2500   -72.0943   135.3328     9.9823     7.5147     7.9445   -58.2630
 2001.5000  -999.2500  -999.2500  -999.2500  -999.2500   -72.0970   133.7201    10.0734     7.5131     7.9430   -68.1347
 2002.0000  -999.2500  -999.2500  -999.2500  -999.2500   -72.0997   134.1171    10.0716     7.5817     8.0156   -67.9358
 2002.5000  -999.2500  -999.2500  -999.2500  -999.2500   -72.1019   136.9238    10.1634     7.5803     8.0888   -67.7370
 2003.0000  -999.2500  -999.2500  -999.2500  -999.2500   -72.4985   140.5330    10.2562     7.5789     8.1627   -67.5382
 2003.5000  -999.2500  -999.2500  -999.2500  -999.2500   -72.7102   143.3414    10.2543     7.6481     8.1612   -67.3394
 2004.0000  -999.2500  -999.2500  -999.2500  -999.2500   -72.7135   143.7386    10.2524     7.7180     8.1597   -36.9291
 2004.5000  -999.2500  -999.2500  -999.2500  -999.2500   -73.1178   138.9127    10.1560     7.7885     8.1582   -56.8712
 2005.0000  -999.2500  -999.2500  -999.2500  -999.2500   -72.9197   135.6950    10.0605     7.7871     8.1567   -56.6724
 2005.5000  -999.2500  -999.2500  -999.2500  -999.2500   -72.7216   134.0838    10.0587     7.7856     8.2312   -56.4736
 2006.0000  -999.2500  -999.2500  -999.2500  -999.2500   -72.3226   133.2759    10.0568     7.8567     8.2297   -56.2748
 2006.5000  -999.2500  -999.2500  -999.2500  -999.2500   -71.9231   133.2713    10.0550     7.8553     8.2282   -56.0759
 2007.0000  -999.2500  -999.2500  -999.2500  -999.2500   -71.6190   134.8733    10.0532     7.8539     8.2276   -65.9476
 2007.5000  -999.2500  -999.2500  -999.2500  -999.2500   -71.5274   137.2786    10.0517     7.8521     8.2249   -65.7488
 2008.0000  -999.2500  -999.2500  -999.2500  -999.2500   -71.5301   139.2824    10.0491     7.8507     8.1474   -65.5102
 2008.5000  -999.2500  -999.2500  -999.2500  -999.2500   -71.5328   134.4578    10.0473     7.8493     8.0707   -65.3114
 2009.0000  -999.2500  -999.2500  -999.2500  -999.2500   -71.7363   131.2398    10.0454     7.7754     7.9948   -55.0421
 2009.5000  -999.2500  -999.2500  -999.2500  -999.2500   -71.9398   128.4224    10.0436     7.7022     7.9189   -54.8433
 2010.0000  -999.2500  -999.2500  -999.2500  -999.2500   -72.1434   128.4178    10.0418     7.5592     7.9181   -54.6047
 2010.5000  -999.2500  -999.2500  -999.2500  -999.2500   -72.3469   129.6181    10.0399     7.4189     7.8435   -54.4456
 2011.0000  -999.2500  -999.2500  -999.2500  -999.2500   -72.3480   131.6219     9.9455     7.3491     7.7697   -54.2331
 2011.5000  -999.2500  -999.2500  -999.2500  -999.2500   -72.1520   135.6342     9.6711     7.2799     7.6965   -54.1673
 2012.0000  -999.2500  -999.2500  -999.2500  -999.2500   -71.9538   145.6721     9.1465     7.2786     7.6241   -53.8575
 2012.5000  -999.2500  -999.2500  -999.2500  -999.2500   -71.9565   155.3093     8.8121     7.2773     7.6227   -53.7696
 2013.0000  -999.2500  -999.2500  -999.2500  -999.2500   -71.9592   155.3058     8.8925     7.2759     7.6213   -53.9334
 2013.5000  -999.2500  -999.2500  -999.2500  -999.2500   -72.1628   152.0877     9.3991     7.2746     7.6199   -54.0971
 2014.0000  -999.2500  -999.2500  -999.2500  -999.2500   -72.7680   137.2198     9.9343     7.3416     7.6895   -54.2609
 2014.5000  -999.2500  -999.2500  -999.2500  -999.2500   -72.3690   131.1877     9.8412     7.3397     7.7597   -54.4246
 2015.0000  -999.2500  -999.2500  -999.2500  -999.2500   -72.3706   134.7986     9.8390     7.4065     7.9033   -54.5884
 2015.5000  -999.2500  -999.2500  -999.2500  -999.2500   -72.1736   139.6147     9.9288     7.4741     7.9755   -54.7521
 2016.0000  -999.2500  -999.2500  -999.2500  -999.2500   -72.1763   135.1911     9.9270     7.5424     8.0483   -54.9159
 2016.5000  -999.2500  -999.2500  -999.2500  -999.2500   -71.7772   129.9639    10.0176     7.6113     8.0469   -55.0796
 2017.0000  -999.2500  -999.2500  -999.2500  -999.2500   -71.7799   127.5479    10.0157     7.6808     8.0454   -55.2434
