~VERSION INFORMATION
 VERS.                2.0:   CWLS LOG ASCII STANDARD - VERSION 2.0
 WRAP.                 NO:   ONE LINE PER DEPTH STEP
~WELL INFORMATION
#MNEM.UNIT      DATA TYPE    INFORMATION
#----------   ------------   ------------------------------
 STRT.F          600.0000:   START DEPTH
 STOP.F         3201.0000:   STOP DEPTH
 STEP.F            0.5000:   STEP LENGTH
 NULL.          -999.2500:   NO VALUE
 COMP.    FENIX & SCISSON:   COMPANY
 WELL. FENIX & SCISSON 38 "AX" #3-34:   WELL
 FLD .              NPR 3:   FIELD
 LOC .      S34 T39N R78W:   LOCATION
 CNTY.            NATRONA:   COUNTY
 STAT.            WYOMING:   STATE
 CTRY. UNITED STATES OF AMERICA:   COUNTRY
 SRVC.              WELEX:   SERVICE COMPANY
 DATE.        16-SEP-1980:   LOGDATE
 API .     49025108560000:   API NUMBER
~CURVE INFORMATION
#MNEM.UNIT       API CODE    CURVE DESCRIPTION
#----------   ------------   ------------------------------
 DEPT.F                  :   
 CORR.G/C3   45 356 01 00:   DENSITY CORRECTION
 GRD .GAPI   45 310 01 00:   GAMMA RAY FROM DENSITY LOG
 RHOB.G/C3   45 350 01 00:   BULK DENSITY
 TEND.LBS    45 635 01 00:   TENSION FORM DENSITY LOG
 CALD.IN     45 280 60 00:   CALIPER FROM DENSITY LOG
 SPR .MV     07 010 01 00:   SPONTANEOUS POTENTIAL FROM RES.
 ILD .OHMM   07 120 46 00:   DEEP INDUCTION RESISTIVITY
 ILM .OHMM   07 120 44 00:   INDUCTION LOG MEDIUM RESISTIVITY
 GURD.OHMM   07 220 05 00:   GUARD LOG RESISTIVITY
~PARAMETER INFORMATION
#MNEM.UNIT          VALUE    DESCRIPTION
#----------   ------------   ------------------------------
 EKB .F         5205.0000:   Kelly bushing
 EGL .F         5195.0000:   Ground level
 TD  .F         3202.0000:   Total depth
 CLNT.            A2DTECH:   Client Code
 SL  . 582' FSL & 1600' FWL:   Surface Location
 PD  .                 GL:   Permanent Datum
 EPD .F              5195:   Elevation Permanent Datum
 LMF .                 KB:   Log Measured From
 DMF .                 KB:   Drilling Measured From
 DAPD.F                10:   Feet Above Permanent Datum
 DATE.        16-SEP-1980:   Date Logged [DD-MMM-YYYY]
 DD  .F              3200:   Depth driller
 DL  .F              3203:   Depth logger
 BLI .F              3201:   Bottom log interval
 TLI .F               600:   Top log interval
 CS1 .IN            8.625:   Casing size
 CBD1.      8.625" @ 580':   Casing driller 1
 CBL1.F               600:   Casing logger 1
 BS1 .IN            7.875:   Bit size
 BSD1.F              3200:   Depth drilled with bit1
 DFT .          DISPERSED:   Type fluid in hole
 DFD .                8.8:   Density
 DFV .                 40:   Viscosity
 DFPH.                 11:   pH
 DFL .                  8:   Fluid loss
 MSS .           FLOWLINE:   Source of sample
 RMS .OHMM           1.33:   Rm
 MST .F                65:   Rm Meas. temp.
 RMF .OHMM           1.15:   Rmf
 MFST.F                65:   Rmf Meas. temp.
 MFSS.               MEAS:   Source Rmf.
 RMC .OHMM           1.50:   Rmc
 MCST.F                65:   Rmc Meas. temp.
 MCSS.               MEAS:   Source Rmc.
 RMB .OHMM            .75:   Rm. at BHT
 BHT .F               115:   BHT.
 TCS .HRS               8:   Time Circ. stopped
 MRT .F               115:   Maximum recorded temp.
 LUN .               1892:   Logging unit number
 LUL .             CASPER:   Logging unit location
 ENGI.    PERIMMER / REIN:   Recorded By
 WITN.              FIVAS:   Witnessed by
 ORIG.         2.5" PRINT:   Origin of data
 UWI .     49025108560000:   Unique Well ID
 DICO. A2D TECHNOLOGIES, INC.:   Digitizing Company
~OTHER INFORMATION
~A   DEPT       CORR       GRD        RHOB      TEND       CALD       SPR          ILD        ILM       GURD 
# ...
 1439.5000     0.0591    45.6922     2.5173   445.4819    10.7318   -33.0071     6.3818     6.6717     6.7085
 1440.0000     0.0496    48.3758     2.5064   445.7831    10.6705   -33.0128     6.3795     6.7616     6.7052
 1440.5000     0.0399    48.4887     2.4957   446.0843    10.6092   -33.6209     6.3773     6.7584     6.7025
 1441.0000     0.0302    46.5358     2.4884   446.4413    10.6078   -33.6266     6.3751     6.7551     6.6999
 1441.5000     0.0198    46.6044     2.4666   446.6867    10.5763   -33.9337     6.3725     6.7367     6.6973
 1442.0000     0.0168    48.4956     2.4661   446.9879    10.6515   -33.9398     6.3704     6.6458     6.6946
 1442.5000     0.0198    50.2326     2.4885   447.2892    10.6933   -34.2470     6.4571     6.5944     6.6918
 1443.0000     0.0258    50.3002     2.4810   447.5903    10.4521   -34.2530     6.4550     6.5573     6.5725
 1443.5000     0.0348    50.4848     2.4704   447.8916    10.4364   -34.2590     6.6342     6.5543     6.5035
 1444.0000     0.0378    52.2675     2.4734   448.1927    10.5985   -34.5673     6.7245     6.5094     6.4114
 1444.5000     0.0378    53.5997     2.4813   448.4940    10.5373   -34.8742     6.5803     6.4582     6.3201
 1445.0000     0.0382    49.9770     2.4908   448.7952    10.4460   -34.5783     6.2044     6.2715     6.2307
 1445.5000     0.0415    49.0563     2.4948   449.0964    10.4147   -33.9820     5.9718     6.1731     6.1426
 1446.0000     0.0478    50.0242     2.4992   449.4462    10.4132   -33.6865     5.9276     6.0761     6.1402
 1446.5000     0.0584    51.1014     2.5102   419.5783    10.5077   -33.3294     5.9257     6.0144     6.0533
 1447.0000     0.0618    51.8948     2.5303   419.8795    10.4114   -33.0000     5.9238     5.9288     6.0508
 1447.5000     0.0618    51.4265     2.5366   420.1843    10.2460   -32.6707     6.0045     5.8440     6.0254
 1448.0000     0.0648    49.4024     2.5302   420.4819    10.1976   -32.3414     6.0861     5.8413     5.9631
 1448.5000     0.0678    47.5814     2.5332   420.7831    10.3456   -31.9096     6.0840     5.8386     6.0433
 1449.0000     0.0798    47.5623     2.5368   421.0843    10.3878   -31.9163     5.9982     5.9174     6.0403
 1449.5000     0.0798    47.9937     2.5513   421.3855    10.2230   -32.5244     5.8821     5.9971     6.0379
 1450.0000     0.0798    46.3963     2.5587   421.6867    10.1617   -32.5301     5.7902     5.9941     6.0355
 1450.5000     0.0798    44.0896     2.5385   421.9879    10.1602   -33.1727     5.7478     5.9685     5.9502
 1451.0000     0.0787    43.4279     2.5313   422.2892    10.1888   -33.8153     5.6668     5.8748     5.8614
 1451.5000     0.0768    43.4077     2.5295   422.6168    10.1973   -34.1566     5.6650     5.7825     5.7829
 1452.0000     0.0767    43.8378     2.5329   422.9030    10.3026   -34.3614     5.6631     5.6595     5.7010
 1452.5000     0.0797    45.1668     2.5374   423.1927    10.2231   -34.3675     5.6612     5.5791     5.6986
 1453.0000     0.0797    45.5991     2.5373   423.4940    10.0926   -34.6756     5.6593     5.6543     5.6962
 1453.5000     0.0767    47.8313     2.5247   423.7952    10.0612   -34.3801     5.7365     5.6517     5.7733
 1454.0000     0.0677    45.4953     2.5192   424.0964    10.2395   -34.3858     5.7657     5.7279     5.7705
 1454.5000     0.0676    44.9700     2.5197   424.3976    10.3279   -34.0903     5.8531     5.8051     5.7683
 1455.0000     0.0706    44.6171     2.5229   424.6988    10.2585   -34.0563     5.8912     5.8834     5.9280
 1455.5000     0.0736    45.2747     2.5236   455.1699    10.1304   -33.8005     5.9710     5.9627     6.0083
 1456.0000     0.0710    46.8253     2.5176   455.4217    10.0431   -33.6988     5.9691     6.0817     6.0897
 1456.5000     0.0583    46.8062     2.5070   455.7422    10.1216   -33.3694     6.0504     6.1728     6.1111
 1457.0000     0.0435    45.8861     2.5025   456.0284    10.2202   -32.9168     6.0483     6.2927     6.2558
 1457.5000     0.0434    44.9661     2.5024   426.1941     9.9594   -32.9225     6.1455     6.3773     6.3399
 1458.0000     0.0434    42.2443     2.5056   431.9233     9.9580   -32.6265     6.2141     6.4631     6.4252
 1458.5000     0.0464    42.6757     2.5122   456.9277     9.9865   -32.6327     6.2462     6.6415     6.4226
 1459.0000     0.0464    43.2642     2.5194   457.2289    10.1383   -32.3372     6.2962     6.7310     6.6004
 1459.5000     0.0494    46.2169     2.5248   457.5301    10.1633   -32.3895     6.3814     6.7487     6.5978
 1460.0000     0.0502    45.3115     2.5353   457.8313     9.9521   -32.6506     6.4682     6.8186     6.5952
 1460.5000     0.0554    45.2924     2.5368   458.1747    10.0560   -32.7711     6.4661     6.7210     6.5924
 1461.0000     0.0629    46.1742     2.5307   488.5814    10.2337   -32.9639     6.6455     6.7178     6.4731
 1461.5000     0.0674    46.1551     2.5187   488.8676    10.1270   -32.9710     6.6433     6.7140     6.3716
 1462.0000     0.0554    44.7448     2.5171   519.2771    10.0657   -33.2779     6.6410     6.7109     6.2716
 1462.5000     0.0493    43.7686     2.5231   519.5783    10.0044   -33.2836     6.6387     6.6156     6.2263
 1463.0000     0.0493    42.9414     2.5184   519.8795     9.9730   -33.8917     6.5996     6.4319     6.1383
 1463.5000     0.0493    43.9819     2.5068   520.1807    10.0015   -33.9156     6.4965     6.2453     6.1358
 1464.0000     0.0493    45.7958     2.5027   520.4819    10.1653   -34.2048     6.1877     6.0793     6.2190
 1464.5000     0.0493    45.1300     2.4989   490.6324    10.1224   -34.2108     6.0167     5.9928     6.2164
 1465.0000     0.0453    44.6604     2.4989   491.0139     9.9731   -34.2169     6.0147     6.0740     6.2298
 1465.5000     0.0419    45.0923     2.5018   521.4206     9.9510   -34.2229     6.0127     6.2002     6.3238
 1466.0000     0.0402    46.4240     2.5078   521.7068    10.0536   -33.9288     6.1858     6.3250     6.4726
 1466.5000     0.0372    46.8553     2.5109   521.9880    10.2319   -33.9345     6.2637     6.2346     6.1619
 1467.0000     0.0402    46.8333     2.5102   508.4762    10.1706   -33.9402     6.2358     6.0615     6.0336
 1467.5000     0.0522    46.6218     2.5038   492.4699    10.0494   -33.9459     6.1384     6.0587     6.0312
 1468.0000     0.0523    46.5887     2.4989   492.7711    10.0180   -33.9518     6.0024     6.0558     6.1982
 1468.5000     0.0461    47.2198     2.4948   487.2757    10.0223   -33.5985     5.9999     6.0529     6.2822
 1469.0000     0.0431    48.1016     2.4971   463.2530    10.2014   -33.2691     5.9980     6.1586     6.1932
 1469.5000     0.0491    48.9834     2.5121   463.5542    10.1428   -33.0651     6.0798     6.2174     6.1055
 1470.0000     0.0532    45.7810     2.5226   463.8984    10.0120   -32.7711     6.0776     6.3005     6.1030
 1470.5000     0.0551    44.8896     2.5315   464.1845     9.9803   -32.7781     6.1604     6.2969     6.1355
 1471.0000     0.0629    44.8694     2.5345   464.4707     9.9789   -32.7838     6.1582     6.2940     6.2281
 1471.5000     0.0731    45.3034     2.5345   464.7590     9.9775   -33.0907     6.1560     6.2046     6.2666
 1472.0000     0.0731    46.6486     2.5354   465.0602     9.9760   -33.0964     6.1539     6.2017     6.2637
 1472.5000     0.0671    45.2556     2.5445   458.5820    10.0404   -33.4036     6.1073     6.0295     6.0901
 1473.0000     0.0611    44.3356     2.5597   435.4949    10.2127   -33.7752     5.9813     6.0141     6.0040
 1473.5000     0.0613    44.3165     2.5764   465.9638    10.0822   -34.0181     5.8971     5.9408     5.9123
 1474.0000     0.0713    44.2974     2.5869   466.2650     9.9102   -34.0241     5.8951     5.8562     5.8352
 1474.5000     0.0810    45.3515     2.5854   454.1783     9.9087   -34.0301     5.8932     5.9350     5.8327
 1475.0000     0.0894    46.5114     2.5778   436.7827     9.9369   -34.0371     5.8912     5.9316     5.8303
 1475.5000     0.0911    43.0009     2.5664   437.0689    10.0253   -34.0428     5.9715     5.7669     5.8279
