~VERSION INFORMATION
 VERS.                2.0:   CWLS LOG ASCII STANDARD - VERSION 2.0
 WRAP.                 NO:   ONE LINE PER DEPTH STEP
~WELL INFORMATION
#MNEM.UNIT      DATA TYPE    INFORMATION
#----------   ------------   ------------------------------
 STRT.F           42.0000:   START DEPTH
 STOP.F         4542.0000:   STOP DEPTH
 STEP.F            0.5000:   STEP LENGTH
 NULL.          -999.2500:   NO VALUE
 COMP. LAWRENCE ALLISON & ASSOC.:   COMPANY
 WELL. ALLISON NPR 3 #86-27:   WELL
 FLD .                NPR:   FIELD
 LOC .      S27 T39N R78W:   LOCATION
 CNTY.            NATRONA:   COUNTY
 STAT.            WYOMING:   STATE
 CTRY. UNITED STATES OF AMERICA:   COUNTRY
 SRVC.      DRESSER ATLAS:   SERVICE COMPANY
 DATE.        20-MAR-1985:   LOGDATE
 API .     49025110190000:   API NUMBER
~CURVE INFORMATION
#MNEM.UNIT       API CODE    CURVE DESCRIPTION
#----------   ------------   ------------------------------
 DEPT.F                  :   
 CALD.IN     45 280 60 00:   CALIPER FROM DENSITY LOG
 TEND.LBS    45 635 01 00:   TENSION FROM DENSITY LOG
 CORR.G/C3   45 356 01 00:   DENSITY CORRECTION
 RHOB.G/C3   45 350 01 00:   BULK DENSITY
 CNC .DEC    42 890 03 00:   NEUTRON PORISITY SANDSTONE
 TENR.LBS    07 635 01 00:   TENSION FROM RESISTIVITY
 GRR .GAPI   07 310 01 00:   GAMMA RAY FROM RESISTIVITY
 SFL .OHMM   07 220 01 00:   SHALLOW FOCUSED LOG RESISTIVITY
 ILD .OHMM   07 120 46 00:   DEEP INDUCTION RESISTIVITY
 ILM .OHMM   07 120 44 00:   INDUCTION LOG MEDIUM RESISTIVITY
 TENS.LBS    60 635 01 00:   TENSION FROM SONIC LOG
 DT  .US/F   60 520 00 00:   DELTA TIME
 CALS.IN     60 280 50 00:   CALIPER FROM SONIC LOG
 GRS .GAPI   60 310 01 00:   GAMMA RAY FROM SONIC LOG
~PARAMETER INFORMATION
#MNEM.UNIT          VALUE    DESCRIPTION
#----------   ------------   ------------------------------
 EKB .F         5095.0000:   Kelly bushing
 EGL .F         5083.0000:   Ground level
 EDF .F            0.0000:   Drilling floor
 TD  .F         4545.0000:   Total depth
 DATE.        20-MAR-1985:   Date logged
 CLNT.            A2DTECH:   Client Code
 SL  . 292' FEL & 1975' FWL:   Surface Location
 PD  .                 GL:   Permanent Datum
 EPD .F              5083:   Elevation Permanent Datum
 LMF .                 KB:   Log Measured From
 DMF .                 KB:   Drilling Measured From
 DAPD.F                12:   Feet Above Permanent Datum
 DD  .F              4545:   Depth driller
 DL  .F              4533:   Depth logger
 BLI .F              4534:   Bottom log interval
 TLI .F              1045:   Top log interval
 CS1 .IN            8.625:   Casing size
 CBD1.     8.625" @ 1033':   Casing driller 1
 CBL1.F              1045:   Casing logger 1
 BS1 .IN            7.875:   Bit size
 BSD1.F              4545:   Depth drilled with bit1
 DFT .    GEL/KCL/STA/FLO:   Type fluid in hole
 DFD .                9.1:   Density
 DFV .                 30:   Viscosity
 DFPH.                  8:   pH
 DFL .                 12:   Fluid loss
 MSS .           MUD/TANK:   Source of sample
 RMS .OHMM            .46:   Rm
 MST .F                74:   Rm Meas. temp.
 RMF .OHMM            .37:   Rmf
 MFST.F                72:   Rmf Meas. temp.
 RMC .OHMM            .58:   Rmc
 MCST.F                74:   Rmc Meas. temp.
 MFSS.               MEAS:   Source Rmf.
 MCSS.               CALC:   Source Rmc.
 RMB .OHMM            .25:   Rm. at BHT
 BHT .F               138:   BHT.
 TCS .HRS             4.5:   Time Circ. stopped
 MRT .F               138:   Maximum recorded temp.
 LUN .            HL-6274:   Logging unit number
 LUL .           GILLETTE:   Logging unit location
 ENGI.             RAUTIO:   Recorded By
 WITN.             STRONG:   Witnessed by
 ORIG.           5" PRINT:   Origin of data
 UWI .     49025110190000:   Unique Well ID
 DICO. A2D TECHNOLOGIES, INC.:   Digitizing Company
~OTHER INFORMATION
~A   DEPT     CALD       TEND       CORR       RHOB        CNC       TENR        GRR        SFL        ILD        ILM       TENS         DT        CALS        GRS  
# ...
 3129.0000     8.9460   -70.3590    -0.0020     2.4120     0.2340   -16.9160    62.7390    13.1920    14.7400    12.5910  -999.2500  -999.2500  -999.2500  -999.2500
 3129.5000     8.9420   -72.9860    -0.0240     2.4030     0.2390   -18.6300    63.7350    13.1920    14.7400    12.5290  -999.2500  -999.2500  -999.2500  -999.2500
 3130.0000     8.9380   -75.6120    -0.0170     2.4000     0.2380   -20.3430    64.8630    13.0530    14.6410    12.4800  -999.2500  -999.2500  -999.2500  -999.2500
 3130.5000     8.9340   -78.2380    -0.0080     2.4010     0.2280   -19.7150    64.6690    12.8220    14.4750    11.9180  -999.2500  -999.2500  -999.2500  -999.2500
 3131.0000     8.9310   -80.3390     0.0010     2.4010     0.2310   -15.5730    62.2590    12.5910    14.3090    11.1690  -999.2500  -999.2500  -999.2500  -999.2500
 3131.5000     8.9270   -80.3390     0.0130     2.4020     0.2350   -11.4310    61.1280    12.3610    14.1430    11.2290  -999.2500  -999.2500  -999.2500  -999.2500
 3132.0000     8.9230   -80.3390     0.0320     2.4020     0.2380    -7.2900    63.9620    12.1300    13.9450    11.3800  -999.2500  -999.2500  -999.2500  -999.2500
 3132.5000     8.9190   -73.0810     0.0430     2.4080     0.2360    -3.1480    66.4690    11.8060    14.5850    11.5300  -999.2500  -999.2500  -999.2500  -999.2500
 3133.0000     8.9150   -64.0080     0.0400     2.4210     0.2240     0.9940    67.7080    11.9180    15.3850    12.2780  -999.2500  -999.2500  -999.2500  -999.2500
 3133.5000     8.9110   -54.9360     0.0290     2.4390     0.2070     5.1360    65.7630    12.1030    16.1850    13.4240  -999.2500  -999.2500  -999.2500  -999.2500
 3134.0000     8.9070   -45.8630     0.0160     2.4540     0.1890     9.2780    62.4490    12.2510    16.9860    14.5690  -999.2500  -999.2500  -999.2500  -999.2500
 3134.5000     8.9030   -40.4190     0.0110     2.4800     0.1760    13.4190    50.8170    18.2170    17.7860    15.7150  -999.2500  -999.2500  -999.2500  -999.2500
 3135.0000     8.8990   -40.4190     0.0180     2.5090     0.1780    18.3900    45.1700    23.1880    18.7460    17.0910  -999.2500  -999.2500  -999.2500  -999.2500
 3135.5000     8.8950   -40.4190     0.0130     2.5310     0.1900    18.3900    41.9870    28.1590    18.8340    15.8730  -999.2500  -999.2500  -999.2500  -999.2500
 3136.0000     8.8910   -40.4190     0.0060     2.5260     0.2220    18.3900    43.2940    22.7280    18.9430    14.3510  -999.2500  -999.2500  -999.2500  -999.2500
 3136.5000     8.8870   -40.4190    -0.0010     2.4780     0.2340    18.3900    44.7080    17.2960    19.0960    13.2910  -999.2500  -999.2500  -999.2500  -999.2500
 3137.0000     8.8830   -40.4190    -0.0080     2.4180     0.2280    18.3900    42.0760    12.9500    18.5860    12.9230  -999.2500  -999.2500  -999.2500  -999.2500
 3137.5000     8.8790   -63.2310    -0.0160     2.3990     0.2220    18.3900    41.4990    11.7670    17.7360    12.5550  -999.2500  -999.2500  -999.2500  -999.2500
 3138.0000     8.8750   -70.3590    -0.0100     2.3840     0.2180    18.3900    41.4130    11.6700    16.8860    12.1870  -999.2500  -999.2500  -999.2500  -999.2500
 3138.5000     8.8720   -77.4880     0.0050     2.3820     0.2260    18.3900    42.0250    11.5720    16.0360    11.8190  -999.2500  -999.2500  -999.2500  -999.2500
 3139.0000     8.8720   -60.3790     0.0210     2.3850     0.2260    18.3900    42.4520    11.4750    15.0150    11.3780  -999.2500  -999.2500  -999.2500  -999.2500
 3139.5000     8.8710   -60.3790     0.0240     2.3920     0.2270    20.8750    42.8150    11.3780    15.1050    11.4490  -999.2500  -999.2500  -999.2500  -999.2500
 3140.0000     8.8720   -40.4190     0.0340     2.3950     0.2250    23.9810    43.9250    11.9340    15.2180    11.5380  -999.2500  -999.2500  -999.2500  -999.2500
 3140.5000     8.8720   -35.4290     0.0310     2.4000     0.2240    27.0870    45.4540    12.7130    15.3310    11.6280  -999.2500  -999.2500  -999.2500  -999.2500
 3141.0000     8.8710   -31.2710     0.0290     2.4090     0.2240    30.1940    47.3270    12.5840    15.4440    11.7170  -999.2500  -999.2500  -999.2500  -999.2500
 3141.5000     8.8750   -27.1120     0.0250     2.4170     0.2230    33.3000    48.9480    12.3700    15.5560    11.8060  -999.2500  -999.2500  -999.2500  -999.2500
 3142.0000     8.8850   -22.9540     0.0220     2.4250     0.2210    36.4070    49.2590    12.1550    15.6690    11.7450  -999.2500  -999.2500  -999.2500  -999.2500
 3142.5000     8.8940   -25.0650     0.0190     2.4220     0.2200    33.5930    43.0110    12.0270    15.7820    11.6840  -999.2500  -999.2500  -999.2500  -999.2500
 3143.0000     8.9040   -36.5810     0.0160     2.4080     0.2190    21.8980    40.8610    12.0270    15.8720    11.6230  -999.2500  -999.2500  -999.2500  -999.2500
 3143.5000     8.9140   -48.0960     0.0170     2.3970     0.2170    10.2030    42.3560    12.0270    15.7280    11.5610  -999.2500  -999.2500  -999.2500  -999.2500
 3144.0000     8.9230   -59.6120     0.0240     2.3990     0.2160    -1.4910    45.1060    12.0270    15.6080    11.5000  -999.2500  -999.2500  -999.2500  -999.2500
 3144.5000     8.9330   -71.1270     0.0320     2.4070     0.2170   -13.1860    47.8220    12.3700    15.4880    11.4390  -999.2500  -999.2500  -999.2500  -999.2500
 3145.0000     8.9420   -80.3390     0.0300     2.4080     0.2210   -24.8800    49.4460    12.7130    15.3680    11.3770  -999.2500  -999.2500  -999.2500  -999.2500
 3145.5000     8.9520   -80.3390     0.0210     2.4020     0.2250   -36.5750    50.6700    12.1340    15.2180    11.3160  -999.2500  -999.2500  -999.2500  -999.2500
 3146.0000     8.9620   -80.3390     0.0130     2.3990     0.2280   -27.9990    51.3210    11.6520    15.0230    11.2550  -999.2500  -999.2500  -999.2500  -999.2500
 3146.5000     8.9730   -54.6760     0.0050     2.4010     0.2280    -5.9090    52.1640    11.1690    14.8280    11.1690  -999.2500  -999.2500  -999.2500  -999.2500
 3147.0000     8.9830   -33.2910     0.0080     2.4080     0.2240    16.1810    52.7440    11.3510    14.6330    11.2780  -999.2500  -999.2500  -999.2500  -999.2500
 3147.5000     8.9940   -21.4140     0.0210     2.4150     0.2240    38.2700    54.8990    11.5330    14.4390    11.4610  -999.2500  -999.2500  -999.2500  -999.2500
 3148.0000     9.0050   -23.8000     0.0300     2.4230     0.2250    38.2700    56.6410    11.7150    14.2050    11.6430  -999.2500  -999.2500  -999.2500  -999.2500
 3148.5000     9.0150   -26.1860     0.0410     2.4300     0.2270    38.2700    58.1470    11.8980    14.3670    11.8250  -999.2500  -999.2500  -999.2500  -999.2500
 3149.0000     9.0260   -28.5730     0.0260     2.4370     0.2210    38.2700    59.6780    12.0800    14.5700    12.0070  -999.2500  -999.2500  -999.2500  -999.2500
 3149.5000     9.0330   -30.9590     0.0110     2.4380     0.2140    34.6300    60.7540    12.2620    14.7720    12.1900  -999.2500  -999.2500  -999.2500  -999.2500
 3150.0000     9.0320   -33.3450    -0.0020     2.4400     0.2170    30.0800    59.3240    12.4800    15.0150    12.3720  -999.2500  -999.2500  -999.2500  -999.2500
 3150.5000     9.0320   -35.7310     0.0030     2.4440     0.2240    25.5300    57.0690    13.0530    15.2090    12.4800  -999.2500  -999.2500  -999.2500  -999.2500
 3151.0000     9.0310   -38.1180     0.0050     2.4510     0.2270    20.9800    54.6990    13.7680    15.6040    12.4800  -999.2500  -999.2500  -999.2500  -999.2500
 3151.5000     9.0270   -40.4190     0.0040     2.4590     0.2270    19.9380    54.0760    14.7400    15.7090    12.4800  -999.2500  -999.2500  -999.2500  -999.2500
 3152.0000     9.0230   -40.4190     0.0030     2.4550     0.2310    23.5300    55.1840    14.0680    15.8720    12.4800  -999.2500  -999.2500  -999.2500  -999.2500
 3152.5000     9.0180   -40.4190     0.0150     2.4490     0.2370    27.1230    56.2540    13.0190    15.7380    12.4800  -999.2500  -999.2500  -999.2500  -999.2500
 3153.0000     9.0140   -40.4190     0.0320     2.4510     0.2360    30.7160    56.0740    12.2410    15.4420    12.4800  -999.2500  -999.2500  -999.2500  -999.2500
