~VERSION INFORMATION
 VERS.                2.0:   CWLS LOG ASCII STANDARD - VERSION 2.0
 WRAP.                 NO:   ONE LINE PER DEPTH STEP
~WELL INFORMATION
#MNEM.UNIT      DATA TYPE    INFORMATION
#----------   ------------   ------------------------------
 STRT.F            0.0000:   START DEPTH
 STOP.F         3110.5000:   STOP DEPTH
 STEP.F            0.5000:   STEP LENGTH
 NULL.          -999.2500:   NO VALUE
 COMP. LAWRENCE  ALLISON AND ASSOCIATES:   COMPANY
 WELL. LAWRENCE NPR 3 "X" #72-15:   WELL
 FLD .                NPR:   FIELD
 LOC .      S15 T38N R78W:   LOCATION
 CNTY.            NATRONA:   COUNTY
 STAT.            WYOMING:   STATE
 CTRY. UNITED STATES OF AMERICA:   COUNTRY
 SRVC.           WIRELINE:   SERVICE COMPANY
 DATE.        16-JAN-1988:   LOGDATE
 API .     49025111930000:   API NUMBER
~CURVE INFORMATION
#MNEM.UNIT       API CODE    CURVE DESCRIPTION
#----------   ------------   ------------------------------
 DEPT.F                  :   
 TENR.LBS    07 635 01 00:   TENSION FROM RESISTIVITY
 GRR .GAPI   07 310 01 00:   GAMMA RAY FROM RESISTIVITY
 SPR .MV     07 010 01 00:   SPONTANEOUS POTENTIAL
 RFOC.OHMM   07 220 04 00:   RESISTIVITY FOCUSED LOG RES.
 RILD.OHMM   07 120 46 00:   DEEP INDUCTION RESISTIVITY
 RILM.OHMM   07 120 44 00:   INDUCTION LOG MEDIUM RESISTIVITY
 TEND.LBS    45 635 01 00:   TENSION FROM DENSITY LOG
 RHOB.G/C3   45 350 01 00:   BULK DENSITY
 CORR.G/C3   45 356 01 00:   DENSITY CORRECTION
 CNC .DEC    42 890 03 00:   NEUTRON PORISITY SANDSTONE
 CALR.IN     07 280 01 00:   CALIPER FROM RESISTIVITY
~PARAMETER INFORMATION
#MNEM.UNIT          VALUE    DESCRIPTION
#----------   ------------   ------------------------------
 EKB .F         5240.0000:   Kelly bushing
 EGL .F         5229.0000:   Ground level
 EDF .F            0.0000:   Drilling floor
 TD  .F         3090.0000:   Total depth
 DATE.        16-JAN-1988:   Date logged
 CLNT.            A2DTECH:   Client Code
 SL  . 814' FNL & 1208' FEL:   Surface Location
 PD  .                 GL:   Permanent Datum
 DD  .F              3085:   Depth driller
 DL  .F              3090:   Depth logger
 BLI .F              3089:   Bottom log interval
 CS1 .IN            8.625:   Casing size
 CBD1.      8.625" @ 610':   Casing driller 1
 CBL1.F               613:   Casing logger 1
 BS1 .IN            7.875:   Bit size
 DFT .            KCL/GEL:   Type fluid in hole
 DFD .                8.8:   Density
 DFV .                 40:   Viscosity
 DFPH.                8.5:   pH
 DFL .                 10:   Fluid loss
 MSS .           FLOWLINE:   Source of sample
 RMS .OHMM           .543:   Rm
 MST .F                65:   Rm Meas. temp.
 RMF .OHMM           .349:   Rmf
 MFST.F                65:   Rmf Meas. temp.
 RMC .OHMM           .557:   Rmc
 MCST.F                65:   Rmc Meas. temp.
 MFSS.               CALC:   Source Rmf.
 RMB .OHMM           .258:   Rm. at BHT
 BHT .F               114:   BHT.
 TCS .HRS               5:   Time Circ. stopped
 MRT .F               114:   Maximum recorded temp.
 LUN .            HL-6321:   Logging unit number
 LUL .           GILLETTE:   Logging unit location
 ENGI.               CAIN:   Recorded By
 WITN.             STRONG:   Witnessed by
 ORIG.           5" PRINT:   Origin of data
 UWI .     49025111930000:   Unique Well ID
 DICO. A2D TECHNOLOGIES, INC.:   Digitizing Company
 DAPD.F                11:   Feet Above Permanent Datum
 BSD1.F              3085:   Depth drilled with bit1
 MCSS.               CALC:   Source Rmc.
 EPD .F              5229:   Elevation Permanent Datum
 LMF .                 KB:   Log Measured From
 DMF .                 KB:   Drilling Measured From
~OTHER INFORMATION
~A    DEPT    TENR         GRR       SPR       RFOC       RILD       RILM       TEND       RHOB       CORR        CNC       CALR   
# ...
  945.5000   -54.8050    81.7050   -43.6180     9.2420     9.5920     8.6260  -999.2500  -999.2500  -999.2500  -999.2500     8.9680
  946.0000   -54.8050    79.6740   -43.6640     9.0820     9.5000     8.5940  -999.2500  -999.2500  -999.2500  -999.2500     8.9680
  946.5000   -54.8050    80.7370   -43.7140     8.9680     9.4090     8.5640  -999.2500  -999.2500  -999.2500  -999.2500     8.9690
  947.0000   -54.8050    83.4660   -43.6280     9.0240     9.3170     8.5890  -999.2500  -999.2500  -999.2500  -999.2500     8.9690
  947.5000   -54.8050    84.2910   -43.4850     9.0770     9.2250     8.6130  -999.2500  -999.2500  -999.2500  -999.2500     8.9700
  948.0000   -54.8050    86.0010   -43.3450     9.1330     9.1340     8.6360  -999.2500  -999.2500  -999.2500  -999.2500     8.9700
  948.5000   -54.8050    88.7740   -43.5160     9.1230     9.0510     8.6600  -999.2500  -999.2500  -999.2500  -999.2500     8.9710
  949.0000   -54.8050    91.5290   -43.7290     9.1090     9.0580     8.6830  -999.2500  -999.2500  -999.2500  -999.2500     8.9710
  949.5000   -54.8050    93.3450   -43.9440     9.0960     9.0640     8.7070  -999.2500  -999.2500  -999.2500  -999.2500     8.9720
  950.0000   -54.8050    95.0220   -44.1590     9.0830     9.0700     8.7230  -999.2500  -999.2500  -999.2500  -999.2500     8.9720
  950.5000   -54.8050    96.1360   -44.3700     9.0690     9.0760     8.6990  -999.2500  -999.2500  -999.2500  -999.2500     8.9730
  951.0000   -54.8050    95.7010   -44.4760     9.0560     9.0820     8.6810  -999.2500  -999.2500  -999.2500  -999.2500     8.9730
  951.5000   -54.8050    95.2840   -44.2850     9.0420     9.0880     8.6630  -999.2500  -999.2500  -999.2500  -999.2500     8.9740
  952.0000   -54.8050    94.4690   -44.1300     9.0290     9.0950     8.6430  -999.2500  -999.2500  -999.2500  -999.2500     8.9740
  952.5000   -54.8050    92.2910   -44.2530     9.0160     9.1010     8.6220  -999.2500  -999.2500  -999.2500  -999.2500     8.9750
  953.0000   -54.8050    88.9420   -44.3740     9.0020     9.1070     8.6000  -999.2500  -999.2500  -999.2500  -999.2500     8.9750
  953.5000   -54.8050    85.3080   -44.4940     8.9890     9.1130     8.5770  -999.2500  -999.2500  -999.2500  -999.2500     8.9760
  954.0000   -54.8050    83.6060   -44.6140     8.9750     9.1190     8.5540  -999.2500  -999.2500  -999.2500  -999.2500     8.9760
  954.5000   -54.8050    83.9960   -44.7200     8.9620     9.1250     8.5320  -999.2500  -999.2500  -999.2500  -999.2500     8.9770
  955.0000   -54.8050    86.8420   -44.7220     8.9490     9.1350     8.5090  -999.2500  -999.2500  -999.2500  -999.2500     8.9770
  955.5000   -54.8050    88.9020   -44.7210     8.9350     9.0620     8.4850  -999.2500  -999.2500  -999.2500  -999.2500     8.9780
  956.0000   -54.8050    90.2300   -44.7210     8.9220     8.9340     8.3460  -999.2500  -999.2500  -999.2500  -999.2500     8.9780
  956.5000   -54.8050    91.5560   -44.7210     8.9080     8.8030     8.1980  -999.2500  -999.2500  -999.2500  -999.2500     8.9790
  957.0000   -54.2790    91.6670   -44.7210     8.8950     8.6730     8.0990  -999.2500  -999.2500  -999.2500  -999.2500     8.9790
  957.5000   -53.7270    90.5630   -44.7210     8.8820     8.5420     8.0740  -999.2500  -999.2500  -999.2500  -999.2500     8.9800
  958.0000   -53.1750    89.4630   -44.7210     8.8680     8.4850     8.0490  -999.2500  -999.2500  -999.2500  -999.2500     8.9800
  958.5000   -52.6220    88.3030   -44.7210     8.8550     8.4850     8.0240  -999.2500  -999.2500  -999.2500  -999.2500     8.9810
  959.0000   -52.0700    88.4880   -44.7200     8.8420     8.4850     7.9990  -999.2500  -999.2500  -999.2500  -999.2500     8.9810
  959.5000   -51.5180    89.7930   -44.7250     8.8280     8.4850     7.9740  -999.2500  -999.2500  -999.2500  -999.2500     8.9820
  960.0000   -50.9660    89.8370   -44.8220     8.8150     8.4850     7.9490  -999.2500  -999.2500  -999.2500  -999.2500     8.9820
  960.5000   -50.4140    89.3560   -44.9160     8.7750     8.4860     7.9240  -999.2500  -999.2500  -999.2500  -999.2500     8.9830
  961.0000   -49.8610    87.5110   -45.0080     8.6150     8.4870     7.8990  -999.2500  -999.2500  -999.2500  -999.2500     8.9830
  961.5000   -49.3090    88.3610   -45.1010     8.4550     8.3660     7.8740  -999.2500  -999.2500  -999.2500  -999.2500     8.9840
  962.0000   -48.7570    91.6790   -45.1940     8.2950     8.2450     7.8490  -999.2500  -999.2500  -999.2500  -999.2500     8.9840
  962.5000   -48.2050    94.9950   -45.2860     8.1030     8.1250     7.8250  -999.2500  -999.2500  -999.2500  -999.2500     8.9850
  963.0000   -47.6530    94.6310   -45.3790     8.1840     7.9550     7.8090  -999.2500  -999.2500  -999.2500  -999.2500     8.9850
  963.5000   -47.1000    93.6990   -45.4710     8.2850     8.0050     7.8100  -999.2500  -999.2500  -999.2500  -999.2500     8.9860
  964.0000   -46.5480    93.4060   -45.5260     8.3860     8.1300     7.8090  -999.2500  -999.2500  -999.2500  -999.2500     8.9860
  964.5000   -45.9960    93.0840   -45.5440     8.4850     8.1780     7.8090  -999.2500  -999.2500  -999.2500  -999.2500     8.9870
  965.0000   -45.4440    93.9680   -45.5620     8.4570     8.1780     7.8090  -999.2500  -999.2500  -999.2500  -999.2500     8.9870
  965.5000   -44.8920    95.2730   -45.5790     8.4290     8.1780     7.8090  -999.2500  -999.2500  -999.2500  -999.2500     8.9880
  966.0000   -52.3300    96.0910   -45.5970     8.4020     8.1780     7.8090  -999.2500  -999.2500  -999.2500  -999.2500     8.9880
  966.5000   -61.4660    95.4220   -45.6140     8.3740     8.1780     7.8090  -999.2500  -999.2500  -999.2500  -999.2500     8.9890
  967.0000   -63.7170    92.6460   -45.6320     8.3460     8.1780     7.8090  -999.2500  -999.2500  -999.2500  -999.2500     8.9890
  967.5000   -61.9840    91.6410   -45.6490     8.3190     8.1780     7.8090  -999.2500  -999.2500  -999.2500  -999.2500     8.9900
  968.0000   -60.2520    91.3370   -45.6660     8.2910     8.1780     7.8090  -999.2500  -999.2500  -999.2500  -999.2500     8.9900
  968.5000   -58.5190    89.2700   -45.6840     8.2540     8.1780     7.8090  -999.2500  -999.2500  -999.2500  -999.2500     8.9910
  969.0000   -56.7860    87.7140   -45.7030     8.2980     8.1780     7.8090  -999.2500  -999.2500  -999.2500  -999.2500     8.9920
  969.5000   -55.0530    87.3210   -45.7100     8.3650     8.1780     7.8090  -999.2500  -999.2500  -999.2500  -999.2500     8.9920
  970.0000   -53.3210    86.6440   -45.5620     8.4330     8.1780     7.8090  -999.2500  -999.2500  -999.2500  -999.2500     8.9930
  970.5000   -51.5880    85.1110   -45.4190     8.5010     8.1970     7.8090  -999.2500  -999.2500  -999.2500  -999.2500     8.9930
  971.0000   -49.8550    85.1260   -45.3160     8.5640     8.2150     7.8090  -999.2500  -999.2500  -999.2500  -999.2500     8.9940
  971.5000   -48.1220    86.9790   -45.3170     8.5050     8.2450     7.8100  -999.2500  -999.2500  -999.2500  -999.2500     8.9940
  972.0000   -46.3890    90.6400   -45.3220     8.4370     8.2570     7.8090  -999.2500  -999.2500  -999.2500  -999.2500     8.9950
  972.5000   -44.7950    94.7810   -45.7030     8.3700     8.1720     7.8090  -999.2500  -999.2500  -999.2500  -999.2500     8.9950
  973.0000   -45.0440    94.0850   -46.1300     8.3020     8.1800     7.8090  -999.2500  -999.2500  -999.2500  -999.2500     8.9960
  973.5000   -45.2740    90.7770   -46.5080     8.1910     8.1780     7.7110  -999.2500  -999.2500  -999.2500  -999.2500     8.9960
  974.0000   -45.5050    86.8240   -46.4680     7.9710     8.2540     7.5270  -999.2500  -999.2500  -999.2500  -999.2500     8.9970
  974.5000   -45.7350    85.8120   -46.4230     7.7510     8.3800     7.3890  -999.2500  -999.2500  -999.2500  -999.2500     8.9970
  975.0000   -45.9660    86.3320   -46.3800     7.5960     8.4850     7.3890  -999.2500  -999.2500  -999.2500  -999.2500     8.9980
  975.5000   -46.1960    88.1760   -46.3370     7.9680     8.6920     7.5940  -999.2500  -999.2500  -999.2500  -999.2500     8.9980
