~VERSION INFORMATION
 VERS.                2.0:   CWLS LOG ASCII STANDARD - VERSION 2.0
 WRAP.                 NO:   ONE LINE PER DEPTH STEP
~WELL INFORMATION
#MNEM.UNIT      DATA TYPE    INFORMATION
#----------   ------------   ------------------------------
 STRT.F          600.0000:   START DEPTH
 STOP.F         3201.0000:   STOP DEPTH
 STEP.F            0.5000:   STEP LENGTH
 NULL.          -999.2500:   NO VALUE
 COMP.    FENIX & SCISSON:   COMPANY
 WELL. FENIX & SCISSON 38 "AX" #3-34:   WELL
 FLD .              NPR 3:   FIELD
 LOC .      S34 T39N R78W:   LOCATION
 CNTY.            NATRONA:   COUNTY
 STAT.            WYOMING:   STATE
 CTRY. UNITED STATES OF AMERICA:   COUNTRY
 SRVC.              WELEX:   SERVICE COMPANY
 DATE.        16-SEP-1980:   LOGDATE
 API .     49025108560000:   API NUMBER
~CURVE INFORMATION
#MNEM.UNIT       API CODE    CURVE DESCRIPTION
#----------   ------------   ------------------------------
 DEPT.F                  :   
 CORR.G/C3   45 356 01 00:   DENSITY CORRECTION
 GRD .GAPI   45 310 01 00:   GAMMA RAY FROM DENSITY LOG
 RHOB.G/C3   45 350 01 00:   BULK DENSITY
 TEND.LBS    45 635 01 00:   TENSION FORM DENSITY LOG
 CALD.IN     45 280 60 00:   CALIPER FROM DENSITY LOG
 SPR .MV     07 010 01 00:   SPONTANEOUS POTENTIAL FROM RES.
 ILD .OHMM   07 120 46 00:   DEEP INDUCTION RESISTIVITY
 ILM .OHMM   07 120 44 00:   INDUCTION LOG MEDIUM RESISTIVITY
 GURD.OHMM   07 220 05 00:   GUARD LOG RESISTIVITY
~PARAMETER INFORMATION
#MNEM.UNIT          VALUE    DESCRIPTION
#----------   ------------   ------------------------------
 EKB .F         5205.0000:   Kelly bushing
 EGL .F         5195.0000:   Ground level
 TD  .F         3202.0000:   Total depth
 CLNT.            A2DTECH:   Client Code
 SL  . 582' FSL & 1600' FWL:   Surface Location
 PD  .                 GL:   Permanent Datum
 EPD .F              5195:   Elevation Permanent Datum
 LMF .                 KB:   Log Measured From
 DMF .                 KB:   Drilling Measured From
 DAPD.F                10:   Feet Above Permanent Datum
 DATE.        16-SEP-1980:   Date Logged [DD-MMM-YYYY]
 DD  .F              3200:   Depth driller
 DL  .F              3203:   Depth logger
 BLI .F              3201:   Bottom log interval
 TLI .F               600:   Top log interval
 CS1 .IN            8.625:   Casing size
 CBD1.      8.625" @ 580':   Casing driller 1
 CBL1.F               600:   Casing logger 1
 BS1 .IN            7.875:   Bit size
 BSD1.F              3200:   Depth drilled with bit1
 DFT .          DISPERSED:   Type fluid in hole
 DFD .                8.8:   Density
 DFV .                 40:   Viscosity
 DFPH.                 11:   pH
 DFL .                  8:   Fluid loss
 MSS .           FLOWLINE:   Source of sample
 RMS .OHMM           1.33:   Rm
 MST .F                65:   Rm Meas. temp.
 RMF .OHMM           1.15:   Rmf
 MFST.F                65:   Rmf Meas. temp.
 MFSS.               MEAS:   Source Rmf.
 RMC .OHMM           1.50:   Rmc
 MCST.F                65:   Rmc Meas. temp.
 MCSS.               MEAS:   Source Rmc.
 RMB .OHMM            .75:   Rm. at BHT
 BHT .F               115:   BHT.
 TCS .HRS               8:   Time Circ. stopped
 MRT .F               115:   Maximum recorded temp.
 LUN .               1892:   Logging unit number
 LUL .             CASPER:   Logging unit location
 ENGI.    PERIMMER / REIN:   Recorded By
 WITN.              FIVAS:   Witnessed by
 ORIG.         2.5" PRINT:   Origin of data
 UWI .     49025108560000:   Unique Well ID
 DICO. A2D TECHNOLOGIES, INC.:   Digitizing Company
~OTHER INFORMATION
~A   DEPT       CORR       GRD        RHOB      TEND       CALD       SPR          ILD        ILM       GURD 
# ...
 1622.0000    -0.0322    45.7991     2.4582   562.0740    10.9605   -31.3880     5.4204     5.4203     5.4207
 1622.5000    -0.0238    44.8854     2.4394   562.5035    10.9875   -31.4023     5.4175     5.4174     5.4171
 1623.0000    -0.0534    45.3243     2.4381   562.9518    11.1084   -31.4165     5.3402     5.4146     5.4902
 1623.5000    -0.0683    45.3103     2.4709   563.4037    11.0475   -31.4308     5.3372     5.4117     5.5637
 1624.0000    -0.0738    46.2103     2.5069   563.8555    10.9867   -31.7470     5.3343     5.4087     5.5605
 1624.5000    -0.0413    47.5983     2.5443   564.3072    10.9559   -31.7620     5.4062     5.3833     5.4773
 1625.0000     0.0000    48.0856     2.5504   564.7591    10.9850   -31.7771     5.4027     5.3284     5.3162
 1625.5000     0.0224    49.7998     2.4821   565.2961    11.0472   -31.7922     5.3249     5.2522     5.2317
 1626.0000    -0.0031    51.3841     2.4637   549.6974    11.0731   -31.8072     5.2489     5.2488     5.1486
 1626.5000    -0.0183    47.0289     2.4435   535.9940    11.1308   -31.8246     5.1740     5.1027     5.1030
 1627.0000    -0.0452    46.1152     2.4328   536.4458    11.1954   -31.8389     5.1001     5.1000     5.1713
 1627.5000    -0.1363    45.2015     2.4463   536.8977    11.0244   -31.8531     5.1686     5.0974     5.2405
 1628.0000    -0.1578    45.1887     2.4763   537.3494    11.0693   -31.5662     5.2379     5.0945     5.2375
 1628.5000    -0.1328    45.1757     2.4854   537.8012    10.9487   -31.5431     5.2347     5.0917     5.1993
 1629.0000    -0.0770    45.1622     2.4435   538.2531    10.6484   -30.9923     5.1599     5.0889     5.0819
 1629.5000    -0.0539    45.1486     2.4190   525.7562     8.7614   -31.0090     5.0476     5.0545     5.0161
 1630.0000    -0.0880    46.8619     2.4205   509.0362    10.5748   -31.0241     4.8089     4.7275     5.2265
 1630.5000    -0.1061    51.1738     2.4225   509.4880    10.9504   -31.0421     4.8064     4.5908     4.7475
 1631.0000    -0.1122    52.3153     2.4271   509.9397    11.0126   -31.0564     4.9388     4.8037     4.6727
 1631.5000    -0.1002    50.0476     2.4398   510.3915    11.0334   -31.0707     5.2186     5.1455     4.8009
 1632.0000    -0.0322    48.2330     2.5315   510.8549    10.9130   -31.0849     5.3611     5.2145     5.1425
 1632.5000    -0.0009    46.4184     2.5089   511.2952    10.5822   -31.0994     5.2661     5.2116     5.2116
 1633.0000    -0.0148    45.0211     2.4817   511.7470    10.2769   -31.4157     5.1825     5.2087     5.1371
 1633.5000    -0.0624    41.4369     2.4802   512.1988    10.7900   -31.4307     5.1342     5.2058     5.1342
 1634.0000    -0.0659    45.1620     2.5219   512.6506    10.7916   -31.5582     5.1308     5.2029     5.1314
 1634.5000     0.0060    48.5017     2.5643   513.1024    10.6079   -31.7620     5.1997     5.1995     5.2006
 1635.0000     0.0500    49.0541     2.5429   513.5542     8.5420   -32.0812     5.2694     5.1968     5.2697
 1635.5000     0.0590    48.5875     2.5331   514.0060    10.7937   -32.0954     5.3402     5.3399     5.4141
 1636.0000     0.0589    47.6738     2.5536   508.6348    10.8157   -32.1097     5.4167     5.4871     5.5633
 1636.5000     0.0589    47.6610     2.5475   493.2491    10.7576   -32.1239     5.6384     5.7169     5.5604
 1637.0000     0.0590    47.6482     2.5504   485.2410    10.6772   -32.1386     5.7140     5.7136     5.6350
 1637.5000     0.0708    49.4746     2.5579   485.6928    10.6032   -32.1034     5.7104     5.7104     5.6319
 1638.0000     0.0972    52.3337     2.5654   486.1445    10.6921   -31.8655     5.7073     5.6754     5.6288
 1638.5000     0.1079    54.4843     2.5668   486.5964    10.7847   -31.8825     5.6251     5.6257     5.6257
 1639.0000     0.1084    53.8422     2.5600   487.0482    10.6605   -31.8976     5.6222     5.5447     5.6225
 1639.5000     0.1067    51.6456     2.5469   502.4520    10.6652   -31.9154     5.6192     5.5418     5.6194
 1640.0000     0.1036    43.9614     2.5337   518.0723    10.7844   -31.9296     5.5391     5.4627     5.5386
 1640.5000     0.1035    43.9486     2.5201   518.5878    10.7592   -31.9439     5.5360     5.4598     5.4595
 1641.0000     0.1005    46.1881     2.5124   519.0175    10.6321   -31.9581     5.5509     5.4568     5.4567
 1641.5000     0.0974    48.8780     2.5243   519.4277    10.5817   -31.7647     5.6075     5.4538     5.4538
 1642.0000     0.0913    50.2165     2.5363   519.8795    10.7448   -31.5081     5.6039     5.4756     5.5270
 1642.5000     0.0918    48.2583     2.5453   520.3313    10.8039   -31.3985     5.6789     5.6008     5.5237
 1643.0000     0.1095    46.9144     2.5482   520.7831    10.7430   -31.4157     5.7544     5.6757     5.5207
 1643.5000     0.1213    46.5721     2.5392   521.2349    10.6823   -31.4307     5.9130     5.8314     5.5548
 1644.0000     0.1152    46.5586     2.5270   521.6868    10.6814   -31.1446     5.9099     5.9100     5.5915
 1644.5000     0.1233    48.3443     2.5225   522.1385    10.6805   -31.1614     5.9892     5.9891     5.9063
 1645.0000     0.1281    49.6829     2.5273   522.6691    10.7176   -31.4769     5.8765     5.9816     5.7419
 1645.5000     0.0999    50.5710     2.5374   523.0421    10.7687   -31.7923     5.6600     5.4954     5.5821
 1646.0000     0.1029    50.1077     2.5328   523.5284    10.7234   -32.4378     5.8482     5.6177     5.5791
 1646.5000     0.1149    48.2696     2.5222   523.9458    10.6468   -33.0893     6.0189     5.9234     5.6682
 1647.0000     0.1208    46.7807     2.5086   524.3976    10.6759   -33.3434     6.0558     6.0558     5.8337
 1647.5000     0.1057    45.8895     2.4972   521.4614    10.7649   -33.3584     6.0521     6.0518     6.0039
 1648.0000     0.1147    44.7508     2.4831   495.1263    10.5245   -32.9076     6.0489     5.9655     6.0491
 1648.5000     0.0921    44.1847     2.4713   495.6325    10.5847   -32.7861     5.9626     5.9623     5.8801
 1649.0000     0.0800    42.8173     2.4643   496.0843    10.7431   -32.8028     5.8693     5.8772     5.7961
 1649.5000     0.0642    42.8045     2.4510   496.5362    10.8513   -32.5151     5.7933     5.7136     5.7134
 1650.0000     0.0361    45.4944     2.4526   497.0595    10.6108   -32.2289     5.7104     5.6190     5.6319
 1650.5000     0.0210    46.8333     2.4616   497.4891    10.5201   -32.2440     5.7073     5.5513     5.6288
 1651.0000    -0.0031    46.3694     2.4706   497.9187    10.6146   -32.1907     5.7837     5.5483     5.6257
 1651.5000    -0.0152    45.9054     2.4870   498.3484    10.6783   -31.9705     5.7800     5.5452     5.7015
 1652.0000    -0.0103    45.8919     2.5267   498.7952    10.6071   -31.6867     5.8578     5.5416     5.7349
 1652.5000     0.0544    45.8784     2.5564   499.2470    10.6023   -31.7018     5.8545     5.6163     5.8539
 1653.0000     0.0615    46.0915     2.5506   499.6988    10.6054   -31.7191     5.9330     5.6915     5.8509
 1653.5000     0.0763    47.2027     2.5377   500.1506     9.4087   -31.4307     5.9297     5.8481     6.0121
 1654.0000     0.0871    48.0883     2.5310   500.6024    10.5736   -31.7477     5.9484     5.9335     6.1777
 1654.5000     0.0508    48.0755     2.5318   501.0542    10.7524   -32.0693     6.0378     6.0226     6.3479
 1655.0000     0.0325    48.9636     2.5392   501.5705    10.6916   -32.4196     6.2140     6.1715     6.3297
 1655.5000     0.0445    48.8947     2.5482   502.0001    10.6907   -32.7700     6.2536     6.0827     6.1435
 1656.0000     0.0625    47.4292     2.5497   502.4097    10.7199   -33.0120     6.2497     6.0793     6.0793
 1656.5000     0.0474    46.0925     2.5514   502.8615    10.6175   -33.0271     6.2464     6.1602     6.0760
 1657.0000     0.0323    46.3858     2.5592   503.3132    10.5683   -33.3463     6.3302     6.1569     6.0720
 1657.5000     0.0679    47.0946     2.5600   503.7650    10.5971   -33.0594     6.3267     6.1537     6.1535
 1658.0000     0.0804    47.5315     2.5533   504.2169    10.6861   -33.0736     6.4293     6.2363     6.2361
