~VERSION INFORMATION
 VERS.                2.0:   CWLS LOG ASCII STANDARD - VERSION 2.0
 WRAP.                 NO:   ONE LINE PER DEPTH STEP
~WELL INFORMATION
#MNEM.UNIT      DATA TYPE    INFORMATION
#----------   ------------   ------------------------------
 STRT.F           10.0000:   START DEPTH
 STOP.F         3180.0000:   STOP DEPTH
 STEP.F            0.5000:   STEP LENGTH
 NULL.          -999.2500:   NO VALUE
 COMP. LAWRENCE - ALLISON WEST:   COMPANY
 WELL. LAWRENCE ALLISON NPR 3 "AX" #17-2:   WELL
 FLD .                NPR:   FIELD
 LOC .       S2 T38N R78W:   LOCATION
 CNTY.            NATRONA:   COUNTY
 STAT.            WYOMING:   STATE
 CTRY. UNITED STATES OF AMERICA:   COUNTRY
 SRVC.      DRESSER ATLAS:   SERVICE COMPANY
 DATE.        16-FEB-1987:   LOGDATE
 API .     49025111210000:   API NUMBER
~CURVE INFORMATION
#MNEM.UNIT       API CODE    CURVE DESCRIPTION
#----------   ------------   ------------------------------
 DEPT.F                  :   
 DEN .LBS    45 350 01 00:   BULK DENSITY
 CORR.G/C3   45 356 01 00:   DENSITY CORRECTION
 TEND.LBS    45 635 01 00:   TENSION FROM DENSITY LOG
 CNC .DEC    42 890 01 00:   NEUTRON PORISITY LIMESTONE
 CALR.IN     07 280 01 00:   CALIPER FROM RESISTIVITY
 SPR .MV     07 010 01 00:   SPONTANEOUS POTENTIAL
 GRR .GAPI   07 310 01 00:   GAMMA RAY FROM RESISTIVITY
 RFOC.OHMM   07 220 04 00:   RESISTIVITY FOCUSED LOG RES.
 ILD .OHMM   07 120 46 00:   DEEP INDUCTION RESISTIVITY
 ILM .OHMM   07 120 44 00:   INDUCTION LOG MEDIUM RESISTIVITY
 TENR.LBS    07 635 01 00:   TENSION FROM RESISTIVITY
~PARAMETER INFORMATION
#MNEM.UNIT          VALUE    DESCRIPTION
#----------   ------------   ------------------------------
 EKB .F         5141.0000:   Kelly bushing
 EGL .F         5129.0000:   Ground level
 EDF .F            0.0000:   Drilling floor
 EPD .F            0.0000:   Permanent datum
 TD  .F         3161.0000:   Total depth
 DATE.        16-FEB-1987:   Date logged
 CLNT.            A2DTECH:   Client Code
 SL  . 1125' FSL & 220' FWL:   Surface Location
 PD  .                 GL:   Permanent Datum
 DAPD.F                12:   Feet Above Permanent Datum
 DD  .F              3161:   Depth driller
 DL  .F              3158:   Depth logger
 BLI .F              3156:   Bottom log interval
 TLI .F                12:   Top log interval
 CS1 .IN            8.625:   Casing size
 CBD1.      8.625" @ 626':   Casing driller 1
 CBL1.F               626:   Casing logger 1
 BS1 .IN            7.875:   Bit size
 BSD1.F              3161:   Depth drilled with bit1
 DFT .        KCL/POLYMER:   Type fluid in hole
 DFD .                8.8:   Density
 DFV .                 39:   Viscosity
 DFPH.                 10:   pH
 DFL .                8.4:   Fluid loss
 MSS .           FLOWLINE:   Source of sample
 RMS .OHMM           .292:   Rm
 MST .F                82:   Rm Meas. temp.
 RMF .OHMM           .231:   Rmf
 MFST.F                82:   Rmf Meas. temp.
 RMC .OHMM           .365:   Rmc
 MCST.F                82:   Rmc Meas. temp.
 MFSS.               MEAS:   Source Rmf.
 MCSS.               CALC:   Source Rmc.
 RMB .OHMM           .203:   Rm. at BHT
 BHT .F               118:   BHT.
 TCS .HRS               3:   Time Circ. stopped
 MRT .F               118:   Maximum recorded temp.
 LUN .            HL-6274:   Logging unit number
 LUL .           GALLETTE:   Logging unit location
 ENGI.            PANASUK:   Recorded By
 WITN.             STRONG:   Witnessed by
 ORIG.           5" PRINT:   Origin of data
 UWI .     49025111210000:   Unique Well ID
 DICO. A2D TECHNOLOGIES, INC.:   Digitizing Company
~OTHER INFORMATION
~A   DEPT      DEN       CORR       TEND        CNC       CALR        SPR          GRR     RFOC        ILD        ILM       TENR   
# ...
 1443.5000  -999.2500  -999.2500  -999.2500  -999.2500     9.2854   -17.0830    90.5137     7.7016     6.4479     6.6078   -76.5076
 1444.0000  -999.2500  -999.2500  -999.2500  -999.2500     9.2851   -17.0867    88.5170     7.7009     6.4474     6.6073   -76.4079
 1444.5000  -999.2500  -999.2500  -999.2500  -999.2500     9.2850   -17.0903    90.5038     7.7713     6.5062     6.6070   -86.2981
 1445.0000  -999.2500  -999.2500  -999.2500  -999.2500     9.2846   -16.8947    92.8889     7.7706     6.4462     6.6670   -86.1984
 1445.5000  -999.2500  -999.2500  -999.2500  -999.2500     9.2844   -16.8983    94.0785     7.6988     6.4456     6.6666   -86.0988
 1446.0000  -999.2500  -999.2500  -999.2500  -999.2500     9.2840   -16.9019    94.0727     7.5579     6.5045     6.9152   -85.9791
 1446.5000  -999.2500  -999.2500  -999.2500  -999.2500     9.2838   -16.7063    95.6607     7.6974     6.5039     6.9146   -85.8794
 1447.0000  -999.2500  -999.2500  -999.2500  -999.2500     9.2835   -16.7099    95.2564     7.7678     6.3849     6.4834   -85.7797
 1447.5000  -999.2500  -999.2500  -999.2500  -999.2500     9.2833   -17.1120    93.2584     7.8388     6.3844     6.3066   -85.6801
 1448.0000  -999.2500  -999.2500  -999.2500  -999.2500     9.2631   -17.1156    91.2605     7.8381     6.3253     6.2482   -85.5804
 1448.5000  -999.2500  -999.2500  -999.2500  -999.2500     9.2628   -17.5176    96.4342     7.6946     6.3831     6.3635   -75.4908
 1449.0000  -999.2500  -999.2500  -999.2500  -999.2500     9.2626   -17.7204    98.0220     7.6235     6.3825     6.4219   -75.3911
 1449.5000  -999.2500  -999.2500  -999.2500  -999.2500     9.2823   -17.9232    98.8129     7.6228     6.5002     6.4803   -75.2914
 1450.0000  -999.2500  -999.2500  -999.2500  -999.2500     9.2819   -17.9268    97.2134     7.6220     6.8049     6.5999   -75.1917
 1450.5000  -999.2500  -999.2500  -999.2500  -999.2500     9.2817   -17.1498    91.4915     7.6804     6.7513     6.7033   -83.5598
 1451.0000  -999.2500  -999.2500  -999.2500  -999.2500     9.2818   -17.1337    86.8510     7.7625     6.7420     6.8462   -85.1763
 1451.5000  -999.2500  -999.2500  -999.2500  -999.2500     9.2818   -16.9361    86.0526     7.9791     6.7416     6.9090   -85.1745
 1452.0000  -999.2500  -999.2500  -999.2500  -999.2500     9.2020   -16.7386    86.8476     8.0523     6.7412     6.9086   -85.1727
 1452.5000  -999.2500  -999.2500  -999.2500  -999.2500     9.2418   -16.7402    89.6344     8.0519     6.8657     6.9083   -85.1709
 1453.0000  -999.2500  -999.2500  -999.2500  -999.2500     9.2417   -16.7419    91.6245     8.0515     6.8028     6.9079   -85.1691
 1453.5000  -999.2500  -999.2500  -999.2500  -999.2500     9.2232   -16.7435    92.8177     8.0510     6.8024     6.9074   -85.1673
 1454.0000  -999.2500  -999.2500  -999.2500  -999.2500     9.2416   -16.7455    92.0192     8.0506     6.8021     6.9070   -85.1655
 1454.5000  -999.2500  -999.2500  -999.2500  -999.2500     9.2415   -16.7458    88.4317     7.9765     6.8645     6.9065   -85.1637
 1455.0000  -999.2500  -999.2500  -999.2500  -999.2500     9.2415   -17.3463    90.0236     7.9760     6.8013     6.9062   -85.1620
 1455.5000  -999.2500  -999.2500  -999.2500  -999.2500     9.2414   -17.5471    93.2087     7.8303     6.7386     6.9058   -85.1602
 1456.0000  -999.2500  -999.2500  -999.2500  -999.2500     9.2413   -17.7479    96.7916     7.8299     6.7383     6.9055   -85.1584
 1456.5000  -999.2500  -999.2500  -999.2500  -999.2500     9.2413   -17.9486   100.3727     7.9018     6.6762     6.9050   -85.1569
 1457.0000  -999.2500  -999.2500  -999.2500  -999.2500     9.2213   -18.1494    99.1759     7.9013     6.6147     6.8415   -81.9490
 1457.5000  -999.2500  -999.2500  -999.2500  -999.2500     9.2411   -17.9519    92.8027     7.9009     6.6143     6.7785   -78.7411
 1458.0000  -999.2500  -999.2500  -999.2500  -999.2500     9.2411   -17.5552    89.6147     7.8282     6.3750     6.5335   -75.5331
 1458.5000  -999.2500  -999.2500  -999.2500  -999.2500     9.2410   -17.5559    92.0025     7.6851     6.2585     6.4142   -75.1585
 1459.0000  -999.2500  -999.2500  -999.2500  -999.2500     9.2603   -16.9611    94.3902     7.4757     6.2581     6.4139   -75.1563
 1459.5000  -999.2500  -999.2500  -999.2500  -999.2500     9.2608   -16.9627    95.5824     7.2054     6.3156     6.4135   -75.1541
 1460.0000  -999.2500  -999.2500  -999.2500  -999.2500     9.3006   -17.1635    92.3928     6.9448     6.3736     6.5320   -75.1521
 1460.5000  -999.2500  -999.2500  -999.2500  -999.2500     9.2209   -17.1651    89.9474     7.2046     6.3732     6.7142   -75.1502
 1461.0000  -999.2500  -999.2500  -999.2500  -999.2500     9.2606   -17.1668    88.4094     7.7540     6.3729     6.8384   -85.1405
 1461.5000  -999.2500  -999.2500  -999.2500  -999.2500     9.2605   -17.5666    90.7969     7.9703     6.4312     6.9648   -85.1387
 1462.0000  -999.2500  -999.2500  -999.2500  -999.2500     9.2605   -17.5683    92.3880     8.0435     6.6110     6.9644   -85.1369
 1462.5000  -999.2500  -999.2500  -999.2500  -999.2500     9.2604   -17.1717    93.5808     7.9695     6.7955     6.9640   -85.1351
 1463.0000  -999.2500  -999.2500  -999.2500  -999.2500     9.2404   -17.3054    93.5790     7.8961     6.9213     6.9636   -85.1333
 1463.5000  -999.2500  -999.2500  -999.2500  -999.2500     9.2404   -17.3741    92.3825     7.8957     6.7948     6.9632   -85.1315
 1464.0000  -999.2500  -999.2500  -999.2500  -999.2500     9.2403   -17.5748    90.7880     7.9682     6.7944     6.9628   -85.1297
 1464.5000  -999.2500  -999.2500  -999.2500  -999.2500     9.2402   -17.5764    91.5826     7.9677     6.7318     6.8988   -85.1279
 1465.0000  -999.2500  -999.2500  -999.2500  -999.2500     9.2402   -17.5780    95.9606     8.0409     6.6698     6.7728   -85.1262
 1465.5000  -999.2500  -999.2500  -999.2500  -999.2500     9.2401   -17.5797   101.5329     7.8217     6.6694     6.7105   -85.1247
 1466.0000  -999.2500  -999.2500  -999.2500  -999.2500     9.2799   -17.5813   105.9105     7.6085     6.6690     6.6487   -85.1226
 1466.5000  -999.2500  -999.2500  -999.2500  -999.2500     9.2798   -17.3839   110.6861     7.3333     6.4277     6.5875   -85.1211
 1467.0000  -999.2500  -999.2500  -999.2500  -999.2500     9.2797   -17.1483   107.1007     7.4690     6.3687     6.5269   -85.1191
 1467.5000  -999.2500  -999.2500  -999.2500  -999.2500     9.2797   -16.9890   103.5155     7.6775     6.3098     6.5267   -85.1171
 1468.0000  -999.2500  -999.2500  -999.2500  -999.2500     9.2796   -16.9906   102.3191     7.6068     6.3094     6.4666   -85.1154
 1468.5000  -999.2500  -999.2500  -999.2500  -999.2500     9.2795   -16.7932   101.9190     7.3994     6.3091     6.3483   -85.1136
 1469.0000  -999.2500  -999.2500  -999.2500  -999.2500     9.2795   -16.7949   101.9169     7.3990     6.3670     6.4066   -85.1118
 1469.5000  -999.2500  -999.2500  -999.2500  -999.2500     9.2795   -16.9956   103.5073     7.4669     6.4255     6.5250   -85.1100
 1470.0000  -999.2500  -999.2500  -999.2500  -999.2500     9.2793   -16.9972   105.4938     7.8178     6.4251     6.7689   -85.1083
 1470.5000  -999.2500  -999.2500  -999.2500  -999.2500     9.2793   -17.3969   104.6975     7.8896     6.4248     6.7685   -85.1065
 1471.0000  -999.2500  -999.2500  -999.2500  -999.2500     9.2593   -17.3976    97.5301     7.8891     6.5437     6.7682   -85.1047
 1471.5000  -999.2500  -999.2500  -999.2500  -999.2500     9.2791   -18.1963    93.9437     7.8165     6.6648     6.7678   -85.1032
 1472.0000  -999.2500  -999.2500  -999.2500  -999.2500     9.2791   -17.9989    92.7500     7.8161     6.6645     6.7674   -85.1011
 1472.5000  -999.2500  -999.2500  -999.2500  -999.2500     9.2790   -18.3986    98.3177     7.6732     6.6641     6.7671   -85.0993
 1473.0000  -999.2500  -999.2500  -999.2500  -999.2500     9.2790   -18.2012    95.9283     7.6728     6.6636     6.7665   -85.0972
 1473.5000  -999.2500  -999.2500  -999.2500  -999.2500     9.2988   -17.8048    95.1323     7.6724     6.6022     6.7662   -85.0954
