~VERSION INFORMATION
 VERS.                2.0:   CWLS LOG ASCII STANDARD - VERSION 2.0
 WRAP.                 NO:   ONE LINE PER DEPTH STEP
~WELL INFORMATION
#MNEM.UNIT      DATA TYPE    INFORMATION
#----------   ------------   ------------------------------
 STRT.F           40.0000:   START DEPTH
 STOP.F         3032.5000:   STOP DEPTH
 STEP.F            0.5000:   STEP LENGTH
 NULL.          -999.2500:   NO VALUE
 COMP.   TESORO PETROLEUM:   COMPANY
 WELL. TESORO NPR 3 "AX" #51-15:   WELL
 FLD .        TEAPOT DOME:   FIELD
 LOC .      S15 T38N R78W:   LOCATION
 CNTY.            NATRONA:   COUNTY
 STAT.            WYOMING:   STATE
 CTRY. UNITED STATES OF AMERICA:   COUNTRY
 SRVC.       SCHLUMBERGER:   SERVICE COMPANY
 DATE.        21-JUL-1969:   LOGDATE
 API .     49025100240000:   API NUMBER
~CURVE INFORMATION
#MNEM.UNIT       API CODE    CURVE DESCRIPTION
#----------   ------------   ------------------------------
 DEPT.F                  :   
 CALD.IN     45 280 60 00:   CALIPER FROM DENSITY LOG
 GRD .GAPI   45 310 01 00:   GAMMA RAY FROM DENSITY LOG
 RHOB.G/C3   45 350 01 00:   BULK DENSITY
 CORR.G/C3   45 356 01 00:   DENSITY CORRECTION
 GR  .GAPI   35 310 01 00:   GAMMA RAY FROM GAMMA RAY LOG
 SPR .MV     05 010 01 00:   SPONTANEOUS POTENTIAL
 ASN .OHMM   05 041 16 00:   AMPLIFIED SHORT NORMAL 16"
 ILD .OHMM   05 120 46 00:   DEEP INDUCTION RESISTIVITY
~PARAMETER INFORMATION
#MNEM.UNIT          VALUE    DESCRIPTION
#----------   ------------   ------------------------------
 EKB .F         5235.0000:   Kelly bushing
 EGL .F         5222.0000:   Ground level
 EDF .F            0.0000:   Drilling floor
 TD  .F         3027.0000:   Total depth
 DATE.        21-JUL-1969:   Date logged
 CLNT.            A2DTECH:   Client Code
 SL  . 2000' FEL & 660' FNL:   Surface Location
 PD  .                 GL:   Permanent Datum
 EPD .F              5222:   Elevation Permanent Datum
 LMF .                 KB:   Log Measured From
 DMF .                 KB:   Drilling Measured From
 DAPD.F                13:   Feet Above Permanent Datum
 DD  .F              3027:   Depth driller
 DL  .F              3025:   Depth logger
 BLI .F              3024:   Bottom log interval
 TLI .F              2604:   Top log interval
 CS1 .IN            10.75:   Casing size
 CBD1.      10.75" @ 622':   Casing driller 1
 BS1 .IN                9:   Bit size
 BSD1.F              3027:   Depth drilled with bit1
 DFT .          FRESH/GEL:   Type fluid in hole
 DFD .                9.7:   Density
 DFV .                 65:   Viscosity
 DFPH.                9.5:   pH
 DFL .                  7:   Fluid loss
 MSS .           FLOWLINE:   Source of sample
 RMS .OHMM           2.48:   Rm
 MST .F                80:   Rm Meas. temp.
 RMF .OHMM           2.80:   Rmf
 MFST.F                80:   Rmf Meas. temp.
 MFSS.               MEAS:   Source Rmf.
 RMB .OHMM           2.20:   Rm. at BHT
 BHT .F               106:   BHT.
 TCS .HRS               1:   Time Circ. stopped
 MRT .F               106:   Maximum recorded temp.
 LUN .               4507:   Logging unit number
 LUL .               CSPR:   Logging unit location
 ENGI.           CHAMPLIN:   Recorded By
 WITN.                MAY:   Witnessed by
 ORIG.           5" PRINT:   Origin of data
 UWI .     49025100240000:   Unique Well ID
 DICO. A2D TECHNOLOGIES, INC.:   Digitizing Company
~OTHER INFORMATION
~A   DEPT     CALD        GRD       RHOB       CORR         GR        SPR        ASN          ILD 
# ...
  202.0000  -999.2500  -999.2500  -999.2500  -999.2500    52.4570   -25.6250     9.2260     8.3550
  202.5000  -999.2500  -999.2500  -999.2500  -999.2500    54.2480   -25.7260     9.1960     8.3180
  203.0000  -999.2500  -999.2500  -999.2500  -999.2500    53.5330   -25.7100     9.1580     8.2810
  203.5000  -999.2500  -999.2500  -999.2500  -999.2500    51.7070   -25.4370     9.1230     8.2440
  204.0000  -999.2500  -999.2500  -999.2500  -999.2500    50.3450   -25.1350     9.0840     8.2070
  204.5000  -999.2500  -999.2500  -999.2500  -999.2500    51.2580   -25.0410     9.0660     8.1700
  205.0000  -999.2500  -999.2500  -999.2500  -999.2500    50.6030   -25.1870     9.0680     8.1330
  205.5000  -999.2500  -999.2500  -999.2500  -999.2500    50.3530   -25.3150     9.0670     8.0960
  206.0000  -999.2500  -999.2500  -999.2500  -999.2500    51.2490   -25.4050     9.0670     8.0590
  206.5000  -999.2500  -999.2500  -999.2500  -999.2500    52.1730   -25.4450     9.0690     8.0220
  207.0000  -999.2500  -999.2500  -999.2500  -999.2500    52.7110   -25.5090     9.0540     7.9850
  207.5000  -999.2500  -999.2500  -999.2500  -999.2500    49.7140   -25.5680     9.0140     7.9490
  208.0000  -999.2500  -999.2500  -999.2500  -999.2500    47.7990   -25.6280     8.9770     7.9100
  208.5000  -999.2500  -999.2500  -999.2500  -999.2500    49.0600   -25.6880     8.9380     7.8750
  209.0000  -999.2500  -999.2500  -999.2500  -999.2500    50.7240   -25.7480     8.8980     7.8460
  209.5000  -999.2500  -999.2500  -999.2500  -999.2500    51.1530   -25.8080     8.8730     7.9170
  210.0000  -999.2500  -999.2500  -999.2500  -999.2500    51.9800   -25.8680     8.8660     7.9930
  210.5000  -999.2500  -999.2500  -999.2500  -999.2500    53.4160   -25.9290     8.9270     8.0720
  211.0000  -999.2500  -999.2500  -999.2500  -999.2500    52.9080   -25.9880     9.0390     8.1470
  211.5000  -999.2500  -999.2500  -999.2500  -999.2500    51.8500   -26.0500     9.1350     8.2330
  212.0000  -999.2500  -999.2500  -999.2500  -999.2500    51.4490   -26.1070     9.2330     8.3440
  212.5000  -999.2500  -999.2500  -999.2500  -999.2500    51.1890   -26.1740     9.3670     8.4700
  213.0000  -999.2500  -999.2500  -999.2500  -999.2500    50.9270   -26.1800     9.8240     8.5950
  213.5000  -999.2500  -999.2500  -999.2500  -999.2500    51.0930   -26.1810    10.3710     8.7200
  214.0000  -999.2500  -999.2500  -999.2500  -999.2500    51.3800   -26.1800    10.4150     8.8450
  214.5000  -999.2500  -999.2500  -999.2500  -999.2500    48.9530   -26.1810    10.4180     8.9690
  215.0000  -999.2500  -999.2500  -999.2500  -999.2500    47.6760   -26.1820    10.4110     9.0700
  215.5000  -999.2500  -999.2500  -999.2500  -999.2500    48.4710   -26.1600    10.4190     9.1330
  216.0000  -999.2500  -999.2500  -999.2500  -999.2500    49.2850   -26.0770    10.4070     9.2110
  216.5000  -999.2500  -999.2500  -999.2500  -999.2500    50.4850   -25.9960    10.4320     9.0330
  217.0000  -999.2500  -999.2500  -999.2500  -999.2500    50.2680   -25.9140    10.2320     8.7730
  217.5000  -999.2500  -999.2500  -999.2500  -999.2500    49.1950   -25.8280     9.8430     8.5290
  218.0000  -999.2500  -999.2500  -999.2500  -999.2500    48.9740   -25.7830     9.5810     8.2570
  218.5000  -999.2500  -999.2500  -999.2500  -999.2500    49.5060   -25.8140     9.3890     8.1470
  219.0000  -999.2500  -999.2500  -999.2500  -999.2500    49.2740   -25.8870     9.2850     8.0390
  219.5000  -999.2500  -999.2500  -999.2500  -999.2500    49.7950   -25.9660     9.1910     7.9370
  220.0000  -999.2500  -999.2500  -999.2500  -999.2500    50.2170   -26.0380     9.0960     7.8290
  220.5000  -999.2500  -999.2500  -999.2500  -999.2500    47.2260   -26.1170     9.0000     7.7240
  221.0000  -999.2500  -999.2500  -999.2500  -999.2500    46.3160   -26.2060     8.9050     7.6210
  221.5000  -999.2500  -999.2500  -999.2500  -999.2500    47.4050   -26.5340     8.8090     7.5050
  222.0000  -999.2500  -999.2500  -999.2500  -999.2500    48.0690   -26.8240     8.7130     7.4350
  222.5000  -999.2500  -999.2500  -999.2500  -999.2500    49.6050   -27.1450     8.6330     7.4450
  223.0000  -999.2500  -999.2500  -999.2500  -999.2500    52.1420   -27.4360     8.6030     7.4370
  223.5000  -999.2500  -999.2500  -999.2500  -999.2500    50.7150   -27.7210     8.5780     7.4760
  224.0000  -999.2500  -999.2500  -999.2500  -999.2500    48.6580   -27.5060     8.5540     7.5480
  224.5000  -999.2500  -999.2500  -999.2500  -999.2500    45.6280   -27.2740     8.5530     7.6140
  225.0000  -999.2500  -999.2500  -999.2500  -999.2500    46.8720   -26.9910     8.5570     7.6820
  225.5000  -999.2500  -999.2500  -999.2500  -999.2500    46.5250   -26.9700     8.6260     7.7500
  226.0000  -999.2500  -999.2500  -999.2500  -999.2500    48.1440   -26.9650     8.6980     7.8180
  226.5000  -999.2500  -999.2500  -999.2500  -999.2500    50.9120   -26.9710     8.7730     7.8850
  227.0000  -999.2500  -999.2500  -999.2500  -999.2500    48.7790   -26.9680     8.8450     7.9530
  227.5000  -999.2500  -999.2500  -999.2500  -999.2500    49.3740   -26.9700     8.9180     8.0210
  228.0000  -999.2500  -999.2500  -999.2500  -999.2500    49.4060   -26.9690     8.9920     8.0880
  228.5000  -999.2500  -999.2500  -999.2500  -999.2500    52.9800   -26.9690     9.0640     8.1570
  229.0000  -999.2500  -999.2500  -999.2500  -999.2500    52.4140   -26.9690     9.1390     8.2230
  229.5000  -999.2500  -999.2500  -999.2500  -999.2500    50.9900   -26.9690     9.2100     8.2930
  230.0000  -999.2500  -999.2500  -999.2500  -999.2500    50.8710   -26.9690     9.2830     8.3590
  230.5000  -999.2500  -999.2500  -999.2500  -999.2500    51.7530   -26.9690     9.3150     8.4250
  231.0000  -999.2500  -999.2500  -999.2500  -999.2500    51.8100   -26.9690     9.3450     8.3960
  231.5000  -999.2500  -999.2500  -999.2500  -999.2500    50.4600   -26.9690     9.3090     8.3580
  232.0000  -999.2500  -999.2500  -999.2500  -999.2500    49.1100   -26.9680     9.2830     8.3180
  232.5000  -999.2500  -999.2500  -999.2500  -999.2500    49.7320   -26.9690     9.2510     8.2810
  233.0000  -999.2500  -999.2500  -999.2500  -999.2500    50.4700   -26.9700     9.2230     8.2420
  233.5000  -999.2500  -999.2500  -999.2500  -999.2500    49.6140   -27.0020     9.1940     8.2040
  234.0000  -999.2500  -999.2500  -999.2500  -999.2500    48.5660   -27.0370     9.1620     8.1660
  234.5000  -999.2500  -999.2500  -999.2500  -999.2500    49.9000   -27.0730     9.1480     8.1260
  235.0000  -999.2500  -999.2500  -999.2500  -999.2500    51.7160   -27.1080     9.1550     8.0920
  235.5000  -999.2500  -999.2500  -999.2500  -999.2500    52.0940   -27.1430     9.1600     8.0430
  236.0000  -999.2500  -999.2500  -999.2500  -999.2500    51.9710   -27.1780     9.1650     8.1040
  236.5000  -999.2500  -999.2500  -999.2500  -999.2500    52.7690   -27.2140     9.1720     8.2350
  237.0000  -999.2500  -999.2500  -999.2500  -999.2500    51.5000   -27.2470     9.1750     8.3500
  237.5000  -999.2500  -999.2500  -999.2500  -999.2500    50.9720   -27.2860     9.1830     8.4680
  238.0000  -999.2500  -999.2500  -999.2500  -999.2500    51.6140   -27.3180     9.1940     8.5870
  238.5000  -999.2500  -999.2500  -999.2500  -999.2500    53.2890   -27.3520     9.3310     8.7040
  239.0000  -999.2500  -999.2500  -999.2500  -999.2500    54.9450   -27.2060     9.4880     8.8280
  239.5000  -999.2500  -999.2500  -999.2500  -999.2500    54.8780   -26.9980     9.6480     8.9690
  240.0000  -999.2500  -999.2500  -999.2500  -999.2500    55.6050   -26.8080     9.8020     9.1190
  240.5000  -999.2500  -999.2500  -999.2500  -999.2500    55.8990   -26.6030     9.9690     9.2680
  241.0000  -999.2500  -999.2500  -999.2500  -999.2500    53.6340   -26.7410    10.1100     9.4170
  241.5000  -999.2500  -999.2500  -999.2500  -999.2500    53.7460   -26.9430    10.2160     9.5660
  242.0000  -999.2500  -999.2500  -999.2500  -999.2500    54.5330   -27.1410    10.3330     9.7150
