~VERSION INFORMATION
 VERS.                2.0:   CWLS LOG ASCII STANDARD - VERSION 2.0
 WRAP.                 NO:   ONE LINE PER DEPTH STEP
~WELL INFORMATION
#MNEM.UNIT      DATA TYPE    INFORMATION
#----------   ------------   ------------------------------
 STRT.F          514.0000:   START DEPTH
 STOP.F         4154.0000:   STOP DEPTH
 STEP.F            0.5000:   STEP LENGTH
 NULL.          -999.2500:   NO VALUE
 COMP.    FENIX & SCISSON:   COMPANY
 WELL.  FENIX "MX" #86-10:   WELL
 FLD .        TEAPOT DOME:   FIELD
 LOC .      S10 T38N R78W:   LOCATION
 CNTY.            NATRONA:   COUNTY
 STAT.            WYOMING:   STATE
 CTRY. UNITED STATES OF AMERICA:   COUNTRY
 SRVC.       SCHLUMBERGER:   SERVICE COMPANY
 DATE.        30-SEP-1978:   LOGDATE
 API .     49025107290000:   API NUMBER
~CURVE INFORMATION
#MNEM.UNIT       API CODE    CURVE DESCRIPTION
#----------   ------------   ------------------------------
 DEPT.F                  :   
 SPR .MV     07 010 01 00:   SPONTANEOUS POTENTIAL
 TENR.LBS    07 635 01 00:   TENSION FROM RESISTIVITY
 SFL .OHMM   07 220 01 00:   SHALLOW FOCUSED LOG RESISTIVITY
 ILM .OHMM   07 120 44 00:   INDUCTION LOG MEDIUM RESISTIVITY
 ILD .OHMM   07 120 46 00:   INDUCTION LOG DEEP RESISTIVITY
 CALD.IN     45 280 60 00:   CALIPER FROM DENSITY LOG
 GRD .GAPI   45 310 01 00:   GAMMA RAY FROM DENSITY LOG
 TEND.LBS    45 635 01 00:   TENSION FROM DENSITY LOG
 CORR.G/C3   45 356 01 00:   DENSITY CORRECTION
 RHOB.G/C3   45 350 01 00:   BULK DENSITY
 NPHI.DEC    42 890 03 00:   NEUTRON POROSITY SANDSTONE
~PARAMETER INFORMATION
#MNEM.UNIT          VALUE    DESCRIPTION
#----------   ------------   ------------------------------
 EKB .F         5233.0000:   Kelly bushing
 EGL .F         5222.0000:   Ground level
 EDF .F            0.0000:   Drilling floor
 TD  .F         4150.0000:   Total depth
 DATE.        30-SEP-1978:   Date logged
 CLNT.            A2DTECH:   Client Code
 SL  . 1450' FSL & 600' FEL:   Surface Location
 PD  .                 GL:   Permanent Datum
 LMF .                 KB:   Log Measured From
 DMF .                 KB:   Drilling Measured From
 DAPD.F                11:   Feet Above Permanent Datum
 DD  .F              4150:   Depth driller
 DL  .F              4141:   Depth logger
 BLI .F              4135:   Bottom log interval
 TLI .F               520:   Top log interval
 CS1 .IN            9.625:   Casing size
 CBD1.      9.625" @ 529':   Casing driller 1
 CBL1.F               529:   Casing logger 1
 BS1 .IN             8.75:   Bit size
 BSD1.F              4150:   Depth drilled with bit1
 DFT .                FGM:   Type fluid in hole
 DFD .                9.5:   Density
 DFV .                 36:   Viscosity
 DFPH.                 11:   pH
 DFL .                 60:   Fluid loss
 MSS .           MUD TANK:   Source of sample
 RMS .OHMM            .57:   Rm
 MST .F                68:   Rm Meas. temp.
 RMF .OHMM           .449:   Rmf
 MFST.F                68:   Rmf Meas. temp.
 MFSS.               MEAS:   Source Rmf.
 RMB .OHMM            .27:   Rm. at BHT
 BHT .F               142:   BHT.
 TCS .HRS            1500:   Time Circ. stopped
 TLAB.HRS            0700:   Time logger at bottom
 MRT .F               142:   Maximum recorded temp.
 LUN .               8043:   Logging unit number
 LUL .               CSPR:   Logging unit location
 ENGI.             LARSON:   Recorded By
 WITN.           DINSMORE:   Witnessed by
 ORIG.           5" PRINT:   Origin of data
 UWI .     49025107290000:   Unique Well ID
 DICO. A2D TECHNOLOGIES, INC.:   Digitizing Company
 EPD .               5222:   Elevation Permanent Datum
~OTHER INFORMATION
~A   DEPT      SPR       TENR        SFL        ILM        ILD       CALD         GRD      TEND       CORR       RHOB         NPHI 
# ...
 1246.0000   -38.1230   381.7000     8.4290     7.4900     7.8570    13.9150    86.7030   737.0520     0.0310     2.5120     0.3350
 1246.5000   -38.3520   381.5200     8.3340     7.4280     7.7950    13.9070    88.2680   737.0520     0.0490     2.5240     0.3510
 1247.0000   -37.9020   381.3390     8.2510     7.3650     7.7320    13.8990    88.7360   737.0520     0.0680     2.5520     0.3660
 1247.5000   -37.5310   381.1580     8.1680     7.3030     7.6700    13.8920    87.5430   737.0520     0.0980     2.5600     0.3710
 1248.0000   -37.1480   380.9770     8.0850     7.2400     7.6080    13.8860    86.2500   737.0520     0.0880     2.5500     0.3700
 1248.5000   -36.9300   380.7960     8.0020     7.1770     7.5460    13.9250    84.9250   737.0520     0.0600     2.5290     0.3800
 1249.0000   -37.2950   380.6150     7.9190     7.1440     7.4840    13.9630    83.5720   735.9160     0.0480     2.5010     0.3920
 1249.5000   -37.6130   380.4340     7.8310     7.1440     7.4220    14.0070    82.3440   734.4360     0.0390     2.4940     0.3830
 1250.0000   -38.0090   380.2530     7.8580     7.1440     7.3590    14.0440    80.8410   732.9570     0.0430     2.4910     0.3700
 1250.5000   -37.8840   380.0730     7.8870     7.1430     7.2760    14.0750    82.0080   731.4770     0.0460     2.5160     0.3570
 1251.0000   -37.6790   379.8920     7.9150     7.1440     7.3120    13.9520    83.1230   729.9970     0.0470     2.5310     0.3440
 1251.5000   -37.9740   379.7110     7.9440     7.1440     7.3660    13.8480    82.7760   728.5180     0.0480     2.5330     0.3310
 1252.0000   -38.1350   379.5300     7.9720     7.1440     7.4200    13.8350    82.1250   727.0380     0.0450     2.5270     0.3240
 1252.5000   -38.2590   379.3490     8.0010     7.1430     7.4740    13.8260    81.5750   725.5580     0.0400     2.5140     0.3370
 1253.0000   -38.3930   379.1680     8.0290     7.1430     7.5280    13.8200    84.2980   724.0780     0.0460     2.5110     0.3570
 1253.5000   -38.2890   378.9870     8.0580     7.1430     7.5820    13.8120    87.9150   722.5990     0.0460     2.5180     0.3750
 1254.0000   -37.7930   378.8060     8.0860     7.1430     7.6360    13.8040    90.1800   721.1190     0.0400     2.5230     0.3730
 1254.5000   -37.3480   378.6260     8.1250     7.0890     7.6890    13.8100    89.4100   719.6390     0.0330     2.5250     0.3640
 1255.0000   -36.8890   378.4450     8.0610     7.0440     7.6300    13.8220    87.1570   718.1600     0.0290     2.5300     0.3590
 1255.5000   -37.0610   378.2640     7.9630     6.9990     7.5730    13.8340    85.9940   716.6800     0.0270     2.5260     0.3600
 1256.0000   -37.2590   378.0830     7.8640     6.9530     7.5160    13.8460    85.7310   715.2000     0.0260     2.5160     0.3590
 1256.5000   -37.4770   377.9020     7.7660     6.9070     7.4590    13.8580    86.2390   713.7210     0.0240     2.5090     0.3590
 1257.0000   -37.6400   377.7340     7.6670     6.8620     7.4010    13.8690    85.3840   712.2410     0.0300     2.5090     0.3700
 1257.5000   -37.5610   378.8930     7.5690     6.8160     7.3440    13.8830    83.8300   710.7610     0.0360     2.5090     0.3780
 1258.0000   -37.4980   379.9780     7.4710     6.7710     7.2870    13.8700    83.3260   709.2820     0.0360     2.5060     0.3730
 1258.5000   -37.4280   381.0640     7.4110     6.7520     7.2300    13.8370    84.1560   707.8020     0.0260     2.5000     0.3300
 1259.0000   -37.3590   382.1490     7.4110     6.7310     7.1730    13.8050    84.8030   706.3220     0.0170     2.4970     0.3370
 1259.5000   -37.2760   383.2340     7.4110     6.7090     7.1380    13.7730    85.4520   704.8420     0.0160     2.4980     0.3480
 1260.0000   -37.3430   384.3190     7.4110     6.6880     7.1270    13.7390    84.8700   703.3630     0.0440     2.5240     0.3590
 1260.5000   -37.5690   385.4040     7.4110     6.6670     7.1150    13.7220    84.1970   701.8830     0.0780     2.5680     0.3540
 1261.0000   -37.7720   386.4890     7.4110     6.6450     7.1040    13.7510    83.3890   700.4030     0.0880     2.5840     0.3460
 1261.5000   -37.9780   387.5750     7.4110     6.6240     7.0930    13.7740    83.6770   698.9240     0.0630     2.5610     0.3380
 1262.0000   -37.7800   388.6600     7.4110     6.6030     7.0810    13.7980    84.8920   697.2110     0.0460     2.5340     0.3430
 1262.5000   -37.2890   389.7450     7.4110     6.5820     7.0700    13.7410    86.2280   698.9030     0.0330     2.5260     0.3570
 1263.0000   -37.4260   390.8300     7.4120     6.5610     7.0580    13.6810    85.9970   700.9100     0.0310     2.5220     0.3590
 1263.5000   -37.6270   391.9150     7.4270     6.5390     7.0470    13.6150    85.6180   702.9170     0.0370     2.5180     0.3540
 1264.0000   -37.8420   393.0000     7.4440     6.5170     7.0360    13.5550    86.1990   704.9240     0.0470     2.5170     0.3500
 1264.5000   -38.0470   394.0850     7.4630     6.5880     7.0260    13.5180    86.9820   706.9310     0.0510     2.5260     0.3500
 1265.0000   -37.9510   395.1710     7.4810     6.6620     7.0160    13.5470    87.7620   708.9380     0.0470     2.5330     0.3520
 1265.5000   -37.7830   396.2560     7.4990     6.7370     7.1030    13.5700    88.4040   710.9450     0.0440     2.5390     0.3490
 1266.0000   -37.6160   397.3410     7.5170     6.8110     7.1850    13.6010    89.8770   712.9520     0.0400     2.5460     0.3430
 1266.5000   -37.4650   398.4260     7.5350     6.8860     7.2700    13.5720    91.6750   714.9590     0.0400     2.5520     0.3360
 1267.0000   -37.2950   399.5110     7.5490     6.9610     7.3540    13.5050    93.4450   716.9660     0.0390     2.5590     0.3310
 1267.5000   -37.4690   400.5960     7.6040     7.0350     7.4380    13.4770    91.1520   718.9730     0.0380     2.5610     0.3370
 1268.0000   -37.8010   401.6820     7.6700     7.1100     7.5220    13.4800    87.3300   720.9800     0.0370     2.5500     0.3470
 1268.5000   -38.1010   402.7670     7.7360     7.1440     7.6070    13.4800    81.8170   722.9870     0.0360     2.5400     0.3510
 1269.0000   -38.4150   403.8520     7.8020     7.2350     7.6890    13.4790    79.7070   724.9940     0.0370     2.5320     0.3430
 1269.5000   -38.1100   404.9370     7.8680     7.3130     7.8310    13.4790    79.0480   727.0010     0.0360     2.5280     0.3380
 1270.0000   -37.7800   406.0220     7.9340     7.3900     7.7000    13.4720    79.2640   729.0080     0.0310     2.5240     0.3410
 1270.5000   -37.4180   407.1070     7.9770     7.2110     7.5490    13.4650    81.1440   731.0160     0.0260     2.5420     0.3430
 1271.0000   -37.0390   408.1930     7.7410     6.9370     7.3990    13.4570    82.7180   733.0230     0.0420     2.5770     0.3410
 1271.5000   -36.9190   409.2780     7.4970     6.6640     7.2490    13.4510    84.5710   735.0300     0.0610     2.6040     0.3430
 1272.0000   -37.1830   410.3630     7.2540     6.3900     7.0990    13.4430    85.4130   737.0520     0.0780     2.6080     0.3470
 1272.5000   -37.4060   411.4480     7.0110     6.1170     6.9480    13.4360    84.7310   732.4610     0.0810     2.5560     0.3600
 1273.0000   -37.6330   412.5330     6.7670     5.9440     6.7980    13.4870    85.4090   727.8360     0.0930     2.5510     0.3770
 1273.5000   -37.6480   413.6180     6.3980     5.9700     6.6480    13.6090    86.2840   723.2120     0.1080     2.5450     0.3860
 1274.0000   -37.6460   414.7030     6.4880     6.0760     6.3980    13.7340    87.0590   718.5870     0.1060     2.5430     0.3830
 1274.5000   -37.6540   415.7890     6.6760     6.1810     6.4650    13.7230    87.8710   713.9620     0.0440     2.4960     0.3710
 1275.0000   -37.6800   416.8740     6.8640     6.2870     6.6660    13.5860    86.9360   709.3370     0.0290     2.4660     0.3710
 1275.5000   -38.0800   417.9590     7.0510     6.3930     6.8670    13.5140    85.8370   704.7120     0.0230     2.4760     0.3700
 1276.0000   -38.4080   419.0440     7.2390     6.4990     7.0680    13.5210    85.9230   700.0870     0.0200     2.4870     0.3690
