~VERSION INFORMATION
 VERS.                2.0:   CWLS LOG ASCII STANDARD - VERSION 2.0
 WRAP.                 NO:   ONE LINE PER DEPTH STEP
~WELL INFORMATION
#MNEM.UNIT      DATA TYPE    INFORMATION
#----------   ------------   ------------------------------
 STRT.F          502.0000:   START DEPTH
 STOP.F         4210.0000:   STOP DEPTH
 STEP.F            0.5000:   STEP LENGTH
 NULL.          -999.2500:   NO VALUE
 COMP.   FENIX & SCISSION:   COMPANY
 WELL. FENIX NPR 3 "JX" #43-34:   WELL
 FLD .              N P R:   FIELD
 LOC .      S34 T39N R78W:   LOCATION
 CNTY.            NATRONA:   COUNTY
 STAT.            WYOMING:   STATE
 CTRY. UNITED STATES OF AMERICA:   COUNTRY
 SRVC.              WELEX:   SERVICE COMPANY
 DATE.        05-FEB-1979:   LOGDATE
 API .     49025107690000:   API NUMBER
~CURVE INFORMATION
#MNEM.UNIT       API CODE    CURVE DESCRIPTION
#----------   ------------   ------------------------------
 DEPT.F                  :   
 TENR.LBS    07 635 01 00:   TENSION FROM RESISTIVITY
 SPR .MV     07 010 01 00:   SPONTANEOUS POTENTIAL
 SFL .OHMM   07 220 01 00:   SHALLOW FOCUSED LOG RESISTIVITY
 ILD .OHMM   07 120 46 00:   DEEP INDUCTION RESISTIVITY
 ILM .OHMM   07 120 44 00:   INDUCTION LOG MEDIUM RESISTIVITY
 TEND.LBS    45 635 01 00:   TENSION FROM DENSITY LOG
 CALD.IN     45 280 60 00:   CALIPER FROM DENSITY LOG
 GRD .GAPI   45 310 01 00:   GAMMA RAY FROM DENSITY LOG
 CORR.G/C3   45 356 01 00:   DENSITY CORRECTION
 NPHI.DEC    42 890 03 00:   NEUTRON POROSITY SANDSTONE
 RHOB.G/C3   45 350 01 00:   BULK DENSITY
~PARAMETER INFORMATION
#MNEM.UNIT          VALUE    DESCRIPTION
#----------   ------------   ------------------------------
 EKB .F         5108.0000:   Kelly bushing
 EGL .F         5098.0000:   Ground level
 TD  .F         4204.0000:   Total depth
 DATE.        05-FEB-1979:   Date logged
 CLNT.            A2DTECH:   Client Code
 SL  . 1627' FNL & 2110' FWL:   Surface Location
 PD  .                 GL:   Permanent Datum
 DD  .F              4200:   Depth driller
 DL  .F              4204:   Depth logger
 BLI .F              4202:   Bottom log interval
 CS1 .IN            8.625:   Casing size
 CBD1.      8.625" @ 506':   Casing driller 1
 CBL1.F               506:   Casing logger 1
 BS1 .IN            7.875:   Bit size
 DFT .           CHEM/GEL:   Type fluid in hole
 DFD .                9.2:   Density
 DFV .                 55:   Viscosity
 DFPH.                9.5:   pH
 DFL .                5.7:   Fluid loss
 MSS .            MUD/PIT:   Source of sample
 RMS .OHMM            1.1:   Rm
 MST .F                52:   Rm Meas. temp.
 RMF .OHMM            .45:   Rmf
 MFST.F                52:   Rmf Meas. temp.
 RMC .OHMM            1.8:   Rmc
 MCST.F                52:   Rmc Meas. temp.
 MFSS.               MEAS:   Source Rmf.
 RMB .OHMM           5.06:   Rm. at BHT
 BHT .F               128:   BHT.
 TCS .HRS               8:   Time Circ. stopped
 MRT .F               128:   Maximum recorded temp.
 LUN .               9685:   Logging unit number
 LUL .             CASPER:   Logging unit location
 ENGI.        KEIN/JOINER:   Recorded By
 WITN.        J. DINSMORE:   Witnessed by
 ORIG.           5" PRINT:   Origin of data
 UWI .     49025107690000:   Unique Well ID
 DICO. A2D TECHNOLOGIES, INC.:   Digitizing Company
 DAPD.F                10:   Feet Above Permanent Datum
 BSD1.F              4200:   Depth drilled with bit1
 MCSS.               MEAS:   Source Rmc.
 EPD .F              5098:   Elevation Permanent Datum
 LMF .                 KB:   Log Measured From
 DMF .                 KB:   Drilling Measured From
 TLI .F               500:   Top log interval
~OTHER INFORMATION
~A   DEPT     TENR        SPR        SFL        ILD        ILM        TEND        CALD       GRD        CORR       NPHI       RHOB 
# ...
 4162.0000  1696.0120   -36.7490     8.1850     7.4650     6.0960  1863.0200     8.2200   112.5150     0.0050     0.2100     2.5270
 4162.5000  1696.0660   -36.7170     8.5290     7.4030     6.0960  1862.3840     8.2200   114.9820     0.0090     0.2110     2.5290
 4163.0000  1696.1200   -36.6830     9.3890     7.3510     6.0960  1861.7490     8.2200   117.2910     0.0200     0.2130     2.5260
 4163.5000  1696.1740   -36.6500    10.5930     7.2990     6.0220  1861.1130     8.2200   119.5950     0.0190     0.2160     2.5340
 4164.0000  1696.2280   -36.6170    10.0590     7.2470     5.9300  1860.4780     8.2200   121.8730     0.0220     0.2200     2.5510
 4164.5000  1696.2820   -36.5830     9.1680     7.1950     5.7130  1859.8420     8.2200   125.1300     0.0230     0.2210     2.5630
 4165.0000  1696.3361   -36.5500     8.2780     6.8840     5.5100  1859.2061     8.2200   129.5980     0.0330     0.2220     2.5540
 4165.5000  1696.3900   -36.5160     7.7450     6.5730     5.3070  1858.5710     8.2200   135.3930     0.0390     0.2260     2.5380
 4166.0000  1696.4440   -36.4830     8.1850     6.2670     5.1040  1857.9351     8.2200   141.8680     0.0380     0.2320     2.5180
 4166.5000  1696.4980   -36.4500     7.8100     6.0630     4.9010  1857.2990     8.2200   154.3870     0.0310     0.2370     2.4950
 4167.0000  1696.5520   -36.4160     6.6840     5.6980     4.6980  1856.6639     8.2200   166.1150     0.0220     0.2370     2.4680
 4167.5000  1696.6060   -36.3830     6.5620     5.3330     4.4960  1856.0280     8.2200   178.8280     0.0150     0.2370     2.4780
 4168.0000  1696.6600   -36.3500     5.6800     4.9680     4.2930  1855.3920     8.2200   189.9950     0.0110     0.2340     2.5000
 4168.5000  1696.7150   -36.3160     4.7100     4.6030     4.0900  1854.7570     8.2200   200.6290     0.0120     0.2310     2.5160
 4169.0000  1696.7690   -36.2830     4.6240     4.4420     3.8460  1854.1210     8.2200   204.7650     0.0140     0.2280     2.5250
 4169.5000  1696.8230   -36.2500     4.7110     4.4160     3.7760  1853.4850     8.2150   207.3490     0.0170     0.2310     2.5360
 4170.0000  1696.8770   -36.2170     4.9270     4.3760     3.7990  1852.8500     8.2100   199.6910     0.0210     0.2380     2.5470
 4170.5000  1696.9310   -36.1830     5.1430     4.4310     3.8370  1852.2140     8.2060   153.8360     0.0250     0.2440     2.5530
 4171.0000  1696.9850   -36.1490     5.3600     4.5710     3.8760  1851.5780     8.2010   135.7150     0.0300     0.2470     2.5410
 4171.5000  1697.0389   -36.1180     5.5760     4.7100     3.9140  1850.9430     8.1960   125.0130     0.0330     0.2530     2.5260
 4172.0000  1697.0930   -36.0820     6.2190     4.8900     3.9520  1850.3070     8.1910   120.6980     0.0410     0.2640     2.5110
 4172.5000  1697.1470   -36.0470     7.1470     5.0700     3.9910  1849.6710     8.1870   120.4440     0.0510  -999.2500     2.5000
 4173.0000  1697.2010   -35.9360     7.8890     5.0700     4.0090  1849.0360     8.1820   122.1320     0.0620  -999.2500     2.4920
 4173.5000  1697.2550   -35.8390     6.6810     4.8900     4.0400  1848.4000     8.1800   124.4050     0.0630  -999.2500     2.4800
 4174.0000  1697.3090   -35.7360     5.8750     4.7100     4.0650  1847.7640     8.1800   126.5260     0.0600  -999.2500     2.4650
 4174.5000  1697.3630   -35.6580     5.6380     4.0620     3.9150  1847.1290     8.1800   129.0060     0.0560  -999.2500     2.4500
 4175.0000  1697.4170   -35.6430     5.0040     3.7640     3.7270  1846.4930     8.1800   130.2170     0.0530  -999.2500     2.4440
 4175.5000  1697.4709   -35.6280     4.0780     3.6280     3.5400  1845.8571     8.1800   131.6430     0.0500  -999.2500     2.4500
 4176.0000  1697.5250   -35.6160     3.5510     3.4640     3.3520  1845.2220     8.1790   132.9160     0.0460  -999.2500     2.4560
 4176.5000  1697.5790   -35.6030     3.2910     3.2820     3.1640  1844.5861     8.1820   133.8690     0.0430  -999.2500     2.4630
 4177.0000  1697.6331   -35.5900     3.0550     3.1000     2.9770  1843.9500     8.1590   132.6370     0.0400  -999.2500     2.4700
 4177.5000  1697.6870   -35.5770     3.0270     2.9180     2.8120  1843.3149     8.0910   131.6470     0.0360  -999.2500     2.4760
 4178.0000  1697.7410   -35.5640     3.2060     2.9280     2.7910  1842.6790     8.0760   130.3320     0.0350  -999.2500     2.4790
 4178.5000  1697.7950   -35.5510     3.4100     2.9380     2.7690  1842.0430     8.1290   131.1100     0.0420  -999.2500     2.4740
 4179.0000  1697.8490   -35.5380     3.5730     2.9490     2.7610  1841.4080     8.1760   133.5760     0.0470  -999.2500     2.4700
 4179.5000  1697.9030   -35.5250     4.1400     2.9590     2.7660  1840.7720     8.1620   135.8400     0.0530  -999.2500     2.4730
 4180.0000  1697.9570   -35.5120     4.2960     2.9720     2.7700  1840.1360     8.1450   137.9590     0.0590  -999.2500     2.4800
 4180.5000  1698.0110   -35.4990     3.3810     2.9720     2.7740  1839.5010     8.1260   137.9900     0.0640  -999.2500     2.4870
 4181.0000  1698.0649   -35.4860     3.3810     2.9720     2.7780  1838.8650     8.1070   138.2530     0.0660  -999.2500     2.4940
 4181.5000  1698.1200   -35.4730     3.5730     2.9720     2.7820  1838.2290     8.1080   138.4220     0.0660  -999.2500     2.4980
 4182.0000  1698.1740   -35.4600     3.5250     2.9720     2.7860  1837.5940     8.1260   138.6320     0.0640  -999.2500     2.4980
 4182.5000  1698.2280   -35.4470     3.4440     2.9720     2.7900  1836.9580     8.1380   138.7980     0.0630  -999.2500     2.4950
 4183.0000  1698.2820   -35.4340     3.5930     2.9720     2.7940  1836.3220     8.1140  -999.2500     0.0670  -999.2500     2.4910
 4183.5000  1698.3361   -35.4210     3.8420     2.9730     2.7980  1835.6870     8.0940  -999.2500     0.0720  -999.2500     2.4830
 4184.0000  1698.3900   -35.4080     4.1400     2.9690     2.8010  1835.0510     8.0690  -999.2500     0.0750  -999.2500     2.4750
 4184.5000  1698.4440   -35.3950     4.0290     2.9340     2.8060  1834.4150     8.0660  -999.2500     0.0730  -999.2500     2.4740
 4185.0000  1698.4980   -35.3820     3.6480     2.9040     2.8120  1833.7800     8.0820  -999.2500     0.0720  -999.2500     2.4770
 4185.5000  1698.5520   -35.3690     3.1990     2.8740     2.7980  1833.1440     8.0960  -999.2500     0.0700  -999.2500     2.4690
 4186.0000  1698.6060   -35.3560     3.3310     2.8430     2.7640  1832.5081     8.0860  -999.2500     0.0670  -999.2500     2.4620
 4186.5000  1698.6600   -35.3430     3.5510     2.8120     2.7300  1831.8730     8.0660  -999.2500     0.0650  -999.2500     2.4530
 4187.0000  1698.7140   -35.3300     3.6390     2.7760     2.6950  1831.2371     8.0460  -999.2500     0.0630  -999.2500     2.4450
 4187.5000  1698.7679   -35.3170     3.4190     2.7390     2.6610  1835.0100     8.0240  -999.2500     0.0600  -999.2500     2.4450
 4188.0000  1698.8220   -35.3040     3.1990     2.7100     2.6610  1841.6630     8.0380  -999.2500     0.0590  -999.2500     2.4580
 4188.5000  1698.8760   -35.2910     3.3210     2.8230     2.6610  1848.3170     8.0680  -999.2500     0.0630  -999.2500     2.4690
 4189.0000  1698.9301   -35.2780     3.4730     2.9170     2.6610  1854.9700     8.1000  -999.2500     0.0660  -999.2500     2.4710
 4189.5000  1698.9840   -35.2650     3.6250     3.0110     2.7190  1861.6230     8.0840  -999.2500     0.0660  -999.2500     2.4610
 4190.0000  1699.0380   -35.2580     3.7770     3.1050     2.7670  1868.2760     8.0510  -999.2500     0.0550  -999.2500     2.4500
 4190.5000  1699.0920   -35.2590     3.9300     3.1990     2.8150  1869.9930     8.0230  -999.2500     0.0450  -999.2500     2.4600
 4191.0000  1699.1460   -35.2590     3.9910     3.1750     2.8630  1867.7760     8.0450  -999.2500     0.0380  -999.2500     2.4710
 4191.5000  1699.2000   -35.2590     3.7800     3.1410     2.9110  1865.5580     8.0650  -999.2500     0.0400  -999.2500     2.4740
 4192.0000  1699.2540   -35.2590     3.6390     3.1910     2.9590  1863.3400     8.0900  -999.2500     0.0470  -999.2500     2.4800
