~VERSION INFORMATION
 VERS.                2.0:   CWLS LOG ASCII STANDARD - VERSION 2.0
 WRAP.                 NO:   ONE LINE PER DEPTH STEP
~WELL INFORMATION
#MNEM.UNIT      DATA TYPE    INFORMATION
#----------   ------------   ------------------------------
 STRT.F            0.0000:   START DEPTH
 STOP.F         4044.0000:   STOP DEPTH
 STEP.F            0.5000:   STEP LENGTH
 NULL.          -999.2500:   NO VALUE
 COMP. LAWRENCE-ALLISON & ASSOC.:   COMPANY
 WELL. LAWRENCE "X" #24-34:   WELL
 FLD .           N P R #3:   FIELD
 LOC .      S34 T39N R78W:   LOCATION
 CNTY.            NATRONA:   COUNTY
 STAT.            WYOMING:   STATE
 CTRY. UNITED STATES OF AMERICA:   COUNTRY
 SRVC.      DRESSER ATLAS:   SERVICE COMPANY
 DATE.        29-MAR-1984:   LOGDATE
 API .     49025109660000:   API NUMBER
~CURVE INFORMATION
#MNEM.UNIT       API CODE    CURVE DESCRIPTION
#----------   ------------   ------------------------------
 DEPT.F                  :   
 DT  .US/F   60 520 00 00:   DELTA TIME
 TENS.LBS    60 635 01 00:   TENSION FROM SONIC
 GRR .GAPI   07 310 01 00:   GAMMA RAY FROM RESISTIVITY
 SPR .MV     07 010 01 00:   SPONTANEOUS POTENTIAL
 CALR.IN     07 280 01 00:   CALIPER FROM RESISTIVITY
 TENR.LBS    07 635 01 00:   TENSION FROM RESISTIVITY
 RSFL.OHMM   07 221 01 00:   AMPPLIFIED SHALLOW FOCUSED LOG RESISTIVITY
 RILD.OHMM   07 120 46 00:   DEEP INDUCTION RESISTIVITY
 RILM.OHMM   07 120 44 00:   INDUCTION LOG MEDIUM RESISTIVITY
 RHOB.G/C3   45 350 01 00:   BULK DENSITY
 DRHO.G/C3   45 356 01 00:   DENSITY CORRECTION
 TEND.LBS    45 635 01 00:   TENSION FROM DENSITY LOG
 NPHI.DEC    42 890 03 00:   NEUTRON POROSITY SANDSTONE
~PARAMETER INFORMATION
#MNEM.UNIT          VALUE    DESCRIPTION
#----------   ------------   ------------------------------
 EKB .F         5101.0000:   Kelly bushing
 EGL .F         5089.0000:   Ground level
 EDF .F         5100.0000:   Drilling floor
 TD  .F         4050.0000:   Total depth
 DATE.        29-MAR-1984:   Date logged
 CLNT.            A2DTECH:   Client Code
 SL  . 2415' FNL & 839' FWL:   Surface Location
 PD  .                 GL:   Permanent Datum
 EPD .F              5089:   Elevation Permanent Datum
 LMF .                 KB:   Log Measured From
 DMF .                 KB:   Drilling Measured From
 DD  .F              4050:   Depth driller
 DL  .F              4043:   Depth logger
 BLI .F              4041:   Bottom log interval
 CS1 .IN            8.625:   Casing size
 CBD1.       8.625 @ 673':   Casing driller 1
 CBL1.F               671:   Casing logger 1
 BS1 .IN            7.875:   Bit size
 DFT .            GEL-KCL:   Type fluid in hole
 DFD .                8.9:   Density
 DFV .                 45:   Viscosity
 DFPH.                  8:   pH
 DFL .               12.8:   Fluid loss
 MSS .           MUD TANK:   Source of sample
 RMS .OHMM           0.46:   Rm
 MST .F                71:   Rm Meas. temp.
 RMF .OHMM           0.31:   Rmf
 MFST.F                71:   Rmf Meas. temp.
 RMC .OHMM           0.55:   Rmc
 MCST.F                71:   Rmc Meas. temp.
 MFSS.               MEAS:   Source Rmf.
 RMB .OHMM           0.25:   Rm. at BHT
 BHT .F               139:   BHT.
 TCS .HRS               4:   Time Circ. stopped
 MRT .F               139:   Maximum recorded temp.
 LUN .               6302:   Logging unit number
 LUL .               CODY:   Logging unit location
 ENGI.              GETTY:   Recorded By
 WITN.           JENNINGS:   Witnessed by
 ORIG.           5" PRINT:   Origin of data
 UWI .     49025109660000:   Unique Well ID
 DICO. A2D TECHNOLOGIES, INC.:   Digitizing Company
 DAPD.                 12:   Feet Above Permanent Datum
 BSD1.               4050:   Depth drilled with bit1
 MCSS.               MEAS:   Source Rmc.
~OTHER INFORMATION
~A  DEPTH       DT       TENS        GRR        SPR       CALR       TENR       RSFL       RILD       RILM       RHOB       DRHO       TEND       NPHI
# ...
  910.0000  -999.2500  -999.2500    81.5470    -8.3700    10.0960  -204.0650     8.8810     9.8710     8.6460  -999.2500  -999.2500  -999.2500  -999.2500
  910.5000  -999.2500  -999.2500    81.0100    -8.5080    10.0840  -198.7770     8.7160     9.8190     8.6160  -999.2500  -999.2500  -999.2500  -999.2500
  911.0000  -999.2500  -999.2500    81.8940    -8.6470    10.0720  -193.4890     8.5770     9.7680     8.5860  -999.2500  -999.2500  -999.2500  -999.2500
  911.5000  -999.2500  -999.2500    85.8830    -8.7410    10.0600  -188.2010     8.4370     9.7160     8.5560  -999.2500  -999.2500  -999.2500  -999.2500
  912.0000  -999.2500  -999.2500    89.9330    -8.8090    10.0480  -185.7030     8.2980     9.6650     8.5260  -999.2500  -999.2500  -999.2500  -999.2500
  912.5000  -999.2500  -999.2500    91.2160    -8.8770    10.0360  -192.4030     8.1650     9.6130     8.4960  -999.2500  -999.2500  -999.2500  -999.2500
  913.0000  -999.2500  -999.2500    88.6950    -8.9440    10.0250  -199.1040     8.1810     9.5620     8.4650  -999.2500  -999.2500  -999.2500  -999.2500
  913.5000  -999.2500  -999.2500    86.4270    -9.0120    10.0130  -205.8040     8.2060     9.5100     8.4350  -999.2500  -999.2500  -999.2500  -999.2500
  914.0000  -999.2500  -999.2500    87.5460    -9.0790    10.0010  -212.5040     8.2300     9.4590     8.4050  -999.2500  -999.2500  -999.2500  -999.2500
  914.5000  -999.2500  -999.2500    89.0950    -9.1470     9.9890  -211.2880     8.2540     9.4070     8.3750  -999.2500  -999.2500  -999.2500  -999.2500
  915.0000  -999.2500  -999.2500    90.6520    -9.2150     9.9790  -206.6180     8.2790     9.3780     8.3450  -999.2500  -999.2500  -999.2500  -999.2500
  915.5000  -999.2500  -999.2500    92.2670    -9.2850     9.9700  -201.9480     8.3030     9.3510     8.3190  -999.2500  -999.2500  -999.2500  -999.2500
  916.0000  -999.2500  -999.2500    91.9170    -9.3270     9.9600  -197.2780     8.3190     9.3250     8.2300  -999.2500  -999.2500  -999.2500  -999.2500
  916.5000  -999.2500  -999.2500    91.0140    -9.3780     9.9500  -194.4300     8.1380     9.2980     8.2150  -999.2500  -999.2500  -999.2500  -999.2500
  917.0000  -999.2500  -999.2500    88.9810    -9.4290     9.9400  -195.4000     8.0030     9.2710     8.2000  -999.2500  -999.2500  -999.2500  -999.2500
  917.5000  -999.2500  -999.2500    86.1540    -9.4810     9.9310  -196.3690     7.8660     9.2440     8.1840  -999.2500  -999.2500  -999.2500  -999.2500
  918.0000  -999.2500  -999.2500    83.2730    -9.4080     9.9210  -197.3380     7.9140     9.2170     8.1690  -999.2500  -999.2500  -999.2500  -999.2500
  918.5000  -999.2500  -999.2500    83.6140    -9.2570     9.9110  -198.3070     7.9750     9.1900     8.1530  -999.2500  -999.2500  -999.2500  -999.2500
  919.0000  -999.2500  -999.2500    85.8700    -9.1060     9.9010  -199.2760     8.0360     9.1640     8.1380  -999.2500  -999.2500  -999.2500  -999.2500
  919.5000  -999.2500  -999.2500    85.2480    -8.9500     9.8920  -200.2460     8.0960     9.1370     8.1220  -999.2500  -999.2500  -999.2500  -999.2500
  920.0000  -999.2500  -999.2500    84.2770    -9.0300     9.8820  -201.2150     8.1650     9.1100     8.1070  -999.2500  -999.2500  -999.2500  -999.2500
  920.5000  -999.2500  -999.2500    85.4370    -9.2230     9.8720  -202.1840     8.1590     9.0830     8.0910  -999.2500  -999.2500  -999.2500  -999.2500
  921.0000  -999.2500  -999.2500    86.6660    -9.4200     9.8630  -203.1530     8.1530     9.0560     8.0760  -999.2500  -999.2500  -999.2500  -999.2500
  921.5000  -999.2500  -999.2500    86.0420    -9.6170     9.8530  -204.1220     8.1460     9.0480     8.0600  -999.2500  -999.2500  -999.2500  -999.2500
  922.0000  -999.2500  -999.2500    84.7320    -9.8120     9.8450  -204.6410     8.1390     9.0600     8.0450  -999.2500  -999.2500  -999.2500  -999.2500
  922.5000  -999.2500  -999.2500    83.7830   -10.0100     9.8390  -205.0990     8.1320     9.0670     8.0290  -999.2500  -999.2500  -999.2500  -999.2500
  923.0000  -999.2500  -999.2500    84.6990   -10.0140     9.8320  -205.5580     8.1250     9.0750     8.0140  -999.2500  -999.2500  -999.2500  -999.2500
  923.5000  -999.2500  -999.2500    86.3300    -9.8590     9.8260  -206.0170     8.1180     9.0830     7.9980  -999.2500  -999.2500  -999.2500  -999.2500
  924.0000  -999.2500  -999.2500    87.1230    -9.7070     9.8190  -206.4750     8.1110     9.0910     7.9830  -999.2500  -999.2500  -999.2500  -999.2500
  924.5000  -999.2500  -999.2500    86.2940    -9.7350     9.8120  -206.9340     8.1040     9.0990     7.9680  -999.2500  -999.2500  -999.2500  -999.2500
  925.0000  -999.2500  -999.2500    85.7180    -9.7740     9.8060  -207.3930     8.0980     9.1070     7.9520  -999.2500  -999.2500  -999.2500  -999.2500
  925.5000  -999.2500  -999.2500    85.5010    -9.8120     9.7990  -207.8510     8.0910     9.1140     7.9400  -999.2500  -999.2500  -999.2500  -999.2500
  926.0000  -999.2500  -999.2500    84.5510    -9.8490     9.7930  -208.3100     7.9780     9.1220     8.0230  -999.2500  -999.2500  -999.2500  -999.2500
  926.5000  -999.2500  -999.2500    83.3390    -9.8860     9.7860  -208.7680     7.7930     9.1300     8.1240  -999.2500  -999.2500  -999.2500  -999.2500
  927.0000  -999.2500  -999.2500    83.3990    -9.8540     9.7800  -209.2270     7.9050     9.1730     8.2250  -999.2500  -999.2500  -999.2500  -999.2500
  927.5000  -999.2500  -999.2500    84.0290    -9.7500     9.7730  -209.6860     8.0770     9.2340     8.3190  -999.2500  -999.2500  -999.2500  -999.2500
  928.0000  -999.2500  -999.2500    82.6230    -9.6470     9.7660  -210.1440     8.2490     9.2950     8.4110  -999.2500  -999.2500  -999.2500  -999.2500
  928.5000  -999.2500  -999.2500    80.6070    -9.5430     9.7600  -210.6030     8.4220     9.3570     8.5170  -999.2500  -999.2500  -999.2500  -999.2500
  929.0000  -999.2500  -999.2500    80.6040    -9.4400     9.7530  -211.0620     8.5940     9.4180     8.6220  -999.2500  -999.2500  -999.2500  -999.2500
  929.5000  -999.2500  -999.2500    82.7100    -9.3360     9.7600  -211.5200     8.7660     9.4800     8.7280  -999.2500  -999.2500  -999.2500  -999.2500
  930.0000  -999.2500  -999.2500    83.8860    -9.2330     9.7800  -211.9790     8.8810     9.5410     8.7980  -999.2500  -999.2500  -999.2500  -999.2500
  930.5000  -999.2500  -999.2500    84.1160    -9.1290     9.8000  -212.4380     8.5080     9.5690     8.5870  -999.2500  -999.2500  -999.2500  -999.2500
  931.0000  -999.2500  -999.2500    84.2260    -9.0260     9.8190  -212.8960     8.2290     9.4690     8.3620  -999.2500  -999.2500  -999.2500  -999.2500
  931.5000  -999.2500  -999.2500    83.0970    -8.9190     9.8390  -213.3550     8.1420     9.3370     8.1380  -999.2500  -999.2500  -999.2500  -999.2500
  932.0000  -999.2500  -999.2500    81.6200    -8.9880     9.8590  -213.8140     8.1010     9.2060     8.0630  -999.2500  -999.2500  -999.2500  -999.2500
  932.5000  -999.2500  -999.2500    82.6430    -9.1360     9.8780  -214.2720     8.0600     9.0740     8.0300  -999.2500  -999.2500  -999.2500  -999.2500
  933.0000  -999.2500  -999.2500    85.9790    -9.2860     9.8900  -213.4090     8.0190     8.9420     7.9970  -999.2500  -999.2500  -999.2500  -999.2500
  933.5000  -999.2500  -999.2500    89.6550    -9.4350     9.8900  -210.7050     7.9780     8.8100     7.9630  -999.2500  -999.2500  -999.2500  -999.2500
  934.0000  -999.2500  -999.2500    93.3850    -9.5840     9.8900  -208.0010     7.9370     8.6780     7.9300  -999.2500  -999.2500  -999.2500  -999.2500
  934.5000  -999.2500  -999.2500    94.1040    -9.7340     9.8900  -205.2980     7.8960     8.5470     7.8970  -999.2500  -999.2500  -999.2500  -999.2500
  935.0000  -999.2500  -999.2500    93.4210    -9.8830     9.8900  -207.2000     7.8660     8.4150     7.8660  -999.2500  -999.2500  -999.2500  -999.2500
  935.5000  -999.2500  -999.2500    92.7690    -9.8690     9.8900  -211.3650     8.0140     8.2830     7.6890  -999.2500  -999.2500  -999.2500  -999.2500
