~VERSION INFORMATION
 VERS.                2.0:   CWLS LOG ASCII STANDARD - VERSION 2.0
 WRAP.                 NO:   ONE LINE PER DEPTH STEP
~WELL INFORMATION
#MNEM.UNIT      DATA TYPE    INFORMATION
#----------   ------------   ------------------------------
 STRT.F           14.0000:   START DEPTH
 STOP.F         3030.0000:   STOP DEPTH
 STEP.F            0.5000:   STEP LENGTH
 NULL.          -999.2500:   NO VALUE
 COMP. LAWRENCE ALLISON & ASSOC. WEST:   COMPANY
 WELL. LAWRENCE "X" #37-28:   WELL
 FLD .          N.P.R. #3:   FIELD
 LOC .      S28 T39N R78W:   LOCATION
 CNTY.            NATRONA:   COUNTY
 STAT.            WYOMING:   STATE
 CTRY. UNITED STATES OF AMERICA:   COUNTRY
 SRVC.      DRESSER ATLAS:   SERVICE COMPANY
 DATE.        22-SEP-1986:   LOGDATE
 API .     49025111090000:   API NUMBER
~CURVE INFORMATION
#MNEM.UNIT       API CODE    CURVE DESCRIPTION
#----------   ------------   ------------------------------
 DEPT.F                  :   
 GRR .GAPI   07 310 01 00:   GAMMA RAY FROM RESISTIVITY
 SPR .MV     07 010 01 00:   SPONTANEOUS POTENTIAL
 TENR.LBS    07 635 01 00:   TENSION FROM RESISTIVITY
 RILD.OHMM   07 120 46 00:   DEEP INDUCTION RESISTIVITY
 RILM.OHMM   07 120 44 00:   INDUCTION LOG MEDIUM RESISTIVITY
 RFOC.OHMM   07 220 04 00:   RESISTIVITY FOCUSED LOG RES.
 CNC .DEC    42 890 03 00:   NEUTRON PORISITY SANDSTONE
 RHOB.G/C3   45 350 01 00:   BULK DENSITY
 CORR.G/C3   45 356 01 00:   DENSITY CORRECTION
 TEND.LBS    45 635 01 00:   TENSION FROM DENSITY LOG
 CALD.IN     45 280 60 00:   CALIPER FROM DENSITY LOG
~PARAMETER INFORMATION
#MNEM.UNIT          VALUE    DESCRIPTION
#----------   ------------   ------------------------------
 EKB .F         5124.0000:   Kelly bushing
 EGL .F         5113.0000:   Ground level
 EDF .F         5123.0000:   Drilling floor
 TD  .F         3026.0000:   Total depth
 DATE.        22-SEP-1986:   Date logged
 CLNT.            A2DTECH:   Client Code
 SL  . 1097' FSL & 1722' FWL:   Surface Location
 PD  .                 GL:   Permanent Datum
 EPD .F              5113:   Elevation Permanent Datum
 LMF .                 KB:   Log Measured From
 DMF .                 KB:   Drilling Measured From
 DAPD.F                11:   Feet Above Permanent Datum
 DD  .F              3026:   Depth driller
 DL  .F              3023:   Depth logger
 BLI .F              3020:   Bottom log interval
 CS1 .IN            8.625:   Casing size
 CBD1.      8.625" @ 517':   Casing driller 1
 CBL1.F               518:   Casing logger 1
 BS1 .IN            7.875:   Bit size
 BSD1.F              3026:   Depth drilled with bit1
 DFT .            KCL-GEL:   Type fluid in hole
 DFD .                8.6:   Density
 DFV .                 41:   Viscosity
 DFPH.                9.5:   pH
 DFL .                6.8:   Fluid loss
 MSS .           FLOWLINE:   Source of sample
 RMS .OHMM           0.37:   Rm
 MST .F                58:   Rm Meas. temp.
 RMF .OHMM           0.33:   Rmf
 MFST.F                63:   Rmf Meas. temp.
 RMC .OHMM           0.59:   Rmc
 MCST.F                58:   Rmc Meas. temp.
 MFSS.               MEAS:   Source Rmf.
 MCSS.               CALC:   Source Rmc.
 RMB .OHMM           0.16:   Rm. at BHT
 BHT .F               131:   BHT.
 TCS .HRS               3:   Time Circ. stopped
 MRT .F               131:   Maximum recorded temp.
 LUN .            HL 6426:   Logging unit number
 LUL .                 RS:   Logging unit location
 ENGI.               RALL:   Recorded By
 WITN.             STRONG:   Witnessed by
 ORIG.           5" PRINT:   Origin of data
 UWI .     49025111090000:   Unique Well ID
 DICO. A2D TECHNOLOGIES, INC.:   Digitizing Company
~OTHER INFORMATION
~A   DEPT      GRR        SPR       TENR       RILD       RILM       RFOC        CNC       RHOB       CORR       TEND       CALD   
# ...
 1996.5000   107.0130   -28.8340   -63.2160     9.5840     9.9890    11.6360  -999.2500  -999.2500  -999.2500  -999.2500  -999.2500
 1997.0000   112.7580   -28.8620   -64.0700     9.4890    10.0450    11.4390  -999.2500  -999.2500  -999.2500  -999.2500  -999.2500
 1997.5000   117.4610   -28.5630   -62.3670     9.3940    10.0890    11.1360  -999.2500  -999.2500  -999.2500  -999.2500  -999.2500
 1998.0000   120.9350   -28.3040   -60.3710     9.3420    10.1340    10.7570  -999.2500  -999.2500  -999.2500  -999.2500  -999.2500
 1998.5000   120.6180   -27.9910   -58.3750     9.2990    10.1760    10.7570  -999.2500  -999.2500  -999.2500  -999.2500  -999.2500
 1999.0000   117.1690   -27.7300   -56.3780     9.2560    10.1070    11.3230  -999.2500  -999.2500  -999.2500  -999.2500  -999.2500
 1999.5000   112.7150   -27.7780   -54.3820     9.2130    10.0060    11.9100  -999.2500  -999.2500  -999.2500  -999.2500  -999.2500
 2000.0000   109.7410   -27.8830   -52.3860     9.1690     9.9040    11.9600  -999.2500  -999.2500  -999.2500  -999.2500  -999.2500
 2000.5000   108.9120   -28.0940   -50.3890     9.1260     9.8030    12.0210  -999.2500  -999.2500  -999.2500  -999.2500  -999.2500
 2001.0000   108.4110   -28.1460   -48.3930     9.0150     9.7150    11.5650  -999.2500  -999.2500  -999.2500  -999.2500  -999.2500
 2001.5000   108.0430   -27.8410   -46.3970     8.8440     9.5390    11.0700  -999.2500  -999.2500  -999.2500  -999.2500  -999.2500
 2002.0000   108.8660   -27.7980   -43.9700     8.6720     9.3830    10.6530  -999.2500  -999.2500  -999.2500  -999.2500  -999.2500
 2002.5000   110.5550   -27.8930   -47.9900     8.5350     9.2280    10.2930  -999.2500  -999.2500  -999.2500  -999.2500  -999.2500
 2003.0000   110.8070   -27.8830   -53.1160     8.4470     9.1060    10.1820  -999.2500  -999.2500  -999.2500  -999.2500  -999.2500
 2003.5000   109.0850   -27.9360   -58.2410     8.3030     9.0480    10.4620  -999.2500  -999.2500  -999.2500  -999.2500  -999.2500
 2004.0000   106.8270   -27.9630   -64.0700     8.1600     8.9770    10.3640  -999.2500  -999.2500  -999.2500  -999.2500  -999.2500
 2004.5000   105.0400   -27.8530   -64.0700     7.9990     8.9060    10.2120  -999.2500  -999.2500  -999.2500  -999.2500  -999.2500
 2005.0000   105.0710   -27.5820   -64.0700     7.9390     8.8560    10.0610  -999.2500  -999.2500  -999.2500  -999.2500  -999.2500
 2005.5000   107.1010   -27.3260   -64.0700     7.8500     8.7440     9.8970  -999.2500  -999.2500  -999.2500  -999.2500  -999.2500
 2006.0000   109.1740   -27.0320   -64.0700     7.7620     8.6410     9.9310  -999.2500  -999.2500  -999.2500  -999.2500  -999.2500
 2006.5000   109.8860   -26.7870   -64.0700     7.6740     8.5350     9.8500  -999.2500  -999.2500  -999.2500  -999.2500  -999.2500
 2007.0000   110.4440   -26.8990   -62.3340     7.5670     8.5000     9.7700  -999.2500  -999.2500  -999.2500  -999.2500  -999.2500
 2007.5000   111.3390   -27.0900   -57.6750     7.6070     8.4560     9.6890  -999.2500  -999.2500  -999.2500  -999.2500  -999.2500
 2008.0000   111.4910   -27.2190   -54.0200     7.6750     8.5120     9.6260  -999.2500  -999.2500  -999.2500  -999.2500  -999.2500
 2008.5000   111.7540   -27.3930   -57.9150     7.7430     8.6050     9.7000  -999.2500  -999.2500  -999.2500  -999.2500  -999.2500
 2009.0000   112.9300   -27.5400   -61.1180     7.7800     8.6980     9.7610  -999.2500  -999.2500  -999.2500  -999.2500  -999.2500
 2009.5000   113.8050   -27.6960   -64.0700     7.8940     8.7910     9.8060  -999.2500  -999.2500  -999.2500  -999.2500  -999.2500
 2010.0000   112.2330   -27.7820   -61.9440     8.0020     8.8560    10.1830  -999.2500  -999.2500  -999.2500  -999.2500  -999.2500
 2010.5000   109.7270   -27.7700   -59.9730     8.1100     8.9410    10.5590  -999.2500  -999.2500  -999.2500  -999.2500  -999.2500
 2011.0000   109.3490   -27.7880   -58.0020     8.2170     9.0070    10.6510  -999.2500  -999.2500  -999.2500  -999.2500  -999.2500
 2011.5000   108.8010   -27.7640   -56.0300     8.3250     9.0720    10.7570  -999.2500  -999.2500  -999.2500  -999.2500  -999.2500
 2012.0000   106.7690   -27.7920   -54.0590     8.4560     9.1380    10.5880  -999.2500  -999.2500  -999.2500  -999.2500  -999.2500
 2012.5000   104.0920   -27.9980   -52.0870     8.4560     9.1910    10.4420  -999.2500  -999.2500  -999.2500  -999.2500  -999.2500
 2013.0000   101.3970   -28.2170   -50.1160     8.4560     9.3220    10.2700  -999.2500  -999.2500  -999.2500  -999.2500  -999.2500
 2013.5000   101.0490   -28.4050   -48.1450     8.4560     9.4490    10.4540  -999.2500  -999.2500  -999.2500  -999.2500  -999.2500
 2014.0000   101.9260   -28.5970   -46.1730     8.4560     9.4080    10.7460  -999.2500  -999.2500  -999.2500  -999.2500  -999.2500
 2014.5000   102.3240   -28.8010   -43.9700     8.4560     9.3180    10.9580  -999.2500  -999.2500  -999.2500  -999.2500  -999.2500
 2015.0000   102.7780   -28.7690   -46.7110     8.4560     9.2270    11.0600  -999.2500  -999.2500  -999.2500  -999.2500  -999.2500
 2015.5000   102.9500   -28.3860   -49.8170     8.4560     9.1360    11.0600  -999.2500  -999.2500  -999.2500  -999.2500  -999.2500
 2016.0000   104.1620   -28.0310   -52.9240     8.4500     9.0220    10.8100  -999.2500  -999.2500  -999.2500  -999.2500  -999.2500
 2016.5000   107.4330   -27.7280   -56.0300     8.4340     9.0540    10.5860  -999.2500  -999.2500  -999.2500  -999.2500  -999.2500
 2017.0000   111.8860   -27.3960   -59.1370     8.4170     9.1130    10.3620  -999.2500  -999.2500  -999.2500  -999.2500  -999.2500
 2017.5000   115.2600   -27.0710   -62.2430     8.4010     9.1720    10.3060  -999.2500  -999.2500  -999.2500  -999.2500  -999.2500
 2018.0000   114.9040   -26.7530   -61.9600     8.3840     9.2310    10.3670  -999.2500  -999.2500  -999.2500  -999.2500  -999.2500
 2018.5000   113.3900   -26.6570   -56.8340     8.3780     9.2760    10.4290  -999.2500  -999.2500  -999.2500  -999.2500  -999.2500
 2019.0000   112.2440   -26.8510   -51.7090     8.6480     9.4000    10.4620  -999.2500  -999.2500  -999.2500  -999.2500  -999.2500
 2019.5000   107.7880   -27.0860   -46.5830     8.8660     9.5470    10.7780  -999.2500  -999.2500  -999.2500  -999.2500  -999.2500
 2020.0000   102.9860   -26.9280   -43.9700     9.1060     9.6930    11.1520  -999.2500  -999.2500  -999.2500  -999.2500  -999.2500
 2020.5000   101.6420   -26.5980   -43.9700     9.1970     9.8400    11.8000  -999.2500  -999.2500  -999.2500  -999.2500  -999.2500
 2021.0000   100.0940   -26.6460   -43.9700     9.3270     9.9870    11.7760  -999.2500  -999.2500  -999.2500  -999.2500  -999.2500
 2021.5000    96.2620   -26.8240   -43.9700     9.4560    10.1760    11.7290  -999.2500  -999.2500  -999.2500  -999.2500  -999.2500
 2022.0000    91.2470   -26.9030   -43.9700     9.5370    10.1760    11.6910  -999.2500  -999.2500  -999.2500  -999.2500  -999.2500
 2022.5000    87.6240   -26.8640   -43.9700     9.5900    10.0820    11.9850  -999.2500  -999.2500  -999.2500  -999.2500  -999.2500
 2023.0000    86.4750   -26.6630   -43.9700     9.5370     9.8170    12.0180  -999.2500  -999.2500  -999.2500  -999.2500  -999.2500
 2023.5000    87.6860   -26.4660   -43.9700     9.2980     9.6020    11.7390  -999.2500  -999.2500  -999.2500  -999.2500  -999.2500
 2024.0000    91.7250   -26.4940   -43.9700     9.0080     9.3880    11.4770  -999.2500  -999.2500  -999.2500  -999.2500  -999.2500
 2024.5000    95.4630   -26.7730   -43.9700     8.7180     9.1910    11.0260  -999.2500  -999.2500  -999.2500  -999.2500  -999.2500
 2025.0000    98.2870   -27.0440   -45.6450     8.4560     8.7400    10.6000  -999.2500  -999.2500  -999.2500  -999.2500  -999.2500
 2025.5000   100.4140   -27.3470   -47.1980     8.2270     8.5350    10.1730  -999.2500  -999.2500  -999.2500  -999.2500  -999.2500
 2026.0000    99.4670   -27.5570   -48.7510     8.0180     8.4120     9.8060  -999.2500  -999.2500  -999.2500  -999.2500  -999.2500
 2026.5000    97.5690   -27.3580   -50.3050     7.8090     8.3010     9.3450  -999.2500  -999.2500  -999.2500  -999.2500  -999.2500
