~VERSION INFORMATION
 VERS.                2.0:   CWLS LOG ASCII STANDARD - VERSION 2.0
 WRAP.                 NO:   ONE LINE PER DEPTH STEP
~WELL INFORMATION
#MNEM.UNIT      DATA TYPE    INFORMATION
#----------   ------------   ------------------------------
 STRT.F          174.0000:   START DEPTH
 STOP.F         3492.0000:   STOP DEPTH
 STEP.F            0.5000:   STEP LENGTH
 NULL.          -999.2500:   NO VALUE
 COMP.    FENIX & SCISSON:   COMPANY
 WELL.   FENIX "AX" #18-3:   WELL
 FLD .        TEAPOT DOME:   FIELD
 LOC .       S3 T38N R78W:   LOCATION
 CNTY.            NATRONA:   COUNTY
 STAT.            WYOMING:   STATE
 CTRY. UNITED STATES OF AMERICA:   COUNTRY
 SRVC.       SCHLUMBERGER:   SERVICE COMPANY
 DATE.        09-FEB-1981:   LOGDATE
 API .     49025108630000:   API NUMBER
~CURVE INFORMATION
#MNEM.UNIT       API CODE    CURVE DESCRIPTION
#----------   ------------   ------------------------------
 DEPT.F                  :   
 CALD.IN     45 280 60 00:   CALIPER FROM DENSITY LOG
 GRD .GAPI   45 310 01 00:   GAMMA RAY FROM DENSITY LOG
 RHOB.G/C3   45 350 01 00:   BULK DENSITY
 DRHO.G/C3   45 356 01 00:   DENSITY CORRECTION
 TENR.LBS    07 635 01 00:   TENSION FROM RESISTIVITY
 SPR .MV     07 010 01 00:   SPONTANEOUS POTENTIAL
 ILM .OHMM   07 120 44 00:   INDUCTION LOG MEDIUM RESISTIVITY
 ILD .OHMM   07 120 46 00:   INDUCTION LOG DEEP RESISTIVITY
 SFLU.OHMM   07 220 01 00:   SPHERICALLY FOCUSED LOG UNAVERAGED RESISTIVITY
~PARAMETER INFORMATION
#MNEM.UNIT          VALUE    DESCRIPTION
#----------   ------------   ------------------------------
 EKB .F         5267.0000:   Kelly bushing
 EGL .F         5257.0000:   Ground level
 EDF .F            0.0000:   Drilling floor
 TD  .F         3472.0000:   Total depth
 DATE.        09-FEB-1981:   Date logged
 CLNT.            A2DTECH:   Client Code
 SL  . 669' FSL & 42' FWL:   Surface Location
 PD  .                 GL:   Permanent Datum
 DD  .F              3401:   Depth driller
 DL  .F              3472:   Depth logger
 BLI .F              3466:   Bottom log interval
 CS1 .IN            8.625:   Casing size
 CBD1.      8.625" @ 200':   Casing driller 1
 CBL1.F               196:   Casing logger 1
 BS1 .IN            7.875:   Bit size
 DFT .            KCL/GEL:   Type fluid in hole
 DFD .                  9:   Density
 DFV .                 60:   Viscosity
 DFPH.                8.5:   pH
 DFL .                 10:   Fluid loss
 MSS .            MUD/PIT:   Source of sample
 RMS .OHMM           1.88:   Rm
 MST .F                75:   Rm Meas. temp.
 RMF .OHMM           1.12:   Rmf
 MFST.F                75:   Rmf Meas. temp.
 MFSS.               MEAS:   Source Rmf.
 RMB .OHMM           1.21:   Rm. at BHT
 BHT .F               120:   BHT.
 TCS .HRS            1800:   Time Circ. stopped
 MRT .F               120:   Maximum recorded temp.
 LUN .               8043:   Logging unit number
 LUL .               CSPR:   Logging unit location
 ENGI.            CONNETT:   Recorded By
 WITN.              SCOTT:   Witnessed by
 ORIG.           5" PRINT:   Origin of data
 UWI .     49025108630000:   Unique Well ID
 DICO. A2D TECHNOLOGIES, INC.:   Digitizing Company
 DAPD.F                10:   Feet Above Permanent Datum
 BSD1.F              3401:   Depth drilled with bit1
 EPD .F              5257:   Elevation Permanent Datum
 LMF .                 KB:   Log Measured From
 DMF .                 KB:   Drilling Measured From
 TLI .F               196:   Top log interval
 TLAB.               0000:   Time logger at bottom
~OTHER INFORMATION
~A   DEPT     CALD         GRD      RHOB       DRHO       TENR        SPR        ILM        ILD       SFLU   
# ...
 1488.0000     9.3320   102.9090     2.5910     0.0980  1169.2850   -52.8040     9.4250     9.9470    10.9400
 1488.5000     9.3320   104.0420     2.5600     0.0760  1169.9020   -52.6170     9.3520     9.9670    11.1580
 1489.0000     9.3320   102.6840     2.5270     0.0640  1170.5190   -52.5750     9.3050     9.9870    10.8250
 1489.5000     9.3330   100.0300     2.5400     0.0730  1171.1710   -52.5740     9.7580    10.0070    10.4890
 1490.0000     9.3330    99.1330     2.5580     0.0870  1171.1710   -52.5740     9.8630    10.0240    10.8170
 1490.5000     9.3330    98.8990     2.5750     0.1020  1171.1710   -52.5740    10.0170    10.0450    11.1660
 1491.0000     9.3340    98.7220     2.5840     0.1090  1171.1710   -52.5740     9.9710    10.0660    11.3970
 1491.5000     9.3340    97.1420     2.5920     0.1130  1171.1710   -52.5730     9.8860    10.0870    11.2820
 1492.0000     9.3340    94.9170     2.5990     0.1180  1171.1710   -52.5770     9.8010    10.1080    11.1960
 1492.5000     9.3350    92.7000     2.6030     0.1210  1171.1710   -52.7410     9.7440    10.1290    11.1110
 1493.0000     9.3350    90.9900     2.6080     0.1230  1171.1710   -52.9210     9.8840    10.1510    11.0250
 1493.5000     9.3350    92.5390     2.6120     0.1260  1171.1710   -53.1040    10.0350    10.1720    10.9840
 1494.0000     9.3360    94.7070     2.6030     0.1170  1171.1710   -53.2800    10.1870    10.1930    11.4230
 1494.5000     9.3360    96.8880     2.5840     0.1050  1171.1710   -53.5840    10.3390    10.2140    11.7540
 1495.0000     9.3360    98.2510     2.5940     0.1090  1171.1710   -53.5660    10.4900    10.2350    12.1570
 1495.5000     9.3370    96.2290     2.6070     0.1290  1171.1710   -53.5630    10.6420    10.2560    12.1570
 1496.0000     9.3370    93.8410     2.6130     0.1380  1171.1710   -53.5640    10.6850    10.2770    12.1570
 1496.5000     9.3370    93.1420     2.6050     0.1240  1171.1710   -53.5640    10.4890    10.2980    12.0850
 1497.0000     9.3380    95.8520     2.5650     0.1020  1171.1710   -53.5520    10.3590    10.3190    11.8580
 1497.5000     9.3380    97.8410     2.5680     0.0900  1171.1710   -53.4420    10.2920    10.3400    11.6310
 1498.0000     9.3380    96.5980     2.5750     0.0840  1171.1710   -53.3290    10.2250    10.3620    11.4050
 1498.5000     9.3390    94.1460     2.6070     0.1050  1171.1710   -53.2220    10.1580    10.3830    11.1780
 1499.0000     9.3390    92.6680     2.6260     0.1210  1171.1710   -52.9120    10.0900    10.3930    10.8830
 1499.5000     9.3400    92.7280     2.6390     0.1370  1171.1710   -52.7840    10.0170    10.2980    11.1160
 1500.0000     9.3400    95.8600     2.6340     0.1490  1171.1710   -52.6460     9.8340    10.2590    11.7160
 1500.5000     9.3400    98.0590     2.6260     0.1450  1171.1710   -52.5710    10.1260    10.2160    11.5260
 1501.0000     9.3410    97.9230     2.6060     0.1330  1171.1710   -52.5310    10.3510    10.1740    11.3610
 1501.5000     9.3410    95.1100     2.5850     0.1190  1171.1710   -52.4910    10.5750    10.1310    11.1960
 1502.0000     9.3410    93.1190     2.5630     0.0980  1171.1710   -52.4510    10.6850    10.0880    10.9840
 1502.5000     9.3420    93.2440     2.5520     0.0820  1171.1710   -52.4110    10.3430    10.0450    11.0970
 1503.0000     9.3420    94.7500     2.5670     0.0830  1171.1710   -52.3810    10.1840    10.0020    11.3130
 1503.5000     9.3420    97.3270     2.5840     0.0930  1171.1710   -52.4160    10.0260     9.9600    11.4760
 1504.0000     9.3430    99.2230     2.6020     0.1040  1171.1710   -52.4520     9.8670     9.9170    11.1570
 1504.5000     9.3430    99.3910     2.6010     0.1100  1171.1710   -52.4870     9.7090     9.8740    10.8500
 1505.0000     9.3410    99.2010     2.5850     0.1040  1171.1710   -52.5240     9.5500     9.8310    10.5870
 1505.5000     9.3640    98.9910     2.5660     0.0920  1171.1710   -52.5590     9.4780     9.7890    10.8450
 1506.0000     9.3630    98.7930     2.5510     0.0790  1171.1710   -52.7320     9.4780     9.7440    11.1890
 1506.5000     9.3640    98.9390     2.5540     0.0800  1171.1710   -53.0140     9.5660     9.7510    11.0250
 1507.0000     9.3640   100.1970     2.5870     0.0910  1171.1710   -53.3000     9.5660     9.7590    10.7270
 1507.5000     9.3640   101.7570     2.6180     0.1200  1171.1710   -53.4490     9.5660     9.7660    10.2980
 1508.0000     9.3640   103.2990     2.6490     0.1490  1171.1710   -53.5600     9.5660     9.7740    10.3850
 1508.5000     9.3640   103.2380     2.6820     0.1640  1171.1710   -53.4790     9.5660     9.7820    10.6250
 1509.0000     9.3640   101.4750     2.6680     0.1480  1171.1710   -53.3310     9.5660     9.7890    10.8650
 1509.5000     9.3640   100.2260     2.6420     0.1160  1171.1710   -53.1820     9.5660     9.7970    11.1040
 1510.0000     9.3640   100.7260     2.5900     0.0920  1171.1710   -53.0320     9.5660     9.8050    11.3970
 1510.5000     9.3470   101.1850     2.5660     0.0800  1171.1710   -52.9490     9.5660     9.8120    11.2250
 1511.0000     9.3200   101.6210     2.5720     0.0800  1171.1710   -52.8910     9.5660     9.8200    11.0050
 1511.5000     9.2260   101.5790     2.5820     0.0840  1171.1710   -52.8340     9.5660     9.8280    10.6850
 1512.0000     9.1330    99.8180     2.5990     0.0880  1171.1710   -52.7760     9.5630     9.8340    10.7460
 1512.5000     9.0810    98.1190     2.6240     0.1020  1171.1710   -52.7190     9.5700     9.7410    10.9010
 1513.0000     9.0810    96.7350     2.6480     0.1160  1171.1710   -52.6620     9.4280     9.6640    11.0860
 1513.5000     9.0810    95.6900     2.6660     0.1320  1171.1710   -52.6040     9.3350     9.5860    10.9700
 1514.0000     9.0810    95.3400     2.6520     0.1260  1171.1710   -52.5470     9.2460     9.5090    10.7780
 1514.5000     9.0810    97.0140     2.6320     0.1170  1171.1710   -52.4900     9.1570     9.4310    10.5870
 1515.0000     9.0810    98.6850     2.6160     0.1230  1171.1710   -52.4320     9.0680     9.3540    10.3950
 1515.5000     9.0810    99.6290     2.6250     0.1380  1171.1710   -52.3750     8.9790     9.2770    10.2030
 1516.0000     9.0810    98.3110     2.6360     0.1530  1171.1710   -52.4590     8.8900     9.1990    10.0170
 1516.5000     9.0810    96.5010     2.6450     0.1590  1171.1710   -52.5570     8.8010     9.1220     9.7540
 1517.0000     9.0810    95.9760     2.6240     0.1420  1171.1710   -52.6420     8.7120     9.0440     9.4990
 1517.5000     9.0810    98.2840     2.6000     0.1220  1171.1710   -52.7480     8.6230     8.9670     9.3050
 1518.0000     9.0810   101.1170     2.5770     0.1110  1171.1710   -52.8550     8.5340     8.8890     9.3220
 1518.5000     9.0810   103.9590     2.5750     0.1090  1171.1710   -52.9620     8.4850     8.8120     9.3390
 1519.0000     9.0810   103.4780     2.5790     0.1140  1171.1710   -53.0690     8.4850     8.7230     9.3550
 1519.5000     9.0810   102.3940     2.5730     0.1100  1171.1710   -53.1620     8.2560     8.7350     9.3720
 1520.0000     9.0810   101.5860     2.5650     0.1030  1171.1710   -53.0530     8.2750     8.7620     9.3880
 1520.5000     9.0810   101.9280     2.5610     0.0970  1171.1710   -52.9420     8.3000     8.7890     9.3910
 1521.0000     9.0810   102.8500     2.5670     0.0970  1171.1710   -52.8310     8.3240     8.8150     9.4310
 1521.5000     9.0810   102.7950     2.5830     0.0990  1171.1710   -52.7440     8.3490     8.8420     9.4690
 1522.0000     9.0810   101.2270     2.5990     0.1060  1171.2550   -52.6830     8.3740     8.8690     9.5080
 1522.5000     9.0810    99.5730     2.6020     0.1150  1171.5590   -52.6220     8.3980     8.8950     9.5460
 1523.0000     9.0810    98.8850     2.5880     0.0950  1171.8630   -52.5610     8.4230     8.9220     9.6220
 1523.5000     9.0810    98.7780     2.5540     0.0740  1172.1680   -52.5000     8.4480     8.9490     9.7400
 1524.0000     9.0810    98.6750     2.5220     0.0480  1172.4720   -52.4390     8.4730     8.9680     9.8570
