~VERSION INFORMATION
 VERS.                2.0:   CWLS LOG ASCII STANDARD - VERSION 2.0
 WRAP.                 NO:   ONE LINE PER DEPTH STEP
~WELL INFORMATION
#MNEM.UNIT      DATA TYPE    INFORMATION
#----------   ------------   ------------------------------
 STRT.F          200.5000:   START DEPTH
 STOP.F         3118.5000:   STOP DEPTH
 STEP.F            0.5000:   STEP LENGTH
 NULL.          -999.2500:   NO VALUE
 COMP.    FENIX & SCISSON:   COMPANY
 WELL. FENIX SCISSON "A" #16-27:   WELL
 FLD .                NPR:   FIELD
 LOC .      S27 T39N R78W:   LOCATION
 CNTY.            NATRONA:   COUNTY
 STAT.            WYOMING:   STATE
 CTRY. UNITED STATES OF AMERICA:   COUNTRY
 SRVC.       SCHLUMBERGER:   SERVICE COMPANY
 DATE.        31-AUG-1977:   LOGDATE
 API .     49025104180000:   API NUMBER
~CURVE INFORMATION
#MNEM.UNIT       API CODE    CURVE DESCRIPTION
#----------   ------------   ------------------------------
 DEPT.F                  :   
 CALD.IN     45 280 60 00:   CALIPER FROM DENSITY LOG
 GRD .GAPI   45 310 01 00:   GAMMA RAY FROM DENSITY LOG
 DPHI.DEC    42 890 03 00:   DENSITY POROSITY SANDSTONE
 RHOB.G/C3   45 350 01 00:   BULK DENSITY
 CORR.G/C3   45 356 01 00:   DENSITY CORRECTION
 SPR .MV     07 010 01 00:   SPONTANEOUS POTENTIAL
 GURD.OHMM   07 220 05 00:   GUARD LOG RESISTIVITY
 ILD .OHMM   07 120 46 00:   DEEP INDUCTION RESISTIVITY
 ILM .OHMM   07 120 44 00:   INDUCTION LOG MEDIUM RESISTIVITY
~PARAMETER INFORMATION
#MNEM.UNIT          VALUE    DESCRIPTION
#----------   ------------   ------------------------------
 EKB .F         5095.0000:   Kelly bushing
 EGL .F         5085.0000:   Ground level
 EDF .F            0.0000:   Drilling floor
 TD  .F         3121.0000:   Total depth
 DATE.        31-AUG-1977:   Date logged
 CLNT.            A2DTECH:   Client Code
 SL  . 1430' FSL & 330' FNL:   Surface Location
 PD  .                 GL:   Permanent Datum
 EPD .F              5085:   Elevation Permanent Datum
 LMF .                 KB:   Log Measured From
 DMF .                 KB:   Drilling Measured From
 DAPD.F                10:   Feet Above Permanent Datum
 DD  .F              3120:   Depth driller
 DL  .F              3121:   Depth logger
 BLI .F              3119:   Bottom log interval
 TLI .F               200:   Top log interval
 CS1 .IN            8.625:   Casing size
 CBD1.      8.625" @ 206':   Casing driller 1
 CBL1.F               215:   Casing logger 1
 BS1 .IN            7.875:   Bit size
 BSD1.F              3120:   Depth drilled with bit1
 DFT .            KCL/MUD:   Type fluid in hole
 DFD .                  9:   Density
 DFV .                 36:   Viscosity
 DFPH.                 11:   pH
 DFL .                8.4:   Fluid loss
 MSS .           FLOWLINE:   Source of sample
 RMS .OHMM            2.5:   Rm
 MST .F                89:   Rm Meas. temp.
 RMF .OHMM           2.45:   Rmf
 MFST.F                89:   Rmf Meas. temp.
 RMC .OHMM           3.30:   Rmc
 MCST.F                89:   Rmc Meas. temp.
 MFSS.               FANN:   Source Rmf.
 MCSS.                KIT:   Source Rmc.
 RMB .OHMM           1.91:   Rm. at BHT
 BHT .F               116:   BHT.
 TCS .HRS              12:   Time Circ. stopped
 MRT .F               116:   Maximum recorded temp.
 LUN .               9585:   Logging unit number
 LUL .             CASPEN:   Logging unit location
 ENGI.         G. BENTSEN:   Recorded By
 WITN.      W. PETTINGILL:   Witnessed by
 ORIG.           5" PRINT:   Origin of data
 UWI .     49025104180000:   Unique Well ID
 DICO. A2D TECHNOLOGIES, INC.:   Digitizing Company
~OTHER INFORMATION
~A   DEPT     CALD         GRD      DPHI       RHOB        CORR       SPR       GURD        ILD        ILM   
# ...
 1551.0000     8.3421    77.5516     0.0861     2.5059     0.0278   -67.7840     9.9390     6.2301     6.4078
 1551.5000     8.3417    77.5437     0.0849     2.5079     0.0338   -67.7813    10.0318     6.2307     6.4084
 1552.0000     8.3610    77.5342     0.0849     2.5089     0.0337   -67.7786    10.2187     6.2312     6.4090
 1552.5000     8.3606    77.5279     0.0849     2.5089     0.0337   -67.7758    10.2198     6.2894     6.4685
 1553.0000     8.3405    77.9137     0.0849     2.5089     0.0336   -67.7731    10.5253     6.2900     6.4690
 1553.5000     8.3402    79.0853     0.0857     2.5078     0.0316   -67.7703    10.9207     6.2332     6.3492
 1554.0000     8.3594    80.6520     0.0869     2.5038     0.0316   -67.7676    11.1243     6.2337     6.6483
 1554.5000     8.3590    81.8267     0.0917     2.4988     0.0315   -67.9625    10.3185     6.1776     6.9618
 1555.0000     8.3587    83.0014     0.0953     2.4898     0.0295   -67.9597    10.3196     6.1781     6.9623
 1555.5000     8.3583    83.3872     0.0988     2.4858     0.0215   -67.9570    10.1330     6.1789     6.8364
 1556.0000     8.3383    83.3809     0.1025     2.4808     0.0095   -67.9542     9.5034     6.1792     6.5299
 1556.5000     8.3378    83.3715     0.1037     2.4778     0.0075   -67.3583     9.5921     6.1799     6.3565
 1557.0000     8.3374    83.3636     0.1029     2.4778     0.0114   -67.7512     9.9519     6.2379     6.4158
 1557.5000     8.3370    83.3494     0.1021     2.4778     0.0114   -67.7485     9.9529     6.2383     6.4162
 1558.0000     8.3169    83.3462     0.1017     2.4798     0.0133   -67.7457     9.5952     6.2387     6.4166
 1558.5000     8.2968    82.5510     0.1017     2.4797     0.0133   -67.7430    10.1393     6.2397     6.4176
 1559.0000     8.3161    82.9368     0.1017     2.4797     0.0152   -67.7408    10.6168     6.2401     6.4180
 1559.5000     8.2961    82.5353     0.1017     2.4797     0.0172   -67.7381     9.5983     6.1836     6.3603
 1560.0000     8.2957    82.5274     0.1002     2.4847     0.0211   -67.7354     9.4247     6.1281     6.3034
 1560.5000     8.3150    82.1258     0.0914     2.4946     0.0251   -68.1261     9.6001     6.0725     6.2466
 1561.0000     8.2949    81.7243     0.0894     2.4966     0.0290   -68.1250     9.9602     6.0733     6.2474
 1561.5000     8.3142    81.7164     0.0882     2.4986     0.0330   -68.1233     9.9613     6.0181     6.1909
 1562.0000     8.2941    82.8911     0.0874     2.4995     0.0329   -68.3170     9.6918     5.9635     6.1351
 1562.5000     8.3134    82.8832     0.0874     2.5005     0.0269   -67.9192     9.6042     6.0199     6.1928
 1563.0000     8.2933    82.4801     0.0855     2.5055     0.0269   -67.9165     9.8734     5.9651     6.1367
 1563.5000     8.3126    82.4738     0.0835     2.5094     0.0288   -68.1113    10.0575     5.9656     6.3044
 1564.0000     8.3122    82.4675     0.0823     2.5124     0.0268   -68.1085    10.2449     5.9663     6.3047
 1564.5000     8.2923    82.4612     0.0787     2.5144     0.0287   -68.1058    10.2460     5.9667     6.1384
 1565.0000     8.3311    82.4533     0.0787     2.5153     0.0307   -68.1031     9.9688     5.9672     6.1389
 1565.5000     8.3504    82.4407     0.0791     2.5173     0.0307   -68.1003    10.5542     5.9677     6.1394
 1566.0000     8.3500    82.4344     0.0791     2.5183     0.0366   -68.0976    10.1557     5.9685     6.1402
 1566.5000     8.3496    82.4249     0.0787     2.5183     0.0326   -68.0949     9.8809     5.9695     6.1412
 1567.0000     8.3492    82.4170     0.0792     2.5192     0.0325   -68.0921     9.5257     5.9701     6.1418
 1567.5000     8.3488    82.4092     0.0792     2.5192     0.0325   -67.8919    10.0661     5.9704     6.1422
 1568.0000     8.3484    82.0108     0.0804     2.5192     0.0324   -67.8891     9.5277     5.9167     6.1430
 1568.5000     8.3874    82.0013     0.0804     2.5162     0.0324   -67.4914     9.6166     5.9716     6.1433
 1569.0000     8.3674    81.9918     0.0808     2.5142     0.0344   -67.6862    10.0694     5.9979     6.1442
 1569.5000     8.3670    81.9855     0.0848     2.5102     0.0343   -67.6834    10.2570     6.0244     6.1449
 1570.0000     8.3075    81.9761     0.0880     2.5052     0.0343   -67.6807    10.3527     6.0510     6.2549
 1570.5000     8.3268    81.9698     0.0908     2.5032     0.0303   -67.8755    11.0615     6.0778     6.3132
 1571.0000     8.3067    81.9603     0.0963     2.4982     0.0282   -67.8727     9.9816     6.1046     6.4309
 1571.5000     8.3063    82.7398     0.0972     2.4922     0.0262   -67.8700    10.1677     6.1316     6.7344
 1572.0000     8.3059    81.9446     0.0972     2.4882     0.0261   -67.8673    10.3572     6.1587     6.9875
 1572.5000     8.3055    81.9367     0.0972     2.4862     0.0241   -68.0620    10.5695     6.1859     7.1177
 1573.0000     8.3052    82.3193     0.0972     2.4861     0.0221   -68.0593    10.4739     6.2015     7.1842
 1573.5000     8.3441    82.3146     0.0972     2.4871     0.0220   -68.0565    10.6695     6.2021     7.1849
 1574.0000     8.3437    82.3056     0.0960     2.4881     0.0200   -68.0538    11.0704     6.2601     7.1858
 1574.5000     8.3433    82.3051     0.0952     2.4891     0.0200   -68.0511    11.3813     6.3769     7.1206
 1575.0000     8.3429    82.2909     0.0936     2.4900     0.0219   -68.0483    11.1751     6.4364     7.0560
 1575.5000     8.3622    82.6767     0.0924     2.4930     0.0239   -67.8481    10.8722     6.4967     7.0569
 1576.0000     8.3421    82.2752     0.0924     2.4980     0.0258   -67.8454    10.5775     6.6178     7.3899
 1576.5000     8.3220    82.6610     0.0921     2.5029     0.0238   -67.8426    10.4818     6.6184     7.7384
 1577.0000     8.3216    82.6515     0.0929     2.5039     0.0218   -67.8399    10.4830     6.6803     7.7390
 1577.5000     8.3212    83.4325     0.0933     2.4979     0.0217   -68.0347    10.5810     6.6198     7.5990
 1578.0000     8.3208    84.2136     0.0933     2.4949     0.0217   -68.0319    10.8781     6.4402     7.3928
 1578.5000     8.3204    85.3867     0.0929     2.4969     0.0216   -68.0292    11.1836     6.3819     7.1926
 1579.0000     8.3201    86.1661     0.0893     2.4999     0.0216   -68.2239    10.7809     6.2093     7.1932
 1579.5000     8.3197    87.3377     0.0881     2.5018     0.0216   -68.2212    10.3926     6.2098     7.1281
 1580.0000     8.3193    86.5440     0.0869     2.5008     0.0215   -68.2184    10.2043     6.2104     7.1290
 1580.5000     8.3582    85.7488     0.0861     2.4998     0.0215   -68.2157    10.2054     6.2111     7.1296
 1581.0000     8.3578    84.9552     0.0861     2.5018     0.0214   -68.2135    10.4920     6.2117     7.1305
 1581.5000     8.3378    84.9442     0.0862     2.5077     0.0214   -67.4193    10.7865     6.1554     7.0660
 1582.0000     8.3571    84.9363     0.0878     2.5087     0.0214   -67.4188    10.3795     6.1560     6.9379
 1582.5000     8.3567    84.9284     0.0882     2.5047     0.0094   -67.8104    10.3804     6.1566     6.6267
 1583.0000     8.3563    84.9205     0.0886     2.5007     0.0093   -68.2026    10.9695     6.1573     6.3297
 1583.5000     8.3362    84.9126     0.0898     2.4987     0.0073   -68.9907    11.2992     6.1578     6.3888
 1584.0000     8.3161    84.9047     0.0918     2.4987     0.0053   -69.7767    10.5762     6.1586     6.6289
 1584.5000     8.3157    84.8969     0.0930     2.4976     0.0052   -68.3918    11.1764     6.1591     6.9414
 1585.0000     8.3153    84.4953     0.0934     2.4956     0.0072   -65.4263    11.3848     6.1599     7.0712
 1585.5000     8.3149    84.8811     0.0934     2.4946     0.0052   -66.2145    11.3860     6.1603     7.0719
 1586.0000     8.2555    84.8732     0.0874     2.4996     0.0071   -67.5938    11.7053     6.1612     7.0725
 1586.5000     8.2945    85.6527     0.0834     2.5105     0.0170   -67.7885    11.7066     6.1618     7.0734
 1587.0000     8.2941    86.0385     0.0787     2.5165     0.0269   -67.7858    11.3897     6.1625     7.0093
