~VERSION INFORMATION
 VERS.                2.0:   CWLS LOG ASCII STANDARD - VERSION 2.0
 WRAP.                 NO:   ONE LINE PER DEPTH STEP
~WELL INFORMATION
#MNEM.UNIT      DATA TYPE    INFORMATION
#----------   ------------   ------------------------------
 STRT.F            0.5000:   START DEPTH
 STOP.F          582.5000:   STOP DEPTH
 STEP.F            0.5000:   STEP LENGTH
 NULL.          -999.2500:   NO VALUE
 COMP.   LAWRENCE ALLISON:   COMPANY
 WELL. LAWRANCE SHX #31-34:   WELL
 FLD .             NPR #3:   FIELD
 LOC .      S34 T39N R78W:   LOCATION
 CNTY.            NATRONA:   COUNTY
 STAT.            WYOMING:   STATE
 CTRY. UNITED STATES OF AMERICA:   COUNTRY
 SRVC.           GEARHART:   SERVICE COMPANY
 DATE.        22-SEP-1988:   LOGDATE
 API .     49025112470000:   API NUMBER
~CURVE INFORMATION
#MNEM.UNIT       API CODE    CURVE DESCRIPTION
#----------   ------------   ------------------------------
 DEPT.F                  :   
 GRR .GAPI   07 310 01 00:   GAMMA RAY FROM RESISTIVITY
 RILD.OHMM   07 120 46 00:   RESISTIVITY INDUCTION LOG DEEP
 RILM.OHMM   07 120 44 00:   RESISTIVITY INDUCTION LOG MEDIUM
 TENR.LBS    07 635 01 00:   TENSION FROM RESISTIVITY
~PARAMETER INFORMATION
#MNEM.UNIT          VALUE    DESCRIPTION
#----------   ------------   ------------------------------
 EKB .F         5075.0000:   Kelly bushing
 EGL .F         5065.0000:   Ground level
 EDF .F            0.0000:   Drilling floor
 TD  .F          577.5000:   Total depth
 CLNT.            A2DTECH:   Client Code
 PD  .                 GL:   Permanent Datum
 EPD .F              5065:   Elevation Permanent Datum
 LMF .                 KB:   Log Measured From
 DMF .                 KB:   Drilling Measured From
 DAPD.F                10:   Feet Above Permanent Datum
 DATE.        22-SEP-1988:   Date Logged [DD-MMM-YYYY]
 DD  .F               575:   Depth driller
 DL  .F             577.5:   Depth logger
 BLI .F               569:   Bottom log interval
 TLI .F                 0:   Top log interval
 CS1 .IN            9.625:   Casing size
 CBD1.       9.625" @ 50':   Casing driller 1
 CBL1.F                50:   Casing logger 1
 BS1 .IN             8.75:   Bit size
 BSD1.F               575:   Depth drilled with bit1
 DFT .                AIR:   Type fluid in hole
 TLAB.HRS            2350:   Time logger at bottom
 MRT .F                70:   Maximum recorded temp.
 LUN .               7597:   Logging unit number
 LUL .           GILLETTE:   Logging unit location
 ENGI.          HUCKFFLOT:   Recorded By
 WITN.             STRONG:   Witnessed by
 ORIG.           5" PRINT:   Origin of data
 UWI .     49025112470000:   Unique Well ID
 DICO. A2D TECHNOLOGIES, INC.:   Digitizing Company
 SL  . 324' FNL & 1963' FEL:   Surface Location
~OTHER INFORMATION
~A    DEPT      GRR      RILD       RILM       TENR   
# ...
  511.5000   109.0155    10.0645     9.4364     0.5894
  512.0000   111.1319    10.0540     8.9325     0.6150
  512.5000   112.3420    10.0434     8.6864     0.6407
  513.0000   112.8327    10.0329     8.6245     0.6663
  513.5000   113.4480    10.0223     8.6826     0.6919
  514.0000   114.0652    10.0118     8.8018     0.7176
  514.5000   114.6800    10.0012     8.7994     0.7432
  515.0000   115.2948     9.9907     8.9203     0.7688
  515.5000   115.6079     9.9802     8.9808     0.7944
  516.0000   115.9239     9.9023     8.9784     0.8201
  516.5000   115.6309     9.7672     8.9763     0.8457
  517.0000   115.6452     9.6339     8.9643     0.8713
  517.5000   115.0534     9.5686     8.8485     0.8969
  518.0000   115.0649     9.5037     8.6645     0.9226
  518.5000   113.8726     9.4393     8.5433     0.9482
  519.0000   116.2974     9.4408     8.4238     0.9738
  519.5000   118.1188     9.3120     8.3634     0.9994
  520.0000   118.7336     9.1849     8.3038     1.0251
  520.5000   117.2357     9.0599     8.2447     1.0507
  521.0000   115.4412     8.8745     8.2429     1.0763
  521.5000   114.5477     8.7531     8.1272     1.1020
  522.0000   117.5758     8.6340     8.1254     1.1276
  522.5000   120.0005     8.5666     8.0118     1.1532
  523.0000   118.1900     8.3419     7.8998     1.1788
  523.5000   115.1998     8.1150     7.7893     1.2045
  524.0000   114.3063     7.7853     7.6269     1.2301
  524.5000   114.0133     7.4689     7.4168     1.2557
  525.0000   114.0276     6.9696     7.1131     1.2813
  525.5000   115.2570     6.6402     6.6816     1.3070
  526.0000   117.6734     6.5494     6.2300     1.3326
  526.5000   119.4948     6.6420     5.8139     1.3582
  527.0000   121.3162     6.7825     5.6540     1.3838
  527.5000   122.5793     7.0230     6.2284     1.4095
  528.0000   117.9889     7.1716     6.7203     1.4351
  528.5000   117.7308     7.3743     6.9605     1.4607
  529.0000   118.6501     7.5828     7.1994     1.4864
  529.5000   119.2649     7.9060     7.2478     1.5120
  530.0000   119.2764     8.4166     7.9841     1.5376
  530.5000   118.3407     8.9599     8.4961     1.5632
  531.0000   115.6823     9.3419     8.7984     1.5889
  531.5000   114.1855     9.6059     9.1646     1.6145
  532.0000   113.2891     9.8784     9.4856     1.6401
  532.5000   113.6052     9.7430     9.6164     1.6657
  533.0000   113.6169     9.3471     9.4814     1.6914
  533.5000   111.8210     9.1558     9.3420     1.7170
  534.0000   112.4358     9.0935     9.2818     1.7426
  534.5000   113.9556     9.0950     9.2797     1.7683
  535.0000   114.5704     9.3523     9.2141     1.7939
  535.5000   113.6150     9.4842     9.2757     1.8195
  536.0000   110.9763     9.5515     9.2735     1.8451
  536.5000   113.4011     9.4867     9.2711     1.8708
  537.0000   114.9209     9.4880     9.3340     1.8964
  537.5000   114.9447     9.6221     9.3314     1.9220
  538.0000   113.3272     9.6234     9.3294     1.9476
  538.5000   110.4333     9.6246     9.3268     1.9733
  539.0000   109.2353     9.5593     9.3248     1.9989
  539.5000   114.0762     9.5607     9.3227     2.0245
  540.0000   117.1242     9.5622     9.3207     2.0501
  540.5000   116.1700     9.4974     9.3186     2.0758
  541.0000   115.0185     9.4330     9.3161     2.1014
  541.5000   112.9184     9.3690     9.2497     2.1270
  542.0000   109.9132     9.3651     9.1838     2.1527
  542.5000   111.1314     9.0524     8.8691     2.1783
  543.0000   112.3962     8.4470     8.4459     2.2039
  543.5000   113.8721     8.0477     7.9343     2.2295
  544.0000   116.2969     7.6674     7.6094     2.2552
  544.5000   114.4984     6.9933     7.2979     2.2808
  545.0000   112.6999     6.4936     6.9991     2.3064
  545.5000   111.8064     5.8528     6.5222     2.3320
  546.0000   112.4241     5.3119     5.6432     2.3577
  546.5000   113.3406     4.6891     5.0803     2.3833
  547.0000   113.6537     4.0635     4.4393     2.4089
  547.5000   113.6652     3.4569     3.7983     2.4346
  548.0000   112.7717     3.0942     3.1573     2.4602
  548.5000   113.9927     3.0099     2.6300     2.4858
  549.0000   114.3058     3.0088     2.2420     2.5114
  549.5000   114.6161     3.0556     2.2107     2.5371
  550.0000   109.2006     3.1831     2.3360     2.5627
  550.5000   106.1984     3.3419     2.4858     2.5930
  551.0000   105.6037     3.6324     2.7385     2.5277
  551.5000   108.0313     4.0311     3.3024     2.4480
  552.0000   108.3444     4.3997     3.9201     2.3682
  552.5000   107.7424     5.1402     5.0708     2.2885
  553.0000   103.8454     6.2862     6.0287     2.2088
  553.5000   100.8403     6.9213     6.7342     2.1291
  554.0000    99.3406     7.5233     7.0674     2.0493
  554.5000   106.2931     7.9511     7.0694     1.9696
  555.0000   108.7280     8.1748     7.2127     1.8899
  555.5000  -999.2500     8.3466     7.4134     1.8102
  556.0000  -999.2500     8.5838     7.5679     1.7304
  556.5000  -999.2500     8.7013     7.7248     1.6507
  557.0000  -999.2500     8.7619     7.8853     1.5710
  557.5000  -999.2500     8.7619     7.9932     1.4913
  558.0000  -999.2500     8.6412     8.0474     1.4116
  558.5000  -999.2500     8.5221     8.1016     1.3318
  559.0000  -999.2500     8.4047     8.0994     1.2521
  559.5000  -999.2500     8.4047     8.1539     1.1724
  560.0000  -999.2500     8.4047     8.0954     1.0927
  560.5000  -999.2500     8.4047     8.0377     1.0129
  561.0000  -999.2500     8.4047     7.9806     0.9332
  561.5000  -999.2500     8.4047     7.9787     0.8535
  562.0000  -999.2500     8.4001     7.9769     0.7738
  562.5000  -999.2500     8.2890     7.9747     0.6941
  563.0000  -999.2500     8.3466     7.9730     0.6143
  563.5000  -999.2500     8.3466     7.9712     0.5346
  564.0000  -999.2500     8.2264     7.9695     0.4549
  564.5000  -999.2500     8.0064     7.8576     0.3752
  565.0000  -999.2500  -999.2500     7.8017     0.2954
  565.5000  -999.2500  -999.2500     7.6394     0.2157
  566.0000  -999.2500  -999.2500     7.1759     0.1360
  566.5000  -999.2500  -999.2500     7.2747     0.0563
  567.0000  -999.2500  -999.2500     7.4257    -0.0234
  567.5000  -999.2500  -999.2500     7.4757    -0.1032
  568.0000  -999.2500  -999.2500     7.5260    -0.1829
  568.5000  -999.2500  -999.2500     7.4720    -0.2626
  569.0000  -999.2500  -999.2500  -999.2500    -0.3423
  569.5000  -999.2500  -999.2500  -999.2500    -0.4221
  570.0000  -999.2500  -999.2500  -999.2500    -0.5018
  570.5000  -999.2500  -999.2500  -999.2500    -0.5815
  571.0000  -999.2500  -999.2500  -999.2500    -0.6612
  571.5000  -999.2500  -999.2500  -999.2500    -0.7410
  572.0000  -999.2500  -999.2500  -999.2500    -0.8207
  572.5000  -999.2500  -999.2500  -999.2500    -0.9004
  573.0000  -999.2500  -999.2500  -999.2500    -0.9801
  573.5000  -999.2500  -999.2500  -999.2500    -1.0598
  574.0000  -999.2500  -999.2500  -999.2500    -1.1396
  574.5000  -999.2500  -999.2500  -999.2500    -1.2193
  575.0000  -999.2500  -999.2500  -999.2500    -1.2990
  575.5000  -999.2500  -999.2500  -999.2500    -1.3787
  576.0000  -999.2500  -999.2500  -999.2500    -1.4585
  576.5000  -999.2500  -999.2500  -999.2500    -1.5382
  577.0000  -999.2500  -999.2500  -999.2500    -1.6179
  577.5000  -999.2500  -999.2500  -999.2500    -1.6976
  578.0000  -999.2500  -999.2500  -999.2500    -1.7773
  578.5000  -999.2500  -999.2500  -999.2500    -1.8571
  579.0000  -999.2500  -999.2500  -999.2500    -1.9368
  579.5000  -999.2500  -999.2500  -999.2500    -2.0165
  580.0000  -999.2500  -999.2500  -999.2500    -2.0962
  580.5000  -999.2500  -999.2500  -999.2500    -2.1760
  581.0000  -999.2500  -999.2500  -999.2500    -2.2557
  581.5000  -999.2500  -999.2500  -999.2500    -2.3354
  582.0000  -999.2500  -999.2500  -999.2500    -2.4151
  582.5000  -999.2500  -999.2500  -999.2500    -2.4949
