~VERSION INFORMATION
 VERS.                2.0:   CWLS LOG ASCII STANDARD - VERSION 2.0
 WRAP.                 NO:   ONE LINE PER DEPTH STEP
~WELL INFORMATION
#MNEM.UNIT      DATA TYPE    INFORMATION
#----------   ------------   ------------------------------
 STRT.F           10.0000:   START DEPTH
 STOP.F         4008.0000:   STOP DEPTH
 STEP.F            0.5000:   STEP LENGTH
 NULL.          -999.2500:   NO VALUE
 COMP. LAWRENCE ALLISON & ASSOC.:   COMPANY
 WELL. LAWRENCE NPR 3 "AX" #75-28:   WELL
 FLD .                NPR:   FIELD
 LOC .      S28 T39N R78W:   LOCATION
 CNTY.            NATRONA:   COUNTY
 STAT.            WYOMING:   STATE
 CTRY. UNITED STATES OF AMERICA:   COUNTRY
 SRVC.      DRESSER ATLAS:   SERVICE COMPANY
 DATE.        28-APR-1983:   LOGDATE
 API .     49025109060000:   API NUMBER
~CURVE INFORMATION
#MNEM.UNIT       API CODE    CURVE DESCRIPTION
#----------   ------------   ------------------------------
 DEPT.F                  :   
 RHOB.G/C3   45 350 01 00:   BULK DENSITY
 CORR.G/C3   45 356 01 00:   DENSITY CORRECTION
 TEND.LBS    45 635 01 00:   TENSION FROM DENSITY LOG
 NPHI.DEC    42 890 03 00:   NEUTRON POROSITY SANDSTONE
 GRR .GAPI   07 310 01 00:   GAMMA RAY FROM RESISTIVITY
 CALR.IN     07 280 01 00:   CALIPER FROM RESISTIVITY
 RFOC.OHMM   07 220 01 00:   RESISTIVITY FOCUSED LOG RES.
 RILD.OHMM   07 120 46 00:   DEEP INDUCTION RESISTIVITY
 TENR.LBS    01 635 01 00:   TENSION FROM RES.
 RILM.OHMM   07 120 44 00:   INDUCTION LOG MEDIUM RESISTIVITY
 TENS.LBS    60 635 01 00:   TENSION FROM SONIC LOG
 DT  .US/F   60 520 00 00:   DELTA TIME
 SPR .MV     07 010 01 00:   SPONTANEOUS POTENTIAL
~PARAMETER INFORMATION
#MNEM.UNIT          VALUE    DESCRIPTION
#----------   ------------   ------------------------------
 EKB .F         5068.0000:   Kelly bushing
 EGL .F         5058.0000:   Ground level
 EDF .F            0.0000:   Drilling floor
 TD  .F         4003.0000:   Total depth
 DATE.        28-APR-1983:   Date logged
 CLNT.            A2DTECH:   Client Code
 SL  . 2100' FSL & 1050' FEL:   Surface Location
 PD  .                 GL:   Permanent Datum
 EPD .F              5058:   Elevation Permanent Datum
 LMF .                 KB:   Log Measured From
 DMF .                 KB:   Drilling Measured From
 DAPD.F                10:   Feet Above Permanent Datum
 DD  .F              4000:   Depth driller
 DL  .F              4003:   Depth logger
 BLI .F              4000:   Bottom log interval
 CS1 .IN            8.625:   Casing size
 CBD1.      8.625" @ 498':   Casing driller 1
 CBL1.F               497:   Casing logger 1
 BS1 .IN            7.875:   Bit size
 BSD1.F              4000:   Depth drilled with bit1
 DFT .            KCL/GEL:   Type fluid in hole
 DFD .                  9:   Density
 DFV .                 43:   Viscosity
 DFPH.                8.5:   pH
 DFL .               12.4:   Fluid loss
 MSS .           MUD/TANK:   Source of sample
 RMS .OHMM            .45:   Rm
 MST .F                43:   Rm Meas. temp.
 RMF .OHMM            .27:   Rmf
 MFST.F                51:   Rmf Meas. temp.
 RMC .OHMM            .56:   Rmc
 MCST.F                43:   Rmc Meas. temp.
 MFSS.               MEAS:   Source Rmf.
 MCSS.               CALC:   Source Rmc.
 RMB .OHMM            .16:   Rm. at BHT
 BHT .F               121:   BHT.
 TCS .HRS               7:   Time Circ. stopped
 MRT .F               121:   Maximum recorded temp.
 LUN .               6274:   Logging unit number
 LUL .               GLTE:   Logging unit location
 ENGI.            WACDELL:   Recorded By
 WITN.             STRONG:   Witnessed by
 ORIG.           5" PRINT:   Origin of data
 UWI .     49025109060000:   Unique Well ID
 DICO. A2D TECHNOLOGIES, INC.:   Digitizing Company
~OTHER INFORMATION
~A   DEPT     RHOB       CORR       TEND       NPHI         GRR      CALR       RFOC       RILD       TENR       RILM       TENS         DT        SPR   
# ...
 2142.0000     2.4570     0.0000   -54.8050     0.2700   111.8040    10.2490     6.8560     6.1160   -59.6190     5.9390   -46.2030    94.3940   -38.8580
 2142.5000     2.4600     0.0080   -54.8050     0.2720   112.2280    10.2340     7.2780     6.1720   -59.6190     5.9930   -46.3500    93.9480   -38.7650
 2143.0000     2.4550     0.0150   -54.8050     0.2830   112.3780    10.2190     7.6590     6.2270   -59.6190     6.0480   -46.4980    93.4750   -38.6800
 2143.5000     2.4490     0.0100   -54.8050     0.2980   110.8640    10.2030     7.5300     6.2820   -59.6190     6.1020   -46.6450    93.0010   -38.5960
 2144.0000     2.4440     0.0050   -54.8050     0.3010   107.0120    10.1880     7.3800     6.3680   -59.6190     6.1560   -46.7930    93.0640   -38.5080
 2144.5000     2.4420     0.0030   -54.8050     0.3010   102.0060    10.1730     7.2290     6.3680   -59.6190     6.2110   -46.9400    93.5260   -38.4180
 2145.0000     2.4480     0.0110   -54.8050     0.3000    98.4180    10.1580     7.1140     6.5660   -59.6190     6.2520   -47.0880    93.9050   -38.3270
 2145.5000     2.4580     0.0040   -54.8050     0.3000    98.3090    10.1440     7.1700     6.7030   -59.6190     6.5030   -47.2350    93.9500   -38.2380
 2146.0000     2.4660     0.0110   -54.8050     0.2930   101.5350    10.1280     7.2470     6.8390   -59.6190     6.7060   -47.3820    93.9950   -38.1500
 2146.5000     2.4650     0.0160   -54.8050     0.2740   105.8590    10.1100     7.6990     6.9760   -59.6190     6.9840   -47.5300    93.3420   -38.0640
 2147.0000     2.4650     0.0110   -54.8050     0.2590   108.7530    10.0940     8.2430     7.1130   -59.6190     6.9840   -47.6770    92.7010   -37.9770
 2147.5000     2.4690     0.0120   -54.8050     0.2730   109.2140    10.0820     8.7860     7.2470   -59.6190     7.0380   -47.8250    92.3170   -37.8870
 2148.0000     2.4730     0.0290   -54.8050     0.2840   107.9860    10.0760     9.3840     7.2470   -59.6190     7.1140   -47.9720    92.1280   -37.7920
 2148.5000     2.4700     0.0370   -54.8050     0.2980   106.3320    10.0730     8.9640     7.2470   -59.6190     7.1140   -48.1190    92.0160   -37.7000
 2149.0000     2.4630     0.0270   -54.8050     0.3110   104.8260    10.0730     8.4500     7.2470   -59.6190     7.1140   -48.2670    92.1840   -37.6200
 2149.5000     2.4560     0.0200   -54.8050     0.3060   103.2860    10.0750     7.9350     6.8340   -59.6190     7.1140   -48.4140    92.3940   -37.5470
 2150.0000     2.4480     0.0260   -54.8050     0.3040   101.5440    10.0820     7.1140     6.5770   -59.6190     5.9640   -48.5620    92.9980   -37.4570
 2150.5000     2.4290     0.1270   -54.8050     0.3050   100.0280    10.0940     7.1140     6.3200   -59.6190     4.8280   -48.7090    94.0050   -37.3390
 2151.0000     2.4330     0.1110   -54.8050     0.3070    99.5820    10.1080     5.0100     5.9150   -59.6190     5.1830   -48.8570    95.0120   -37.2200
 2151.5000     2.4430     0.0730   -54.8050     0.3170   100.6740    10.1220     5.0100     5.9150   -59.6190     5.5360   -49.0040    96.0930   -37.1660
 2152.0000     2.4680     0.0360   -54.8050     0.3210   102.7630    10.1390     5.2950     5.9150   -59.6190     5.8070   -49.1510    95.6730   -37.2310
 2152.5000     2.4840     0.0110   -54.8050     0.3200   104.4850    10.1650     6.6650     5.9150   -59.6190     5.8070   -49.2990    94.7930   -37.4160
 2153.0000     2.4850     0.0050   -54.8050     0.3150   104.6910    10.2010     7.9470     5.9150   -59.6190     5.8070   -49.4460    93.1450   -37.6650
 2153.5000     2.4820     0.0040   -54.8050     0.3000   103.4670    10.2450     7.7530     5.9150   -59.6190     5.8070   -49.5940    91.5750   -37.9150
 2154.0000     2.4790     0.0160   -54.8050     0.2770   102.0430    10.2920     7.5240     5.9150   -59.6190     5.8070   -49.7410    91.2940   -38.1350
 2154.5000     2.4710     0.0330   -54.8050     0.2790   101.5620    10.3390     7.2950     5.9150   -59.6190     5.8070   -49.8890    91.7970   -38.3300
 2155.0000     2.4620     0.0420   -54.8050     0.2840   101.9620    10.3860     7.0660     5.6120   -59.6190     5.8070   -50.0360    92.3010   -38.5190
 2155.5000     2.4540     0.0490   -54.8050     0.2880   102.2200    10.4340     6.8560     5.3290   -59.6190     5.5620   -50.1830    93.1070   -38.7170
 2156.0000     2.4500     0.0560   -54.8050     0.2880   101.6690    10.4770     5.9710     5.0460   -59.6190     5.2850   -50.3310    93.9880   -38.9340
 2156.5000     2.4650     0.0520   -54.8050     0.2840   100.7510    10.5080     4.9180     4.7640   -59.6190     5.0070   -50.4780    94.8690   -39.1720
 2157.0000     2.4850     0.0350   -54.8050     0.2840   100.3510    10.5240     4.9180     4.5680   -59.6190     4.7290   -50.6260    95.8890   -39.3990
 2157.5000     2.4960     0.0180   -54.8050     0.2890   100.6530    10.5240     5.1980     4.6530   -59.6190     4.4850   -50.7730    95.3950   -39.5400
 2158.0000     2.4940     0.0100   -54.8050     0.2900   101.0050    10.5160     5.7010     4.6130   -59.6190     4.5680   -50.9210    94.5100   -39.4980
 2158.5000     2.4820     0.0050   -54.8050     0.2770   100.9910    10.5030     5.7010     4.5580   -59.6190     4.5680   -51.0680    93.4670   -39.2300
 2159.0000     2.4700    -0.0070   -54.6850     0.2850   101.1840    10.4880     5.7010     4.5020   -59.6190     4.4850   -51.2150    92.4250   -38.7920
 2159.5000     2.4590    -0.0010   -54.4570     0.2930   102.5540    10.4710     5.7010     4.4460   -59.6190     4.4300   -51.3630    92.4450   -38.3410
 2160.0000     2.4490     0.0180   -54.2280     0.3030   105.1490    10.4540     5.2990     4.3910   -59.6190     4.3750   -51.5100    93.3410   -38.0490
 2160.5000     2.4400     0.0800   -54.0000     0.3000   107.6670    10.4390     5.0400     4.3220   -59.6190     4.3210   -51.6580    94.3630   -38.0050
 2161.0000     2.4460     0.0710   -53.7720     0.3020   108.5240    10.4270     4.7800     4.3420   -59.6190     4.2430   -51.8050    94.9920   -38.1710
 2161.5000     2.4570     0.0590   -53.5430     0.3060   107.3480    10.4180     4.5680     4.3670   -59.6190     4.2430   -51.9530    95.6210   -38.4300
 2162.0000     2.4680     0.0460   -53.3150     0.3110   105.3510    10.4090     5.3020     4.3930   -59.6190     4.3500   -52.1000    95.6590   -38.6800
 2162.5000     2.4650     0.0160   -53.0860     0.2950   104.1870    10.3990     6.0250     4.4190   -59.6190     4.4180   -52.2470    94.7200   -38.8890
 2163.0000     2.4570     0.0110   -52.8580     0.2830   104.4240    10.3890     6.0250     4.4440   -59.9070     4.4850   -52.3950    93.7800   -39.0830
 2163.5000     2.4490     0.0180   -52.6300     0.2720   105.1520    10.3790     6.0250     4.4850   -60.0870     4.4850   -52.5420    93.1170   -39.2790
 2164.0000     2.4500     0.0250   -52.4010     0.2670   105.0260    10.3700     5.0100     4.4850   -60.2680     4.6410   -52.6900    93.8220   -39.4520
 2164.5000     2.4530     0.0160   -52.1730     0.2690   103.6310    10.3600     5.0100     4.7020   -60.4480     4.7390   -52.8370    94.4100   -39.5600
 2165.0000     2.4530    -0.0030   -51.9450     0.2700   101.7160    10.3510     5.0100     4.8540   -60.6280     4.8360   -52.9840    94.4940   -39.5910
 2165.5000     2.4520    -0.0220   -51.7160     0.2660   100.3370    10.3410     5.0100     5.0070   -60.8090     4.9330   -53.1320    93.8720   -39.5700
 2166.0000     2.4540    -0.0390   -51.4880     0.2600    99.9040    10.3310     6.2520     5.1600   -60.9890     5.0300   -53.2790    93.2500   -39.5450
 2166.5000     2.4600    -0.0320   -51.2600     0.2710   100.0380    10.3220     6.2520     5.3940   -61.1690     5.1280   -53.4270    92.6280   -39.5420
 2167.0000     2.4650    -0.0100   -51.0310     0.2830   100.0950    10.3120     6.3260     5.3940   -61.3500     5.2250   -53.5740    92.2410   -39.5610
 2167.5000     2.4690     0.0120   -50.8030     0.2750    99.6530    10.3020     6.3680     5.4940   -61.5300     5.2950   -53.7220    92.3330   -39.5790
