~VERSION INFORMATION
 VERS.                2.0:   CWLS LOG ASCII STANDARD - VERSION 2.0
 WRAP.                 NO:   ONE LINE PER DEPTH STEP
~WELL INFORMATION
#MNEM.UNIT      DATA TYPE    INFORMATION
#----------   ------------   ------------------------------
 STRT.F          200.0000:   START DEPTH
 STOP.F         3014.0000:   STOP DEPTH
 STEP.F            0.5000:   STEP LENGTH
 NULL.          -999.2500:   NO VALUE
 COMP.    FENIX & SCISSON:   COMPANY
 WELL. FENIX NPR 3 "AX" #45-28:   WELL
 FLD .                NPR:   FIELD
 LOC .      S28 T39N R78W:   LOCATION
 CNTY.            NATRONA:   COUNTY
 STAT.            WYOMING:   STATE
 CTRY. UNITED STATES OF AMERICA:   COUNTRY
 SRVC.              WELEX:   SERVICE COMPANY
 DATE.        30-SEP-1977:   LOGDATE
 API .     49025104230000:   API NUMBER
~CURVE INFORMATION
#MNEM.UNIT       API CODE    CURVE DESCRIPTION
#----------   ------------   ------------------------------
 DEPT.F                  :   
 SPR .MV     07 010 01 00:   SPONTANEOUS POTENTIAL
 TENR.LBS    07 635 01 00:   TENSION
 SFL .OHMM   07 220 01 00:   SHALLOW FOCUSED LOG RESISTIVITY
 ILD .OHMM   07 120 46 00:   INDUCTION LOG DEEP RESISTIVITY
 ILM .OHMM   07 120 44 00:   INDUCTION LOG MEDIUM RESISTIVITY
 TEND.LBS    45 635 01 00:   TENSION FROM DENSITY LOG
 CALD.IN     45 280 60 00:   CALIPER FROM DENSITY LOG
 RHOB.G/C3   45 350 01 00:   BULK DENSITY
 CORR.G/C3   45 356 01 00:   DENSITY CORRECTION
 GRD .GAPI   45 310 01 00:   GAMMA RAY FROM DENSITY LOG
~PARAMETER INFORMATION
#MNEM.UNIT          VALUE    DESCRIPTION
#----------   ------------   ------------------------------
 EKB .F         5075.0000:   Kelly bushing
 EGL .F         5065.0000:   Ground level
 EDF .F            0.0000:   Drilling floor
 E TD.F         3008.0000:   Total depth
 DATE.        30-SEP-1977:   Date logged
 CLNT.            A2DTECH:   Client Code
 SL  . 2210' FSL & 2310' FWL:   Surface Location
 PD  .                 GL:   Permanent Datum
 EPD .F              5065:   Elevation Permanent Datum
 LMF .                 KB:   Log Measured From
 DMF .                 KB:   Drilling Measured From
 DAPD.F                10:   Feet Above Permanent Datum
 DD  .F              3005:   Depth driller
 DL  .F              3008:   Depth logger
 BLI .F              3006:   Bottom log interval
 TLI .F               200:   Top log interval
 CS1 .IN            8.625:   Casing size
 CBD1.      8.625" @ 205':   Casing driller 1
 CBL1.F               220:   Casing logger 1
 BS1 .IN            7.875:   Bit size
 BSD1.F              3005:   Depth drilled with bit1
 DFT .            KCL/MUD:   Type fluid in hole
 DFD .                9.1:   Density
 DFV .                 38:   Viscosity
 DFPH.                 11:   pH
 DFL .                6.8:   Fluid loss
 MSS .           FLOWLINE:   Source of sample
 RMS .OHMM            .31:   Rm
 MST .F                78:   Rm Meas. temp.
 RMF .OHMM            .15:   Rmf
 MFST.F                78:   Rmf Meas. temp.
 RMC .OHMM           1.02:   Rmc
 MCST.F                78:   Rmc Meas. temp.
 MFSS.               FANN:   Source Rmf.
 MCSS.                KIT:   Source Rmc.
 RMB .OHMM            .20:   Rm. at BHT
 BHT .F               117:   BHT.
 TCS .HRS               3:   Time Circ. stopped
 MRT .F               117:   Maximum recorded temp.
 LUN .               8611:   Logging unit number
 LUL .             CASPER:   Logging unit location
 ENGI.         G. BENTSEN:   Recorded By
 WITN.         HARRINGTON:   Witnessed by
 ORIG.           5" PRINT:   Origin of data
 UWI .     49025104230000:   Unique Well ID
 DICO. A2D TECHNOLOGIES, INC.:   Digitizing Company
~OTHER INFORMATION
~A   DEPT      SPR        TENR       SFL        ILD        ILM       TEND       CALD       RHOB       CORR        GRD   
# ...
 2779.5000   -67.7360   858.8820     7.9740     7.0390     7.4620  1024.8740     9.3420     2.5070     0.0100    97.7700
 2780.0000   -67.5290   858.9590     7.9290     6.9890     7.3980  1024.9771     9.3340     2.5140     0.0100    94.7490
 2780.5000   -67.5390   859.0350     7.8830     6.9380     7.3480  1025.0800     9.3260     2.5180     0.0090    91.7830
 2781.0000   -67.5900   859.1110     7.8380     6.8880     7.4540  1025.1830     9.3180     2.5160     0.0090    89.4670
 2781.5000   -67.6430   859.1880     8.0010     6.9950     7.5420  1025.2860     9.3100     2.5150     0.0090    95.2460
 2782.0000   -67.6950   859.2640     8.1640     7.1020     7.6300  1025.3900     9.3020     2.5210     0.0100   100.3240
 2782.5000   -67.7480   859.3400     8.3260     7.2080     7.7170  1025.4930     9.2940     2.5300     0.0110   103.0120
 2783.0000   -67.8000   859.4170     8.4890     7.3150     7.8050  1025.5959     9.2850     2.5390     0.0120    97.6380
 2783.5000   -67.8530   859.4930     8.6510     7.4210     7.8930  1025.6990     9.2770     2.5340     0.0130    93.2870
 2784.0000   -67.9050   859.5690     8.8140     7.5540     8.0580  1025.8020     9.2690     2.5280     0.0140    89.1010
 2784.5000   -67.9580   859.6460     8.9190     7.3260     7.8650  1025.9050     9.2610     2.5390     0.0150    92.5290
 2785.0000   -68.0100   859.7220     8.4930     7.0230     7.6090  1026.0081     9.2530     2.5470     0.0160    96.4290
 2785.5000   -68.0620   859.7980     8.1780     6.7210     7.3520  1026.1121     9.2450     2.5440     0.0160   100.0380
 2786.0000   -68.1150   859.8750     7.8380     6.4260     7.0960  1026.2150     9.2370     2.5350     0.0150    98.2070
 2786.5000   -68.1670   859.9510     7.4370     6.1460     6.8400  1026.3180     9.2300     2.5250     0.0140    95.8670
 2787.0000   -68.2200   860.0270     7.0030     5.8660     6.5840  1026.4210     9.2330     2.5150     0.0140    93.6100
 2787.5000   -68.2720   860.1040     6.6510     5.5240     6.3270  1026.5240     9.2350     2.5070     0.0130    92.2820
 2788.0000   -68.3250   860.1800     6.4870     5.1220     6.0710  1026.6270     9.2370     2.5000     0.0120    98.0380
 2788.5000   -68.3770   860.2560     6.3240     4.7190     5.7560  1026.7300     9.2390     2.4910     0.0110   102.4620
 2789.0000   -68.4300   860.3330     6.1610     4.3160     5.2970  1026.8340     9.2410     2.4780     0.0100   106.8920
 2789.5000   -68.4820   860.4090     5.9970     3.9140     4.8380  1026.9370     9.2430     2.4670     0.0090   111.2980
 2790.0000   -68.4750   860.4850     5.1510     3.5110     4.3780  1027.0400     9.2450     2.4570     0.0080   117.7040
 2790.5000   -68.4580   860.5620     3.9620     3.2260     3.9190  1027.1429     9.2470     2.4470     0.0070   136.0440
 2791.0000   -68.4420   860.6380     2.8140     3.0820     3.2020  1027.2460     9.2490     2.4250     0.0070   154.3900
 2791.5000   -68.4260   860.7140     2.2140     2.9740     3.4080  1027.3490     9.2510     2.3990     0.0070   173.1880
 2792.0000   -68.4090   860.7910     2.9350     3.0980     3.8750  1027.4520     9.2530     2.3660     0.0070   193.4390
 2792.5000   -68.3930   860.8670     4.6080     3.3860     4.3420  1027.5560     9.2550     2.3760     0.0070   185.0890
 2793.0000   -68.3760   860.9440     6.2810     3.6730     4.8090  1027.6591     9.2570     2.4240     0.0070   161.3000
 2793.5000   -68.3600   861.0200     8.2840     3.9590     5.2770  1027.7620     9.2590     2.4760     0.0080   135.7150
 2794.0000   -68.3430   861.0960     8.2300     4.5520     5.8060  1027.8650     9.2620     2.5190     0.0080   110.1310
 2794.5000   -68.3270   861.1730     8.1610     5.1420     6.3510  1027.9680     9.2640     2.5140     0.0080    87.4310
 2795.0000   -68.3100   861.2490     8.0290     5.7320     7.0160  1028.0710     9.2660     2.5070     0.0090    84.4930
 2795.5000   -68.2940   861.3250     7.8510     6.3390     6.9200  1028.1740     9.2680     2.5000     0.0090    85.6370
 2796.0000   -68.2960   861.4020     7.6730     6.3980     6.7960  1028.2780     9.2700     2.4980     0.0090    87.8420
 2796.5000   -68.3040   861.4780     7.4960     6.3400     6.6720  1028.3810     9.2730     2.5000     0.0090    90.0670
 2797.0000   -68.3110   861.5540     7.3000     6.1790     6.5490  1028.4840     9.2750     2.5030     0.0100    92.3440
 2797.5000   -68.3190   861.6310     7.0910     6.0180     6.3590  1028.5870     9.2780     2.4960     0.0100    92.4600
 2798.0000   -68.3260   861.7070     6.8770     5.8560     6.1470  1028.6899     9.2810     2.4870     0.0100    92.4470
 2798.5000   -68.3340   861.7830     6.6510     5.6420     5.9360  1028.7930     9.2840     2.4810     0.0100    92.4580
 2799.0000   -68.3420   861.8600     6.4260     5.3790     5.6840  1028.8960     9.2870     2.4840     0.0100    92.8900
 2799.5000   -68.3490   861.9360     6.2010     5.1170     5.3970  1029.0000     9.2900     2.4850     0.0100    94.5660
 2800.0000   -68.3570   862.0120     5.9760     4.8320     5.1090  1029.1030     9.2930     2.4750     0.0100    96.1910
 2800.5000   -68.3640   862.0890     5.7510     4.5260     4.8210  1029.2061     9.2960     2.4660     0.0100    97.8230
 2801.0000   -68.3720   862.1650     5.2080     4.2200     4.5340  1029.3090     9.2990     2.4610     0.0100    99.4490
 2801.5000   -68.3800   862.2410     4.6270     3.9130     4.2460  1029.4120     9.3020     2.4560     0.0100   100.9290
 2802.0000   -68.3870   862.3180     4.0470     3.6070     3.9580  1029.5150     9.3050     2.4450     0.0100   111.8220
 2802.5000   -68.3950   862.3940     3.4670     3.3010     3.6710  1029.6180     9.3080     2.4260     0.0090   126.8370
 2803.0000   -68.4020   862.4700     2.8860     3.0300     3.2320  1029.7209     9.3110     2.4070     0.0090   141.9240
 2803.5000   -68.4100   862.5470     2.4050     3.0560     3.4550  1029.8250     9.3140     2.3880     0.0090   157.0110
 2804.0000   -68.4180   862.6230     3.0800     3.1930     3.9260  1029.9280     9.3170     2.3690     0.0090   173.3440
 2804.5000   -68.4250   862.6990     4.5150     3.4200     4.3970  1030.0310     9.3200     2.3920     0.0090   171.1730
 2805.0000   -68.4330   862.7760     5.9500     3.6470     4.8680  1030.1340     9.3230     2.4270     0.0090   160.4540
 2805.5000   -68.4400   862.8520     7.0650     3.9450     5.3380  1030.2371     9.3260     2.4630     0.0090   132.7360
 2806.0000   -68.4480   862.9280     7.2520     4.4480     5.8090  1030.3400     9.3290     2.4960     0.0090    94.4330
 2806.5000   -68.4560   863.0050     7.4400     4.9500     6.2800  1030.4430     9.3290     2.4970     0.0090    91.2520
 2807.0000   -68.4630   863.0810     7.6850     5.4520     6.7510  1030.5470     9.3270     2.4970     0.0070    94.5770
 2807.5000   -68.4710   863.1570     7.6510     5.9100     6.9490  1030.6500     9.3250     2.5040     0.0070    97.9140
 2808.0000   -68.4780   863.2340     7.5820     6.3380     6.9370  1030.7531     9.3230     2.5080     0.0070    99.6170
 2808.5000   -68.4860   863.3100     7.5130     6.3320     6.9140  1030.8560     9.3210     2.4980     0.0070    95.7740
 2809.0000   -68.4800   863.3860     7.4440     6.3200     6.8900  1030.9590     9.3190     2.4890     0.0070    92.7160
 2809.5000   -68.4650   863.4630     7.3750     6.3090     6.8670  1031.0620     9.3170     2.4820     0.0070    89.6100
 2810.0000   -68.4510   863.5390     7.2890     6.2970     6.8430  1031.1650     9.3150     2.4860     0.0070    88.1710
 2810.5000   -68.4360   863.6160     7.3950     6.2830     6.8250  1031.2690     9.3130     2.4960     0.0070    89.1630
 2811.0000   -68.4210   863.6920     7.5790     6.3340     6.9470  1031.3719     9.3110     2.5060     0.0070    91.4970
 2811.5000   -68.4070   863.7680     7.7640     6.4210     7.0470  1031.4750     9.3100     2.5100     0.0080    95.0800
 2812.0000   -68.3920   863.8450     7.9110     6.5080     7.1470  1031.5780     9.3080     2.4990     0.0080    98.6040
 2812.5000   -68.3770   863.9210     7.8850     6.5950     7.2470  1031.6810     9.3060     2.4940     0.0080   101.9820
