~VERSION INFORMATION
 VERS.                2.0:   CWLS LOG ASCII STANDARD - VERSION 2.0
 WRAP.                 NO:   ONE LINE PER DEPTH STEP
~WELL INFORMATION
#MNEM.UNIT      DATA TYPE    INFORMATION
#----------   ------------   ------------------------------
 STRT.F          211.5000:   START DEPTH
 STOP.F         3103.0000:   STOP DEPTH
 STEP.F            0.5000:   STEP LENGTH
 NULL.          -999.2500:   NO VALUE
 COMP.    FENIX & SCISSON:   COMPANY
 WELL. FENIX NPR 3 "AX" #38-10:   WELL
 FLD .  TEAPOT DOME - NPR:   FIELD
 LOC .      S10 T38N R78W:   LOCATION
 CNTY.            NATRONA:   COUNTY
 STAT.            WYOMING:   STATE
 CTRY. UNITED STATES OF AMERICA:   COUNTRY
 SRVC.           BIRDWELL:   SERVICE COMPANY
 DATE.        01-JUL-1978:   LOGDATE
 API .     49025106550000:   API NUMBER
~CURVE INFORMATION
#MNEM.UNIT       API CODE    CURVE DESCRIPTION
#----------   ------------   ------------------------------
 DEPT.F                  :   
 CALD.IN     45 280 60 00:   CALIPER FROM DENSITY LOG
 GRD .GAPI   45 310 01 00:   GAMMA RAY FROM DENSITY LOG
 RHOB.G/C3   45 350 01 00:   BULK DENSITY
 CORR.G/C3   45 356 01 00:   DENSITY CORRECTION
 NPOR.DEC    42 890 03 00:   ALPHA PROCESSED NEUTRON POROSITY
 SPR .MV     05 010 01 00:   SPONTANEOUS POTENTIAL
 SN  .OHMM   05 040 00 00:   SHORT NORMAL
 ILD .OHMM   05 120 46 00:   DEEP INDUCTION RESISTIVITY
~PARAMETER INFORMATION
#MNEM.UNIT          VALUE    DESCRIPTION
#----------   ------------   ------------------------------
 EKB .F         5240.0000:   Kelly bushing
 EGL .F         5230.0000:   Ground level
 TD  .F         3103.0000:   Total depth
 DATE.        01-JUL-1978:   Date logged
 CLNT.            A2DTECH:   Client Code
 SL  . 200' FSL & 2100' FWL:   Surface Location
 PD  .                 GL:   Permanent Datum
 EPD .F              5230:   Elevation Permanent Datum
 LMF .                 KB:   Log Measured From
 DMF .                 KB:   Drilling Measured From
 DAPD.F                10:   Feet Above Permanent Datum
 DD  .F              3100:   Depth driller
 DL  .F              3103:   Depth logger
 BLI .F              3096:   Bottom log interval
 TLI .F               228:   Top log interval
 CS1 .IN            8.625:   Casing size
 CBD1.      8.625" @ 224':   Casing driller 1
 CBL1.F               228:   Casing logger 1
 BS1 .IN            7.875:   Bit size
 BSD1.F              3100:   Depth drilled with bit1
 DFT .            MUD/GEL:   Type fluid in hole
 DFD .                8.7:   Density
 DFV .                 31:   Viscosity
 DFPH.               10.5:   pH
 DFL .                  7:   Fluid loss
 MSS .           FLOWLINE:   Source of sample
 BHT .F               109:   BHT.
 TCS .HRS             4.5:   Time Circ. stopped
 MRT .F               109:   Maximum recorded temp.
 LUN .               2958:   Logging unit number
 LUL .               CASP:   Logging unit location
 ENGI.             MILLER:   Recorded By
 ORIG.      2.5" 5" PRINT:   Origin of data
 UWI .     49025106550000:   Unique Well ID
 DICO. A2D TECHNOLOGIES, INC.:   Digitizing Company
~OTHER INFORMATION
~A   DEPT     CALD         GRD      RHOB       CORR       NPOR        SPR         SN        ILD   
# ...
 2844.0000     9.0204    61.5372     2.5293     0.0118     0.2055   -20.8078    17.0274    12.2808
 2844.5000     9.0202    63.3115     2.5204     0.0218     0.2055   -21.2025    15.9672    11.6709
 2845.0000     9.0397    60.9412     2.5144     0.0278     0.2047   -21.2015    15.2511    11.0550
 2845.5000     9.0198    60.9215     2.5015     0.0376     0.2015   -20.8049    14.7014    10.9547
 2846.0000     9.0590    63.2879     2.4638     0.0496     0.1951   -20.8039    13.9133    10.9551
 2846.5000     9.0589    68.2204     2.5025     0.0794     0.1959   -21.1986    13.6607    10.9560
 2847.0000     9.0389    71.9683     2.5780     0.1330     0.1943   -20.8020    13.0479    10.9567
 2847.5000     9.0388    73.7426     2.5432     0.1946     0.1951   -21.1967    12.5776    10.9575
 2848.0000     9.0386    74.1523     2.5194     0.1150     0.2110   -20.9979    12.5786    10.9582
 2848.5000     9.0384    70.9757     2.5353     0.0238     0.2261   -21.5901    12.5794    10.5631
 2849.0000     9.0382    70.1843     2.5422     0.0078     0.2237   -21.3912    12.5802    10.0967
 2849.5000     9.0381    69.1951     2.5501     0.0098     0.2237   -21.3906    12.5810     9.4614
 2850.0000     9.0379    64.0780     2.5541     0.0098     0.2253   -21.3894    12.0166     9.2893
 2850.5000     9.0376    64.2746     2.5524     0.0152     0.2293   -21.3885    11.7984     9.0373
 2851.0000     9.0373    67.2331     2.5481     0.0158     0.2388   -21.3875    10.7628     8.8732
 2851.5000     9.0372    76.2928     2.5412     0.0138     0.2412   -21.3865    10.3749     8.7121
 2852.0000     9.0370    77.6724     2.5372     0.0098     0.2325   -22.3740    10.1866     8.3212
 2852.5000     9.0368    77.0784     2.5342     0.0078     0.2261   -21.9778    10.1872     8.2456
 2853.0000     9.0367    74.5104     2.5322     0.0058     0.2206   -22.9659    10.5695     8.3222
 2853.5000     9.0364    71.5480     2.5272     0.0058     0.2174   -23.1627    11.2728     8.3224
 2854.0000     9.0362    72.3355     2.5183     0.0038     0.2285   -23.3595    11.6959     9.8215
 2854.5000     9.0361    75.2940     2.5113     0.0036     0.2365   -23.3586    12.0238    10.0966
 2855.0000     9.0358    76.0815     2.5113     0.0016     0.2587   -23.3576    12.1356    10.2846
 2855.5000     9.0159    75.2901     2.5133     0.0016     0.2635   -23.3566    12.3616    10.2853
 2856.0000     9.0156    70.5512     2.5113     0.0016     0.2666   -23.5535    12.8256    10.2859
 2856.5000     9.0155    68.9877     2.5103     0.0036     0.2674   -23.3547    12.9449    10.2867
 2857.0000     9.0154    68.3937     2.5162     0.0056     0.2674   -23.5513    12.9457    10.2874
 2857.5000     9.0151    71.7295     2.5143     0.0116     0.2658   -23.3526    12.8281    10.2881
 2858.0000     9.0149    75.4775     2.5172     0.0194     0.2611   -23.3516    12.5953    10.2890
 2858.5000     9.0147    76.4623     2.5460     0.0374     0.2222   -23.3506    12.4809    10.2894
 2859.0000     9.0342    76.4604     2.5619     0.0572     0.2174   -22.9540    12.4817    10.2900
 2859.5000     9.0340    76.4585     2.5301     0.0512     0.2110   -23.1509    12.4825    10.2907
 2860.0000     9.0535    75.8818     2.5182     0.0134     0.2007   -22.9521    12.4833    10.2912
 2860.5000     9.0533    79.8097     2.5142     0.0054     0.1983   -22.9511    12.5994    10.2919
 2861.0000     9.0531    80.7946     2.5102     0.0054     0.2007   -22.9502    12.6003    10.3878
 2861.5000     9.0530    79.8232     2.5221     0.0054     0.2063   -22.7514    12.6011    10.6791
 2862.0000     9.0725    78.4398     2.5310     0.0074     0.2261   -22.7502    12.9544    11.0799
 2862.5000     9.0723    75.8544     2.5241     0.0074     0.2277   -22.9471    13.1957    11.3905
 2863.0000     9.0918    75.4578     2.5310     0.0094     0.2269   -22.7483    13.5658    11.6027
 2863.5000     9.0917    75.4558     2.5459     0.0152     0.2285   -22.9451    13.5667    11.7106
 2864.0000     9.1507    75.6513     2.5469     0.0112     0.2873   -23.1420    13.4434    11.6042
 2864.5000     9.1899    76.0440     2.5429     0.0152     0.3291   -23.1410    13.4443    11.2892
 2865.0000     9.2292    77.0289     2.5359     0.0092     0.3709   -23.1400    13.2002    10.2039
 2865.5000     9.2290    78.4085     2.5220     0.0092     0.4207   -23.1391    12.4924     8.5106
 2866.0000     9.2485    78.8191     2.5369     0.0192     0.4326   -23.1381    11.9319     7.6742
 2866.5000     9.2681    84.9179     2.5240     0.0210     0.4398   -23.5325     9.7473     7.1961
 2867.0000     9.2876    92.0391     2.5141     0.0210     0.4414   -23.7294     8.0362     6.9155
 2867.5000     9.2874   104.0816     2.5091     0.0230     0.4437   -23.7284     7.6053     6.5048
 2868.0000     9.8200   111.9691     2.5210     0.0250     0.4294   -23.7274     7.3311     6.4456
 2868.5000     9.3660   111.5728     2.5230     0.0210     0.4175   -23.7265     7.5368     6.3871
 2869.0000     9.8196    96.5699     2.5210     0.0150     0.4120   -23.7255     7.8919     6.3288
 2869.5000     9.4248    86.2875     2.5160     0.0150     0.4128   -23.5267     8.0388     6.6272
 2870.0000     9.4246    84.1142     2.5200     0.0170     0.4279   -23.3280     8.1136     6.6888
 2870.5000     9.4441    84.9017     2.5239     0.0170     0.4286   -23.5248     8.1141     6.6892
 2871.0000     9.4637    87.6632     2.5150     0.0090     0.4294   -23.5236     7.9668     6.6897
 2871.5000     9.5029    90.6217     2.4951     0.0050     0.4318   -23.5227     7.8943     6.6901
 2872.0000     9.6606    92.8081     2.4862     0.0050     0.4326   -23.5217     7.8226     6.5686
 2872.5000     9.7394    97.9202     2.5040     0.0050     0.4294   -23.3229     7.8231     6.4493
 2873.0000     9.7195   100.6813     2.5000     0.0050     0.4199   -23.3220     7.8236     6.5093
 2873.5000     9.6995   101.0911     2.4990     0.0050     0.4191   -23.5188     7.8963     6.5097
 2874.0000     9.6599    96.1551     2.5139     0.0068     0.4159   -23.9134     7.8246     6.5101
 2874.5000     9.6794    92.0086     2.5159     0.0068     0.4215   -23.7147     7.8251     6.5105
 2875.0000     9.7187    87.6474     2.5091     0.0068     0.4223   -23.7137     7.8256     6.5109
 2875.5000     9.7382    86.8738     2.5052     0.0048     0.4231   -23.9105     7.6132     6.4517
 2876.0000     9.7578    90.4243     2.4992     0.0028     0.4255   -23.7116     7.3387     6.4521
 2876.5000     9.7773    97.1323     2.4910     0.0008     0.4231   -23.9084     7.2719     6.2770
 2877.0000     9.7968   100.8806     2.4930     0.0008     0.4223   -23.9074     7.0745     6.2200
 2877.5000     9.7966   104.0364     2.5029     0.0008     0.4215   -23.7087     6.9460     6.1634
 2878.0000     9.7964   101.5674     2.5009     0.0028     0.4199   -23.7077     6.8829     6.0514
 2878.5000     9.8160   100.4793     2.4930    -0.0012     0.4088   -23.9045     6.8834     5.9963
 2879.0000     9.8553    99.2940     2.4991     0.0008     0.4064   -24.1014     6.8838     5.9419
 2879.5000     9.8551    99.0943     2.5011     0.0008     0.4056   -24.1004     6.8842     5.8879
 2880.0000     9.7562    99.0928     2.5051     0.0066     0.4072   -24.0994     6.7592     5.8882
 2880.5000     9.8547    97.5116     2.5021     0.0066     0.4080   -23.9004     6.5757     5.8347
 2881.0000     9.8545   100.2727     2.5041     0.0046     0.4080   -24.0973     6.5761     5.8350
 2881.5000     9.8543   100.0560     2.5120     0.0046     0.4080   -23.8985     6.5765     5.7291
 2882.0000     9.8541   100.0537     2.5150     0.0126     0.3984   -23.8974     6.5769     5.7824
 2882.5000     9.8539   100.0518     2.5080     0.0046     0.3984   -23.8966     6.5774     5.7298
 2883.0000     9.8537   100.0498     2.5060     0.0046     0.4000   -23.6978     6.5778     5.7302
 2883.5000     9.8535   100.2453     2.5110     0.0066     0.4024   -23.4990     6.6390     5.7305
 2884.0000     9.8533    99.2565     2.5100     0.0064     0.4135   -23.6959     6.8882     5.7838
