~VERSION INFORMATION
 VERS.                2.0:   CWLS LOG ASCII STANDARD - VERSION 2.0
 WRAP.                 NO:   ONE LINE PER DEPTH STEP
~WELL INFORMATION
#MNEM.UNIT      DATA TYPE    INFORMATION
#----------   ------------   ------------------------------
 STRT.F           41.0000:   START DEPTH
 STOP.F          925.0000:   STOP DEPTH
 STEP.F            0.5000:   STEP LENGTH
 NULL.          -999.2500:   NO VALUE
 COMP. LAWRENCE ALLISON & ASSOCIATION:   COMPANY
 WELL. LAWRENCE ALLISON #48-2:   WELL
 FLD .       N.P.R. NO. 3:   FIELD
 LOC .       S2 T38N R78W:   LOCATION
 CNTY.            NATRONA:   COUNTY
 STAT.            WYOMING:   STATE
 CTRY. UNITED STATES OF AMERICA:   COUNTRY
 SRVC.       SCHLUMBERGER:   SERVICE COMPANY
 DATE.        06-SEP-1982:   LOGDATE
 API .     49025109110000:   API NUMBER
~CURVE INFORMATION
#MNEM.UNIT       API CODE    CURVE DESCRIPTION
#----------   ------------   ------------------------------
 DEPT.F                  :   
 ILM .OHMM   07 120 44 00:   INDUCTION LOG MEDIUM RESISTIVITY
 ILD .OHMM   07 120 46 00:   DEEP INDUCTION RESISTIVITY
 CALD.IN     45 280 60 00:   CALIPER FROM DENSITY LOG
 GRD .GAPI   45 310 01 00:   GAMMA RAY FROM DENSITY LOG
 TEND.LBS    45 635 01 00:   TENSION FROM DENSITY LOG
 CORR.G/C3   45 356 01 00:   DENSITY CORRECTION
 RHOB.G/C3   45 350 01 00:   BULK DENSITY
 NPHI.DEC    42 890 03 00:   NEUTRON POROSITY SANDSTONE
~PARAMETER INFORMATION
#MNEM.UNIT          VALUE    DESCRIPTION
#----------   ------------   ------------------------------
 EKB .F         5192.0000:   Kelly bushing
 EGL .F         5182.0000:   Ground level
 TD  .F          920.0000:   Total depth
 CLNT.            A2DTECH:   Client Code
 DATE.         6-SEP-1982:   Date Logged [DD-MMM-YYYY]
 DD  .F               920:   Depth driller
 DL  .F               918:   Depth logger
 BLI .F               908:   Bottom log interval
 TLI .F                49:   Top log interval
 CBL1.IN               49:   Casing logger 1
 BSD1.F               920:   Depth drilled with bit1
 DFT .                AIR:   Type fluid in hole
 TCS .HRS            0730:   Time Circ. stopped
 TLAB.HRS            0900:   Time logger at bottom
 LUN .               8035:   Logging unit number
 LUL .               CSPR:   Logging unit location
 ENGI.              PENNY:   Recorded By
 WITN.           JENNINGS:   Witnessed by
 ORIG.           5" PRINT:   Origin of data
 UWI .     49025109110000:   Unique Well ID
 DICO. A2D TECHNOLOGIES, INC.:   Digitizing Company
 PD  .                 GL:   Permanent Datum
 EPD .               5180:   Elevation Permanent Datum
 LMF .                 KB:   Log Measured From
 DMF .                 KB:   Drilling Measured From
 DAPD.                 10:   Feet Above Permanent Datum
~OTHER INFORMATION
~A   DEPT      ILM        ILD       CALD         GRD      TEND       CORR       RHOB       NPHI   
# ...
  486.5000     7.5361     7.6145    12.7572   139.2582   604.0184     0.0459     2.4487  -999.2500
  487.0000     7.7382     7.8949    12.7581   135.3978   603.4003     0.0483     2.4534  -999.2500
  487.5000     7.9083     8.0688    12.7589   132.7503   602.6689     0.0420     2.4409  -999.2500
  488.0000     7.9670     8.1287    12.7598   128.9934   602.0652     0.0373     2.4292  -999.2500
  488.5000     7.9686     8.1305    12.7607   130.3400   617.0685     0.0382     2.4269  -999.2500
  489.0000     7.9703     8.1326    12.7616   133.9055   616.3139     0.0478     2.4333  -999.2500
  489.5000     7.9720     8.1343    12.7624   137.4710   631.3171     0.0549     2.4387  -999.2500
  490.0000     8.0311     8.1360    12.7633   136.8205   630.5626     0.0500     2.4301  -999.2500
  490.5000     8.0328     8.1378    12.7642   134.8387   629.9589     0.0453     2.4255  -999.2500
  491.0000     8.0345     8.1395    12.7653   133.3003   636.4616     0.0509     2.4426  -999.2500
  491.5000     8.0362     8.0825    12.7661   137.7538   636.3100     0.0595     2.4583  -999.2500
  492.0000     7.9203     7.9121    12.7670   150.4195   620.7024     0.0627     2.4622  -999.2500
  492.5000     7.6934     7.7449    12.7679   149.1034   620.5507     0.0525     2.4489  -999.2500
  493.0000     7.5382     7.6906    12.7688   147.1216   620.3991     0.0471     2.4373  -999.2500
  493.5000     7.5402     7.6372    12.7696   142.6989   604.7913     0.0439     2.4311  -999.2500
  494.0000     7.5418     7.6392    12.7705   141.8266   589.1807     0.0424     2.4287  -999.2500
  494.5000     7.5977     7.6959    12.7714   139.8447   589.0263     0.0448     2.4334  -999.2500
  495.0000     7.7092     7.8654    12.7723   133.8689   588.8427     0.0480     2.4491  -999.2500
  495.5000     7.7664     7.9849    12.7731   133.8841   588.6910     0.0511     2.4709  -999.2500
  496.0000     7.9943     8.1569    12.7740   134.3492   588.5393     0.0551     2.4952  -999.2500
  496.5000     8.1117     8.3368    12.7749   135.0481   588.3877     0.0512     2.4947  -999.2500
  497.0000     8.2307     8.3988    12.7905   136.8182   588.2360     0.0395     2.4694  -999.2500
  497.5000     8.2324     8.4006    12.8062   139.0523   603.5782     0.0323     2.4398  -999.2500
  498.0000     8.2342     8.4630    12.8071   141.0646   603.3887     0.0260     2.4211  -999.2500
  498.5000     8.2359     8.2893    12.8080   140.1923   587.7811     0.0198     2.4032  -999.2500
  499.0000     8.1787     8.1709    12.8090   138.6542   587.6294     0.0098     2.3853  -999.2500
  499.5000     8.0062     7.9966    12.7949   140.0008   602.9337    -0.0020     2.3760  -999.2500
  500.0000     7.9506     7.9393    12.7810   142.9007   587.3261    -0.0075     2.3736  -999.2500
  500.5000     7.8954     7.9393    12.7528   144.6911   587.1714     0.0028     2.3916  -999.2500
  501.0000     7.8975     7.9393    12.7542   144.0406   587.0170     0.0122     2.4103  -999.2500
  501.5000     7.8991     7.9393    12.7557   142.2807   586.8333     0.0248     2.4267  -999.2500
  502.0000     7.9008     7.9393    12.7718   142.0740   602.1754     0.0303     2.4392  -999.2500
  502.5000     7.9025     7.9393    12.7580   143.4501   617.4798     0.0350     2.4439  -999.2500
  503.0000     7.7881     7.9393    12.7596   144.8003   632.7841     0.0287     2.4333  -999.2500
  503.5000     7.7892     7.9393    12.7757   145.4519   632.5945     0.0233     2.4198  -999.2500
  504.0000     7.7903     7.9393    12.7770   144.1358   632.4428     0.0177     2.4104  -999.2500
  504.5000     7.7914     7.9393    12.7783   141.2664   632.2912     0.0123     2.4042  -999.2500
  505.0000     7.7925     7.9393    12.7796   139.2846   647.5955     0.0076     2.3964  -999.2500
  505.5000     7.7936     7.9393    12.7661   138.1903   647.4438     0.0029     2.3902  -999.2500
  506.0000     7.7949     7.9393    12.7526   136.8742   647.2922    -0.0002     2.3879  -999.2500
  506.5000     7.7960     7.9393    12.7540   135.3362   647.1405     0.0092     2.3941  -999.2500
  507.0000     7.7971     7.9393    12.7556   134.2419   646.9860     0.0147     2.4175  -999.2500
  507.5000     7.7982     7.8259    12.7569   135.5885   646.8315     0.0407     2.4394  -999.2500
  508.0000     7.7993     7.7142    12.7582   140.0416   646.6476     0.0532     2.4464  -999.2500
  508.5000     7.6342     7.7142    12.7972   150.3780   646.4960     0.0493     2.4392  -999.2500
  509.0000     7.5807     7.7142    12.7836   154.6361   646.3443     0.0389     2.4309  -999.2500
  509.5000     7.6363     7.7699    12.7847   151.4636   646.1927     0.0329     2.4363  -999.2500
  510.0000     7.6374     7.8259    12.7859   149.5591   661.5349     0.0329     2.4434  -999.2500
  510.5000     7.5838     7.8259    12.7871   144.6992   661.3453     0.0306     2.4356  -999.2500
  511.0000     7.5852     7.7699    12.7882   144.9427   661.1937     0.0266     2.4239  -999.2500
  511.5000     7.5862     7.7699    12.7894   147.1834   645.5861     0.0172     2.4169  -999.2500
  512.0000     7.5873     7.7699    12.7905   149.2021   645.4344    -0.0016     2.4208  -999.2500
  512.5000     7.5884     7.7142    12.7917   149.4637   645.2828     0.0079     2.4302  -999.2500
  513.0000     7.5349     7.5983    12.7931   146.7964   645.1311     0.0165     2.4396  -999.2500
  513.5000     7.4288     7.4955    12.7943   141.9025   644.9767     0.0275     2.4435  -999.2500
  514.0000     7.3767     7.3885    12.7804   143.9689   644.8223     0.0330     2.4380  -999.2500
  514.5000     7.2725     7.2830    12.7818   145.9877   644.6382     0.0355     2.4357  -999.2500
  515.0000     7.1699     7.2830    12.7830   146.2312   644.4866     0.0401     2.4407  -999.2500
  515.5000     7.1711     7.2830    12.7841   146.0256   659.8289     0.0456     2.4459  -999.2500
  516.0000     7.2238     7.2830    12.7853   148.4936   659.6393     0.0496     2.4451  -999.2500
  516.5000     7.2768     7.3885    12.7865   150.5123   659.4876     0.0417     2.4334  -999.2500
  517.0000     7.3303     7.4955    12.7876   152.0992   659.3359     0.0386     2.4202  -999.2500
  517.5000     7.3841     7.6078    12.7888   151.9413   659.1843     0.0355     2.4093  -999.2500
  518.0000     7.5459     7.7142    12.7899   147.6946   659.0327     0.0292     2.4015  -999.2500
  518.5000     7.6561     7.8259    12.7914   143.9441   658.8810     0.0112     2.3976  -999.2500
  519.0000     7.7679     7.9393    12.7925   141.3031   658.7294    -0.0014     2.4000  -999.2500
  519.5000     7.8250     7.9393    12.7937   141.9905   658.5777    -0.0053     2.4148  -999.2500
  520.0000     7.8825     8.0543    12.7948   146.6720   658.4235     0.0136     2.4406  -999.2500
  520.5000     7.8839     8.1709    12.7960   151.3739   658.2690     0.0458     2.4692  -999.2500
  521.0000     7.9418     8.1709    12.7972   153.6200   658.0848     0.0552     2.4780  -999.2500
  521.5000     7.9429     8.2299    12.7983   150.9585   657.9332     0.0584     2.4586  -999.2500
  522.0000     7.9440     8.2299    12.8290   149.4251   657.7815     0.0474     2.4328  -999.2500
  522.5000     8.0024     8.2221    12.8449   147.4498   657.6299     0.0443     2.4266  -999.2500
  523.0000     8.0035     8.1709    12.8461   147.6934   657.4782     0.0427     2.4251  -999.2500
  523.5000     8.0046     8.1124    12.8472   148.6026   672.7825     0.0412     2.4251  -999.2500
  524.0000     8.0057     8.0543    12.8484   150.1776   672.6309     0.0388     2.4227  -999.2500
  524.5000     7.8927     7.9966    12.8498   149.0565   672.4792     0.0300     2.4189  -999.2500
  525.0000     7.8373     7.9393    12.8510   144.5267   672.3275     0.0231     2.4220  -999.2500
  525.5000     7.7824     7.7699    12.8371   138.7097   672.1759     0.0247     2.4306  -999.2500
  526.0000     7.6179     7.6589    12.8385   139.1751   672.0242     0.0303     2.4314  -999.2500
  526.5000     7.5642     7.4955    12.8397   140.3063   671.8702     0.0358     2.4306  -999.2500
