~VERSION INFORMATION
 VERS.                2.0:   CWLS LOG ASCII STANDARD - VERSION 2.0
 WRAP.                 NO:   ONE LINE PER DEPTH STEP
~WELL INFORMATION
#MNEM.UNIT      DATA TYPE    INFORMATION
#----------   ------------   ------------------------------
 STRT.F           96.5000:   START DEPTH
 STOP.F         2720.0000:   STOP DEPTH
 STEP.F            0.5000:   STEP LENGTH
 NULL.          -999.2500:   NO VALUE
 COMP.          INTEX OIL:   COMPANY
 WELL. INTEX NPR 65 "AX" #3-20:   WELL
 FLD .             TEAPOT:   FIELD
 LOC .      S20 T39N R78W:   LOCATION
 CNTY.            NATRONA:   COUNTY
 STAT.            WYOMING:   STATE
 CTRY. UNITED STATES OF AMERICA:   COUNTRY
 SRVC.       SCHLUMBERGER:   SERVICE COMPANY
 DATE.        04-MAY-1966:   LOGDATE
 API .     49025094910000:   API NUMBER
~CURVE INFORMATION
#MNEM.UNIT       API CODE    CURVE DESCRIPTION
#----------   ------------   ------------------------------
 DEPT.F                  :   
 SPR .MV     05 010 01 00:   SPONTANEOUS POTENTIAL FROM RES.
 SN  .OHMM   05 040 16 00:   SHORT NORMAL 16"
 ILD .OHMM   05 120 46 00:   INDUCTION LOG DEEP
 CALD.IN     45 280 60 00:   CALIPER FROM DENSITY LOG
 CORR.G/C3   45 356 01 00:   DENSITY CORRECTION
 GRD .GAPI   45 310 01 00:   GAMMA RAY FROM DENSITY LOG
 RHOB.G/C3   45 350 01 00:   BULK DENSITY
~PARAMETER INFORMATION
#MNEM.UNIT          VALUE    DESCRIPTION
#----------   ------------   ------------------------------
 EKB .F         5053.3000:   Kelly bushing
 EGL .F         5043.0000:   Ground level
 EDF .F            0.0000:   Drilling floor
 TD  .F         2720.0000:   Total depth
 DATE.        04-MAY-1966:   Date logged
 CLNT.            A2DTECH:   Client Code
 PD  .                 GL:   Permanent Datum
 EPD .F              5043:   Elevation Permanent Datum
 LMF .                 KB:   Log Measured From
 DMF .                 KB:   Drilling Measured From
 DAPD.F              10.3:   Feet Above Permanent Datum
 DD  .F              2720:   Depth driller
 DL  .F              2720:   Depth logger
 BLI .F              2719:   Bottom log interval
 TLI .F                97:   Top log interval
 CS1 .IN            10.75:   Casing size
 CBD1.       10.75" @ 30':   Casing driller 1
 BS1 .IN            7.875:   Bit size
 BSD1.F              2720:   Depth drilled with bit1
 DFT . GEL/Q-BROX/OIL/DAKOLITE:   Type fluid in hole
 DFD .               10.3:   Density
 DFV .                 41:   Viscosity
 DFPH.                7.2:   pH
 DFL .                8.8:   Fluid loss
 MSS .           FLOWLINE:   Source of sample
 RMS .OHMM              2:   Rm
 MST .F                61:   Rm Meas. temp.
 RMF .OHMM           1.31:   Rmf
 MFST.F                65:   Rmf Meas. temp.
 MFSS.                 FP:   Source Rmf.
 RMB .OHMM           1.15:   Rm. at BHT
 BHT .F               110:   BHT.
 TCS .HRS               2:   Time Circ. stopped
 MRT .F               110:   Maximum recorded temp.
 LUN .               4507:   Logging unit number
 LUL .               CSPR:   Logging unit location
 ENGI.            MANGOLD:   Recorded By
 WITN.             TUTTLE:   Witnessed by
 ORIG.       2", 5" PRINT:   Origin of data
 UWI .     49025094910000:   Unique Well ID
 DICO. A2D TECHNOLOGIES, INC.:   Digitizing Company
~OTHER INFORMATION
~A   DEPT      SPR         SN         ILD      CALD       CORR        GRD       RHOB   
# ...
 2599.0000   -25.7990     6.5720     5.0080     7.9830     0.0070   139.2050     2.4900
 2599.5000   -25.8110     6.6300     4.9410     7.9790     0.0090   138.9250     2.4860
 2600.0000   -25.7470     6.7240     4.8740     7.9730     0.0120   137.1610     2.4990
 2600.5000   -25.5930     6.8350     4.7580     7.9780     0.0150   135.6090     2.5130
 2601.0000   -25.4340     6.9200     4.5910     7.9860     0.0180   136.0950     2.5110
 2601.5000   -25.3660     6.8810     4.3980     7.9930     0.0210   138.5250     2.5090
 2602.0000   -25.3860     6.6770     4.1970     8.0000     0.0230   141.3370     2.5060
 2602.5000   -25.4220     6.3690     4.0080     8.0070     0.0210   149.9620     2.5040
 2603.0000   -25.4370     6.0240     3.8720     8.0140     0.0180   157.8330     2.5020
 2603.5000   -25.4470     5.6660     3.8070     8.0220     0.0200   164.1620     2.5000
 2604.0000   -25.4710     5.3740     3.7650     8.0290     0.0240   170.6140     2.5000
 2604.5000   -25.4980     5.3290     3.7050     8.0360     0.0200   167.4930     2.5010
 2605.0000   -25.5190     5.6610     3.6860     8.0430     0.0140   160.2290     2.5020
 2605.5000   -25.5370     6.2590     3.8240     8.0490     0.0090   142.5740     2.5030
 2606.0000   -25.5590     6.8070     4.1590     8.0270     0.0050   132.6620     2.5310
 2606.5000   -25.5810     7.0420     4.5880     8.0040     0.0160   131.7790     2.5490
 2607.0000   -25.6030     6.9740     4.9540     7.9790     0.0150   133.0600     2.5500
 2607.5000   -25.6230     6.8400     5.1740     7.9700     0.0150   134.0350     2.5480
 2608.0000   -25.6450     6.8510     5.2870     7.9670     0.0140   133.3980     2.5340
 2608.5000   -25.6660     7.0090     5.3730     7.9640     0.0180   128.9730     2.5270
 2609.0000   -25.6870     7.1870     5.4690     7.9600     0.0250   126.2160     2.5270
 2609.5000   -25.7090     7.3150     5.5520     7.9570     0.0280   122.8320     2.5210
 2610.0000   -25.7300     7.4290     5.6150     7.9530     0.0260   123.7240     2.5160
 2610.5000   -25.7510     7.5690     5.6930     7.9500     0.0240   123.8810     2.5100
 2611.0000   -25.7730     7.7190     5.8180     7.9470     0.0280   123.2750     2.5120
 2611.5000   -25.7940     7.8540     5.9740     7.9430     0.0320   120.4760     2.5070
 2612.0000   -25.8150     7.9840     6.1230     7.9400     0.0200   119.9370     2.4990
 2612.5000   -25.8370     8.1220     6.2560     7.9370     0.0120   119.1800     2.4940
 2613.0000   -25.8580     8.2640     6.3940     7.9330     0.0120   120.2180     2.4970
 2613.5000   -25.8800     8.3970     6.5440     7.9300     0.0100   122.8840     2.4910
 2614.0000   -25.9000     8.5280     6.6880     7.9270     0.0140   125.5320     2.4970
 2614.5000   -25.9220     8.6720     6.8170     7.9230     0.0220   127.7620     2.5070
 2615.0000   -25.9430     8.8170     6.9580     7.9200     0.0270   126.4580     2.5020
 2615.5000   -25.9660     8.9420     7.1220     7.9160     0.0230   124.7920     2.5090
 2616.0000   -25.9870     9.0630     7.2620     7.9130     0.0190   124.4600     2.5220
 2616.5000   -26.0050     9.2210     7.3090     7.9100     0.0250   126.2090     2.5290
 2617.0000   -26.0250     9.3930     7.2450     7.9060     0.0320   128.7860     2.5290
 2617.5000   -26.0530     9.4600     7.1150     7.9030     0.0300   130.5110     2.5280
 2618.0000   -26.0790     9.3180     6.9460     7.9000     0.0220   132.4470     2.5270
 2618.5000   -26.0860     8.9960     6.7150     7.8970     0.0150   134.3590     2.5220
 2619.0000   -26.0980     8.6210     6.3980     7.8900     0.0120   135.6210     2.5180
 2619.5000   -26.1470     8.2840     6.0180     7.8780     0.0080   136.0000     2.5120
 2620.0000   -26.1890     7.9820     5.6420     7.8670     0.0060   138.7440     2.5060
 2620.5000   -26.1130     7.6620     5.3080     7.8550     0.0070   142.0200     2.4990
 2621.0000   -25.8830     7.3020     4.9810     7.8440     0.0080   145.2270     2.4930
 2621.5000   -25.5930     6.9520     4.5990     7.8320     0.0090   149.4670     2.4860
 2622.0000   -25.3310     6.6590     4.1840     7.8210     0.0100   155.9950     2.4810
 2622.5000   -25.0630     6.3680     3.8570     7.8150     0.0140   164.7720     2.4790
 2623.0000   -24.7700     5.9730     3.7070     7.8120     0.0190   178.6050     2.4760
 2623.5000   -24.5810     5.5400     3.7080     7.8080     0.0260   196.7920     2.4720
 2624.0000   -24.6440     5.3320     3.8280     7.8040     0.0300   195.3460     2.4450
 2624.5000   -24.9250     5.5260     4.1150     7.8000     0.0370   181.0700     2.4240
 2625.0000   -25.2610     6.0310     4.5880     7.7960     0.0040   168.2500     2.4030
 2625.5000   -25.5590     6.6800     5.1480     7.7920     0.0080   128.8090     2.4290
 2626.0000   -25.8390     7.4320     5.6860     7.7880     0.0190   121.6310     2.4570
 2626.5000   -26.0950     8.2100     6.2150     7.7840     0.0270   114.2200     2.4900
 2627.0000   -26.2450     8.7490     6.7680     7.7810     0.0240   115.3170     2.5090
 2627.5000   -26.2240     8.8360     7.2370     7.7770     0.0250   114.0560     2.5120
 2628.0000   -26.0640     8.5900     7.4430     7.7730     0.0260   114.5260     2.5180
 2628.5000   -25.8790     8.3200     7.3360     7.7690     0.0200   116.2400     2.5140
 2629.0000   -25.7730     8.1610     7.0230     7.7650     0.0160   117.5540     2.5010
 2629.5000   -25.7650     8.0210     6.6360     7.7610     0.0180   118.0220     2.4890
 2630.0000   -25.7920     7.8200     6.2320     7.7570     0.0190   120.4780     2.4840
 2630.5000   -25.7990     7.5920     5.8150     7.7530     0.0210   122.8040     2.4940
 2631.0000   -25.7850     7.3780     5.3890     7.7490     0.0240   124.7300     2.4980
 2631.5000   -25.7810     7.1510     4.9590     7.7460     0.0280   126.8600     2.4910
 2632.0000   -25.7880     6.8670     4.5170     7.7420     0.0320   127.5680     2.4850
 2632.5000   -25.7910     6.5250     4.0530     7.7380     0.0390   136.9700     2.4930
 2633.0000   -25.7870     6.1690     3.5830     7.7340     0.0470   146.8340     2.4960
 2633.5000   -25.7860     5.8160     3.1630     7.7300     0.0530   160.6860     2.4900
 2634.0000   -25.7870     5.4220     2.8470     7.7260     0.0490   175.9640     2.4640
 2634.5000   -25.7880     4.9350     2.6560     7.7220     0.0430   191.2220     2.4310
 2635.0000   -25.7880     4.4230     2.6010     7.7180     0.0360   208.3350     2.3980
 2635.5000   -25.7870     4.0920     2.6920     7.7140     0.0350   209.6490     2.3910
 2636.0000   -25.7870     4.1220     2.8900     7.7110     0.0480   195.7460     2.3990
 2636.5000   -25.7870     4.4950     3.1120     7.7070     0.0600   178.1210     2.4320
 2637.0000   -25.7870     5.0440     3.3260     7.7030     0.0610   145.9950     2.4640
 2637.5000   -25.7870     5.6500     3.6250     7.7020     0.0530   133.0520     2.4960
 2638.0000   -25.7870     6.3020     4.1370     7.7280     0.0560   127.8250     2.5290
 2638.5000   -25.7870     6.9490     4.8500     7.7530     0.0470   128.5660     2.5310
 2639.0000   -25.7870     7.4290     5.5630     7.7790     0.0350   126.7520     2.5290
 2639.5000   -25.7870     7.6240     6.0380     7.8040     0.0280   128.0370     2.5210
 2640.0000   -25.7870     7.6150     6.1870     7.8300     0.0190   129.8610     2.5110
 2640.5000   -25.7880     7.5850     6.1220     7.8550     0.0250   131.5540     2.5130
 2641.0000   -25.7880     7.6170     6.0250     7.8830     0.0350   131.0830     2.5170
 2641.5000   -25.7870     7.6650     5.9830     7.8880     0.0300   131.3540     2.5140
 2642.0000   -25.7870     7.6830     5.9610     7.8700     0.0270   133.1700     2.5080
 2642.5000   -25.7890     7.6890     5.9090     7.8540     0.0230   136.6540     2.5080
 2643.0000   -25.7880     7.7100     5.8340     7.8380     0.0190   140.3870     2.5050
 2643.5000   -25.7850     7.7480     5.7860     7.8220     0.0150   142.5410     2.4950
 2644.0000   -25.7870     7.8020     5.7930     7.8060     0.0150   142.9270     2.4840
