~VERSION INFORMATION
 VERS.                2.0:   CWLS LOG ASCII STANDARD - VERSION 2.0
 WRAP.                 NO:   ONE LINE PER DEPTH STEP
~WELL INFORMATION
#MNEM.UNIT      DATA TYPE    INFORMATION
#----------   ------------   ------------------------------
 STRT.F            0.5000:   START DEPTH
 STOP.F         4149.0000:   STOP DEPTH
 STEP.F            0.5000:   STEP LENGTH
 NULL.          -999.2500:   NO VALUE
 COMP. LAWRENCE ALLISON & ASSOSCIATES:   COMPANY
 WELL. LAWRENCE "X" #34-3:   WELL
 FLD .             NPR #3:   FIELD
 LOC .       S3 T38N R78W:   LOCATION
 CNTY.            NATRONA:   COUNTY
 STAT.            WYOMING:   STATE
 CTRY. UNITED STATES OF AMERICA:   COUNTRY
 SRVC.      DRESSER ATLAS:   SERVICE COMPANY
 DATE.        19-NOV-1983:   LOGDATE
 API .     49025109500000:   API NUMBER
~CURVE INFORMATION
#MNEM.UNIT       API CODE    CURVE DESCRIPTION
#----------   ------------   ------------------------------
 DEPT.F                  :   
 CALD.IN     45 280 60 00:   CALIPER FROM DENSITY LOG
 TEND.LBS    45 635 01 00:   TENSION FORM DENSITY LOG
 DEN .G/C3   45 350 01 00:   BULK DENSITY
 CNC .DEC    42 890 01 00:   NEUTRON POROSITY LIMESTONE
 CORR.G/C3   45 356 01 00:   DENSITY CORRECTION
 TENR.LBS    06 635 01 00:   TENSION FROM RESISTIVITY
 GRR .GAPI   07 310 01 00:   GAMMA RAY FROM RESISTIVITY
 RFOC.OHMM   07 220 04 00:   RESISTIVITY FOCUSED LOG RES.
 RILD.OHMM   07 120 46 00:   DEEP INDUCTION RESISTIVITY
 RILM.OHMM   07 120 44 00:   INDUCTION LOG MEDIUM RESISTIVITY
 SPR .MV     07 010 01 00:   SPONTANEOUS POTENTIAL
 TENS.LBS    60 635 01 00:   TENSION FROM SONIC
 DT  .US/F   60 520 00 00:   DELTA TIME
~PARAMETER INFORMATION
#MNEM.UNIT          VALUE    DESCRIPTION
#----------   ------------   ------------------------------
 EKB .F         5187.0000:   Kelly bushing
 EGL .F         5174.0000:   Ground level
 TD  .F         4140.0000:   Total depth
 CLNT.            A2DTECH:   Client Code
 SL  . 1621' FWL & 1958' FNL:   Surface Location
 PD  .                 GL:   Permanent Datum
 EPD .F              5174:   Elevation Permanent Datum
 LMF .                 KB:   Log Measured From
 DMF .                 KB:   Drilling Measured From
 DAPD.F                13:   Feet Above Permanent Datum
 DATE.        19-NOV-1983:   Date Logged [DD-MMM-YYYY]
 DD  .F              4136:   Depth driller
 DL  .F              4140:   Depth logger
 BLI .F              4138:   Bottom log interval
 TLI .F                 0:   Top log interval
 CS1 .IN            8.625:   Casing size
 CBD1.      8.625" @ 615':   Casing driller 1
 CBL1.F               615:   Casing logger 1
 BS1 .IN            7.875:   Bit size
 BSD1.F              4136:   Depth drilled with bit1
 DFT .            GEL-KCL:   Type fluid in hole
 DFD .                  9:   Density
 DFV .                 45:   Viscosity
 DFPH.                8.5:   pH
 DFL .                 12:   Fluid loss
 MSS .           FLOWLINE:   Source of sample
 RMS .OHMM          0.768:   Rm
 MST .F                74:   Rm Meas. temp.
 RMF .OHMM          0.576:   Rmf
 MFST.F                74:   Rmf Meas. temp.
 MFSS.               CALC:   Source Rmf.
 RMC .OHMM           0.96:   Rmc
 MCST.F                74:   Rmc Meas. temp.
 MCSS.               CALC:   Source Rmc.
 RMB .OHMM          0.418:   Rm. at BHT
 BHT .F               136:   BHT.
 TCS .HRS               4:   Time Circ. stopped
 MRT .F               136:   Maximum recorded temp.
 LUN .               6307:   Logging unit number
 LUL .               GLTE:   Logging unit location
 ENGI.           FAHLSING:   Recorded By
 WITN.           JENNINGS:   Witnessed by
 ORIG.      2.5" 5" PRINT:   Origin of data
 UWI .     49025109500000:   Unique Well ID
 DICO. A2D TECHNOLOGIES, INC.:   Digitizing Company
~OTHER INFORMATION
~A    DEPT    CALD       TEND        DEN        CNC       CORR       TENR         GRR      RFOC       RILD       RILM        SPR       TENS         DT   
# ...
 1794.5000     9.5900     0.0000     2.5369     0.2361     0.0312    -8.1790   114.2294     7.2766     7.4205     7.1368   -85.9424  -999.2500  -999.2500
 1795.0000     9.6060     0.0000     2.5340     0.2419     0.0260    -7.7161   112.8664     7.3298     7.4236     7.1383   -86.2342  -999.2500  -999.2500
 1795.5000     9.6066     0.0000     2.5280     0.2425     0.0261    -7.2531   115.6192     7.3833     7.4801     7.1398   -86.5290  -999.2500  -999.2500
 1796.0000     9.6072     0.0000     2.5251     0.2407     0.0262    -6.7901   115.1707     7.3843     7.5369     7.1413   -86.5182  -999.2500  -999.2500
 1796.5000     9.6078     0.0000     2.5236     0.2443     0.0257    -6.3271   115.1968     7.3854     7.5401     7.1428   -86.5076  -999.2500  -999.2500
 1797.0000     9.6084     0.0000     2.5222     0.2479     0.0227    -5.8642   116.5610     7.3339     7.5431     7.1508   -86.1921  -999.2500  -999.2500
 1797.5000     9.6091     0.0000     2.5237     0.2491     0.0242    -5.4013   118.8585     7.3877     7.5464     7.1973   -85.8745  -999.2500  -999.2500
 1798.0000     9.6097     0.0000     2.5238     0.2456     0.0334    -4.9383   122.5259     7.4949     7.4951     7.1988   -85.2543  -999.2500  -999.2500
 1798.5000     9.6103     0.0000     2.5283     0.2442     0.0425    -4.4135   127.5654     7.6037     7.3876     7.1488   -84.9390  -999.2500  -999.2500
 1799.0000     9.6109     0.0000     2.5403     0.2474     0.0456    -4.0124   129.8609     7.6047     7.2298     7.0489   -84.6237  -999.2500  -999.2500
 1799.5000     9.6114     0.0000     2.5464     0.2522     0.0448    -3.5494   130.7845     7.6058     6.8397     6.7070   -84.3094  -999.2500  -999.2500
 1800.0000     9.6120     0.0000     2.5554     0.2617     0.0449    -3.0485   121.8757     7.5528     6.3250     6.1138   -83.9930  -999.2500  -999.2500
 1800.5000     9.6126     0.0000     2.5704     0.2668     0.0450   -10.3395   119.8245     7.2891     5.5643     5.4549   -82.7631  -999.2500  -999.2500
 1801.0000     9.6132     0.0000     2.5591     0.2737     0.0478   -17.6844   120.7503     6.6959     5.0732     4.9057   -81.5331  -999.2500  -999.2500
 1801.5000     9.6138     0.0000     2.5143     0.2695     0.0512   -17.1156   118.2440     5.4857     4.5925     4.5054   -80.3032  -999.2500  -999.2500
 1802.0000     9.6144     0.0000     2.4650     0.2570     0.1389   -16.6606   111.8046     3.8967     4.3395     4.3804   -79.6829  -999.2500  -999.2500
 1802.5000     9.6449     0.0000     2.4553     0.2552     0.1591    -5.3937   110.7161     4.0692     4.2802     4.3835   -79.2366  -999.2500  -999.2500
 1803.0000     9.6454     0.0000     2.4946     0.2552     0.1448    -5.8642   111.6419     4.6952     4.3134     4.4314   -79.5370  -999.2500  -999.2500
 1803.5000     9.6460     0.0000     2.5548     0.2594     0.1174     1.4146   113.2732     5.6545     4.4105     4.5155   -79.8359  -999.2500  -999.2500
 1804.0000     9.6466     0.0000     2.5572     0.2707     0.0840     8.6767   116.6902     6.5244     4.5487     4.6516   -81.0480  -999.2500  -999.2500
 1804.5000     9.6472     0.0000     2.5199     0.2809     0.0713    15.8255   120.3577     6.0777     4.7763     4.7983   -82.2616  -999.2500  -999.2500
 1805.0000     9.6478     0.0000     2.4950     0.2815     0.0755    23.2011   121.9672     5.1234     5.0242     5.0711   -83.6276  -999.2500  -999.2500
 1805.5000     9.6484     0.0000     2.4891     0.2785     0.0804    22.6338   121.2902     5.1121     5.2474     5.2210   -84.0805  -999.2500  -999.2500
 1806.0000     9.6490     0.0000     2.5019     0.2504     0.0611    22.1799   121.5277     5.7477     5.3252     5.2239   -84.0730  -999.2500  -999.2500
 1806.5000     9.6496     0.0000     2.5271     0.2474     0.0521    21.7260   122.3273     6.1840     5.0327     5.1520   -84.2210  -999.2500  -999.2500
 1807.0000     9.6203     0.0000     2.5453     0.2492     0.0522    21.2721   123.6343     6.6355     5.0355     5.0818   -84.7053  -999.2500  -999.2500
 1807.5000     9.6209     0.0000     2.5537     0.2528     0.0506    20.8333   125.5184     6.9278     5.1109     5.1584   -85.8830  -999.2500  -999.2500
 1808.0000     9.6215     0.0000     2.5493     0.2570     0.0447    10.2189   128.4254     5.8407     5.2246     5.2356   -86.1834  -999.2500  -999.2500
 1808.5000     9.6221     0.0000     2.5425     0.2582     0.0404     4.4753   130.2434     5.4402     5.3434     5.3902   -86.1760  -999.2500  -999.2500
 1809.0000     9.5929     0.0000     2.5358     0.2563     0.0440     4.0123   132.3304     6.0148     5.5096     5.5506   -86.1700  -999.2500  -999.2500
 1809.5000     9.5935     0.0000     2.5314     0.2498     0.0561    -4.1666   133.4827     6.5551     5.7440     5.7223   -85.8592  -999.2500  -999.2500
 1810.0000     9.5940     0.0000     2.5292     0.2514     0.0767   -12.3457   133.7203     6.8446     5.9140     6.0105   -85.5484  -999.2500  -999.2500
 1810.5000     9.5946     0.0000     2.5292     0.2552     0.0738   -12.8086   134.6438     6.9459     6.0890     6.1880   -85.0851  -999.2500  -999.2500
 1811.0000     9.5654     0.0000     2.5293     0.2558     0.0679   -13.3367   135.5674     6.9489     6.1352     5.9744   -84.9267  -999.2500  -999.2500
 1811.5000     9.5660     0.0000     2.5293     0.2557     0.0560   -21.5066   134.2043     6.7568     5.7568     5.6057   -84.7683  -999.2500  -999.2500
 1812.0000     9.5666     0.0000     2.5293     0.2543     0.0471   -29.6297   132.5975     6.4303     5.4398     5.1851   -84.7398  -999.2500  -999.2500
 1812.5000     9.5672     0.0000     2.5276     0.2460     0.0472   -30.0926   131.6691     5.8632     5.1035     4.9705   -84.6025  -999.2500  -999.2500
 1813.0000     9.5678     0.0000     2.5249     0.2429     0.0532   -30.5843   128.2882     5.0495     4.7881     4.7640   -84.2917  -999.2500  -999.2500
 1813.5000     9.5684     0.0000     2.5265     0.2421     0.0623   -38.7543   121.4374     4.8741     4.7228     4.7773   -83.8285  -999.2500  -999.2500
 1814.0000     9.5701     0.0000     2.5415     0.2507     0.0684   -46.9242   113.6719     5.0899     4.6409     4.5052   -83.5176  -999.2500  -999.2500
 1814.5000     9.5994     0.0000     2.5490     0.2650     0.0685   -39.6605   111.8493     5.1652     4.2782     4.3163   -83.3593  -999.2500  -999.2500
 1815.0000     9.6000     0.0000     2.5415     0.2758     0.0686   -32.4074   111.8605     5.2416     4.2192     4.2598   -83.3533  -999.2500  -999.2500
 1815.5000     9.6006     0.0000     2.5027     0.2768     0.0657   -32.8704   113.6987     5.3192     4.2222     4.3863   -83.0425  -999.2500  -999.2500
 1816.0000     9.6012     0.0000     2.4368     0.2721     0.0897   -33.3454   116.9088     4.5815     4.2854     4.5809   -82.7317  -999.2500  -999.2500
 1816.5000     9.6018     0.0000     2.4189     0.2636     0.1736   -18.4429   120.5763     4.7498     4.4122     4.7162   -82.4207  -999.2500  -999.2500
 1817.0000     9.6024     0.0000     2.4609     0.2684     0.1258   -18.8967   121.9573     5.1032     4.5428     4.8555   -82.2610  -999.2500  -999.2500
 1817.5000     9.6030     0.0000     2.5058     0.2751     0.0570   -19.2901   121.4328     5.5617     4.7446     4.9990   -82.2550  -999.2500  -999.2500
 1818.0000     9.6036     0.0000     2.5493     0.2760     0.0536   -19.8045   119.2333     6.1484     4.8849     5.0737   -82.7064  -999.2500  -999.2500
 1818.5000     9.6042     0.0000     2.5433     0.2612     0.0932   -18.6047   117.4130     6.6058     4.9581     5.1496   -83.3102  -999.2500  -999.2500
 1819.0000     9.6048     0.0000     2.5269     0.2520     0.1052    -5.2802   116.5051     6.6230     5.0324     5.1525   -83.9155  -999.2500  -999.2500
 1819.5000     9.6054     0.0000     2.5060     0.2463     0.0664    -5.7341   118.3455     6.1561     5.0358     5.1553   -84.8227  -999.2500  -999.2500
 1820.0000     9.6119     0.0000     2.5030     0.2527     0.0425    -6.1880   117.8971     5.7292     4.9671     5.0083   -85.2741  -999.2500  -999.2500
