~VERSION INFORMATION
 VERS.                2.0:   CWLS LOG ASCII STANDARD - VERSION 2.0
 WRAP.                 NO:   ONE LINE PER DEPTH STEP
~WELL INFORMATION
#MNEM.UNIT      DATA TYPE    INFORMATION
#----------   ------------   ------------------------------
 STRT.F            9.5000:   START DEPTH
 STOP.F         3154.0000:   STOP DEPTH
 STEP.F            0.5000:   STEP LENGTH
 NULL.          -999.2500:   NO VALUE
 COMP. LAWRENCE ALISON AND ASSOCIATES:   COMPANY
 WELL. LAWRENCE "X" #86-3:   WELL
 FLD .          N.P.R. #3:   FIELD
 LOC .       S3 T38N R78W:   LOCATION
 CNTY.            NATRONA:   COUNTY
 STAT.            WYOMING:   STATE
 CTRY. UNITED STATES OF AMERICA:   COUNTRY
 SRVC.       DRESSER ALAS:   SERVICE COMPANY
 DATE.        13-JUN-1986:   LOGDATE
 API .     49025110920000:   API NUMBER
~CURVE INFORMATION
#MNEM.UNIT       API CODE    CURVE DESCRIPTION
#----------   ------------   ------------------------------
 DEPT.F                  :   
 CALD.IN     45 280 60 00:   CALIPER FROM DENSITY LOG
 RHOB.G/C3   45 350 01 00:   BULK DENSITY
 CORR.G/C3   45 356 01 00:   DENSITY CORRECTION
 CNC .DEC    42 890 03 00:   NEUTRON PORISITY LIMESTONE
 SPR .MV     07 010 01 00:   SPONTANEOUS POTENTIAL
 GRR .GAPI   07 310 01 00:   GAMMA RAY FROM RESISTIVITY
 RFOC.OHMM   07 220 04 00:   RESISTIVITY FOCUSED LOG RES.
 ILD .OHMM   07 120 46 00:   DEEP INDUCTION RESISTIVITY
 ILM .OHMM   07 120 44 00:   INDUCTION LOG MEDIUM RESISTIVITY
 TENR.LBS    07 635 01 00:   TENSION FROM RESISTIVITY
~PARAMETER INFORMATION
#MNEM.UNIT          VALUE    DESCRIPTION
#----------   ------------   ------------------------------
 EKB .F         5153.0000:   Kelly bushing
 EGL .F         5142.0000:   Ground level
 EDF .F         5151.0000:   Drilling floor
 TD  .F         3151.0000:   Total depth
 DATE.        13-JUN-1986:   Date logged
 CLNT.            A2DTECH:   Client Code
 SL  . 1450' FSL & 144' FEL:   Surface Location
 PD  .                 GL:   Permanent Datum
 EPD .F              5142:   Elevation Permanent Datum
 LMF .                 KB:   Log Measured From
 DMF .                 KB:   Drilling Measured From
 DAPD.F                11:   Feet Above Permanent Datum
 DD  .F              3151:   Depth driller
 DL  .F              3151:   Depth logger
 BLI .F              3146:   Bottom log interval
 TLI .F                11:   Top log interval
 CS1 .IN            8.625:   Casing size
 CBD1.      8.625" @ 584':   Casing driller 1
 CBL1.F               592:   Casing logger 1
 BS1 .IN            7.875:   Bit size
 BSD1.F              3151:   Depth drilled with bit1
 DFT .            KCL-GEL:   Type fluid in hole
 DFD .                8.8:   Density
 DFV .                 35:   Viscosity
 DFPH.                8.5:   pH
 DFL .               15.5:   Fluid loss
 MSS .           FLOWLINE:   Source of sample
 RMS .OHMM           0.49:   Rm
 MST .F                80:   Rm Meas. temp.
 RMF .OHMM           0.38:   Rmf
 MFST.F                80:   Rmf Meas. temp.
 RMC .OHMM           0.61:   Rmc
 MCST.F                80:   Rmc Meas. temp.
 MFSS.               MEAS:   Source Rmf.
 MCSS.               CALC:   Source Rmc.
 RMB .OHMM           0.37:   Rm. at BHT
 BHT .F               112:   BHT.
 TCS .HRS            0.37:   Time Circ. stopped
 MRT .F               112:   Maximum recorded temp.
 LUN .            HL-6274:   Logging unit number
 LUL .           GILLETTE:   Logging unit location
 WITN.             STRONG:   Witnessed by
 ORIG.           5" PRINT:   Origin of data
 UWI .     49025110920000:   Unique Well ID
 DICO. A2D TECHNOLOGIES, INC.:   Digitizing Company
~OTHER INFORMATION
~A    DEPT    CALD       RHOB       CORR        CNC        SPR        GRR       RFOC        ILD        ILM       TENR   
# ...
 2756.5000     8.3853     2.5062     0.0568     0.2221   -69.8382   105.6458     9.7439     8.7196     8.0973   -26.2260
 2757.0000     8.3855     2.5082     0.0648     0.2213   -70.2440   103.2216     9.5639     8.4018     8.0221   -36.0789
 2757.5000     8.3856     2.5072     0.0648     0.2241   -70.2469   102.0019     9.4746     8.1707     7.8735   -35.8828
 2758.0000     8.3657     2.5062     0.0286     0.2285   -70.6549   102.8049     9.2139     8.0196     7.8000   -35.6867
 2758.5000     8.3659     2.5052     0.0206     0.2298   -70.8593   103.2050     9.2127     7.8715     7.5851   -55.5878
 2759.0000     8.3666     2.5142     0.0246     0.2233   -70.8638   105.6113     9.4709     7.7982     7.5146   -55.3916
 2759.5000     8.3673     2.5182     0.0527     0.2189   -71.0682   106.0059     9.5572     7.7970     7.4446   -45.1469
 2760.0000     8.3680     2.5182     0.0486     0.2136   -71.2740   107.6093     9.3812     7.7960     7.3749   -44.9508
 2760.5000     8.3687     2.5122     0.0612     0.2096   -71.4792   106.7980     9.0391     7.7952     7.3061   -44.7546
 2761.0000     8.3694     2.5162     0.0707     0.2059   -71.4829   106.3882     8.7095     7.7942     7.3051   -44.5585
 2761.5000     8.3701     2.5272     0.0827     0.2031   -71.6887   103.9638     8.6282     7.7932     7.5098   -44.3624
 2762.0000     8.3708     2.5363     0.0967     0.2035   -71.6924   100.3306     8.9524     8.0859     7.8645   -44.1271
 2762.5000     8.3715     2.5383     0.0746     0.2056   -71.6946    96.6973     9.8328     8.7061     8.2357   -64.0264
 2763.0000     8.3722     2.5403     0.0605     0.2056   -71.9013    91.0494    10.0145     9.1173     8.6251   -63.8301
 2763.5000     8.3729     2.5403     0.0485     0.1926   -71.9050    87.4159     9.7401     9.6366     9.0317   -53.5862
 2764.0000     8.3736     2.5402     0.0344     0.1817   -71.9087    83.3781     9.6495     9.9984     9.2852   -53.3900
 2764.5000     8.3743     2.5473     0.0263     0.1741   -72.3146    80.5518    11.2856    10.1839     9.5453   -53.1938
 2765.0000     8.3750     2.5553     0.0263     0.1684   -72.1345    77.7240    12.4882    10.4692     9.9038   -52.9976
 2765.5000     8.3757     2.5633     0.0283     0.1636   -72.1212    76.9110    14.2072    10.6634    10.0875   -52.8015
 2766.0000     8.3764     2.5613     0.0263     0.1680   -72.1249    77.7097    12.7166    11.0640    10.0861   -52.6053
 2766.5000     8.3771     2.5543     0.0423     0.1834   -72.1286    81.3291    11.4893    11.2695    10.0854   -52.4091
 2767.0000     8.3778     2.5502     0.0523     0.1902   -71.9308    83.7384    11.2780    11.1634    10.0835   -42.1661
 2767.5000     8.3785     2.5482     0.0536     0.1898   -71.9345    82.1194    11.4857    11.0597    10.0825   -41.9700
 2768.0000     8.3792     2.5472     0.0523     0.1834   -71.9382    82.1123    11.4854    10.9564     9.9880   -41.7739
 2768.5000     8.3799     2.5492     0.0523     0.1826   -71.9411    80.8962    11.4839    10.7541     9.8950   -41.5778
 2769.0000     8.3806     2.5552     0.0523     0.1834   -71.9448    82.9040    11.3762    10.3617     9.8016   -21.2888
 2769.5000     8.3814     2.5552     0.0442     0.1866   -71.9478    85.3147    11.3747     9.9839     9.8008   -21.0538
 2770.0000     8.3821     2.5512     0.0442     0.1891   -71.9522    84.9046    11.5848     9.4435     9.5313   -20.8579
 2770.5000     8.3828     2.5484     0.0377     0.1915   -71.9552    88.1215    11.3717     9.0154     8.8501   -20.6621
 2771.0000     8.3822     2.5452     0.0316     0.1967   -71.7574    89.7264    11.0601     8.3711     8.0669   -30.5122
 2771.5000     8.3817     2.5422     0.0256     0.2056   -71.7611    95.7643     9.7957     7.9180     7.4904   -30.3163
 2772.0000     8.3811     2.5372     0.0122     0.2266   -71.5670   113.4881     8.7652     7.2173     6.8276   -30.1203
 2772.5000     8.3806     2.5211     0.0002     0.2408   -71.9729   117.1083     7.9160     6.7015     6.2813   -29.9243
 2773.0000     8.3800     2.5110    -0.0037     0.2420   -71.9736   121.9377     7.4875     6.2226     5.7255   -29.7284
 2773.5000     8.3795     2.5100     0.0104     0.2473   -71.9773   129.1852     6.7190     5.8317     5.4659   -29.5325
 2774.0000     8.3790     2.5110     0.0607     0.2505   -71.9810   134.8208     5.9595     5.3157     4.9824   -29.3365
 2774.5000     8.3784     2.5171     0.0728     0.2469   -71.9855   146.4980     5.7962     5.3150     4.9357   -29.1406
 2775.0000     8.3779     2.5221     0.0819     0.2412   -71.7876   142.8682     5.9033     5.5660     4.8897   -18.8995
 2775.5000     8.3773     2.5281     0.0789     0.2432   -71.5905   136.4132     6.4725     5.7751     4.8441   -28.7488
 2776.0000     8.3768     2.5462     0.0770     0.2477   -71.5942   131.1672     6.9029     6.0478     4.8884   -38.5196
 2776.5000     8.3762     2.5462     0.0569     0.2449   -70.9941   124.3089     6.6522     5.8272     5.0254   -48.4468
 2777.0000     8.3754     2.5362     0.0530     0.2384   -70.7963   134.7800     5.8461     5.9904     5.5001   -48.2115
 2777.5000     8.3748     2.5322     0.0892     0.2243   -70.7985   139.2069     6.1211     6.1018     5.7616   -48.0154
 2778.0000     8.3734     2.5382     0.1174     0.2081   -70.8044   137.9912     6.4090     6.5696     6.0354   -47.8193
 2778.5000     8.3524     2.5603     0.0813     0.1964   -70.8073   116.6226     8.4493     6.9435     6.3888   -47.6232
 2779.0000     8.3715     2.5734     0.0452     0.1936   -71.2155   101.2995    10.3467     7.2045     6.8787   -47.4271
 2779.5000     8.3711     2.5835     0.0452     0.1936   -71.2179    94.2421    10.7344     7.7568     7.2704   -47.2311
 2780.0000     8.3695     2.5815     0.0533     0.1992   -71.2185    95.2424     9.8787     8.1978     7.6844   -47.0349
 2780.5000     8.3684     2.5806     0.0548     0.2065   -71.2221    98.0541     9.1753     8.2738     7.8998    -6.6625
 2781.0000     8.3696     2.5806     0.0477     0.2108   -71.2280   100.4656     8.8421     8.5844     8.0461    -6.4668
 2781.5000     8.3697     2.5767     0.0418     0.2138   -71.2042   100.8617     8.7598     8.6631     7.9704     3.6554
 2782.0000     8.3498     2.5617     0.0561     0.2203   -71.1803   103.6722     9.0038     8.5822     8.0443     3.9683
 2782.5000     8.3700     2.5567     0.0664     0.2178   -71.1564   105.2818     9.1980     8.4236     8.1930     4.1639
 2783.0000     8.3700     2.5558     0.0740     0.2085   -71.1325   105.6780     9.3965     8.2681     8.0418   -15.7277
 2783.5000     8.3300     2.5599     0.0708     0.2017   -71.1086   106.0742     9.6003     8.1155     7.9667   -15.5319
 2784.0000     8.3321     2.5600     0.0308     0.1989   -71.0848   106.0660     9.6880     7.9659     7.7477   -15.3362
 2784.5000     8.3342     2.5580     0.0290     0.1972   -71.0609   103.6404     9.7767     7.6049     7.6049   -15.1404
 2785.0000     8.3362     2.5551     0.0332     0.2005   -71.0370   104.4397     9.9570     6.9319     7.3956   -34.9919
 2785.5000     8.3383     2.5522     0.0475     0.2219   -71.0131   108.4640     9.9557     6.7410     7.1261   -24.7529
 2786.0000     8.3403     2.5482     0.0739     0.2272   -70.9893   117.7289     8.5110     6.4955     6.8664   -24.5572
 2786.5000     8.3424     2.5463     0.0761     0.2316   -70.9654   122.1565     7.0775     6.6776     6.7397   -24.3613
 2787.0000     8.3445     2.5454     0.0763     0.2352   -70.9415   124.9729     7.0766     6.7390     6.8015   -44.2509
 2787.5000     8.3465     2.5495     0.0638     0.2312   -70.9176   114.8839     7.5472     6.7383     6.9279   -54.0976
 2788.0000     8.3486     2.5627     0.0565     0.2272   -70.8937   105.6036     9.1574     6.7999     7.0564   -53.9015
 2788.5000     8.3507     2.5718     0.0547     0.2248   -70.8699    99.9569    10.2268     6.9260     7.1871   -53.7054
 2789.0000     8.3527     2.5759     0.0550     0.2248   -70.8460   101.1594     9.8555     7.0543     7.3880   -53.5093
 2789.5000     8.3548     2.5750     0.0572     0.2312   -70.8221   105.9902     9.4974     7.2520     7.5249   -50.2046
