~VERSION INFORMATION
 VERS.                2.0:   CWLS LOG ASCII STANDARD - VERSION 2.0
 WRAP.                 NO:   ONE LINE PER DEPTH STEP
~WELL INFORMATION
#MNEM.UNIT      DATA TYPE    INFORMATION
#----------   ------------   ------------------------------
 STRT.F          297.0000:   START DEPTH
 STOP.F         2946.0000:   STOP DEPTH
 STEP.F            0.5000:   STEP LENGTH
 NULL.          -999.2500:   NO VALUE
 COMP.    FENIX & SCISSON:   COMPANY
 WELL. FENIX & SCISSON SH "X" #17-10:   WELL
 FLD .             NPR #3:   FIELD
 LOC .      S10 T38N R78W:   LOCATION
 CNTY.            NATRONA:   COUNTY
 STAT.            WYOMING:   STATE
 CTRY. UNITED STATES OF AMERICA:   COUNTRY
 SRVC.       SCHLUMBERGER:   SERVICE COMPANY
 DATE.        05-APR-1977:   LOGDATE
 API .     49025103310000:   API NUMBER
~CURVE INFORMATION
#MNEM.UNIT       API CODE    CURVE DESCRIPTION
#----------   ------------   ------------------------------
 DEPT.F                  :   
 SPR .MV     07 010 01 00:   SPONTANEOUS POTENTIAL
 ILD .OHMM   07 120 46 00:   DEEP INDUCTION RESISTIVITY
 ILM .OHMM   07 120 44 00:   INDUCTION LOG MEDIUM RESISTIVITY
 LL8 .OHMM   07 220 08 00:   LATEROLOG-8 RES.
 CALD.IN     45 280 60 00:   CALIPER FROM DENSITY LOG
 GRD .GAPI   45 310 01 00:   GAMMA RAY FROM DENSITY LOG
 CORR.G/C3   45 356 01 00:   DENSITY CORRECTION
 RHOB.G/C3   45 350 01 00:   BULK DENSITY
~PARAMETER INFORMATION
#MNEM.UNIT          VALUE    DESCRIPTION
#----------   ------------   ------------------------------
 EKB .F         5270.0000:   Kelly bushing
 EGL .F         5260.0000:   Ground level
 TD  .F         2950.0000:   Total depth
 CLNT.            A2DTECH:   Client Code
 SL  . 205' FWL & 1115' FSL:   Surface Location
 DATE.        05-APR-1977:   Date Logged [DD-MMM-YYYY]
 DD  .F              2950:   Depth driller
 DL  .F              2948:   Depth logger
 BLI .F              2946:   Bottom log interval
 TLI .F               310:   Top log interval
 CS1 .              10.75:   Casing size
 CBD1.      10.75" @ 300':   Casing driller 1
 CBL1.IN              310:   Casing logger 1
 BS1 .IN            8.625:   Bit size
 BSD1.F              2950:   Depth drilled with bit1
 DFT .                KCL:   Type fluid in hole
 DFD .                9.0:   Density
 DFV .                 33:   Viscosity
 DFL .                  9:   Fluid loss
 MSS .            MUD PIT:   Source of sample
 RMS .OHMM          0.153:   Rm
 MST .F                60:   Rm Meas. temp.
 RMF .OHMM          0.130:   Rmf
 MFST.F                60:   Rmf Meas. temp.
 MFSS.               MEAS:   Source Rmf.
 RMC .OHMM          0.229:   Rmc
 MCST.F                60:   Rmc Meas. temp.
 MCSS.               CALC:   Source Rmc.
 RMB .OHMM           0.08:   Rm. at BHT
 BHT .F               115:   BHT.
 TCS .HRS               6:   Time Circ. stopped
 MRT .F               115:   Maximum recorded temp.
 LUN .               7689:   Logging unit number
 LUL .               CODY:   Logging unit location
 ENGI.             RASMUS:   Recorded By
 WITN.              LYONS:   Witnessed by
 ORIG.         2.5" PRINT:   Origin of data
 UWI .     49025103310000:   Unique Well ID
 DICO. A2D TECHNOLOGIES, INC.:   Digitizing Company
 PD  .                 GL:   Permanent Datum
 EPD .               5260:   Elevation Permanent Datum
 LMF .                 KB:   Log Measured From
 DMF .                 KB:   Drilling Measured From
 DAPD.                 10:   Feet Above Permanent Datum
~OTHER INFORMATION
~A   DEPT      SPR        ILD        ILM        LL8       CALD        GRD       CORR       RHOB   
# ...
 2362.5000   -54.6875     5.0721     6.0189    12.0976     9.3211   133.0773     0.0239     2.5051
 2363.0000   -54.7966     5.0728     6.0209    12.1001     9.3214   128.5471     0.0209     2.5131
 2363.5000   -54.9750     5.0735     5.9413    12.2696     9.3217   125.6245     0.0164     2.5205
 2364.0000   -54.9706     5.0420     5.7889    11.0340     9.3513   128.2576     0.0134     2.5176
 2364.5000   -54.9669     5.0059     5.5922    10.2313     9.3516   134.1069     0.0119     2.5117
 2365.0000   -54.9633     4.9385     5.4791     9.9542     9.3519   135.8628     0.0134     2.5044
 2365.5000   -55.0845     4.9046     5.4811     9.9946     9.3522   134.9870     0.0148     2.5014
 2366.0000   -55.2500     4.8728     5.5992    10.2197     9.3525   131.1873     0.0133     2.5000
 2366.5000   -55.2463     4.8735     5.6368    11.4172     9.3528   130.8291     0.0074     2.5015
 2367.0000   -55.2426     4.8741     5.6387    11.7914     9.3531   130.6054     0.0000     2.5035
 2367.5000   -55.2390     4.8748     5.5641    11.4745     9.3240   129.4373    -0.0003     2.5133
 2368.0000   -55.2353     4.9428     5.4904    11.3204     9.3536   127.3919     0.0280     2.5222
 2368.5000   -55.0920     5.0115     5.4181    11.1683     9.3539   127.9782     0.0428     2.5312
 2369.0000   -54.9338     5.0813     5.3464    11.1710     9.3542   131.7808     0.0428     2.5416
 2369.5000   -54.9301     5.1520     5.3482    11.2380     9.3545   134.4138     0.0369     2.5467
 2370.0000   -54.9265     5.1527     5.3500    11.3979     9.3627   135.2924     0.0294     2.5385
 2370.5000   -54.9228     5.1534     5.3518    11.8820     9.3845   134.1243     0.0235     2.5193
 2371.0000   -54.9191     5.1541     5.2807    12.1400     9.3847   136.1725     0.0205     2.5090
 2371.5000   -54.9155     5.0847     5.2111    11.6607     9.3850   136.4664     0.0190     2.5017
 2372.0000   -54.9117     5.0163     5.2128    11.2631     9.3853   135.5828     0.0175     2.5047
 2372.5000   -54.9081     4.9488     5.1438    10.9582     9.4149   135.2997     0.0145     2.5062
 2373.0000   -54.9044     4.9495     5.1456    10.8088     9.4152   135.5935     0.0129     2.5032
 2373.5000   -54.9007     4.8828     5.0772    10.8203     9.4155   133.7558     0.0115     2.5003
 2374.0000   -54.8971     4.8835     5.0792    10.8909     9.4291   132.3449     0.0133     2.4989
 2374.5000   -54.8934     4.8842     5.0809    11.2183     9.4454   131.7967     0.0210     2.5003
 2375.0000   -54.8897     4.8848     5.0826    11.5104     9.4457   132.0905     0.0295     2.5092
 2375.5000   -54.8860     4.8855     5.1543    11.5132     9.4461   130.4630     0.0307     2.5225
 2376.0000   -54.8816     4.8862     5.2989    11.0510     9.4624   128.6275     0.0282     2.5240
 2376.5000   -54.8780     4.8868     5.3736    10.9022     9.4593   128.2937     0.0199     2.5240
 2377.0000   -54.8743     4.9548     5.4494    11.2083     9.4469   132.1213     0.0218     2.5285
 2377.5000   -54.8706     4.9555     5.4513    11.5226     9.4473   136.0209     0.0306     2.5300
 2378.0000   -54.8670     4.9562     5.5281    11.5250     9.4476   138.1265     0.0237     2.5300
 2378.5000   -54.5692     5.0252     5.6061    11.3698     9.4772   139.1184     0.0187     2.5226
 2379.0000   -54.5655     5.0951     5.6851    11.5297     9.4775   139.1198     0.0187     2.5122
 2379.5000   -54.5619     5.1660     5.6871    11.8530     9.4778   135.7536     0.0222     2.5034
 2380.0000   -54.5582     5.1667     5.6890    12.0193     9.4486   131.4618     0.0246     2.4990
 2380.5000   -54.5546     5.1674     5.6909    12.0218     9.4490   130.5209     0.0245     2.4977
 2381.0000   -54.2568     5.1681     5.6929    11.8603     9.4362   130.0614     0.0245     2.4979
 2381.5000   -54.2531     5.1688     5.6948    12.0267     9.4202   130.6303     0.0121     2.5007
 2382.0000   -53.9553     5.1695     5.6968    12.1954     9.4061   133.4168     0.0052     2.4972
 2382.5000   -53.9517     5.1703     5.6987    12.1979     9.3915   134.3008     0.0097     2.4933
 2383.0000   -53.9480     5.1710     5.7347    12.2004     9.3918   133.7104     0.0165     2.4969
 2383.5000   -53.6502     5.1717     5.7810    12.2029     9.3628   133.6145     0.0216     2.5246
 2384.0000   -53.6466     5.1724     5.7831    12.5451     9.3631   135.5553     0.0380     2.5351
 2384.5000   -53.6429     5.1731     5.7850    12.7211     9.3634   136.2123     0.0414     2.5362
 2385.0000   -53.6392     5.1738     5.7870    12.8995     9.3637   135.6287     0.0184     2.5204
 2385.5000   -53.6356     5.1745     5.7890    12.9021     9.3640   132.9985     0.0095     2.4979
 2386.0000   -53.6323     5.1753     5.8335    12.7289     9.3643   130.0572     0.0051     2.4905
 2386.5000   -53.6287     5.1760     5.7929    12.5579     9.3646   127.7276     0.0021     2.4826
 2387.0000   -53.6250     5.1063     5.6723    11.8894     9.3648   127.4473     0.0050     2.4802
 2387.5000   -53.6213     5.0376     5.5641    11.4121     9.3651   131.4441     0.0183     2.4887
 2388.0000   -53.9118     5.0383     5.6429    11.1053     9.3654   134.8539     0.0257     2.4984
 2388.5000   -53.9081     5.0389     5.6448    11.7345     9.3657   135.3464     0.0281     2.5038
 2389.0000   -53.9044     5.0396     5.6468    12.4001     9.3660   134.0440     0.0197     2.5054
 2389.5000   -53.9007     5.1098     5.6487    12.7471     9.3663   133.8873     0.0130     2.5054
 2390.0000   -53.8970     5.1105     5.6506    12.7497     9.3666   136.0528     0.0085     2.5017
 2390.5000   -53.8934     5.1816     5.7303    12.7440     9.3669   136.8143     0.0070     2.4988
 2391.0000   -53.8897     5.2537     5.7322    12.5810     9.3378   136.8158     0.0017     2.4967
 2391.5000   -53.8861     5.2544     5.8130    12.5972     9.3381   136.8964     0.0078     2.4996
 2392.0000   -53.5882     5.2551     5.8150    12.9875     9.3384   137.7816     0.0137     2.5041
 2392.5000   -53.5845     5.2558     5.8970    13.7107     9.3387   138.7596     0.0181     2.5070
 2393.0000   -53.5809     5.2565     5.9802    14.2472     9.3390   139.7454     0.0195     2.5085
 2393.5000   -53.5772     5.2573     6.0645    14.2501     9.3393   139.4544     0.0166     2.5100
 2394.0000   -53.5735     5.2580     6.0666    14.2232     9.3396   140.2671     0.0106     2.5101
 2394.5000   -53.5699     5.3312     6.0686    14.0613     9.3399   138.1912     0.0062     2.5086
 2395.0000   -53.5662     5.3320     6.0707    14.0645     9.3402   130.1802     0.0106     2.5057
 2395.5000   -53.3886     5.3194     6.0727    14.0674     9.3405   130.0530     0.0165     2.5013
 2396.0000   -53.2640     5.2608     5.9923    14.0703     9.3407   133.5909     0.0209     2.4998
 2396.5000   -52.9662     5.2773     5.9944    14.0732     9.3410   132.1483     0.0238     2.5102
 2397.0000   -52.9625     5.3349     5.9964    14.0761     9.3413   129.8002     0.0268     2.5190
 2397.5000   -52.6648     5.3356     5.9985    14.0790     9.3416   128.7497     0.0267     2.5191
 2398.0000   -52.6611     5.3559     6.0005    13.1484     9.3419   129.0270     0.0238     2.5117
 2398.5000   -52.3633     5.4106     6.0025    12.7284     9.3422   132.1596     0.0163     2.5029
 2399.0000   -52.3597     5.4113     6.0046    13.3355     9.3425   135.0851     0.0089     2.5000
 2399.5000   -52.6507     5.4120     6.0892    13.8990     9.3428   137.4257     0.0059     2.5000
 2400.0000   -52.6331     5.4161     6.0913    14.2379     9.3501   136.5515     0.0044     2.5015
 2400.5000   -52.5874     5.4370     6.1430    14.6771     9.3927   131.5415     0.0156     2.5075
 2401.0000   -52.5417     5.4578     6.0940    14.6899     9.4352   127.0048     0.0234     2.5134
 2401.5000   -52.4960     5.4786     6.0952    14.6740     9.4778   126.4652     0.0272     2.5192
 2402.0000   -52.4503     5.4889     6.0137    14.2960     9.4483   130.3156     0.0281     2.5145
 2402.5000   -52.4046     5.4931     6.0150    14.7114     9.4184   133.6064     0.0245     2.5104
