~VERSION INFORMATION
 VERS.                2.0:   CWLS LOG ASCII STANDARD - VERSION 2.0
 WRAP.                 NO:   ONE LINE PER DEPTH STEP
~WELL INFORMATION
#MNEM.UNIT      DATA TYPE    INFORMATION
#----------   ------------   ------------------------------
 STRT.F           57.0000:   START DEPTH
 STOP.F         5817.0000:   STOP DEPTH
 STEP.F            0.5000:   STEP LENGTH
 NULL.          -999.2500:   NO VALUE
 COMP. DEPARTMENT OF ENERGY:   COMPANY
 WELL. DEPARTMENT NPR 371 "X" #1-4:   WELL
 FLD .              NPR-3:   FIELD
 LOC .       S4 T38N R78W:   LOCATION
 CNTY.            NATRONA:   COUNTY
 STAT.            WYOMING:   STATE
 CTRY. UNITED STATES OF AMERICA:   COUNTRY
 SRVC.       SCHLUMBERGER:   SERVICE COMPANY
 DATE.        25-AUG-2002:   LOGDATE
 API .     49025230480000:   API NUMBER
~CURVE INFORMATION
#MNEM.UNIT       API CODE    CURVE DESCRIPTION
#----------   ------------   ------------------------------
 DEPT.F                  :   
 HCAL.IN     07 280 01 00:   HRLT CALIPER
 RLA1.OHMM   06 120 01 00:   HRLT RESISTIVITY 1
 RLA2.OHMM   06 120 02 00:   HRLT RESISTIVITY 2
 RLA3.OHMM   06 120 03 00:   HRLT RESISTIVITY 3
 RXOZ.OHMM   06 270 04 00:   STAN RES. MICROCFL RESISTIVITY
 TENR.LBS    06 635 01 00:   TENSION FROM RESITIVITY
 GRR .GAPI   07 310 01 00:   GAMMA RAY FROM RESISTIVITY
 SPHI.DEC    60 890 22 00:   SONIC POROSITY SANDSTONE
 DT  .US/F   60 520 00 00:   DELTA TIME
 TENS.LBS    60 635 01 00:   TENSION FROM SONIC
 RT  .OHMM   06 120 00 00:   HRLT TRUE RESISTIVITY
~PARAMETER INFORMATION
#MNEM.UNIT          VALUE    DESCRIPTION
#----------   ------------   ------------------------------
 EKB .F         5196.0000:   Kelly bushing
 EGL .F         5186.0000:   Ground level
 EDF .F         5194.0000:   Drilling floor
 TD  .F         5803.0000:   Total depth
 CLNT.            A2DTECH:   Client Code
 SL  . 794' FEL & 333' FNL:   Surface Location
 PD  .                 GL:   Permanent Datum
 EPD .F              5186:   Elevation Permanent Datum
 LMF .                 KB:   Log Measured From
 DMF .                 KB:   Drilling Measured From
 DAPD.F                10:   Feet Above Permanent Datum
 DATE.        25-AUG-2002:   Date Logged [DD-MMM-YYYY]
 DD  .F              5800:   Depth driller
 DL  .F              5803:   Depth logger
 BLI .F              5803:   Bottom log interval
 TLI .F               656:   Top log interval
 CS1 .IN            9.625:   Casing size
 CBD1.      9.625" @ 660':   Casing driller 1
 CBL1.F               656:   Casing logger 1
 BS1 .IN            8.750:   Bit size
 BSD1.F              5800:   Depth drilled with bit1
 DFT .           GEL CHEM:   Type fluid in hole
 DFD .                  9:   Density
 DFV .                 36:   Viscosity
 DFPH.                8.5:   pH
 DFL .                7.6:   Fluid loss
 MSS .           FLOWLINE:   Source of sample
 RMS .OHMM          0.846:   Rm
 MST .F                90:   Rm Meas. temp.
 RMF .OHMM          0.670:   Rmf
 MFST.F                90:   Rmf Meas. temp.
 MFSS.               MEAS:   Source Rmf.
 RMC .OHMM          1.075:   Rmc
 MCST.F                90:   Rmc Meas. temp.
 MCSS.               CALC:   Source Rmc.
 TCS .HRS            0300:   Time Circ. stopped
 TLAB.HRS            0915:   Time logger at bottom
 MRT .F               156:   Maximum recorded temp.
 LUN .               2211:   Logging unit number
 LUL .             CASPER:   Logging unit location
 ENGI.        J.L. FLORES:   Recorded By
 WITN.        STEVE HARDY:   Witnessed by
 ORIG.        2" 5" PRINT:   Origin of data
 UWI .     49025230480000:   Unique Well ID
 DICO. A2D TECHNOLOGIES, INC.:   Digitizing Company
~OTHER INFORMATION
~A   DEPT     HCAL       RLA1       RLA2       RLA3       RXOZ       TENR         GRR      SPHI         DT       TENS         RT   
# ...
 4754.0000     9.9619    18.9326    20.7046    21.0788    23.3041  2568.1594   109.1042     0.1021    65.2145  2033.1326    20.4331
 4754.5000     9.9614    19.0654    20.8485    20.7900    24.2947  2569.0044   112.9574     0.1090    66.4212  2033.1326    20.7111
 4755.0000     9.9608    19.1994    21.2862    22.9101    24.2966  2569.6860   108.4388     0.1102    66.7219  2033.1326    20.9912
 4755.5000     9.9752    20.8644    24.4483    28.4026    26.2213  2570.5376    99.3953     0.1102    66.4939  2033.1326    22.9596
 4756.0000     9.9747    27.9098    37.5590    34.9686    40.8479  2571.1445    87.6385     0.1069    65.8127  2048.1929    31.9945
 4756.5000     9.9589    44.6988    46.5530    45.5077    48.9095  2522.1497    75.6539     0.1014    64.7535  2048.1929    41.0321
 4757.0000     9.9584    49.2525    52.3691    53.3750    55.4058  2523.0020    70.2303     0.0963    63.8457  2048.1929    53.3515
 4757.5000     9.9729    22.5223    34.8042    33.7847    43.1836  2473.9316    67.7495     0.0887    63.0890  2048.1929    43.0370
 4758.0000     9.9722    21.3099    28.6389    28.0215    36.5329  2474.6272    69.5658     0.0821    62.3323  2048.1929    27.2492
 4758.5000     9.9717    20.1627    28.0801    27.6371    33.1573  2475.3730    68.6671     0.0800    62.1795  2048.1929    25.9523
 4759.0000     9.9711    22.2172    30.7253    29.2149    32.2514  2476.1465    72.1810     0.0830    62.6312  2048.1929    28.3836
 4759.5000     9.9855    24.6507    30.5133    30.4578    34.0886  2526.7500    75.6948     0.0877    63.3851  2048.1929    31.0451
 4760.0000    10.0000    24.6523    30.9388    30.4597    38.0828  2577.1829    77.9636     0.0914    63.9879  2048.1929    29.5676
 4760.5000    10.0144    26.7906    32.9285    31.7550    35.5348  2577.8645    79.5544     0.0935    63.9861  2033.1326    29.7632
 4761.0000    10.0440    32.3002    33.8533    34.9932    36.7868  2578.7161    78.8828     0.0932    63.8336  2033.1326    33.6974
 4761.5000    10.0737    25.8821    26.7514    28.8228    30.7253  2629.1489    91.3325     0.0906    63.6056  2033.1326    32.3165
 4762.0000    10.1031    17.3220    17.7788    16.9051    24.4483  2629.8511   100.3886     0.0890    63.3776  2033.1326    26.6155
 4762.5000    10.1327    14.4687    15.2664    14.8204    19.8620  2630.5967   113.0661     0.0896    63.5269  2033.1326    17.1063
 4763.0000    10.1547    12.6857    14.9525    14.2177    17.4132  2581.5920   123.0272     0.0932    64.4318  2033.1326    14.1895
 4763.5000    10.1918    13.3169    16.1360    16.1079    16.5893  2582.3511   129.3683     0.1018    65.8654  2048.1929    14.5858
 4764.0000    10.2214    15.6172    17.5790    17.1457    17.4132  2583.1458   135.7111     0.1161    67.2991  2048.1929    15.4144
 4764.5000    10.2660    18.4422    20.7046    18.7633    20.5618  2583.8311   129.6088     0.1379    69.7142  2048.1929    17.9471
 4765.0000    10.2805    20.8921    23.7803    22.4698    23.2914  2584.6797   118.3029     0.1466    71.3744  2048.1929    21.1872
 4765.5000    10.3102    23.5038    26.5667    26.5377    26.2013  2585.3606   112.9932     0.1473    71.5999  2048.1929    23.9944
 4766.0000    10.3245    25.1907    28.0801    33.8247    33.8533  2586.2129    90.4890     0.1406    70.5407  2048.1929    26.0690
 4766.5000    10.3466    28.1446    30.9388    39.9481    42.2515  2586.8945    76.3553     0.1237    69.3637  2044.6982    27.3599
 4767.0000    10.3837    30.7979    33.1573    39.4014    43.4382  2587.5762    77.3805     0.1113    67.5919  2033.1326    29.9320
 4767.5000    10.4283    32.5543    33.8533    32.2297    36.5329  2588.4277    76.9343     0.1009    66.0799  2033.1326    32.9727
 4768.0000    10.4881    33.4709    31.5883    31.3505    35.5348  2589.1094    80.7867     0.0931    64.1148  2033.1326    33.6617
 4768.5000    10.5478    31.6695    24.9615    31.3530    38.3576  2589.8013    79.8896     0.0883    63.1217  2033.1326    33.1697
 4769.0000    10.5925    27.0082    19.1354    29.8702    31.3703  2590.6426    82.6109     0.0856    62.9031  2033.1326    29.1010
 4769.5000    10.6221    14.3829    15.8711    25.6479    23.7803  2591.3242    89.8570     0.0870    63.2038  2033.1326    22.8390
 4770.0000    10.6666    12.6105    14.6044    16.4611    19.0183  2641.9270   109.0956     0.0886    63.5800  2048.1929    17.8008
 4770.5000    10.6812    11.7675    14.0091    14.0364    17.0552  2642.6086   115.8893     0.0919    64.2082  2048.1929    14.1216
 4771.0000    10.7107    11.0574    13.4381    14.0375    16.4748  2643.2905   115.2169     0.0991    65.4650  2055.2937    13.1251
 4771.5000    10.7403    12.0163    13.2524    14.3336    16.1252  2693.8938   117.8257     0.1088    66.5210  2063.2529    12.9433
 4772.0000    10.7548    13.5184    14.0062    14.7374    15.9141  2644.6538   128.8057     0.1257    68.4833  2063.2529    13.1223
 4772.5000    10.7742    14.3889    14.4987    15.2580    16.4748  2640.4419   133.3369     0.1399    70.3258  2078.3132    15.0680
 4773.0000    10.7837    13.9967    14.9048    15.6882    17.1889  2596.4358   131.8734     0.1466    71.3506  2078.3132    15.2767
 4773.5000    10.7982    13.4279    15.1119    16.0188    17.7788  2547.3662   123.6226     0.1484    71.4247  2078.3132    15.3812
 4774.0000    10.7976    13.6162    15.1107    16.2434    17.7788  2548.3884   116.6153     0.1444    71.0453  2078.3132    15.3791
 4774.5000    10.8121    13.1537    14.9017    15.9104    17.5342  2598.8213   122.2777     0.1399    70.5775  2093.3735    15.0611
 4775.0000    10.8417    11.8567    14.2943    15.3695    17.0552  2599.5029   134.0503     0.1375    70.2112  2093.3735    14.4470
 4775.5000    10.8410    12.7079    14.0968    15.3705    16.8206  2583.0967   138.1290     0.1372    70.2098  2093.3735    13.7624
 4776.0000    10.8555    13.4326    15.5307    15.9137    16.9375  2551.2441   128.6330     0.1384    70.4350  2093.3735    13.3852
 4776.5000    10.8699    15.4290    17.3494    17.0568    17.6561  2552.1365   124.7948     0.1414    70.7357  2093.3735    14.4419
 4777.0000    10.8845    18.7320    19.2695    18.6661    19.4536  2552.8181   117.5613     0.1444    70.8853  2093.3735    16.4695
 4777.5000    10.8990    20.3564    21.0587    20.7126    23.1307  2553.4998   115.0789     0.1426    70.8080  2093.3735    18.8541
 4778.0000    10.9134    19.8015    21.3514    20.7139    24.7892  2554.3521   113.9545     0.1377    70.4289  2078.3132    21.2701
 4778.5000    10.9279    12.0280    14.7347    18.5410    18.9221  2555.0330   115.9977     0.1314    69.3482  2078.3132    20.6872
 4779.0000    10.9348    11.2239    12.9663    14.2494    14.6451  2555.7212   121.4347     0.1253    68.2354  2063.2529    16.0125
 4779.5000    10.9418    11.1472    12.5242    12.6665    13.5709  2556.5669   127.0971     0.1229    68.4606  2058.1150    12.5666
 4780.0000    10.9412    10.8435    12.3510    12.4067    13.2002  2606.9990   128.4609     0.1253    70.1208  2048.1929    11.8885
 4780.5000    10.9405    11.3828    12.7853    13.0244    13.5709  2607.8513   124.1701     0.1416    72.0179  2048.1929    11.7242
 4781.0000    10.9249    13.2569    13.6066    13.7678    14.6451  2608.5330   120.5565     0.1607    73.2898  2048.1929    11.9685
 4781.5000    10.9093    15.0181    15.0948    14.7568    16.2482  2609.2146   122.5990     0.1658    74.0436  2048.1929    13.6484
 4782.0000    10.8633    15.8746    16.4018    16.2616    17.9023  2610.0662   123.5119     0.1670    74.1936  2048.1929    15.6725
 4782.5000    10.8477    16.3215    16.9786    16.8357    19.1860  2560.8259   126.2331     0.1615    73.5046  2048.1929    16.9102
 4783.0000    10.8470    15.2307    16.5134    15.4935    19.4536  2561.6914   122.6195     0.1558    72.2263  2048.1929    17.3830
 4783.5000    10.8464    11.3090    14.6785    14.0620    17.1737  2562.5298   121.4954     0.1473    71.3941  2063.2529    16.2186
 4784.0000    10.8459    11.7895    13.8865    13.5837    16.0247  2563.2114   124.4437     0.1389    70.1087  2063.2529    14.0234
