~VERSION INFORMATION
 VERS.                2.0:   CWLS LOG ASCII STANDARD - VERSION 2.0
 WRAP.                 NO:   ONE LINE PER DEPTH STEP
~WELL INFORMATION
#MNEM.UNIT      DATA TYPE    INFORMATION
#----------   ------------   ------------------------------
 STRT.F          397.0000:   START DEPTH
 STOP.F         5516.0000:   STOP DEPTH
 STEP.F            0.5000:   STEP LENGTH
 NULL.          -999.2500:   NO VALUE
 COMP.  FENIX AND SCISSON:   COMPANY
 WELL.   FENIX TPX #54-10:   WELL
 FLD . NAVAL PETROLEUM RESERVE=3:   FIELD
 LOC .      S10 T38N R78W:   LOCATION
 CNTY.            NATRONA:   COUNTY
 STAT.            WYOMING:   STATE
 CTRY. UNITED STATES OF AMERICA:   COUNTRY
 SRVC.       SCHLUMBERGER:   SERVICE COMPANY
 DATE.        03-APR-1981:   LOGDATE
 API .     49025108690000:   API NUMBER
~CURVE INFORMATION
#MNEM.UNIT       API CODE    CURVE DESCRIPTION
#----------   ------------   ------------------------------
 DEPT.F                  :   
 SPR .MV     11 010 01 00:   SPONTANEOUS POTENTIAL FROM RES.
 TENR.LBS    11 635 01 00:   TENSION FROM RES.
 LLD .OHMM   11 220 10 00:   LATEROLOG DEEP
 LLS .OHMM   11 220 09 00:   LATEROLOG LOG SHALLOW
 TEND.LBS    45 635 01 00:   TENSION FORM DENSITY LOG
 GRD .GAPI   45 310 01 00:   GAMMA RAY FROM DENSITY LOG
 NPHI.DEC    42 890 03 00:   NEUTRON POROSITY SANDSTONE
 CALD.IN     45 280 60 00:   CALIPER FROM DENSITY LOG
 CORR.G/C3   45 356 01 00:   DENSITY CORRECTION
 RHOB.G/C3   45 350 01 00:   BULK DENSITY
~PARAMETER INFORMATION
#MNEM.UNIT          VALUE    DESCRIPTION
#----------   ------------   ------------------------------
 EKB .F         5206.0000:   Kelly bushing
 EGL .F         5196.0000:   Ground level
 EDF .F            0.0000:   Drilling floor
 TD  .F         5498.0000:   Total depth
 CLNT.            A2DTECH:   Client Code
 SL  . 2080' FNL & 2150' FEL:   Surface Location
 PD  .                 GL:   Permanent Datum
 EPD .F              5196:   Elevation Permanent Datum
 LMF .                 KB:   Log Measured From
 DMF .                 KB:   Drilling Measured From
 DAPD.F                10:   Feet Above Permanent Datum
 DATE.         3-APR-1981:   Date Logged [DD-MMM-YYYY]
 DD  .F              5485:   Depth driller
 DL  .F              5498:   Depth logger
 BLI .F              5496:   Bottom log interval
 TLI .F               397:   Top log interval
 CS1 .IN                7:   Casing size
 CBD1.         7" @ 3891':   Casing driller 1
 CBL1.F              3889:   Casing logger 1
 BS1 .IN            6.125:   Bit size
 BSD1.F              5485:   Depth drilled with bit1
 DFT .           CHEM GEL:   Type fluid in hole
 DFD .                9.1:   Density
 DFV .                 42:   Viscosity
 DFPH.                9.0:   pH
 DFL .                5.0:   Fluid loss
 MSS .           MUD TANK:   Source of sample
 RMS .OHMM           0.81:   Rm
 MST .F                62:   Rm Meas. temp.
 RMF .OHMM           0.64:   Rmf
 MFST.F                62:   Rmf Meas. temp.
 MFSS.               MEAS:   Source Rmf.
 RMB .OHMM          0.031:   Rm. at BHT
 BHT .F               174:   BHT.
 TCS .HRS            0830:   Time Circ. stopped
 TLAB.HRS            2130:   Time logger at bottom
 MRT .F               174:   Maximum recorded temp.
 LUN .               8035:   Logging unit number
 LUL .               CSPR:   Logging unit location
 ENGI.             BEATIE:   Recorded By
 WITN.              FIVAS:   Witnessed by
 ORIG.           5" PRINT:   Origin of data
 UWI .     49025108690000:   Unique Well ID
 DICO. A2D TECHNOLOGIES, INC:   Digitizing Company
~OTHER INFORMATION
~A   DEPT      SPR       TENR        LLD        LLS       TEND         GRD        NPHI     CALD       CORR       RHOB   
# ...
 5355.0000   -24.1176  1865.7976   179.4654   422.7897  1856.8212    26.2246     0.0763     6.3739     0.0399     2.5293
 5355.5000   -23.9613  1866.0276   173.8018   411.0056  1856.8939    25.3111     0.0779     6.3731     0.0444     2.5450
 5356.0000   -23.8050  1866.2577   169.8137   399.5633  1856.9829    24.3542     0.0791     6.3725     0.0406     2.5517
 5356.5000   -23.6487  1866.4878   164.0073   388.4395  1841.8853    23.4855     0.0794     6.3719     0.0307     2.5336
 5357.0000   -23.4924  1866.7178   159.7604   377.6254  1841.9751    23.4797     0.0798     6.3869     0.0201     2.5140
 5357.5000   -23.4870  1866.9479   157.5330   367.1116  1842.0454    24.0797     0.0798     6.4004     0.0178     2.4982
 5358.0000   -23.5186  1867.1780   153.1709   354.4573  1842.1212    24.0725     0.0797     6.3996     0.0283     2.5034
 5358.5000   -23.6314  1867.4080   148.9297   351.7868  1842.1970    22.8568     0.0792     6.3990     0.0403     2.5402
 5359.0000   -23.7781  1867.6381   149.9788   351.5981  1827.1110    21.9447     0.0783     6.3984     0.0399     2.5349
 5359.5000   -23.9257  1867.8682   151.0354   363.9727  1827.2008    21.3348     0.0768     6.3976     0.0244     2.5228
 5360.0000   -23.8393  1868.0981   160.5985   408.2005  1827.2727    21.6311     0.0744     6.3970     0.0123     2.5152
 5360.5000   -23.5767  1868.3282   182.7528   468.1486  1842.5142    22.5317     0.0672     6.3963     0.0122     2.5136
 5361.0000   -23.3141  1868.5583   195.9906   494.9480  1842.5861    21.9203     0.0585     6.3808     0.0152     2.5473
 5361.5000   -23.0516  1868.7883   202.9377   498.2366  1842.6578    20.4040     0.0549     6.3951     0.0288     2.5947
 5362.0000   -22.7599  1869.0184   204.3141   487.5182  1842.7297    19.4919     0.0534     6.3943     0.0393     2.6180
 5362.5000   -22.4541  1869.2485   204.1396   473.7545  1842.8031    19.1840     0.0525     6.3937     0.0392     2.6172
 5363.0000   -22.1487  1869.4785   199.9341   457.0948  1842.8914    19.1782     0.0528     6.3930     0.0324     2.6119
 5363.5000   -21.8014  1869.7086   198.4823   444.1898  1846.8596    19.7754     0.0534     6.4073     0.0278     2.6088
 5364.0000   -21.5002  1869.9387   198.4290   431.6491  1858.1866    19.7704     0.0556     6.4214     0.0285     2.6081
 5364.5000   -21.2325  1870.1687   195.6101   422.4200  1858.2585    20.3681     0.0571     6.4208     0.0307     2.6005
 5365.0000   -20.9709  1870.3988   194.1892   416.3025  1858.3483    20.3623     0.0577     6.4201     0.0299     2.5794
 5365.5000   -20.7611  1870.6289   201.0594   421.9665  1858.4202    20.6587     0.0581     6.4194     0.0231     2.5643
 5366.0000   -20.5805  1870.8589   241.2550   452.3741  1858.4921    18.5367     0.0578     6.4038     0.0163     2.5613
 5366.5000   -20.3146  1871.0890   277.5464   558.2100  1873.7155    17.0204     0.0539     6.4032     0.0117     2.5973
 5367.0000   -20.1611  1871.3191   295.5685   633.1173  1858.6359    16.1083     0.0485     6.4025     0.0132     2.6404
 5367.5000   -20.0760  1871.5491   301.7787   678.8318  1858.7256    15.8005     0.0430     6.4019     0.0267     2.6671
 5368.0000   -20.0061  1871.7734   308.1186   707.6778  1843.6364    15.8269     0.0388     6.4012     0.0365     2.6768
 5368.5000   -20.0046  1871.0764   310.2061   697.3356  1828.5483    17.9023     0.0389     6.4005     0.0447     2.6708
 5369.0000   -20.0029  1870.3967   312.3077   673.7070  1828.6381    19.7093     0.0410     6.3999     0.0530     2.6662
 5369.5000   -20.1535  1869.7169   310.0190   631.3352  1828.7122    20.6099     0.0449     6.3991     0.0627     2.6632
 5370.0000   -20.2329  1869.0372   303.6296   584.0696  1843.9514    20.9063     0.0498     6.3985     0.0714     2.6544
 5370.5000   -20.3025  1868.3575   294.7385   540.3425  1844.0233    21.2447     0.0537     6.3978     0.0754     2.6428
 5371.0000   -20.4875  1867.6777   282.7326   496.3229  1844.0951    21.4990     0.0550     6.4121     0.0739     2.6307
 5371.5000   -20.9072  1866.9980   272.9076   478.9341  1844.1670    21.4918     0.0559     6.3964     0.0633     2.6209
 5372.0000   -21.2097  1866.3184   269.0305   475.3258  1844.2424    21.9658     0.0562     6.4108     0.0519     2.6096
 5372.5000   -21.5171  1865.6385   276.6179   478.4199  1844.3182    22.6888     0.0538     6.4100     0.0447     2.6028
 5373.0000   -22.1183  1864.9589   301.4799   495.2582  1844.4005    24.7964     0.0511     6.4094     0.0383     2.6046
 5373.5000   -22.7247  1864.2792   355.9380   555.5545  1829.3181    26.6033     0.0481     6.4086     0.0352     2.6177
 5374.0000   -23.3312  1863.5994   387.1180   641.5016  1829.3939    26.9011     0.0481     6.4080     0.0321     2.6297
 5374.5000   -23.9380  1862.9197   398.0624   683.0059  1829.4825    27.4982     0.0482     6.4073     0.0321     2.6394
 5375.0000   -24.6960  1862.2399   409.2613   712.1251  1829.5454    28.0967     0.0485     6.4067     0.0313     2.6476
 5375.5000   -25.1505  1861.5602   433.0123   737.0896  1829.6262    30.2043     0.0503     6.4059     0.0305     2.6566
 5376.0000   -25.3011  1860.8805   501.3644   814.3423  1844.8497    33.2197     0.0546     6.4053     0.0304     2.6798
 5376.5000   -25.2555  1860.2007   556.8891  1138.0571  1844.9243    33.8196     0.0585     6.4047     0.0304     2.7008
 5377.0000   -25.1458  1859.5210   658.9055  1821.1893  1860.1630    31.3955     0.0619     6.4040     0.0319     2.7684
 5377.5000   -25.1444  1858.8413   836.3059  2139.7131  1860.2347    28.6410     0.0649     6.4032     0.0348     2.8225
 5378.0000   -24.9666  1858.1615  1032.0770  2089.0383  1860.3066    25.9445     0.0649     6.4026     0.0386     2.8570
 5378.5000   -24.8372  1857.4818  1154.3757  2044.6871  1860.3788    26.8451     0.0625     6.4020     0.0408     2.8818
 5379.0000   -24.8359  1856.8020  1187.0114  2047.9993  1860.4684    29.5584     0.0604     6.4312     0.0407     2.8847
 5379.5000   -24.8343  1856.1223  1229.0039  2104.9553  1860.5403    29.8973     0.0593     6.4455     0.0399     2.8696
 5380.0000   -25.1368  1855.4426  1254.8252  2133.5945  1860.6061    27.9966     0.0611     6.4598     0.0369     2.8553
 5380.5000   -25.7624  1854.7628  1254.4952  2132.1626  1860.6819    24.7059     0.0633     6.4441     0.0353     2.8545
 5381.0000   -26.4224  1854.0831  1253.1405  2057.4604  1860.7576    23.1896     0.0645     6.4434     0.0375     2.8612
 5381.5000   -27.2597  1853.4034  1219.0170  1985.3766  1875.9849    22.2775     0.0654     6.4277     0.0458     2.8756
 5382.0000   -27.7142  1852.7236  1184.9448  1866.7018  1874.0342    24.6887     0.0663     6.4271     0.0699     2.8889
 5382.5000   -27.8647  1852.0439  1127.8214  1740.9017  1860.9714    26.4956     0.0669     6.4264     0.0827     2.8874
 5383.0000   -27.8596  1851.3641  1051.0807  1615.1016  1861.0607    25.5821     0.0676     6.4258     0.0886     2.8663
 5383.5000   -27.6879  1850.6844   964.6632  1489.3014  1861.1510    23.4615     0.0676     6.4250     0.0886     2.8219
 5384.0000   -27.4041  1850.0048   856.9580  1363.2759  1861.2122    21.0389     0.0676     6.4244     0.0780     2.7738
 5384.5000   -26.9467  1849.3250   776.5334  1201.4839  1861.2948    19.2204     0.0673     6.4238     0.0591     2.7332
 5385.0000   -26.6615  1848.6453   728.7937  1111.5333  1861.3667    17.0599     0.0658     6.4231     0.0470     2.6978
 5385.5000   -26.1213  1847.9656   693.6603  1042.8684  1861.4393    15.8842     0.0607     6.4223     0.0500     2.6948
 5386.0000   -25.5552  1847.2858   674.2136  1013.4254  1861.5151    14.9722     0.0592     6.4068     0.0673     2.7090
 5386.5000   -25.1168  1846.6061   655.3821   991.7568  1861.6002    14.6657     0.0605     6.3912     0.0819     2.7217
 5387.0000   -24.8114  1845.9263   650.6230   984.2659  1861.6720    16.7734     0.0626     6.3906     0.0739     2.7202
 5387.5000   -24.5060  1845.2466   655.0749   997.5432  1861.7439    20.0894     0.0654     6.3898     0.0551     2.7156
 5388.0000   -24.2746  1844.5669   670.3198  1054.6475  1861.8181    24.3133     0.0699     6.3892     0.0384     2.7186
