~VERSION INFORMATION
 VERS.                2.0:   CWLS LOG ASCII STANDARD - VERSION 2.0
 WRAP.                 NO:   ONE LINE PER DEPTH STEP
~WELL INFORMATION
#MNEM.UNIT      DATA TYPE    INFORMATION
#----------   ------------   ------------------------------
 STRT.F           31.5000:   START DEPTH
 STOP.F         3370.0000:   STOP DEPTH
 STEP.F            0.5000:   STEP LENGTH
 NULL.          -999.2500:   NO VALUE
 COMP. LAWRENCE ALLISON & ASSOC - WEST:   COMPANY
 WELL. LAWRENCE "AX" #46-34:   WELL
 FLD .             NPR #3:   FIELD
 LOC .      S34 T39N R78W:   LOCATION
 CNTY.            NATRONA:   COUNTY
 STAT.            WYOMING:   STATE
 CTRY. UNITED STATES OF AMERICA:   COUNTRY
 SRVC.       SCHLUMBERGER:   SERVICE COMPANY
 DATE.        30-APR-1986:   LOGDATE
 API .     49025111380000:   API NUMBER
~CURVE INFORMATION
#MNEM.UNIT       API CODE    CURVE DESCRIPTION
#----------   ------------   ------------------------------
 DEPT.F                  :   
 TENR.LBS    07 635 01 00:   TENSION FROM RESISTIVITY
 GRR .GAPI   07 310 01 00:   GAMMA RAY FROM RESISTIVITY
 CALR.IN     07 280 01 00:   CALIPER FROM RESISTIVITY
 SPR .MV     07 010 01 00:   SPONTANEOUS POTENTIAL
 TEND.LBS    45 635 01 00:   TENSION FROM DENSITY LOG
 DEN .G/C3   45 350 01 00:   BULK DENSITY
 CORR.G/C3   45 356 01 00:   DENSITY CORRECTION
 CNC .DEC    42 890 03 00:   NEUTRON PORISITY SANDSTONE
 RFOC.OHMM   07 220 04 00:   RESISTIVITY FOCUSED LOG
 RILD.OHMM   07 120 46 00:   RESISTIVITY INDUCTION LOG DEEP
 RILM.OHMM   07 120 44 00:   RESISTIVITY INDUCTION LOG MEDIUM
~PARAMETER INFORMATION
#MNEM.UNIT          VALUE    DESCRIPTION
#----------   ------------   ------------------------------
 EKB .F         5094.0000:   Kelly bushing
 EGL .F         5082.0000:   Ground level
 EDF .F            0.0000:   Drilling floor
 TD  .F         3370.0000:   Total depth
 DATE.        30-APR-1986:   Date logged
 CLNT.            A2DTECH:   Client Code
 SL  . 2462' FWL & 1545' FSL:   Surface Location
 PD  .                 GL:   Permanent Datum
 EPD .F              5082:   Elevation Permanent Datum
 LMF .                 KB:   Log Measured From
 DMF .                 KB:   Drilling Measured From
 DAPD.F                12:   Feet Above Permanent Datum
 DD  .F              3370:   Depth driller
 DL  .F              3369:   Depth logger
 BLI .F              3367:   Bottom log interval
 CS1 .IN            8.625:   Casing size
 CBD1.      8.625" @ 642':   Casing driller 1
 CBL1.F               642:   Casing logger 1
 BS1 .IN            7.875:   Bit size
 BSD1.F              3370:   Depth drilled with bit1
 DFT .        POLYMER/KCL:   Type fluid in hole
 DFD .                8.9:   Density
 DFV .                 36:   Viscosity
 DFPH.                8.5:   pH
 DFL .               10.2:   Fluid loss
 MSS .           FLOWLINE:   Source of sample
 RMS .OHMM           .319:   Rm
 MST .F                79:   Rm Meas. temp.
 RMF .OHMM            .24:   Rmf
 MFST.F                79:   Rmf Meas. temp.
 RMC .OHMM            .40:   Rmc
 MCST.F                79:   Rmc Meas. temp.
 MFSS.               CALC:   Source Rmf.
 MCSS.               CALC:   Source Rmc.
 RMB .OHMM            .21:   Rm. at BHT
 BHT .F               117:   BHT.
 TCS .HRS               4:   Time Circ. stopped
 MRT .F               117:   Maximum recorded temp.
 LUN .            HL-6264:   Logging unit number
 LUL .           GILLETTE:   Logging unit location
 ENGI.     P. M. FAHLSING:   Recorded By
 WITN.             STRONG:   Witnessed by
 ORIG.        2" 5" PRINT:   Origin of data
 UWI .     49025111380000:   Unique Well ID
 DICO. A2D TECHNOLOGIES, INC.:   Digitizing Company
 TLI .                  0:   Top log interval
~OTHER INFORMATION
~A   DEPT     TENR        GRR       CALR        SPR       TEND        DEN       CORR        CNC       RFOC       RILD       RILM   
# ...
 3142.5000   -80.4890   111.9220     8.6240   -70.1950   -80.6140     2.4960     0.0620     0.2470     4.7300     3.7720     3.7430
 3143.0000   -63.4540   111.1340     8.6180   -70.1220   -60.1510     2.4900     0.0600     0.2410     4.5900     3.7980     3.6850
 3143.5000   -44.1770   110.2950     8.6120   -70.1190   -53.6250     2.4880     0.0620     0.2330     4.5720     3.7610     3.6420
 3144.0000   -47.6100   109.5060     8.6060   -70.1220   -53.6250     2.4830     0.0530     0.2270     4.5580     3.7240     3.6420
 3144.5000   -52.7210   108.6620     8.6020   -70.1190   -53.6250     2.4770     0.0360     0.2300     4.5340     3.6880     3.6750
 3145.0000   -54.2170   107.8280     8.5970   -70.1220   -53.6250     2.4720     0.0280     0.2330     4.4870     3.6510     3.7010
 3145.5000   -54.2170   107.7620     8.5930   -70.1200   -53.6250     2.4740     0.0350     0.2360     4.4410     3.6140     3.7280
 3146.0000   -54.2170   108.5980     8.5890   -70.1210   -53.6250     2.4770     0.0430     0.2330     4.3830     3.5770     3.7300
 3146.5000   -54.2170   109.8280     8.5830   -70.1200   -53.6250     2.4790     0.0630     0.2300     4.5040     3.5400     3.6880
 3147.0000   -54.2170   111.3400     8.5800   -70.1210   -53.6250     2.4780     0.0650     0.2280     4.7630     3.5030     3.6450
 3147.5000   -47.6030   112.5260     8.5740   -70.1210   -53.6250     2.4730     0.0510     0.2310     4.6590     3.4660     3.6030
 3148.0000   -40.9380   114.0490     8.5720   -70.1210   -45.9720     2.4680     0.0480     0.2370     4.4840     3.4290     3.5610
 3148.5000   -34.2720   114.9480     8.5640   -70.1210   -36.6700     2.4660     0.0680     0.2420     4.3090     3.3920     3.5190
 3149.0000   -27.6060   113.3830     8.5460   -70.1200   -33.4840     2.4690     0.0630     0.2400     4.1460     3.3550     3.4770
 3149.5000   -24.0960   112.1140     8.5440   -70.1220   -48.3220     2.4730     0.0560     0.2390     4.1460     3.3190     3.4350
 3150.0000   -53.1170   111.2880     8.5460   -70.1190   -63.6960     2.4770     0.0420     0.2420     4.1810     3.2820     3.4380
 3150.5000   -64.2570   111.5720     8.5450   -70.1230   -60.1780     2.4810     0.0250     0.2470     4.2230     3.2450     3.4890
 3151.0000   -51.0500   112.5500     8.5460   -70.1180   -49.1080     2.4850     0.0280     0.2490     4.1780     3.2080     3.5420
 3151.5000   -39.2340   114.2320     8.5450   -70.1230   -38.0380     2.4890     0.0410     0.2450     4.1290     3.1710     3.5350
 3152.0000   -34.1370   114.7640     8.5440   -70.1190   -41.9600     2.4930     0.0550     0.2390     4.2180     3.1410     3.5250
 3152.5000   -41.6670   110.4000     8.5430   -70.1210   -63.4860     2.4990     0.0680     0.2340     4.4110     3.2540     3.5150
 3153.0000   -54.4680   108.8580     8.5420   -70.2680   -83.8370     2.5050     0.0640     0.2310     4.6040     3.3700     3.5100
 3153.5000   -67.2690   109.4450     8.5420   -70.4110   -83.3640     2.5100     0.0560     0.2270     4.5820     3.4850     3.6790
 3154.0000   -74.2970   109.8000     8.5410   -70.5650   -81.6410     2.5100     0.0520     0.2240     4.3630     3.6010     3.8180
 3154.5000   -71.1940   112.1710     8.5400   -70.7190   -79.9190     2.5090     0.0610     0.2230     4.1440     3.7170     3.9570
 3155.0000   -66.5390   113.2120     8.5390   -70.6660   -78.1970     2.5090     0.0700     0.2270     4.2260     3.8330     4.0960
 3155.5000   -61.8840   112.4920     8.5380   -70.5800   -76.4750     2.5110     0.0700     0.2300     4.6220     3.9480     4.2350
 3156.0000   -57.2290   109.5360     8.5370   -70.5190   -74.7530     2.5170     0.0700     0.2240     5.0180     4.0640     4.3830
 3156.5000   -52.5740   106.5620     8.5360   -70.4350   -69.6310     2.5220     0.0720     0.2200     5.1990     4.1840     4.3830
 3157.0000   -47.9190   105.4110     8.5350   -70.3700   -59.9450     2.5220     0.0750     0.2250     4.9850     4.1840     4.3830
 3157.5000   -44.1770   106.1880     8.5340   -70.2930   -50.2580     2.5210     0.0790     0.2300     4.8980     4.1840     4.3070
 3158.0000   -44.1770   107.3240     8.5330   -70.2250   -45.8280     2.5200     0.0830     0.2240     5.1200     4.1090     4.2110
 3158.5000   -45.8610   107.3630     8.5320   -70.1570   -53.2080     2.5220     0.0840     0.2180     5.1770     4.0150     4.1150
 3159.0000   -47.5130   107.0150     8.5320   -70.0800   -60.5880     2.5230     0.0840     0.2220     5.0690     3.9220     4.0180
 3159.5000   -49.1640   107.1060     8.5300   -70.0210   -63.6960     2.5200     0.0830     0.2280     4.9890     3.8280     3.9220
 3160.0000   -50.8160   110.8670     8.5300   -69.9360   -63.6960     2.5050     0.0700     0.2350     4.7110     3.7340     3.8260
 3160.5000   -52.4680   114.2730     8.5280   -69.8860   -63.6960     2.4890     0.0550     0.2410     4.3830     3.6410     3.7290
 3161.0000   -54.2170   114.3080     8.5280   -69.7920   -63.6960     2.4770     0.0430     0.2420     4.3450     3.5470     3.6330
 3161.5000   -52.4320   114.5480     8.5270   -69.7310   -51.3170     2.4720     0.0420     0.2410     4.3020     3.4530     3.5370
 3162.0000   -50.5350   114.1220     8.5260   -69.9070   -43.3690     2.4680     0.0420     0.2440     4.2130     3.3590     3.4410
 3162.5000   -48.6390   112.9770     8.5250   -70.0340   -35.4210     2.4600     0.0420     0.2500     4.1260     3.2660     3.4220
 3163.0000   -46.7430   111.7330     8.5050   -70.1010   -40.7350     2.4530     0.0380     0.2560     4.0390     3.2880     3.5240
 3163.5000   -44.8460   110.6150     8.4830   -70.2030   -53.6510     2.4500     0.0260     0.2540     3.9530     3.3860     3.6260
 3164.0000   -48.4980   111.2990     8.4640   -70.2810   -66.5660     2.4510     0.0140     0.2440     4.0470     3.4830     3.7290
 3164.5000   -55.1770   111.9830     8.4470   -70.3720   -73.7660     2.4530     0.0050     0.2340     4.2410     3.5810     3.8310
 3165.0000   -61.8560   110.8840     8.4270   -70.4600   -73.1150     2.4620     0.0120     0.2290     4.4350     3.6780     3.9330
 3165.5000   -68.5350   108.8880     8.4050   -70.5430   -72.3550     2.4690     0.0280     0.2260     4.6280     3.7760     4.0350
 3166.0000   -74.2970   107.0370     8.4040   -70.6370   -71.5950     2.4720     0.0350     0.2170     4.7650     3.8740     4.1370
 3166.5000   -68.2730   104.9620     8.4050   -70.7200   -70.8360     2.4760     0.0320     0.2160     4.8510     3.9710     4.2230
 3167.0000   -57.3010   103.8970     8.4040   -70.7280   -70.0760     2.4850     0.0300     0.2220     4.9370     4.0320     4.2000
 3167.5000   -44.1770   107.0850     8.4050   -70.7210   -69.3160     2.4950     0.0430     0.2270     4.9890     3.9900     4.1370
 3168.0000   -44.1770   110.7300     8.4040   -70.7270   -68.5560     2.5050     0.0560     0.2310     4.8970     3.9190     4.0730
 3168.5000   -44.1770   109.5380     8.4050   -70.7230   -67.7970     2.5070     0.0610     0.2310     4.8210     3.8470     4.0100
 3169.0000   -44.1770   108.3380     8.4040   -70.7250   -67.0370     2.5020     0.0560     0.2340     4.7630     3.7760     3.9470
 3169.5000   -44.1770   110.7120     8.4040   -70.7240   -66.2770     2.4930     0.0520     0.2380     4.5630     3.7050     3.8840
 3170.0000   -44.1770   114.0120     8.4040   -70.7240   -65.5170     2.4830     0.0530     0.2400     4.4030     3.6330     3.8140
 3170.5000   -54.2170   116.5110     8.4040   -70.7240   -64.7580     2.4730     0.0530     0.2350     4.2630     3.5420     3.8630
 3171.0000   -56.9930   116.0000     8.4040   -70.7240   -63.9980     2.4700     0.0570     0.2310     4.4250     3.5210     3.8300
 3171.5000   -60.0050   115.1730     8.4040   -70.7250   -64.2150     2.4730     0.0940     0.2260     4.6000     3.4920     3.7970
 3172.0000   -63.0170   114.5270     8.4040   -70.7240   -65.0760     2.4770     0.1320     0.2320     4.6760     3.4630     3.7640
 3172.5000   -64.2570   112.9710     8.4040   -70.7240   -65.9370     2.4820     0.1350     0.2390     4.5720     3.4340     3.7320
