~VERSION INFORMATION
 VERS.                2.0:   CWLS LOG ASCII STANDARD - VERSION 2.0
 WRAP.                 NO:   ONE LINE PER DEPTH STEP
~WELL INFORMATION
#MNEM.UNIT      DATA TYPE    INFORMATION
#----------   ------------   ------------------------------
 STRT.F          712.0000:   START DEPTH
 STOP.F         3352.0000:   STOP DEPTH
 STEP.F            0.5000:   STEP LENGTH
 NULL.          -999.2500:   NO VALUE
 COMP.    FENIX & SCISSON:   COMPANY
 WELL. FENIX & SCISSON "AX" #24-14:   WELL
 FLD .              NPR 3:   FIELD
 LOC .      S14 T38N R78W:   LOCATION
 CNTY.            NATRONA:   COUNTY
 STAT.            WYOMING:   STATE
 CTRY. UNITED STATES OF AMERICA:   COUNTRY
 SRVC.       SCHLUMBERGER:   SERVICE COMPANY
 DATE.        19-JUN-1981:   LOGDATE
 API .     49025108750000:   API NUMBER
~CURVE INFORMATION
#MNEM.UNIT       API CODE    CURVE DESCRIPTION
#----------   ------------   ------------------------------
 DEPT.F                  :   
 TENR.LBS    07 635 01 00:   TENSION
 ILD .OHMM   07 120 46 00:   DEEP INDUCTION RESISTIVITY
 SFL .OHMM   07 220 01 00:   SHALLOW FOCUSED LOG RESISTIVITY
 ILM .OHMM   07 120 44 00:   INDUCTION LOG MEDIUM RESISTIVITY
 SPR .MV     07 010 01 00:   SPONTANEOUS POTENTIAL
 TEND.LBS    45 635 01 00:   TENSION FROM DENSITY LOG
 DRHO.G/C3   45 356 01 00:   DENSITY CORRECTION
 CALD.IN     45 280 60 00:   CALIPER FROM DENSITY LOG
 GRD .GAPI   45 310 01 00:   GAMMA RAY FROM DENSITY LOG
 RHOB.G/C3   45 350 01 00:   BULK DENSITY
~PARAMETER INFORMATION
#MNEM.UNIT          VALUE    DESCRIPTION
#----------   ------------   ------------------------------
 EKB .F         5216.0000:   Kelly bushing
 EGL .F         5206.0000:   Ground level
 EDF .F         5215.0000:   Drilling floor
 EPD .F            0.0000:   Permanent datum
 TD  .F         3360.0000:   Total depth
 DATE.        19-JUN-1981:   Date logged
 CLNT.            A2DTECH:   Client Code
 SL  . 2413' FNL & 827' FWL:   Surface Location
 PD  .                 GL:   Permanent Datum
 DAPD.F                10:   Feet Above Permanent Datum
 DD  .F              3360:   Depth driller
 DL  .F              3348:   Depth logger
 BLI .F              3342:   Bottom log interval
 TLI .F               728:   Top log interval
 CS1 .IN            8.625:   Casing size
 CBD1.      8.625" @ 728':   Casing driller 1
 CBL1.F               728:   Casing logger 1
 BS1 .IN            7.875:   Bit size
 BSD1.F              3360:   Depth drilled with bit1
 DFT .                FGM:   Type fluid in hole
 DFD .                  9:   Density
 DFV .                 45:   Viscosity
 DFPH.                9.5:   pH
 DFL .                 10:   Fluid loss
 MSS .               TANK:   Source of sample
 RMS .OHMM           5.71:   Rm
 MST .F                68:   Rm Meas. temp.
 RMF .OHMM           1.27:   Rmf
 MFST.F                68:   Rmf Meas. temp.
 MFSS.               MEAS:   Source Rmf.
 RMB .OHMM           3.29:   Rm. at BHT
 BHT .F               118:   BHT.
 TCS .HRS            0800:   Time Circ. stopped
 TLAB.HRS            1130:   Time logger at bottom
 MRT .F               118:   Maximum recorded temp.
 LUN .               8039:   Logging unit number
 LUL .               CSPR:   Logging unit location
 ENGI.           G. PFARR:   Recorded By
 WITN.           R. SCOTT:   Witnessed by
 ORIG.           5" PRINT:   Origin of data
 UWI .     49025108750000:   Unique Well ID
 DICO. A2D TECHNOLOGIES, INC.:   Digitizing Company
~OTHER INFORMATION
~A   DEPT     TENR        ILD        SFL        ILM        SPR       TEND       DRHO       CALD         GRD      RHOB   
# ...
 3124.0000  1500.7209     4.2790     6.2820     4.0400   -28.0010  1517.8571     0.0140     8.3850   140.7080     2.5280
 3124.5000  1500.9020     3.9960     5.8070     3.6140   -27.8970  1517.8571     0.0470     8.4040   140.0170     2.5240
 3125.0000  1501.0820     3.4590     4.5790     3.1880   -27.7470  1517.8571     0.0860     8.4410   168.7590     2.5180
 3125.5000  1501.2629     3.1020     3.2420     2.6840   -28.8040  1517.8571     0.1150     8.4770   200.7900     2.4890
 3126.0000  1501.4430     3.1020     1.9380     2.7520   -29.0690  1517.8571     0.0880     8.5130   211.9040     2.4310
 3126.5000  1501.6240     3.1020     3.4570     2.8480   -29.3800  1517.8571     0.0360     8.4590   185.4090     2.3710
 3127.0000  1501.8040     3.2700     4.9410     3.1270   -29.6200  1517.8571     0.0020     8.2880   151.8460     2.4210
 3127.5000  1501.9850     3.6500     6.4260     3.4060   -29.9100  1517.8571    -0.0050     8.2270   138.4310     2.4850
 3128.0000  1502.1650     4.0310     7.9100     3.6850   -30.0430  1517.8571    -0.0040     8.1980   118.2320     2.5250
 3128.5000  1502.3459     4.4110     8.3910     3.9960   -30.0650  1517.8571    -0.0040     8.1870   110.3440     2.5240
 3129.0000  1502.5260     4.7910     8.3910     4.4890   -29.9870  1517.8571    -0.0040     8.1900   108.9090     2.5190
 3129.5000  1502.7070     5.2100     8.2730     5.0410   -30.3250  1517.8571    -0.0010     8.1920   108.5290     2.5180
 3130.0000  1502.8870     5.7180     8.1650     5.9500   -30.1360  1517.8571     0.0040     8.1950   108.4330     2.5230
 3130.5000  1503.0680     6.0720     7.9770     5.9080   -30.3150  1517.8571     0.0090     8.1970   110.1230     2.5290
 3131.0000  1503.2480     6.1120     7.6250     5.7800   -29.9250  1517.8571     0.0090     8.2000   113.8610     2.5310
 3131.5000  1503.4280     6.1690     7.2720     5.6520   -29.6620  1517.8571     0.0050     8.2030   117.9560     2.5290
 3132.0000  1503.6090     6.0710     6.9200     5.5240   -29.3540  1517.8571     0.0090     8.2050   120.1680     2.5320
 3132.5000  1503.7889     5.8950     6.5670     5.3960   -29.2570  1517.8571     0.0160     8.2080   120.4520     2.5420
 3133.0000  1503.9700     5.7200     6.2820     5.2680   -29.2540  1517.8571     0.0220     8.2100   120.4660     2.5510
 3133.5000  1504.1500     5.5450     6.2070     5.1410   -29.2720  1517.8571     0.0210     8.2130   120.7550     2.5520
 3134.0000  1504.3311     5.3380     6.1440     5.0130   -29.2640  1517.8571     0.0170     8.2160   121.2460     2.5440
 3134.5000  1504.5110     5.0880     6.0820     4.8860   -29.2920  1517.8571     0.0140     8.2180   120.9920     2.5350
 3135.0000  1504.6920     4.7830     6.0010     4.6920   -29.3150  1517.8571     0.0180     8.2210   121.1990     2.5310
 3135.5000  1504.8719     4.4780     5.9100     4.2840   -29.3380  1517.8571     0.0210     8.2230   122.8920     2.5290
 3136.0000  1505.0530     4.1730     5.6350     3.8750   -29.3620  1517.8571     0.0220     8.2240   131.3740     2.5220
 3136.5000  1505.2330     3.8680     5.3420     3.4660   -29.3850  1517.8571     0.0220     8.2180   140.1630     2.5110
 3137.0000  1505.4139     3.5680     4.9650     3.1600   -29.4090  1517.8571     0.0240     8.2110   155.9320     2.5030
 3137.5000  1505.5940     3.2780     4.1910     2.9040   -29.4320  1517.8571     0.0400     8.2040   180.6540     2.4880
 3138.0000  1505.7750     2.9870     3.3210     2.6480   -29.4550  1517.8571     0.0600     8.1980   205.1830     2.4640
 3138.5000  1505.9550     2.7330     2.4500     2.3340   -29.4790  1517.8571     0.0850     8.1910   224.3310     2.4450
 3139.0000  1506.1350     2.8050     1.8690     2.3640   -29.5020  1517.8571     0.0730     8.1850   219.3970     2.4300
 3139.5000  1506.3160     2.8690     2.6500     2.6490   -29.5250  1517.8571     0.0510     8.1830   203.1740     2.4350
 3140.0000  1506.4960     3.1650     4.0930     2.9520   -29.5490  1517.8571     0.0290     8.1810   165.8740     2.4670
 3140.5000  1506.6770     3.5380     5.5360     3.2560   -29.5720  1517.8571     0.0150     8.1790   134.3940     2.5070
 3141.0000  1506.8571     3.9100     7.0020     3.5600   -29.5950  1517.8571     0.0220     8.1770   126.2750     2.5470
 3141.5000  1507.0380     4.2830     7.3930     3.9240   -29.6190  1517.8571     0.0310     8.1750   122.6650     2.5670
 3142.0000  1507.2180     4.6560     7.2290     4.3050   -29.6430  1519.6840     0.0350     8.1730   126.2430     2.5570
 3142.5000  1507.3990     5.0280     7.0910     4.7820   -29.6510  1521.3979     0.0200     8.1710   128.2100     2.5340
 3143.0000  1507.5790     5.4210     6.9540     5.0560   -29.6570  1523.1121     0.0140     8.1690   128.7690     2.5290
 3143.5000  1507.7600     5.7320     6.8160     5.2420   -29.5960  1524.8260     0.0170     8.1680   129.6950     2.5380
 3144.0000  1507.9399     5.7060     6.6790     5.2420   -29.4900  1526.5389     0.0200     8.1660   131.1710     2.5440
 3144.5000  1508.1210     5.6800     6.6320     5.2420   -29.3920  1528.2531     0.0220     8.1670   134.4890     2.5410
 3145.0000  1508.3010     5.6410     6.6320     5.3220   -29.2960  1529.9670     0.0230     8.1690   135.8410     2.5430
 3145.5000  1508.4821     5.6740     6.7870     5.4150   -29.1960  1531.6810     0.0230     8.1710   135.7170     2.5500
 3146.0000  1508.6620     5.8090     7.0140     5.5070   -29.0950  1533.3950     0.0240     8.1720   136.8550     2.5550
 3146.5000  1508.8420     5.9440     7.2600     5.6020   -29.0070  1535.1090     0.0190     8.1740   140.8150     2.5520
 3147.0000  1509.0229     6.0790     7.3930     5.6980   -28.8930  1536.8230     0.0130     8.1750   140.9240     2.5470
 3147.5000  1509.2030     6.1690     7.7480     5.7930   -28.8760  1538.6530     0.0070     8.1770   140.9000     2.5430
 3148.0000  1509.3840     6.1300     8.2330     5.9500   -28.9440  1540.6050     0.0070     8.1790   139.4510     2.5430
 3148.5000  1509.5640     6.0890     8.5440     5.9100   -29.3140  1542.5570     0.0180     8.1800   137.8030     2.5620
 3149.0000  1509.7450     6.0480     8.4890     5.7990   -29.2470  1544.5090     0.0290     8.1820   136.1480     2.5790
 3149.5000  1509.9250     6.0060     8.3910     5.6880   -29.6240  1546.4611     0.0370     8.1840   134.4750     2.5820
 3150.0000  1510.1060     5.9650     7.5100     5.5780   -29.6940  1548.4130     0.0410     8.1850   132.8890     2.5690
 3150.5000  1510.2860     5.9240     6.6320     5.4670   -29.7490  1550.3650     0.0110     8.1770   134.2230     2.5500
 3151.0000  1510.4670     5.8830     6.7110     5.3380   -29.7900  1552.3170     0.0060     8.1640   136.2640     2.5360
 3151.5000  1510.6470     5.8430     6.7890     5.4840   -29.8390  1554.2690     0.0040     8.1510   138.0870     2.5320
 3152.0000  1510.8280     6.0050     6.8770     5.6600   -29.8860  1556.2209     0.0060     8.1380   137.9750     2.5280
 3152.5000  1511.0081     6.1590     6.9880     5.8360   -29.9340  1558.1720     0.0070     8.1250   136.3140     2.5220
 3153.0000  1511.1890     6.3130     7.1300     6.0110   -29.9750  1560.1240     0.0020     8.1130   132.9260     2.5210
 3153.5000  1511.3690     6.4670     7.9750     6.1870   -30.0260  1562.0760     0.0000     8.1000   129.2730     2.5260
 3154.0000  1511.5490     6.6210     8.9160     6.3630   -29.7530  1564.0280     0.0030     8.0860   128.4370     2.5320
 3154.5000  1511.7300     6.7530     9.5240     6.5130   -29.3370  1565.9800     0.0050     8.0850   131.2870     2.5380
 3155.0000  1511.9100     6.9570     9.4830     6.6310   -28.9180  1567.9320     0.0080     8.0840   131.4370     2.5390
 3155.5000  1512.0909     7.1350     9.4470     6.7350   -28.5200  1569.8840     0.0080     8.0830   129.3950     2.5380
 3156.0000  1512.2710     7.3130     9.4120     6.8380   -28.1220  1571.8361     0.0070     8.0820   126.4180     2.5430
 3156.5000  1512.4520     7.4910     9.3760     6.9420   -28.1050  1573.7880     0.0090     8.0810   128.4080     2.5530
 3157.0000  1512.6320     7.6650     9.3400     7.0070   -28.0940  1575.7400     0.0110     8.0800   131.4730     2.5530
