~VERSION INFORMATION
 VERS.                2.0:   CWLS LOG ASCII STANDARD - VERSION 2.0
 WRAP.                 NO:   ONE LINE PER DEPTH STEP
~WELL INFORMATION
#MNEM.UNIT      DATA TYPE    INFORMATION
#----------   ------------   ------------------------------
 STRT.F          200.0000:   START DEPTH
 STOP.F         3135.5000:   STOP DEPTH
 STEP.F            0.5000:   STEP LENGTH
 NULL.          -999.2500:   NO VALUE
 COMP.    FENOX & SCISSON:   COMPANY
 WELL. FENIX NPR 23 "AX" #3-11:   WELL
 FLD .                NPR:   FIELD
 LOC .      S11 T38N R78W:   LOCATION
 CNTY.            NATRONA:   COUNTY
 STAT.            WYOMING:   STATE
 CTRY. UNITED STATES OF AMERICA:   COUNTRY
 SRVC.       SCHLUMBERGER:   SERVICE COMPANY
 DATE.        06-NOV-1977:   LOGDATE
 API .     49025104320000:   API NUMBER
~CURVE INFORMATION
#MNEM.UNIT       API CODE    CURVE DESCRIPTION
#----------   ------------   ------------------------------
 DEPT.F                  :   
 CALD.IN     45 280 60 00:   CALIPER FROM DENSITY LOG
 GRD .GAPI   45 310 01 00:   GAMMA RAY FROM DENSITY LOG
 RHOB.G/C3   45 350 01 00:   BULK DENSITY
 CORR.G/C3   45 356 01 00:   DENSITY CORRECTION
 SPR .MV     07 010 01 00:   SPONTANEOUS POTENTIAL
 LL8 .OHMM   07 220 08 00:   LATEROLOG-8 RES.
 ILD .OHMM   07 120 46 00:   DEEP INDUCTION RESISTIVITY
 ILM .OHMM   07 120 44 00:   INDUCTION LOG MEDIUM RESISTIVITY
~PARAMETER INFORMATION
#MNEM.UNIT          VALUE    DESCRIPTION
#----------   ------------   ------------------------------
 EKB .F         5176.0000:   Kelly bushing
 EGL .F         5171.0000:   Ground level
 TD  .F         3138.0000:   Total depth
 DATE.        06-NOV-1977:   Date logged
 CLNT.            A2DTECH:   Client Code
 SL  . 1650' FNL & 750' FWL:   Surface Location
 PD  .                 GL:   Permanent Datum
 EPD .F              5171:   Elevation Permanent Datum
 LMF .                 KB:   Log Measured From
 DMF .                 KB:   Drilling Measured From
 DAPD.F                 5:   Feet Above Permanent Datum
 DD  .F              3138:   Depth driller
 DL  .F              3135:   Depth logger
 BLI .F              3134:   Bottom log interval
 TLI .F               196:   Top log interval
 CS1 .IN            8.625:   Casing size
 CBD1.      8.625" @ 205':   Casing driller 1
 CBL1.F               205:   Casing logger 1
 BS1 .IN            7.875:   Bit size
 BSD1.F              3138:   Depth drilled with bit1
 DFT .            KCL/MUD:   Type fluid in hole
 DFD .                8.8:   Density
 DFV .                 34:   Viscosity
 DFPH.                 11:   pH
 DFL .                  6:   Fluid loss
 MSS .            MUD/PIT:   Source of sample
 RMS .OHMM           0.27:   Rm
 MST .F                48:   Rm Meas. temp.
 RMF .OHMM           0.29:   Rmf
 MFST.F                48:   Rmf Meas. temp.
 RMC .OHMM           0.39:   Rmc
 MCST.F                48:   Rmc Meas. temp.
 MFSS.               MEAS:   Source Rmf.
 MCSS.               CALC:   Source Rmc.
 RMB .OHMM           0.12:   Rm. at BHT
 BHT .F               104:   BHT.
 TCS .HRS            1500:   Time Circ. stopped
 TLAB.HRS            1930:   Time logger at bottom
 MRT .F               104:   Maximum recorded temp.
 LUN .               7711:   Logging unit number
 LUL .               CSPR:   Logging unit location
 ENGI.       CRAIG/SAYLER:   Recorded By
 WITN.         PETTINGILL:   Witnessed by
 ORIG.           5" PRINT:   Origin of data
 UWI .     49025104320000:   Unique Well ID
 DICO. A2D TECHNOLOGIES, INC.:   Digitizing Company
~OTHER INFORMATION
~A   DEPT     CALD        GRD       RHOB       CORR        SPR        LL8        ILD        ILM   
# ...
 2873.0000     8.3732    94.0312     2.5622    -0.0045   -54.3087    11.7795     8.0935     7.3177
 2873.5000     8.3732    93.1321     2.5682    -0.0045   -54.2085    12.0029     8.0228     7.5257
 2874.0000     8.3537    94.9437     2.5712     0.0015   -54.1083    13.0396     7.8818     7.6322
 2874.5000     8.3741    95.2502     2.5742    -0.0045   -54.0080    14.6942     7.9580     7.7055
 2875.0000     8.3744    93.4475     2.5763    -0.0085   -53.9078    15.5326     7.9618     7.7091
 2875.5000     8.3546    90.7412     2.5763    -0.0124   -53.8076    15.6830     7.8900     7.6424
 2876.0000     8.3549    86.8301     2.5693    -0.0104   -54.1277    15.4060     8.2674     7.5076
 2876.5000     8.3753    86.8345     2.5613    -0.0074   -54.1188    14.3253     8.5797     7.3746
 2877.0000     8.3756    89.5497     2.5553    -0.0044   -54.1099    13.4428     8.5813     7.3781
 2877.5000     8.3558    91.3614     2.5483    -0.0064   -54.1010    12.4997     8.5097     7.3142
 2878.0000     8.3762    92.8718     2.5423    -0.0103   -54.0921    12.0562     8.2831     7.1846
 2878.5000     8.3762    92.2738     2.5393    -0.0133   -54.0832    11.5066     8.2863     7.1880
 2879.0000     8.3567    91.3747     2.5443     0.0047   -54.0743    11.5279     8.2916     7.1257
 2879.5000     8.3570    90.4756     2.5594     0.0047   -54.0654    12.0736     8.2950     7.2288
 2880.0000     8.3774    89.2752     2.5464     0.0017   -54.0565    12.6451     8.0741     7.1372
 2880.5000     8.3576    89.8821     2.5394    -0.0062   -54.0476    12.8849     8.1499     6.8158
 2881.0000     8.3579    94.1041     2.5534    -0.0092   -54.2366    11.8717     8.5797     6.8190
 2881.5000     8.3582    97.7229     2.5625    -0.0022   -54.4274    10.3536     8.3498     6.7599
 2882.0000     8.3786   100.7393     2.5455     0.0008   -54.4185     9.7157     7.7276     6.6401
 2882.5000     8.3588   100.7438     2.5124    -0.0032   -54.4096     9.8097     6.0956     6.7381
 2883.0000     8.3591    98.9411     2.4934    -0.0192   -54.6004    10.0877     4.7196     5.9316
 2883.5000     8.3594    99.5479     2.4894    -0.0061   -54.7912    10.0005     3.6185     5.5863
 2884.0000     8.3597   102.8655     2.4984    -0.0041   -54.9820     9.5577     3.3109     4.9771
 2884.5000     8.4004   114.0151     2.5145    -0.0041   -54.9730     8.4894     2.7271     3.9878
 2885.0000     8.3990   125.1638     2.5265    -0.0021   -55.1638     7.0080     2.4092     3.1952
 2885.5000     8.3976   133.9041     2.5245    -0.0011   -55.7486     5.4270     2.0561     2.4492
 2886.0000     8.3962   169.5210     2.4891     0.0040   -55.7468     4.0877     2.1545     2.0196
 2886.5000     8.3949   184.8169     2.4606     0.0020   -55.7364     3.4360     2.4740     1.6820
 2887.0000     8.3935   196.8701     2.4322    -0.0040   -55.5257     3.0241     2.5914     1.5215
 2887.5000     8.3921   208.3208     2.4037     0.0020   -55.3171     2.7107     1.5577     1.3508
 2888.0000     8.3907   211.0360     2.3793     0.0031   -55.3082     2.4975     1.2800     1.3390
 2888.5000     8.3625   212.5465     2.3703     0.0021   -55.0996     2.2387     1.2120     1.3521
 2889.0000     8.3628   213.1533     2.3604     0.0001   -54.8910     2.2397     1.8146     1.6253
 2889.5000     8.3584   210.7482     2.3503     0.0001   -54.4827     2.4781     2.2819     1.6112
 2890.0000     8.3541   195.6937     2.3614    -0.0019   -54.2742     2.9506     2.5483     1.5538
 2890.5000     8.3497   189.6725     2.3769    -0.0049   -53.6663     3.5778     2.8459     1.5547
 2891.0000     8.3453   190.5805     2.3924    -0.0079   -53.6574     3.3567     3.1202     1.7047
 2891.5000     8.3410   198.1157     2.4065    -0.0008   -52.6486     2.0484     3.3282     2.0051
 2892.0000     8.3366   186.6747     2.3768     0.0132   -51.6415     1.9935     3.4530     2.3584
 2892.5000     8.3323   168.0042     2.3464    -0.0238   -51.6326     3.2112     4.1504     2.7739
 2893.0000     8.3279   148.7312     2.4006    -0.0178   -51.8234     8.1034     4.2680     3.2626
 2893.5000     8.3236   103.5542     2.4548    -0.0148   -52.2138     7.8149     4.5518     3.8374
 2894.0000     8.3192   101.1490     2.5018    -0.0178   -52.7989     7.3346     5.0838     4.5135
 2894.5000     8.3148   101.7559     2.5149     0.0013   -52.7953     7.1379     6.6948     5.3087
 2895.0000     8.3105   101.7603     2.5259     0.0023   -52.7882     7.3402     7.0104     6.1113
 2895.5000     8.3065   100.5600     2.5319     0.0023   -52.7794     8.1966     7.3770     6.7694
 2896.0000     8.3068    97.8537     2.5339     0.0034   -52.3673     9.4089     7.3777     7.8358
 2896.5000     8.3272    95.1474     2.5329     0.0074   -52.1589    10.3161     7.5881     7.9821
 2897.0000     8.3275    90.0315     2.5339     0.0114   -51.9504    15.1634     8.0966     8.9964
 2897.5000     8.3278    83.4096     2.5599     0.0114   -51.7420    20.3401     8.2498    10.1386
 2898.0000     8.3481    77.6913     2.5859     0.0074   -51.7331    26.7815     8.5634    10.2367
 2898.5000     8.3484    77.0934     2.6202     0.0065   -51.7243    28.3081     9.5154    10.2416
 2899.0000     8.3488    77.0978     2.6182     0.0045   -51.5158    27.5546     9.7880    10.1532
 2899.5000     8.3491    77.7011     2.6142    -0.0015   -51.7070    19.1126     9.7927     9.6149
 2900.0000     8.3494    81.5933     2.6252     0.0075   -51.6981    17.6074     9.3588     9.2726
 2900.5000     8.3497    84.9434     2.6206     0.0145   -51.2861    20.5640     9.4499     8.8705
 2901.0000     8.3498    80.4272     2.6132    -0.0005   -51.4805    22.3634     8.9481     8.5476
 2901.5000     8.3500    78.0194     2.6032     0.0005   -51.6694    21.5688     8.8705     8.3955
 2902.0000     8.3502    78.9260     2.5912     0.0015   -51.6606    19.1565     8.7135     8.1724
 2902.5000     8.3504    82.8451     2.5832     0.0015   -51.8513    18.3057     8.3280     7.9545
 2903.0000     8.3506    86.7637     2.5762    -0.0005   -51.8425    17.0218     8.4084     7.8856
 2903.5000     8.3508    91.2841     2.5642    -0.0075   -51.6341    13.9219     8.2573     7.7473
 2904.0000     8.3510   100.3236     2.5552    -0.0045   -51.8248    11.9191     8.1133     7.2682
 2904.5000     8.3512   106.3511     2.5502    -0.0024   -51.8160    11.3908     7.9696     7.0732
 2905.0000     8.3513   107.8601     2.5432    -0.0024   -51.8072    11.6066     7.8278     6.9486
 2905.5000     8.3514   107.2607     2.5482    -0.0044   -51.5987    11.6087     7.5865     6.8537
 2906.0000     8.3516   105.7577     2.5532    -0.0054   -51.7895    10.3131     7.4167     7.0490
 2906.5000     8.3519   104.8570     2.5512    -0.0034   -51.7807    10.2237     7.1531     7.0522
 2907.0000     8.3521   104.2576     2.5422     0.0016   -51.7718    10.8071     7.0265     6.8009
 2907.5000     8.3523   102.7546     2.5602     0.0026   -51.7630    11.5278     6.5931     6.6191
 2908.0000     8.3525   100.6492     2.5773    -0.0014   -51.5492    11.4279     6.7180     6.3832
 2908.5000     8.3526    99.7485     2.5743    -0.0024   -51.5457    11.0218     6.7199     6.2126
 2909.0000     8.3528   100.0527     2.5673    -0.0044   -51.5368    10.6301     6.9114     6.1023
 2909.5000     8.3530   101.8629     2.5572    -0.0094   -50.9290    10.2524     6.6051     6.0487
 2910.0000     8.3533   106.3838     2.5492    -0.0094   -50.9184    10.1635     6.6080     5.4514
 2910.5000     8.3535   110.6042     2.5432    -0.0144   -50.9113     8.0867     6.2576     5.0228
 2911.0000     8.3336   116.3299     2.5292    -0.0114   -50.7028     6.2609     5.8181     5.0251
 2911.5000     8.3338   119.9473     2.5182    -0.0084   -50.4943     6.0379     5.7666     5.1670
 2912.0000     8.3340   119.0467     2.5122    -0.0054   -49.8846     7.6661     5.7698     5.6139
 2912.5000     8.3342   115.7365     2.5192    -0.0064   -49.4764     8.7981     5.9008     5.6154
 2913.0000     8.3344   111.8239     2.5292    -0.0084   -49.0700     8.8831     5.9580     5.6686
