~VERSION INFORMATION
 VERS.                2.0:   CWLS LOG ASCII STANDARD - VERSION 2.0
 WRAP.                 NO:   ONE LINE PER DEPTH STEP
~WELL INFORMATION
#MNEM.UNIT      DATA TYPE    INFORMATION
#----------   ------------   ------------------------------
 STRT.F          397.0000:   START DEPTH
 STOP.F         5516.0000:   STOP DEPTH
 STEP.F            0.5000:   STEP LENGTH
 NULL.          -999.2500:   NO VALUE
 COMP.  FENIX AND SCISSON:   COMPANY
 WELL.   FENIX TPX #54-10:   WELL
 FLD . NAVAL PETROLEUM RESERVE=3:   FIELD
 LOC .      S10 T38N R78W:   LOCATION
 CNTY.            NATRONA:   COUNTY
 STAT.            WYOMING:   STATE
 CTRY. UNITED STATES OF AMERICA:   COUNTRY
 SRVC.       SCHLUMBERGER:   SERVICE COMPANY
 DATE.        03-APR-1981:   LOGDATE
 API .     49025108690000:   API NUMBER
~CURVE INFORMATION
#MNEM.UNIT       API CODE    CURVE DESCRIPTION
#----------   ------------   ------------------------------
 DEPT.F                  :   
 SPR .MV     11 010 01 00:   SPONTANEOUS POTENTIAL FROM RES.
 TENR.LBS    11 635 01 00:   TENSION FROM RES.
 LLD .OHMM   11 220 10 00:   LATEROLOG DEEP
 LLS .OHMM   11 220 09 00:   LATEROLOG LOG SHALLOW
 TEND.LBS    45 635 01 00:   TENSION FORM DENSITY LOG
 GRD .GAPI   45 310 01 00:   GAMMA RAY FROM DENSITY LOG
 NPHI.DEC    42 890 03 00:   NEUTRON POROSITY SANDSTONE
 CALD.IN     45 280 60 00:   CALIPER FROM DENSITY LOG
 CORR.G/C3   45 356 01 00:   DENSITY CORRECTION
 RHOB.G/C3   45 350 01 00:   BULK DENSITY
~PARAMETER INFORMATION
#MNEM.UNIT          VALUE    DESCRIPTION
#----------   ------------   ------------------------------
 EKB .F         5206.0000:   Kelly bushing
 EGL .F         5196.0000:   Ground level
 EDF .F            0.0000:   Drilling floor
 TD  .F         5498.0000:   Total depth
 CLNT.            A2DTECH:   Client Code
 SL  . 2080' FNL & 2150' FEL:   Surface Location
 PD  .                 GL:   Permanent Datum
 EPD .F              5196:   Elevation Permanent Datum
 LMF .                 KB:   Log Measured From
 DMF .                 KB:   Drilling Measured From
 DAPD.F                10:   Feet Above Permanent Datum
 DATE.         3-APR-1981:   Date Logged [DD-MMM-YYYY]
 DD  .F              5485:   Depth driller
 DL  .F              5498:   Depth logger
 BLI .F              5496:   Bottom log interval
 TLI .F               397:   Top log interval
 CS1 .IN                7:   Casing size
 CBD1.         7" @ 3891':   Casing driller 1
 CBL1.F              3889:   Casing logger 1
 BS1 .IN            6.125:   Bit size
 BSD1.F              5485:   Depth drilled with bit1
 DFT .           CHEM GEL:   Type fluid in hole
 DFD .                9.1:   Density
 DFV .                 42:   Viscosity
 DFPH.                9.0:   pH
 DFL .                5.0:   Fluid loss
 MSS .           MUD TANK:   Source of sample
 RMS .OHMM           0.81:   Rm
 MST .F                62:   Rm Meas. temp.
 RMF .OHMM           0.64:   Rmf
 MFST.F                62:   Rmf Meas. temp.
 MFSS.               MEAS:   Source Rmf.
 RMB .OHMM          0.031:   Rm. at BHT
 BHT .F               174:   BHT.
 TCS .HRS            0830:   Time Circ. stopped
 TLAB.HRS            2130:   Time logger at bottom
 MRT .F               174:   Maximum recorded temp.
 LUN .               8035:   Logging unit number
 LUL .               CSPR:   Logging unit location
 ENGI.             BEATIE:   Recorded By
 WITN.              FIVAS:   Witnessed by
 ORIG.           5" PRINT:   Origin of data
 UWI .     49025108690000:   Unique Well ID
 DICO. A2D TECHNOLOGIES, INC:   Digitizing Company
~OTHER INFORMATION
~A   DEPT      SPR       TENR        LLD        LLS       TEND         GRD        NPHI     CALD       CORR       RHOB   
# ...
 5455.5000   -40.4570  1866.2058  1922.1038  2508.6255  1867.0168    23.4982     0.0391     6.3398     0.0234     2.6909
 5456.0000   -40.4559  1865.8452  2087.1467  2687.2188  1866.6572    21.3677     0.0382     6.3396     0.0313     2.7111
 5456.5000   -40.7589  1865.4846  2222.3535  2865.8123  1866.2880    18.3494     0.0364     6.3096     0.0358     2.7171
 5457.0000   -40.7576  1865.1239  2285.3081  3006.0359  1865.8480    15.9267     0.0347     6.3095     0.0380     2.7111
 5457.5000   -40.9088  1864.7633  2317.5276  3027.2288  1880.7300    14.4104     0.0353     6.3093     0.0394     2.7005
 5458.0000   -40.9075  1864.4026  2250.1492  2539.6133  1880.2803    13.4984     0.0371     6.3091     0.0394     2.6772
 5458.5000   -40.9064  1864.0420  2030.4901  2078.1423  1879.9208    13.1903     0.0383     6.3090     0.0318     2.6411
 5459.0000   -40.7534  1863.6814  1742.0723  1983.1346  1879.5457    14.3918     0.0395     6.3088     0.0204     2.6125
 5459.5000   -40.6002  1863.3207  1647.7418  1877.4572  1879.1115    16.5009     0.0399     6.3086     0.0151     2.6087
 5460.0000   -40.2952  1862.9601  1569.3893  1851.2617  1878.7520    18.6100     0.0375     6.3084     0.0210     2.6297
 5460.5000   -40.1422  1862.5995  1671.0831  2149.8582  1878.3923    19.5106     0.0363     6.3083     0.0319     2.6455
 5461.0000   -39.9890  1862.2388  1792.7122  2229.6179  1878.0303    18.8992     0.0351     6.3081     0.0390     2.6658
 5461.5000   -40.1399  1861.8782  1894.6354  2317.9456  1877.6516    18.8935     0.0345     6.3080     0.0503     2.7086
 5462.0000   -40.2909  1861.5175  1718.6771  2154.4697  1877.2729    19.4920     0.0345     6.3078     0.0562     2.7258
 5462.5000   -40.5401  1861.1569  1548.2363  1971.3469  1876.8639    20.3927     0.0345     6.3051     0.0569     2.7228
 5463.0000   -40.7447  1860.7963  1637.0868  2014.1003  1861.3529    22.2417     0.0342     6.2925     0.0509     2.7137
 5463.5000   -40.8954  1860.4355  1745.4562  2218.6040  1845.8335    21.8903     0.0336     6.2924     0.0432     2.7107
 5464.0000   -41.0466  1860.0101  1817.6996  2451.9526  1845.3921    20.0719     0.0343     6.2922     0.0462     2.7167
 5464.5000   -41.3493  1859.1389  1817.8198  2486.6479  1845.0758    18.5556     0.0355     6.2920     0.0620     2.7249
 5465.0000   -41.6522  1858.0769  1767.9773  2269.6030  1829.5214    17.9456     0.0373     6.2919     0.0657     2.7264
 5465.5000   -41.9551  1857.0148  1660.6342  2042.7593  1829.1617    19.1470     0.0388     6.2917     0.0660     2.7076
 5466.0000   -41.9540  1855.9528  1538.2501  1845.9089  1843.8641    19.8426     0.0398     6.2915     0.0565     2.6857
 5466.5000   -41.9528  1854.8907  1376.0815  1649.0586  1904.2002    20.9482     0.0404     6.2924     0.0474     2.6682
 5467.0000   -41.7998  1853.8286  1265.7977  1452.2083  1903.7505    22.1509     0.0410     6.3061     0.0443     2.6413
 5467.5000   -41.6468  1852.7666  1027.1206  1255.3579  1903.3910    23.3984     0.0428     6.3060     0.0443     2.6270
 5468.0000   -41.6455  1851.7046   911.8434  1058.5076  1872.7273    24.5550     0.0447     6.3058     0.0367     2.6188
 5468.5000   -41.6445  1850.6425   777.4229   943.1085  1872.2791    24.8528     0.0468     6.3056     0.0328     2.6082
 5469.0000   -41.6435  1849.5804   700.3260   897.5634  1871.9196    23.6372     0.0480     6.3054     0.0290     2.6020
 5469.5000   -41.6424  1848.5184   715.1649   923.4393  1871.5599    22.4105     0.0489     6.3053     0.0267     2.5984
 5470.0000   -41.6413  1847.4563   766.8176  1055.3082  1871.2000    21.2074     0.0492     6.2902     0.0259     2.5983
 5470.5000   -41.6403  1846.3943   853.2292  1180.8563  1870.8334    20.5975     0.0496     6.2900     0.0258     2.5991
 5471.0000   -41.4871  1845.3322   925.6592  1240.9631  1870.3911    19.9875     0.0496     6.2899     0.0295     2.6043
 5471.5000   -41.4861  1844.2701   938.6941   949.7576  1870.0757    19.6797     0.0496     6.2897     0.0453     2.6576
 5472.0000   -41.6371  1843.2081   710.4463   554.7159  1869.6720    19.3704     0.0496     6.2746     0.0769     2.6861
 5472.5000   -41.6359  1842.1460   522.9117   179.6804  1869.3124    19.0626     0.0508     6.2745     0.1002     2.6771
 5473.0000   -41.6347  1841.0840   329.3178   163.9971  1868.9395    18.4526     0.0569     6.2821     0.0979     2.6109
 5473.5000   -41.6337  1840.0220   164.5210   162.8490  1868.5607    18.4469     0.0691     6.2891     0.0759     2.5598
 5474.0000   -41.6327  1838.9598   150.2850   169.8603  1868.1436    19.0615     0.0672     6.2889     0.0654     2.5568
 5474.5000   -41.6316  1837.8978   151.7275   192.7577  1867.7839    20.8509     0.0612     6.2887     0.0562     2.5778
 5475.0000   -41.6304  1836.8358   172.7805   212.6803  1867.4243    21.4509     0.0666     6.2886     0.0479     2.5808
 5475.5000   -41.4774  1835.7737   189.1724   215.6897  1866.9747    21.4437     0.0685     6.3033     0.0418     2.5785
 5476.0000   -41.4763  1834.7117   197.2608   218.7417  1897.0078    20.8338     0.0704     6.3086     0.0406     2.5785
 5476.5000   -41.4753  1833.6497   197.2738   229.7679  1896.5586    19.9203     0.0718     6.3293     0.0417     2.5854
 5477.0000   -41.4740  1832.5875   204.2839   260.7410  1896.1990    19.6124     0.0718     6.3144     0.0394     2.6062
 5477.5000   -41.3210  1831.8577   225.2282   324.1855  1895.8331    19.9102     0.0706     6.3293     0.0423     2.6257
 5478.0000   -41.3200  1862.7622   356.7376   593.1829  1895.3898    20.2066     0.0691     6.3144     0.0521     2.6632
 5478.5000   -41.3187  1878.2833   474.7141  2029.9888  1895.0302    20.8037     0.0667     6.3144     0.0694     2.7579
 5479.0000   -41.3178  1893.8043   992.0715  2304.4492  1894.6705    21.1001     0.0643     6.3293     0.1123     2.7836
 5479.5000   -41.3167  1924.6628  1417.5376  2578.9099  1894.3110    20.4887     0.0625     6.3293     0.1167     2.7856
 5480.0000   -41.3156  1955.5214  1437.5228  2724.4490  1893.9392    20.1809     0.0613     6.3443     0.0646     2.7608
 5480.5000   -41.3146  1986.4259  1285.9734  1889.5836  1893.5604    19.5709     0.0607     6.3593     0.0653     2.7292
 5481.0000   -41.3133  2017.2844  1118.7843  1124.1890  1893.1820    19.5638     0.0602     6.3593     0.0716     2.6856
 5481.5000   -41.3123  2032.8057   818.6868   846.2147  1892.7826    19.5581     0.0602     6.3743     0.0705     2.6644
 5482.0000   -41.3113  2048.3267   623.2333   580.8116  1892.4243    19.8559     0.0605     6.2994     0.0682     2.6645
 5482.5000   -41.3102  2048.5105   446.1130   501.1435  1891.9734    20.4530     0.0608     6.2844     0.0696     2.6652
 5483.0000   -41.3090  2017.2710   385.4193   473.7544  1891.6138    20.7717     0.0611     6.3009     0.0733     2.6584
 5483.5000  -999.2500  -999.2500  -999.2500  -999.2500  1891.2877    21.6485     0.0614     6.3443     0.0672     2.6359
 5484.0000  -999.2500  -999.2500  -999.2500  -999.2500  1890.8947    21.6428     0.0612     6.3593     0.0611     2.5877
 5484.5000  -999.2500  -999.2500  -999.2500  -999.2500  1890.5303    21.3350     0.0612     6.3892     0.0581     2.5825
 5485.0000  -999.2500  -999.2500  -999.2500  -999.2500  1890.0853    21.3293     0.0609     6.3743     0.0603     2.6132
 5485.5000  -999.2500  -999.2500  -999.2500  -999.2500  1889.7258    21.0200     0.0609     6.3590     0.0813     2.6312
 5486.0000  -999.2500  -999.2500  -999.2500  -999.2500  1889.3662    21.0151     0.0609     6.2695     0.0978     2.6372
 5486.5000  -999.2500  -999.2500  -999.2500  -999.2500  1889.0066    21.0091     0.0612     6.0299     0.0993     2.6372
 5487.0000  -999.2500  -999.2500  -999.2500  -999.2500  1888.6364    21.0028     0.0627     6.0449     0.0962     2.6266
 5487.5000  -999.2500  -999.2500  -999.2500  -999.2500  1888.1978    20.9970     0.0640     6.0749     0.0939     2.6198
 5488.0000  -999.2500  -999.2500  -999.2500  -999.2500  1887.8378    20.9899     0.0643     6.1347     0.1082     2.6130
 5488.5000  -999.2500  -999.2500  -999.2500  -999.2500  1887.4783    20.6821     0.0628     6.1664     0.1141     2.6040
