~VERSION INFORMATION
 VERS.                2.0:   CWLS LOG ASCII STANDARD - VERSION 2.0
 WRAP.                 NO:   ONE LINE PER DEPTH STEP
~WELL INFORMATION
#MNEM.UNIT      DATA TYPE    INFORMATION
#----------   ------------   ------------------------------
 STRT.F          200.0000:   START DEPTH
 STOP.F         3120.0000:   STOP DEPTH
 STEP.F            0.5000:   STEP LENGTH
 NULL.          -999.2500:   NO VALUE
 COMP.    FENIX & SCISSON:   COMPANY
 WELL. FENIX NPR 3 "AX" #83-28:   WELL
 FLD .                NPR:   FIELD
 LOC .      S28 T39N R78W:   LOCATION
 CNTY.            NATRONA:   COUNTY
 STAT.            WYOMING:   STATE
 CTRY. UNITED STATES OF AMERICA:   COUNTRY
 SRVC.              WELEX:   SERVICE COMPANY
 DATE.        29-SEP-1977:   LOGDATE
 API .     49025104240000:   API NUMBER
~CURVE INFORMATION
#MNEM.UNIT       API CODE    CURVE DESCRIPTION
#----------   ------------   ------------------------------
 DEPT.F                  :   
 CALD.IN     45 280 60 00:   CALIPER FROM DENSITY LOG
 GRD .GAPI   45 310 01 00:   GAMMA RAY FROM DENSITY LOG
 RHOB.G/C3   45 350 01 00:   BULK DENSITY
 CORR.G/C3   45 356 01 00:   DENSITY CORRECTION
 SPR .MV     07 010 01 00:   SPONTANEOUS POTENTIAL
 SGRD.MV     07 220 05 00:   SHLLOW GUARD
 ILD .OHMM   07 120 46 00:   DEEP INDUCTION RESISTIVITY
 ILM .OHMM   07 120 44 00:   INDUCTION LOG MEDIUM RESISTIVITY
~PARAMETER INFORMATION
#MNEM.UNIT          VALUE    DESCRIPTION
#----------   ------------   ------------------------------
 EKB .F         5034.0000:   Kelly bushing
 EGL .F         5024.0000:   Ground level
 TD  .F         3110.0000:   Total depth
 DATE.        29-SEP-1977:   Date logged
 CLNT.            A2DTECH:   Client Code
 SL  . 1650' FNL & 330' FEL:   Surface Location
 PD  .                 GL:   Permanent Datum
 EPD .F              5024:   Elevation Permanent Datum
 LMF .                 KB:   Log Measured From
 DMF .                 KB:   Drilling Measured From
 DAPD.F                10:   Feet Above Permanent Datum
 DD  .F              3110:   Depth driller
 DL  .F              3110:   Depth logger
 BLI .F              3108:   Bottom log interval
 TLI .F               210:   Top log interval
 CS1 .IN            8.625:   Casing size
 CBD1.      8.625" @ 201':   Casing driller 1
 CBL1.F               210:   Casing logger 1
 BS1 .IN            7.875:   Bit size
 BSD1.F              3110:   Depth drilled with bit1
 DFT .          KCL/WATER:   Type fluid in hole
 DFD .                  9:   Density
 DFV .                 40:   Viscosity
 DFPH.                 11:   pH
 DFL .                6.4:   Fluid loss
 MSS .            MUD/PIT:   Source of sample
 RMS .OHMM            .56:   Rm
 MST .F                60:   Rm Meas. temp.
 RMF .OHMM            .34:   Rmf
 MFST.F                60:   Rmf Meas. temp.
 RMC .OHMM            .61:   Rmc
 MCST.F                60:   Rmc Meas. temp.
 MFSS.               MEAS:   Source Rmf.
 MCSS.               MEAS:   Source Rmc.
 RMB .OHMM            .28:   Rm. at BHT
 BHT .F               120:   BHT.
 TCS .HRS               3:   Time Circ. stopped
 MRT .F               120:   Maximum recorded temp.
 LUN .               9685:   Logging unit number
 LUL .             CASPER:   Logging unit location
 ENGI. G. BENTSEN/T. JOYNER:   Recorded By
 WITN.         PETTINGILL:   Witnessed by
 ORIG.   1" 2.5" 5" PRINT:   Origin of data
 UWI .     49025104240000:   Unique Well ID
 DICO. A2D TECHNOLOGIES, INC.:   Digitizing Company
~OTHER INFORMATION
~A   DEPT     CALD         GRD      RHOB       CORR        SPR       SGRD        ILD        ILM   
# ...
 1739.0000     9.3876   111.8073     2.4963     0.0272   -67.1969     7.8182     6.9997     7.4663
 1739.5000     9.3875   112.5944     2.4864     0.0232   -66.9926     7.8204     7.0017     7.4680
 1740.0000     9.3874   113.3818     2.4804     0.0272   -66.9857     7.8217     7.0037     7.4705
 1740.5000     9.4267   113.3822     2.4804     0.0272   -66.9799     7.8249     7.0057     7.4727
 1741.0000     9.3873   114.9565     2.4863     0.0232   -66.9752     7.8262     7.0077     7.4744
 1741.5000     9.3873   114.1701     2.4863     0.0232   -66.9694     7.8284     7.0097     7.4765
 1742.0000     9.3872   113.3839     2.4883     0.0192   -66.7617     7.8316     7.0122     7.4795
 1742.5000     9.3871   112.5974     2.4883     0.0231   -66.5598     7.8342     7.0142     7.4816
 1743.0000     9.3870   113.3849     2.4883     0.0231   -66.5517     7.8360     7.0162     7.4838
 1743.5000     9.3870   112.5984     2.4903     0.0270   -66.5448     7.8383     7.0182     7.4847
 1744.0000     9.3869   110.2379     2.4962     0.0270   -66.5413     7.8410     7.0202     7.4877
 1744.5000     9.3869   111.0253     2.5041     0.0310   -66.5378     7.8432     6.8304     7.4898
 1745.0000     9.3474   112.5999     2.5140     0.0309   -66.5320     7.8454     6.7700     7.4924
 1745.5000     9.3474   113.3873     2.5159     0.0388   -66.2262     7.8477     6.7095     7.4258
 1746.0000     9.3473   113.3879     2.5139     0.0388   -66.2463     7.8504     6.4692     7.4283
 1746.5000     9.3472   112.6012     2.5080     0.0428   -66.2665     7.8526     6.4114     7.1615
 1747.0000     9.3472   111.8145     2.4981     0.0467   -66.2867     7.8548     6.0686     6.7160
 1747.5000     9.3471   111.8149     2.4827     0.0506   -66.3068     7.4349     5.8503     6.2405
 1748.0000     9.3864   113.3900     2.4654     0.0506   -66.3270     6.1852     5.3372     5.9069
 1748.5000     9.3470   112.6031     2.4480     0.0506   -66.3471     5.2899     4.8244     5.9086
 1749.0000     9.3469   112.6037     2.4188     0.0506   -66.3673     4.9154     4.6940     6.1890
 1749.5000     9.3862   112.6041     2.4248     0.0506   -66.3874     5.0080     4.6099     6.6640
 1750.0000     9.3862   111.0299     2.4423     0.0466   -66.4076     6.6054     4.7844     7.0449
 1750.5000     9.4255   111.0303     2.4598     0.0466   -66.4278     7.0478     5.2432     7.3466
 1751.0000     9.3860   110.2433     2.4773     0.0545   -66.4460     7.1808     5.4463     7.6595
 1751.5000     9.3860   109.4563     2.4949     0.0544   -66.6503     7.5219     5.6530     7.8774
 1752.0000     9.3859   111.0315     2.5198     0.0505   -66.6452     7.5941     5.8676     8.1009
 1752.5000     9.3858   112.6071     2.5173     0.0504   -66.6401     7.8101     6.2032     8.2543
 1753.0000     9.3858   112.6075     2.5149     0.0465   -66.6350     7.8132     6.6800     8.4891
 1753.5000     9.3857   113.3957     2.5079     0.0385   -66.6299     7.8158     6.9973     8.4914
 1754.0000     9.3856   112.6085     2.5039     0.0306   -66.6238     7.8184     7.0001     8.5747
 1754.5000     9.3856   113.3967     2.5019     0.0306   -66.6187     7.6078     7.0020     8.5764
 1755.0000     9.4249   111.8217     2.4999     0.0226   -66.6136     7.5405     6.8778     8.4232
 1755.5000     9.3854   111.8221     2.4960     0.0226   -66.6085     7.3378     6.6302     8.1957
 1756.0000     9.3854   111.0347     2.4979     0.0226   -66.6014     7.3393     6.4511     7.9743
 1756.5000     9.3853   111.0353     2.4997     0.0265   -66.5969     6.7582     6.2776     7.6187
 1757.0000     9.3853   111.8234     2.5019     0.0344   -66.5963     6.6374     6.1650     7.3454
 1757.5000     9.4246   111.8240     2.5078     0.0344   -66.5892     6.7011     6.0552     7.2137
 1758.0000     9.3851   111.0365     2.5137     0.0383   -66.7805     6.8904     6.1699     7.0843
 1758.5000     9.3850   110.2491     2.5236     0.0423   -66.7755     7.0859     6.1715     7.0221
 1759.0000     9.3850   110.2494     2.5256     0.0423   -66.7704     7.6322     6.1732     7.0239
 1759.5000     9.3849   109.4619     2.5315     0.0422   -66.7653     7.7763     6.4084     7.0267
 1760.0000     9.3849   110.2502     2.5374     0.0462   -66.7602     8.0706     6.4097     7.2267
 1760.5000     9.4242   111.0387     2.5493     0.0501   -66.7541     8.1491     6.6526     7.5701
 1761.0000     9.3847   111.0390     2.5493     0.0541   -66.7490     8.2274     6.9053     7.7130
 1761.5000     9.3847   111.0396     2.5632     0.0540   -66.7439     8.2301     7.0370     8.0064
 1762.0000     9.4240   110.2518     2.5513     0.0501   -66.7388     8.2334     7.1032     8.2337
 1762.5000     9.3846   110.2523     2.5493     0.0461   -66.7337     7.8652     7.1069     8.3128
 1763.0000     9.3451   111.8290     2.5473     0.0461   -66.7276     7.8678     7.1088     8.4703
 1763.5000     9.3450   111.0411     2.5473     0.0460   -66.7225     7.8710     7.1107     8.5516
 1764.0000     9.3449   112.6182     2.5453     0.0421   -66.7174     7.8736     7.1155     8.6338
 1764.5000     9.3843   113.4068     2.5453     0.0420   -66.7123     7.8763     7.1169     8.6367
 1765.0000     9.3842   114.9841     2.5433     0.0420   -66.7062     7.7365     7.1193     8.5603
 1765.5000     9.4236   114.9844     2.5373     0.0341   -66.7011     7.7370     7.1216     8.3301
 1766.0000     9.3841   111.8316     2.5254     0.0341   -66.6960     7.7401     7.1245     8.1807
 1766.5000     9.3840   111.8320     2.5254     0.0301   -66.4904     7.7427     7.1269     8.1834
 1767.0000     9.3840   113.4094     2.5274     0.0301   -66.4853     7.7448     7.1292     8.1862
 1767.5000     9.3839   113.4098     2.5274     0.0300   -66.4813     7.7479     7.1316     8.1889
 1768.0000     9.3838   113.4105     2.5254     0.0300   -66.2767     7.7515     7.1340     8.2687
 1768.5000     9.3838   113.4109     2.5214     0.0260   -66.2706     7.7536     7.1368     8.3475
 1769.0000     9.3837   111.0458     2.5155     0.0221   -66.0671     7.7567     7.1392     8.5057
 1769.5000     9.3836   111.8347     2.5056     0.0220   -66.0600     7.7588     7.1416     8.5086
 1770.0000     9.4230   111.8353     2.5214     0.0180   -66.0549     8.0536     7.1440     8.7508
 1770.5000     9.4229   111.8357     2.5194     0.0180   -66.0498     8.2828     7.1468     8.8349
 1771.0000     9.3834   109.4701     2.5154     0.0166   -66.0448     8.4398     7.4179     9.0030
 1771.5000     9.4228   110.2591     2.5095     0.0180   -66.0387     8.5209     7.4189     9.0060
 1772.0000     9.3833   109.4708     2.5035     0.0259   -66.0336     8.2912     7.4911     9.0925
 1772.5000     9.3833   107.1048     2.5035     0.0298   -66.0285     8.2945     7.5635     9.1799
 1773.0000     9.3832   107.1051     2.5035     0.0298   -66.0234     8.2211     7.5666     9.2687
 1773.5000     9.3831   105.5276     2.5134     0.0338   -66.0173     8.2239     7.5686     9.2718
 1774.0000     9.3831   103.9501     2.5035     0.0298   -66.0122     7.8559     7.5716     9.2750
 1774.5000     9.3830   105.5280     2.5015     0.0377   -66.0072     7.7864     7.5046     9.2787
 1775.0000     9.4224   105.5283     2.5015     0.0377   -66.0021     7.6477     7.4387     9.1122
 1775.5000     9.3829   106.3173     2.4995     0.0456   -65.9970     7.5790     7.3047     8.9481
 1776.0000     9.3828   105.5285     2.5028     0.0574   -65.9909     7.5815     7.1736     8.5482
 1776.5000     9.3827   103.1616     2.5054     0.0614   -65.5871     7.5149     6.9806     8.0902
 1777.0000     9.3827   106.3180     2.4995     0.0653   -65.3826     7.5886     6.7923     7.5873
 1777.5000     9.3826   105.5291     2.4995     0.0653   -65.3776     7.5901     6.5489     7.1158
 1778.0000     9.3826   105.5293     2.4873     0.0692   -65.3715     7.5230     5.9738     6.7968
 1778.5000     9.3430   101.5837     2.4493     0.0692   -65.3664     7.2524     5.6536     6.4926
 1779.0000     9.3430   103.9514     2.4252     0.0771   -65.3614     6.6772     5.1101     5.8684
