~VERSION INFORMATION
 VERS.                2.0:   CWLS LOG ASCII STANDARD - VERSION 2.0
 WRAP.                 NO:   ONE LINE PER DEPTH STEP
~WELL INFORMATION
#MNEM.UNIT      DATA TYPE    INFORMATION
#----------   ------------   ------------------------------
 STRT.F          197.0000:   START DEPTH
 STOP.F         3238.5000:   STOP DEPTH
 STEP.F            0.5000:   STEP LENGTH
 NULL.          -999.2500:   NO VALUE
 COMP.    FENIX & SCISSON:   COMPANY
 WELL. FENIX 28 "A" #28-11:   WELL
 FLD .              NPR-3:   FIELD
 LOC .      S11 T38N R78W:   LOCATION
 CNTY.            NATRONA:   COUNTY
 STAT.            WYOMING:   STATE
 CTRY. UNITED STATES OF AMERICA:   COUNTRY
 SRVC.              WELEX:   SERVICE COMPANY
 DATE.        25-OCT-1977:   LOGDATE
 API .     49025104350000:   API NUMBER
~CURVE INFORMATION
#MNEM.UNIT       API CODE    CURVE DESCRIPTION
#----------   ------------   ------------------------------
 DEPT.F                  :   
 SPR .MV     07 010 01 00:   SPONTANEOUS POTENTIAL
 TENR.LBS    07 635 01 00:   TENSION FROM RESISTIVITY
 ILM .OHMM   07 120 44 00:   INDUCTION LOG MEDIUM RESISTIVITY
 SGRD.OHMM   07 220 05 00:   SHALLOW SHORT GUARD RESISTIVITY
 ILD .OHMM   07 120 46 00:   INDUCTION LOG DEEP RESISTIVITY
 GRD .GAPI   45 310 01 00:   GAMMA RAY FROM DENSITY LOG
 CALD.IN     45 280 60 00:   CALIPER FROM DENSITY LOG
 CORR.G/C3   45 356 01 00:   DENSITY CORRECTION
 RHOB.G/C3   45 350 01 00:   BULK DENSITY
~PARAMETER INFORMATION
#MNEM.UNIT          VALUE    DESCRIPTION
#----------   ------------   ------------------------------
 EKB .F         5211.0000:   Kelly bushing
 EGL .F         5201.0000:   Ground level
 EDF .F            0.0000:   Drilling floor
 EPD .F         5201.0000:   Permanent datum
 TD  .F         3235.0000:   Total depth
 CLNT.            A2DTECH:   Client Code
 SL  . 330' FSL & 990' FWL:   Surface Location
 PD  .                 GL:   Permanent Datum
 DAPD.F                10:   Feet Above Permanent Datum
 DATE.        25-OCT-1977:   Date Logged [DD-MMM-YYYY]
 DD  .F              3235:   Depth driller
 DL  .F              3231:   Depth logger
 BLI .F              3229:   Bottom log interval
 TLI .F               200:   Top log interval
 CS1 .IN            8.625:   Casing size
 CBD1.      8.625" @ 217':   Casing driller 1
 CBL1.F               217:   Casing logger 1
 BS1 .              7.875:   Bit size
 BSD1.IN             3235:   Depth drilled with bit1
 DFT .            KCL MUD:   Type fluid in hole
 DFD .                8.9:   Density
 DFV .                 35:   Viscosity
 DFPH.               11.5:   pH
 DFL .               16.4:   Fluid loss
 MSS .           FLOWLINE:   Source of sample
 RMS .OHMM           1.18:   Rm
 MST .F                74:   Rm Meas. temp.
 RMF .OHMM           1.74:   Rmf
 MFST.F                74:   Rmf Meas. temp.
 MFSS.               MEAS:   Source Rmf.
 MCSS.               MEAS:   Source Rmc.
 RMB .OHMM           1.15:   Rm. at BHT
 BHT .F               116:   BHT.
 TCS .HRS               3:   Time Circ. stopped
 MRT .F               116:   Maximum recorded temp.
 LUN .               8611:   Logging unit number
 LUL .             CASPER:   Logging unit location
 ENGI.            C. DOAK:   Recorded By
 WITN.      W. PETTINGILL:   Witnessed by
 ORIG.           5" PRINT:   Origin of data
 UWI .     49025104350000:   Unique Well ID
 DICO. A2D TECHNOLOGIES, INC.:   Digitizing Company
~OTHER INFORMATION
~A   DEPT      SPR       TENR        ILM       SGRD        ILD         GRD      CALD       CORR       RHOB   
# ...
 2204.5000   -78.4077  1559.6267     7.1217    12.6232     6.2086   134.9296     8.6122    -0.0278     2.3851
 2205.0000   -78.2608  1566.4000     7.1203    12.8839     6.2492   135.5400     8.6109    -0.0264     2.3926
 2205.5000   -78.2651  1573.1733     7.2230    13.1500     6.3338   136.6801     8.6095    -0.0218     2.4090
 2206.0000   -78.2695  1579.9467     7.6286    13.4205     6.4196   138.6195     8.5922    -0.0188     2.4158
 2206.5000   -78.2739  1586.7200     7.9514    13.5104     6.4615   140.4844     8.5909    -0.0142     2.4165
 2207.0000   -78.2784  1590.0000     7.7322    13.5997     6.4077   142.3030     8.5739    -0.0096     2.4180
 2207.5000   -78.2837  1590.0000     7.4669    13.6897     6.2794   144.2429     8.5569    -0.0113     2.4179
 2208.0000   -78.2881  1590.0000     7.2108    13.6840     6.2336   146.0309     8.5399    -0.0144     2.4157
 2208.5000   -78.2925  1590.0000     7.0119    13.4913     6.2311   145.3888     8.5229    -0.0145     2.4112
 2209.0000   -78.2969  1590.0000     6.8657    13.0000     6.2286   144.4346     8.5216    -0.0130     2.4066
 2209.5000   -78.3012  1590.0000     6.8172    12.4061     6.2261   143.1685     8.5355    -0.0147     2.3991
 2210.0000   -78.3056  1590.0000     7.2047    12.7503     6.2236   141.2768     8.5342    -0.0194     2.3901
 2210.5000   -78.2874  1590.0000     7.3551    13.0137     6.2205   139.7002     8.5488    -0.0257     2.3839
 2211.0000   -78.1631  1590.0000     7.1520    13.0093     6.2181   137.7845     8.5631    -0.0319     2.3803
 2211.5000   -78.0162  1590.0000     6.9541    13.0954     6.2156   135.9153     8.5770    -0.0320     2.3930
 2212.0000   -78.0216  1590.0000     6.7626    13.0006     6.1702   134.6492     8.5914    -0.0244     2.4095
 2212.5000   -78.0260  1590.0000     6.7145    12.4664     6.1252   133.3831     8.6055    -0.0136     2.4222
 2213.0000   -78.0304  1590.0000     6.7132    11.6284     6.0806   132.2806     8.6280    -0.0074     2.4304
 2213.5000   -78.0348  1590.0000     6.9008    10.4053     6.0361   131.2325     8.6520    -0.0044     2.4409
 2214.0000   -78.0402  1590.0000     7.0936    10.0478     6.0332   129.9220     8.6638     0.0002     2.4515
 2214.5000   -77.8922  1590.0000     7.2919    11.2214     6.0733   128.9234     8.6623     0.0016     2.4581
 2215.0000   -77.7464  1590.0000     7.5026    12.2772     6.1130   128.6125     8.6609     0.0033     2.4603
 2215.5000   -77.5984  1590.6125     7.2382    12.4415     6.1957   130.7739     8.6752     0.0092     2.4626
 2216.0000   -77.4515  1593.7875     7.0876    12.5227     6.2357   133.2519     8.6735     0.0107     2.4633
 2216.5000   -77.4569  1596.9625     6.9885    12.7813     6.2764   135.3257     8.6721     0.0075     2.4520
 2217.0000   -77.6127  1600.1375     7.1341    13.0464     6.2300   138.2080     8.6552    -0.0003     2.4438
 2217.5000   -77.9206  1603.3125     7.1824    12.9509     6.2275   140.6860     8.6538    -0.0050     2.4392
 2218.0000   -78.0763  1606.4875     7.1809    12.6804     6.2689   143.4884     8.6525    -0.0082     2.4362
 2218.5000   -78.2320  1609.6625     7.1791    12.3187     6.2658   145.3255     8.6511    -0.0083     2.4384
 2219.0000   -78.3876  1612.8375     7.1777    11.9881     6.2633   145.3074     8.6341    -0.0099     2.4377
 2219.5000   -78.3920  1616.0125     7.0773    12.1512     6.2608   144.3533     8.6158    -0.0116     2.4362
 2220.0000   -78.3964  1619.1875     6.9301    12.4021     6.2150   142.4631     8.5998    -0.0101     2.4354
 2220.5000   -78.2269  1622.3625     6.7859    12.5720     6.2120   140.2609     8.5828    -0.0086     2.4339
 2221.0000   -78.1025  1625.5375     6.7376    12.3083     6.1667   138.4088     8.5815    -0.0087     2.4323
 2221.5000   -78.1080  1628.5841     6.8301    12.0512     6.1217   136.7799     8.5801    -0.0103     2.4308
 2222.0000   -78.1124  1610.0254     6.9245    12.2142     6.0352   135.4261     8.5787    -0.0166     2.4278
 2222.5000   -77.9644  1590.8014     6.9714    12.4675     5.9911   132.9175     8.5771    -0.0245     2.4150
 2223.0000   -77.9699  1593.9871     6.8260    11.9551     5.9064   131.7441     8.5445    -0.0309     2.3970
 2223.5000   -77.9743  1597.2645     6.7305    11.4648     5.8628   131.7235     8.5353    -0.0385     2.3805
 2224.0000   -77.9797  1600.5420     6.7056    11.0924     5.8200   132.0174     8.5104    -0.0448     2.3767
 2224.5000   -77.9841  1603.8193     6.6348    11.6976     5.8587   135.7435     8.5026    -0.0433     2.3872
 2225.0000   -77.9884  1607.0968     6.5876    10.8616     5.8557   138.2215     8.4766    -0.0403     2.4014
 2225.5000   -77.9928  1610.3741     6.6786    10.0371     5.8534   140.0295     8.4752    -0.0373     2.4105
 2226.0000   -77.9972  1613.6516     6.8649    10.9032     5.8511   141.3010     8.4579    -0.0358     2.4044
 2226.5000   -77.5477  1616.9291     6.9599    12.0092     5.8893   141.5994     8.4567    -0.0374     2.3976
 2227.0000   -77.4008  1620.2065     7.0066    12.5155     5.8917   140.6408     8.4552    -0.0406     2.3938
 2227.5000   -77.2539  1623.4839     7.0051    12.7730     5.9660   138.7506     8.4382    -0.0407     2.3953
 2228.0000   -77.1070  1626.7612     6.9069    12.8574     5.9858   136.9364     8.4368    -0.0315     2.4013
 2228.5000   -77.4150  1630.0000     6.8577    12.7634     6.0033   135.2823     8.4355    -0.0207     2.4163
 2229.0000   -77.4194  1630.0000     6.8564    12.4968     6.0003   133.6663     8.4338    -0.0115     2.4384
 2229.5000   -77.2723  1630.0000     6.9511    12.3208     6.0395   132.7455     8.4324    -0.0054     2.4642
 2230.0000   -77.4281  1629.0000     6.9013    12.1473     6.0365   133.6634     8.4313    -0.0039     2.4694
 2230.5000   -77.7580  1626.7983     6.7535    12.0594     6.0341   136.4535     8.4297    -0.0009     2.4589
 2231.0000   -78.0420  1624.5842     6.7564    11.7188     5.9901   138.4213     8.4441    -0.0025     2.4551
 2231.5000   -77.8951  1622.3739     6.8972    11.1665     5.9877   140.1614     8.4427    -0.0026     2.4521
 2232.0000   -78.0519  1620.1652     6.9438    10.9333     5.9440   139.5193     8.4412    -0.0042     2.4498
 2232.5000   -77.9039  1617.9565     6.9908    11.4725     5.9416   137.5668     8.4556    -0.0043     2.4476
 2233.0000   -77.7579  1615.7478     6.9891    11.9553     5.9392   135.8005     8.4539    -0.0043     2.4460
 2233.5000   -77.4523  1613.5392     7.0363    12.2022     5.9363   134.1563     8.4525    -0.0060     2.4445
 2234.0000   -77.3129  1611.3304     6.9859    12.1139     5.9339   132.8902     8.4620    -0.0076     2.4430
 2234.5000   -77.4697  1609.1217     6.9362    11.7789     5.9315   132.3559     8.4655    -0.0108     2.4460
 2235.0000   -77.6254  1606.9131     6.7302    11.4525     5.8883   131.4821     8.4641    -0.0109     2.4594
 2235.5000   -78.0836  1604.7043     6.3352    11.0590     5.8453   130.6518     8.4468    -0.0078     2.4722
 2236.0000   -78.0880  1602.4956     6.1605    10.6791     5.8027   130.3214     8.4454    -0.0048     2.4796
 2236.5000   -78.0923  1600.2870     6.1593    10.8997     5.7598   129.3631     8.4284    -0.0049     2.4819
 2237.0000   -78.5507  1598.0782     6.0309    11.1248     5.6784   128.5824     8.4271    -0.0065     2.4713
 2237.5000   -78.7073  1595.8695     5.9465    11.1983     5.6370   128.0789     8.4101    -0.0221     2.4638
 2238.0000   -78.7117  1593.6609     6.1553    10.7381     5.5959   127.7488     8.4088    -0.0330     2.4556
 2238.5000   -78.8674  1591.4521     6.3714    10.5138     5.5550   127.7317     8.4073    -0.0346     2.4458
 2239.0000   -79.0230  1590.0000     6.3260    10.3657     5.5145   127.7130     8.4057    -0.0301     2.4375
 2239.5000   -79.1787  1590.2717     6.3248    10.4343     5.5123   127.6942     8.4043    -0.0255     2.4373
 2240.0000   -79.1831  1591.0303     6.3734    10.9489     5.5096   127.6719     8.4030    -0.0209     2.4465
 2240.5000   -79.1876  1591.7887     6.5455    10.4980     5.5462   127.9703     8.4016    -0.0210     2.4556
