~VERSION INFORMATION
 VERS.                2.0:   CWLS LOG ASCII STANDARD - VERSION 2.0
 WRAP.                 NO:   ONE LINE PER DEPTH STEP
~WELL INFORMATION
#MNEM.UNIT      DATA TYPE    INFORMATION
#----------   ------------   ------------------------------
 STRT.F           60.0000:   START DEPTH
 STOP.F         5768.0000:   STOP DEPTH
 STEP.F            0.5000:   STEP LENGTH
 NULL.          -999.2500:   NO VALUE
 COMP.              RMOTC:   COMPANY
 WELL. RMOTC NPR-3 61 "X" #2-15:   WELL
 FLD .            N P R-3:   FIELD
 LOC .      S15 T38N R78W:   LOCATION
 CNTY.            NATRONA:   COUNTY
 STAT.            WYOMING:   STATE
 CTRY. UNITED STATES OF AMERICA:   COUNTRY
 SRVC.       SCHLUMBERGER:   SERVICE COMPANY
 DATE.        07-JAN-2002:   LOGDATE
 API .     49025230310000:   API NUMBER
~CURVE INFORMATION
#MNEM.UNIT       API CODE    CURVE DESCRIPTION
#----------   ------------   ------------------------------
 DEPT.F                  :   
 CALD.IN     45 280 60 00:   CALIPER FROM DENSITY LOG
 TEND.LBS    45 635 01 00:   TENSION FROM DENSITY LOG
 PEFZ.B/E    45 358 01 00:   HILT PHOTOELECTRIC FACTOR
 RHOZ.G/C3   45 350 01 00:   HILT BULK DENSITY
 NPOR.DEC    42 890 03 00:   ALPHA PROCESSED NEUTRON POROSITY
 HDRA.G/C3   45 356 01 00:   DELTA RHO HIP TOOL
 GRS .GAPI   60 310 01 00:   GAMMA RAY FROM SONIC LOG
 DTSM.US/F   61 523 00 00:   SHEAR-WAVE INTERVAL TRANSIT TIME DELTA-T
 GRR .GAPI   07 310 01 00:   GAMMA RAY FROM RESISTIVITY
 TENR.LBS    01 635 01 00:   TENSION FROM RES.
 SPR .MV     07 010 01 00:   SPONTANEOUS POTENTIAL
 HLLD.OHMM   11 220 10 00:   LATEROLOG DEEP RES.
 HLLS.OHMM   11 220 09 00:   LATEROLOG SHALLOW RES.
 HRLD.OHMM   11 220 10 00:   HIGH RESOLUTION DEEP RESISTIVITY
~PARAMETER INFORMATION
#MNEM.UNIT          VALUE    DESCRIPTION
#----------   ------------   ------------------------------
 EKB .F         5244.0000:   Kelly bushing
 EGL .F         5227.0000:   Ground level
 EDF .F         5243.0000:   Drilling floor
 EPD .F            0.0000:   Permanent datum
 TD  .F         5756.0000:   Total depth
 DATE.        07-JAN-2002:   Date logged
 CLNT.            A2DTECH:   Client Code
 SL  . 189' FNL & 1895' FEL:   Surface Location
 PD  .                 GL:   Permanent Datum
 DD  .F              5750:   Depth driller
 DL  .F              5756:   Depth logger
 BLI .F              5748:   Bottom log interval
 CS1 .IN             3054:   Casing size
 CBD1.     9.625" @ 3052':   Casing driller 1
 CBL1.F              3054:   Casing logger 1
 BS1 .IN            8.750:   Bit size
 DFT .             3% KCL:   Type fluid in hole
 DFD .                9.3:   Density
 DFV .                 42:   Viscosity
 DFPH.                  8:   pH
 DFL .                 28:   Fluid loss
 MSS .           FLOWLINE:   Source of sample
 RMS .OHMM          0.413:   Rm
 MST .F                74:   Rm Meas. temp.
 RMF .OHMM          0.305:   Rmf
 MFST.F                74:   Rmf Meas. temp.
 RMC .OHMM          0.637:   Rmc
 MCST.F                74:   Rmc Meas. temp.
 MFSS.               CALC:   Source Rmf.
 RMB .OHMM          0.187:   Rm. at BHT
 BHT .F               172:   BHT.
 TCS .HRS            0800:   Time Circ. stopped
 MRT .F               172:   Maximum recorded temp.
 LUN .               2211:   Logging unit number
 LUL .             CASPER:   Logging unit location
 ENGI.        J.L. FLORES:   Recorded By
 WITN.      MARK MILLIKEN:   Witnessed by
 ORIG.           5" PRINT:   Origin of data
 UWI .     49025230310000:   Unique Well ID
 DICO. A2D TECHNOLOGIES, INC.:   Digitizing Company
 DAPD.                 17:   Feet Above Permanent Datum
 BSD1.               5750:   Depth drilled with bit1
 MCSS.               CALC:   Source Rmc.
 LMF .                 KB:   Log Measured From
 DMF .                 KB:   Drilling Measured From
 TLI .               3054:   Top log interval
~OTHER INFORMATION
~A   DEPT     CALD       TEND       PEFZ       RHOZ       NPOR       HDRA        GRS       DTSM         GRR      TENR        SPR       HLLD       HLLS       HRLD   
# ...
 4127.0000    12.8200  2362.3459     4.6460     2.6160     0.2410     0.1040    75.7620  -999.2500    80.3690  2396.0581   -41.9750     5.1650     5.7800     5.1670
 4127.5000    12.7770  2335.9839     4.8030     2.5770     0.2410     0.1030    75.4040  -999.2500    80.1810  2365.4419   -42.3580     5.4570     5.9260     5.6610
 4128.0000    12.9760  2319.8960     5.1360     2.4830     0.2660     0.0970    75.0360  -999.2500    82.8150  2350.0300   -42.4180     4.8080     5.4200     4.9110
 4128.5000    12.9760  2350.6040     5.6100     2.4390     0.2910     0.0900    74.3570  -999.2500    84.9740  2389.8311   -42.1690     4.1480     5.0260     3.9990
 4129.0000    13.0740  2381.3120     5.6130     2.4870     0.3030     0.0690    72.2210  -999.2500    83.6750  2429.6331   -41.8790     4.0730     5.0720     4.0960
 4129.5000    12.8050  2382.2661     4.7510     2.5520     0.2550     0.0450    70.0870  -999.2500    80.5530  2440.6221   -41.6260     5.6250     6.4290     5.4750
 4130.0000    12.6100  2342.3459     4.0960     2.5990     0.2130     0.0210    67.9820  -999.2500    80.0180  2411.3560   -41.3390     7.8680     8.0870     8.0870
 4130.5000    12.6470  2296.2229     3.4900     2.5950     0.2280     0.0080    67.2090  -999.2500    80.3340  2382.0901   -41.2310     7.3110     7.7420     7.5910
 4131.0000    12.6840  2317.1741     3.3540     2.5940     0.2250     0.0030    70.6620  -999.2500    81.7280  2353.5249   -41.4970     6.4340     7.4440     6.7930
 4131.5000    12.6920  2355.5591     3.6090     2.5870     0.2220     0.0170    74.0890  -999.2500    81.6550  2382.8201   -41.7920     6.5530     7.1460     6.5670
 4132.0000    12.7040  2395.6260     4.2340     2.5400     0.2250     0.0450    77.4670  -999.2500    81.3310  2418.3569   -42.0590     5.9540     6.7970     6.7350
 4132.5000    12.7290  2395.6260     4.9230     2.5110     0.2590     0.0740    80.4090  -999.2500    82.6510  2452.8301   -42.3530     4.9980     6.2720     5.7000
 4133.0000    12.8340  2395.6260     5.2770     2.5230     0.2910     0.1030    79.7180  -999.2500    83.8490  2432.9690   -42.5410     4.0730     5.6380     4.2990
 4133.5000    12.8850  2365.2939     5.1030     2.5780     0.2850     0.1050    78.0060  -999.2500    84.9460  2383.9519   -41.9750     4.1800     5.0260     3.9490
 4134.0000    12.8610  2335.9839     4.5430     2.6270     0.2730     0.0730    77.0750  -999.2500    84.5270  2353.5249   -41.4420     4.3090     5.2370     4.2080
 4134.5000    13.3410  2341.8159     3.9880     2.6160     0.2700     0.0350    77.7930  -999.2500    86.5270  2369.8359   -40.9220     4.3820     5.1660     4.3020
 4135.0000    13.2830  2375.0830     3.4430     2.5990     0.2780     0.0020    80.0130  -999.2500    87.7270  2413.1079   -40.3930     4.3820     5.1660     4.3020
 4135.5000    13.0060  2415.5071     3.4310     2.5880     0.2660     0.0040    77.3920  -999.2500    87.7570  2432.9690   -40.4160     4.8240     5.4140     4.4740
 4136.0000    12.8970  2398.8069     3.5630     2.5840     0.2400     0.0070    75.2630  -999.2500    82.8400  2419.0000   -40.9360     5.8280     5.6140     4.8460
 4136.5000    12.7830  2370.2930     3.5730     2.6030     0.2160     0.0100    72.0330  -999.2500    74.9370  2402.4160   -41.4540     6.9860     5.7650     7.3800
 4137.0000    12.7260  2341.7781     3.5850     2.6220     0.2420     0.0140    73.3260  -999.2500    75.5120  2393.2471   -41.9780     6.1840     5.7130     6.3840
 4137.5000    12.9170  2335.9839     3.6070     2.6080     0.2720     0.0180    77.0910  -999.2500    79.0420  2380.1809   -42.4940     4.9440     5.4950     4.8440
 4138.0000    12.9610  2351.7419     3.8640     2.5600     0.2890     0.0260    78.3240  -999.2500    84.1130  2390.6550   -43.0190     4.1480     5.3200     4.0270
 4138.5000    13.0180  2367.5000     4.2730     2.5730     0.2930     0.0600    76.6260  -999.2500    86.5550  2401.1289   -43.3480     4.0730     5.1450     4.0900
 4139.0000    13.0890  2383.2581     4.5250     2.6080     0.2950     0.0820    75.3480  -999.2500    86.7740  2413.1079   -42.3080     4.1550     4.9800     4.1530
 4139.5000    13.1030  2393.6741     4.3690     2.6150     0.2960     0.0670    76.0430  -999.2500    87.3470  2406.8850   -41.5200     4.2510     4.8770     4.2240
 4140.0000    13.0270  2384.6011     4.2650     2.5730     0.2920     0.0520    76.7630  -999.2500    86.4940  2397.4089   -40.7400     4.3420     4.7790     4.3420
 4140.5000    13.2130  2375.5291     4.4200     2.5190     0.3070     0.0510    76.1460  -999.2500    85.4310  2387.9319   -39.9420     4.0760     4.6810     3.9930
 4141.0000    13.2800  2366.4561     4.7300     2.4990     0.3260     0.0660    75.2920  -999.2500    84.1320  2378.4561   -40.2770     3.8200     4.6290     3.6830
 4141.5000    13.3000  2357.3831     4.7760     2.5290     0.3140     0.0630    75.5660  -999.2500    82.5290  2353.5249   -40.6100     3.9900     4.7690     3.7780
 4142.0000    13.3190  2335.9839     4.7590     2.5520     0.2950     0.0550    76.1560  -999.2500    80.5310  2373.8069   -40.9480     4.2460     5.1390     4.1370
 4142.5000    13.3460  2354.5391     4.9870     2.4410     0.2760     0.0500    76.7460  -999.2500    80.9190  2397.2190   -41.2810     4.5020     5.2610     4.4960
 4143.0000    14.1420  2375.7461     5.2310     2.3920     0.2930     0.0520    76.6720  -999.2500    82.5700  2420.6321   -41.6190     4.6290     5.1320     4.7580
 4143.5000    13.8690  2368.8940     5.3970     2.4250     0.2990     0.0810    76.2740  -999.2500    84.5650  2432.9690   -41.2990     3.4540     4.9600     3.1810
 4144.0000    13.3130  2353.5400     5.0760     2.5220     0.2820     0.0720    75.4830  -999.2500    86.1300  2411.9609   -40.7480     3.7540     4.8010     3.6590
 4144.5000    13.3240  2338.1860     4.6790     2.5440     0.2720     0.0580    74.4080  -999.2500    85.6810  2367.7371   -40.9580     4.1990     4.8720     4.2060
 4145.0000    13.3450  2335.9839     4.6630     2.5140     0.2810     0.0610    71.8170  -999.2500    84.6890  2370.4070   -41.1410     4.4220     4.9800     4.4740
 4145.5000    13.4100  2349.2051     5.5450     2.4480     0.2960     0.0800    71.4300  -999.2500    83.6750  2395.2830   -41.3080     4.1430     4.9190     4.1940
 4146.0000    13.4810  2361.6799     6.1810     2.3830     0.3030     0.0960    71.2570  -999.2500    81.7850  2420.1589   -41.4940     3.8840     4.7900     3.8330
 4146.5000    13.5480  2374.1550     6.5730     2.4190     0.3160     0.0970    71.7470  -999.2500    79.3960  2426.8831   -41.2970     3.6830     4.6620     3.6430
 4147.0000    13.5070  2375.7461     5.9470     2.4890     0.2920     0.0780    72.2400  -999.2500    77.5570  2405.5610   -40.9540     3.9230     4.5450     3.5830
 4147.5000    13.3230  2375.7461     5.2560     2.5610     0.2650     0.0520    72.7320  -999.2500    76.3420  2384.2390   -41.4530     4.2240     4.9250     4.1100
 4148.0000    13.2680  2355.8650     4.5650     2.5880     0.2400     0.0290    73.2230  -999.2500    75.9500  2373.3860   -41.9430     4.3020     5.3050     4.5360
 4148.5000    13.2250  2364.8770     4.1910     2.5640     0.2360     0.0220    73.7150  -999.2500    76.5060  2373.3860   -42.4090     5.3820     5.5070     5.6060
 4149.0000    13.1840  2373.1941     4.4150     2.5340     0.2450     0.0500    74.2120  -999.2500    78.0660  2373.3860   -42.9550     6.2030     5.6090     5.7370
 4149.5000    13.2170  2368.3899     4.7460     2.5230     0.2620     0.0750    74.7180  -999.2500    79.3020  2373.3860   -42.6990     5.3250     5.6090     4.9090
 4150.0000    13.2630  2343.4390     4.9800     2.5600     0.2780     0.0820    74.5410  -999.2500    78.4390  2373.3860   -42.3550     4.2630     5.3850     3.9990
 4150.5000    13.2590  2357.5161     4.4630     2.5930     0.2750     0.0410    74.3550  -999.2500    76.5020  2382.7339   -41.9890     4.4650     5.0720     4.2820
 4151.0000    13.2100  2388.2241     3.8870     2.5980     0.2560     0.0180    71.1680  -999.2500    73.0570  2396.0540   -41.7530     4.7510     5.5000     4.6860
