~VERSION INFORMATION
 VERS.                2.0:   CWLS LOG ASCII STANDARD - VERSION 2.0
 WRAP.                 NO:   ONE LINE PER DEPTH STEP
~WELL INFORMATION
#MNEM.UNIT      DATA TYPE    INFORMATION
#----------   ------------   ------------------------------
 STRT.F          748.0000:   START DEPTH
 STOP.F         2734.0000:   STOP DEPTH
 STEP.F            0.5000:   STEP LENGTH
 NULL.          -999.2500:   NO VALUE
 COMP.    FENIX & SCISSON:   COMPANY
 WELL. FENIX NPR 3 "SHX" #84-4:   WELL
 FLD .             TEAPOT:   FIELD
 LOC .       S4 T38N R78W:   LOCATION
 CNTY.            NATRONA:   COUNTY
 STAT.            WYOMING:   STATE
 CTRY. UNITED STATES OF AMERICA:   COUNTRY
 SRVC.              WELEX:   SERVICE COMPANY
 DATE.        08-MAY-1980:   LOGDATE
 API .     49025108050000:   API NUMBER
~CURVE INFORMATION
#MNEM.UNIT       API CODE    CURVE DESCRIPTION
#----------   ------------   ------------------------------
 DEPT.F                  :   
 CALD.IN     45 280 60 00:   CALIPER FROM DENSITY LOG
 GRD .GAPI   45 310 01 00:   GAMMA RAY FROM DENSITY LOG
 RHOB.G/C3   45 350 01 00:   BULK DENSITY
 CORR.G/C3   45 356 01 00:   DENSITY CORRECTION
~PARAMETER INFORMATION
#MNEM.UNIT          VALUE    DESCRIPTION
#----------   ------------   ------------------------------
 EKB .F         5244.0000:   Kelly bushing
 EGL .F         5234.0000:   Ground level
 EDF .F            0.0000:   Drilling floor
 TD  .F         2733.0000:   Total depth
 DATE.        08-MAY-1980:   Date logged
 CLNT.            A2DTECH:   Client Code
 SL  . 7461' FNL & 383' FEL:   Surface Location
 PD  .                 GL:   Permanent Datum
 EPD .F              5234:   Elevation Permanent Datum
 LMF .                 KB:   Log Measured From
 DMF .                 KB:   Drilling Measured From
 DAPD.F                10:   Feet Above Permanent Datum
 DD  .F              2700:   Depth driller
 DL  .F              2733:   Depth logger
 BLI .F              2731:   Bottom log interval
 TLI .F               752:   Top log interval
 CS1 .IN            9.625:   Casing size
 CBD1.      9.625" @ 260':   Casing driller 1
 BS1 .IN              8.5:   Bit size
 BSD1.F              2700:   Depth drilled with bit1
 DFT .                AIR:   Type fluid in hole
 MRT .F               118:   Maximum recorded temp.
 LUN .                  2:   Logging unit number
 ENGI.           TORTILLE:   Recorded By
 WITN.              AMEND:   Witnessed by
 ORIG.           5" PRINT:   Origin of data
 UWI .     49025108050000:   Unique Well ID
 DICO. A2D TECHNOLOGIES, INC.:   Digitizing Company
~OTHER INFORMATION
~A   DEPT       CALD       GRD        RHOB       CORR 
# ...
  967.0000     8.9990    89.0860     2.4830     0.0810
  967.5000     8.9960    88.9900     2.4920     0.0920
  968.0000     8.9930    88.6950     2.4960     0.0980
  968.5000     8.9900    88.4060     2.4930     0.0970
  969.0000     8.9870    88.1200     2.4910     0.0980
  969.5000     8.9850    87.8300     2.4880     0.0920
  970.0000     8.9810    87.5420     2.4870     0.0820
  970.5000     8.9850    87.2530     2.4770     0.0730
  971.0000     8.9980    86.9680     2.4580     0.0640
  971.5000     9.0100    86.6740     2.4460     0.0540
  972.0000     9.0220    86.3880     2.4480     0.0530
  972.5000     9.0350    86.1260     2.4550     0.0510
  973.0000     9.0470    86.0020     2.4470     0.0410
  973.5000     9.0590    85.7950     2.4370     0.0310
  974.0000     9.0580    85.6140     2.4270     0.0250
  974.5000     9.0550    85.4250     2.4410     0.0410
  975.0000     9.0520    85.2370     2.4540     0.0540
  975.5000     9.0490    85.0490     2.4700     0.0720
  976.0000     9.0460    84.8640     2.4780     0.0780
  976.5000     9.0420    84.6740     2.4700     0.0740
  977.0000     9.0390    84.4840     2.4720     0.0670
  977.5000     9.0360    84.3270     2.4760     0.0610
  978.0000     9.0330    84.1260     2.4660     0.0560
  978.5000     9.0300    83.7720     2.4640     0.0530
  979.0000     9.0270    83.4530     2.4730     0.0570
  979.5000     9.0240    83.1270     2.4790     0.0630
  980.0000     9.0200    82.8000     2.4770     0.0690
  980.5000     9.0240    82.4730     2.4760     0.0730
  981.0000     9.0290    82.1490     2.4740     0.0730
  981.5000     9.0340    81.8250     2.4850     0.0740
  982.0000     9.0390    81.4780     2.4970     0.0870
  982.5000     9.0440    81.2920     2.5050     0.0980
  983.0000     9.0490    81.4500     2.5080     0.1010
  983.5000     9.0540    81.5840     2.5060     0.1010
  984.0000     9.0590    81.7290     2.5010     0.1010
  984.5000     9.0550    81.8720     2.4970     0.1010
  985.0000     9.0480    82.0160     2.4920     0.0930
  985.5000     9.0410    82.1520     2.4840     0.0820
  986.0000     9.0350    82.3050     2.4740     0.0720
  986.5000     9.0280    82.4410     2.4560     0.0590
  987.0000     9.0210    82.4580     2.4500     0.0560
  987.5000     9.0150    81.8810     2.4480     0.0570
  988.0000     9.0080    81.4130     2.4500     0.0580
  988.5000     9.0010    80.8990     2.4640     0.0660
  989.0000     8.9950    80.3740     2.4820     0.0760
  989.5000     8.9880    80.0920     2.4760     0.0860
  990.0000     8.9810    80.4100     2.4810     0.0960
  990.5000     8.9810    80.7000     2.4990     0.1060
  991.0000     8.9930    80.9940     2.5120     0.1090
  991.5000     9.0050    81.2960     2.5120     0.1100
  992.0000     9.0180    81.1610     2.5070     0.1030
  992.5000     9.0300    80.9040     2.4990     0.0930
  993.0000     9.0430    80.6400     2.4910     0.0820
  993.5000     9.0550    80.4130     2.4840     0.0730
  994.0000     9.0590    80.1300     2.4680     0.0580
  994.5000     9.0380    80.3990     2.4550     0.0440
  995.0000     9.0200    80.7690     2.4380     0.0290
  995.5000     9.0020    81.1570     2.4450     0.0360
  996.0000     8.9820    81.5210     2.4630     0.0520
  996.5000     8.9800    81.8780     2.4810     0.0690
  997.0000     8.9800    81.8870     2.4940     0.0810
  997.5000     8.9800    81.7880     2.4920     0.0810
  998.0000     8.9800    81.6940     2.4880     0.0800
  998.5000     8.9800    81.6000     2.4840     0.0730
  999.0000     8.9800    81.5050     2.4780     0.0690
  999.5000     8.9800    81.4210     2.4840     0.0630
 1000.0000     8.9800    81.2910     2.5050     0.0810
 1000.5000     8.9800    81.5460     2.5040     0.0860
 1001.0000     8.9800    82.2540     2.4940     0.0820
 1001.5000     8.9800    82.8800     2.4840     0.0740
 1002.0000     8.9800    83.6250     2.4760     0.0690
 1002.5000     8.9800    83.7230     2.4740     0.0720
 1003.0000     8.9800    83.4130     2.4770     0.0780
 1003.5000     8.9800    82.8150     2.4830     0.0850
 1004.0000     8.9820    82.2830     2.4880     0.0910
 1004.5000     8.9860    81.7310     2.4790     0.0880
 1005.0000     8.9890    81.3050     2.4790     0.0850
 1005.5000     8.9930    81.2040     2.4840     0.0960
 1006.0000     8.9960    81.0620     2.4880     0.0930
 1006.5000     9.0000    80.9360     2.4760     0.0840
 1007.0000     9.0040    80.8050     2.4540     0.0760
 1007.5000     9.0070    80.6740     2.4460     0.0760
 1008.0000     9.0110    80.5440     2.4560     0.0870
 1008.5000     9.0140    80.4130     2.4640     0.0970
 1009.0000     9.0180    80.2840     2.4640     0.1010
 1009.5000     9.0250    80.1490     2.4610     0.0960
 1010.0000     9.0380    80.0960     2.4580     0.0870
 1010.5000     9.0500    80.1010     2.4560     0.0750
 1011.0000     9.0600    80.1000     2.4620     0.0630
 1011.5000     9.0580    80.1020     2.4580     0.0510
 1012.0000     9.0530    80.0970     2.4550     0.0410
 1012.5000     9.0490    80.1050     2.4510     0.0340
 1013.0000     9.0440    80.1100     2.4470     0.0380
 1013.5000     9.0390    80.4930     2.4540     0.0420
 1014.0000     9.0340    81.0000     2.4650     0.0480
 1014.5000     9.0290    81.5070     2.4670     0.0520
 1015.0000     9.0250    81.8900     2.4670     0.0580
 1015.5000     9.0200    81.8950     2.4790     0.0620
 1016.0000     9.0200    81.9020     2.4900     0.0690
 1016.5000     9.0200    81.8990     2.4920     0.0690
 1017.0000     9.0200    81.9010     2.4930     0.0690
 1017.5000     9.0200    81.9660     2.4860     0.0690
 1018.0000     9.0200    82.0500     2.4750     0.0690
 1018.5000     9.0200    82.1330     2.4750     0.0690
 1019.0000     9.0200    82.2170     2.4800     0.0690
 1019.5000     9.0200    82.2980     2.4860     0.0690
 1020.0000     9.0200    82.3860     2.4880     0.0690
 1020.5000     9.0200    82.4660     2.4840     0.0690
 1021.0000     9.0200    82.4790     2.4800     0.0690
 1021.5000     9.0200    82.1910     2.4760     0.0690
 1022.0000     9.0200    81.9550     2.4700     0.0650
 1022.5000     9.0200    81.7010     2.4610     0.0600
 1023.0000     9.0200    81.4350     2.4600     0.0550
 1023.5000     9.0200    81.2880     2.4480     0.0490
 1024.0000     9.0200    81.3040     2.4430     0.0510
 1024.5000     9.0200    81.3000     2.4520     0.0720
 1025.0000     9.0200    81.3000     2.4480     0.0670
 1025.5000     9.0200    81.3010     2.4360     0.0570
 1026.0000     9.0200    81.2990     2.4340     0.0470
 1026.5000     9.0200    81.3020     2.4450     0.0570
 1027.0000     9.0200    81.2990     2.4570     0.0700
 1027.5000     9.0200    81.2990     2.4660     0.0730
 1028.0000     9.0200    81.3110     2.4630     0.0700
 1028.5000     9.0200    81.2690     2.4540     0.0630
 1029.0000     9.0200    81.6420     2.4520     0.0640
 1029.5000     9.0200    82.3190     2.4610     0.0670
 1030.0000     9.0200    82.9430     2.4690     0.0840
 1030.5000     9.0200    83.5720     2.4760     0.0970
 1031.0000     9.0200    84.2030     2.4750     0.0950
 1031.5000     9.0200    84.8420     2.4660     0.0890
 1032.0000     9.0200    85.4590     2.4560     0.0830
 1032.5000     9.0200    86.0710     2.4540     0.0770
 1033.0000     9.0200    86.0120     2.4520     0.0730
 1033.5000     9.0200    85.8640     2.4520     0.0710
 1034.0000     9.0200    85.7050     2.4500     0.0680
 1034.5000     9.0200    85.5620     2.4420     0.0660
 1035.0000     9.0200    85.4090     2.4380     0.0630
 1035.5000     9.0230    85.2600     2.4400     0.0610
 1036.0000     9.0270    85.1110     2.4420     0.0600
 1036.5000     9.0310    84.9580     2.4380     0.0550
 1037.0000     9.0350    84.9020     2.4290     0.0500
 1037.5000     9.0390    84.9780     2.4200     0.0500
 1038.0000     9.0430    85.0370     2.4220     0.0550
 1038.5000     9.0470    85.1000     2.4310     0.0600
 1039.0000     9.0510    85.1640     2.4380     0.0660
 1039.5000     9.0550    85.2190     2.4440     0.0710
