~VERSION INFORMATION
 VERS.                2.0:   CWLS LOG ASCII STANDARD - VERSION 2.0
 WRAP.                 NO:   ONE LINE PER DEPTH STEP
~WELL INFORMATION
#MNEM.UNIT      DATA TYPE    INFORMATION
#----------   ------------   ------------------------------
 STRT.F          200.0000:   START DEPTH
 STOP.F         3000.0000:   STOP DEPTH
 STEP.F            0.5000:   STEP LENGTH
 NULL.          -999.2500:   NO VALUE
 COMP.    FENIX & SCISSON:   COMPANY
 WELL.   FENIX "A" #65-28:   WELL
 FLD .              NPR 3:   FIELD
 LOC .      S28 T39N R78W:   LOCATION
 CNTY.            NATRONA:   COUNTY
 STAT.            WYOMING:   STATE
 CTRY. UNITED STATES OF AMERICA:   COUNTRY
 SRVC.              WELEX:   SERVICE COMPANY
 DATE.        25-JUL-1977:   LOGDATE
 API .     49025104010000:   API NUMBER
~CURVE INFORMATION
#MNEM.UNIT       API CODE    CURVE DESCRIPTION
#----------   ------------   ------------------------------
 DEPT.F                  :   
 GRD .GAPI   45 310 01 00:   GAMMA RAY FROM DENSITY LOG
 CALD.IN     45 280 60 00:   CALIPER FROM DENSITY LOG
 RHOB.G/C3   45 350 01 00:   BULK DENSITY
 DCOR.G/C3   45 356 01 00:   DENSITY CORRECTION
 SPR .MV     07 010 01 00:   SPONTANEOUS POTENTIAL
 RILM.OHMM   07 120 44 00:   INDUCTION LOG MEDIUM RESISTIVITY
 RILD.OHMM   07 120 46 00:   DEEP INDUCTION RESISTIVITY
 SGRD.OHMM   07 220 05 00:   SHALLOW GUARD
~PARAMETER INFORMATION
#MNEM.UNIT          VALUE    DESCRIPTION
#----------   ------------   ------------------------------
 EKB .F         5069.0000:   Kelly bushing
 EGL .F         5059.0000:   Ground level
 EDF .F            0.0000:   Drilling floor
 TD  .F         3006.0000:   Total depth
 DATE.        25-JUL-1977:   Date logged
 CLNT.            A2DTECH:   Client Code
 SL  . 2310' FSL & 1650' FEL:   Surface Location
 PD  .                 GL:   Permanent Datum
 EPD .F              5059:   Elevation Permanent Datum
 LMF .                 KB:   Log Measured From
 DMF .                 KB:   Drilling Measured From
 DAPD.F                10:   Feet Above Permanent Datum
 DD  .F              3006:   Depth driller
 DL  .F              3006:   Depth logger
 BLI .F              3004:   Bottom log interval
 TLI .F               200:   Top log interval
 CS1 .IN            8.625:   Casing size
 CBD1.      8.625" @ 205':   Casing driller 1
 CBL1.F               220:   Casing logger 1
 BS1 .IN            7.875:   Bit size
 BSD1.F              3006:   Depth drilled with bit1
 DFT .            KCL MUD:   Type fluid in hole
 DFD .                8.9:   Density
 DFV .                 39:   Viscosity
 DFPH.                7.5:   pH
 DFL .                7.2:   Fluid loss
 MSS .           FLOWLINE:   Source of sample
 RMS .OHMM           0.29:   Rm
 MST .F                78:   Rm Meas. temp.
 RMF .OHMM           0.19:   Rmf
 MFST.F                78:   Rmf Meas. temp.
 RMC .OHMM           0.80:   Rmc
 MCST.F                78:   Rmc Meas. temp.
 MFSS.               FANN:   Source Rmf.
 MCSS.                KIT:   Source Rmc.
 RMB .OHMM           0.20:   Rm. at BHT
 BHT .F               113:   BHT.
 TCS .HRS               3:   Time Circ. stopped
 MRT .F               113:   Maximum recorded temp.
 LUN .               8766:   Logging unit number
 LUL .             CASPER:   Logging unit location
 ENGI.         G. BENTSEN:   Recorded By
 WITN.      B. HARRINGTON:   Witnessed by
 ORIG.           5" PRINT:   Origin of data
 UWI .     49025104010000:   Unique Well ID
 DICO. A2D TECHNOLOGIES, INC.:   Digitizing Company
~OTHER INFORMATION
~A   DEPT       GRD        CALD       RHOB      DCOR       SPR       RILM         RILD       SGRD 
# ...
 1496.0000    98.2190    10.6580     2.5420     0.0350   -42.7000     7.6450     6.8160     8.6440
 1496.5000    99.5280    10.6680     2.5480     0.0370   -42.8040     7.6040     6.8840     8.7570
 1497.0000    96.8170    10.6770     2.5480     0.0390   -42.9060     7.5620     6.8490     8.9350
 1497.5000    99.0370    10.6730     2.5470     0.0420   -43.0080     7.5210     6.8100     9.1780
 1498.0000    96.8010    10.6650     2.5510     0.0430   -43.1090     7.4750     6.7710     9.3970
 1498.5000    96.3440    10.6570     2.5480     0.0400   -43.1760     7.5290     6.7320     9.2190
 1499.0000    96.9870    10.6480     2.5520     0.0420   -43.1450     7.5890     6.6970     9.0580
 1499.5000    97.6580    10.6400     2.5550     0.0450   -43.1170     7.6500     6.7460     8.8960
 1500.0000    97.8840    10.6320     2.5520     0.0480   -43.0890     7.7100     6.8000     8.7350
 1500.5000    97.6800    10.6230     2.5600     0.0510   -43.0600     7.7710     6.8540     8.6540
 1501.0000    97.4600    10.6150     2.5690     0.0510   -43.0320     7.8250     6.9080     8.9230
 1501.5000    97.2980    10.6060     2.5660     0.0490   -43.0040     7.7410     6.9620     8.9770
 1502.0000    95.0650    10.6010     2.5650     0.0480   -42.9960     7.6650     7.0110     9.3030
 1502.5000    93.9120    10.6330     2.5650     0.0460   -43.0450     7.5890     6.9100     9.4840
 1503.0000    95.7960    10.6650     2.5600     0.0440   -43.0930     7.5130     6.8180     8.8950
 1503.5000    97.2690    10.6970     2.5560     0.0430   -43.1400     7.4750     6.7260     9.0370
 1504.0000    98.7790    10.7250     2.5520     0.0410   -43.1770     7.5880     6.6350     9.1460
 1504.5000    99.3390    10.7540     2.5510     0.0390   -43.0690     7.6630     6.5160     9.2550
 1505.0000    98.8560    10.7780     2.5500     0.0370   -42.9630     7.7390     6.5540     9.3970
 1505.5000    98.3200    10.7350     2.5430     0.0360   -42.8610     7.8140     6.6100     9.3480
 1506.0000    97.0040    10.6940     2.5410     0.0380   -42.7720     7.8970     6.6650     9.2780
 1506.5000    95.0620    10.6530     2.5430     0.0390   -42.7210     7.8540     6.7200     9.2070
 1507.0000    92.2320    10.6090     2.5460     0.0400   -42.6700     7.8060     6.7750     9.1370
 1507.5000    91.7810    10.6280     2.5410     0.0420   -42.6190     7.7580     6.8310     9.0590
 1508.0000    95.1850    10.6670     2.5400     0.0390   -42.5690     7.7110     6.8860     8.9770
 1508.5000    97.6060    10.7070     2.5380     0.0360   -42.5180     7.6630     6.9470     8.9990
 1509.0000    96.6130    10.7490     2.5350     0.0330   -42.4670     7.6150     6.9120     9.0140
 1509.5000    94.3730    10.7500     2.5350     0.0300   -42.4170     7.5670     6.8720     9.0280
 1510.0000    92.9050    10.7380     2.5380     0.0310   -42.4080     7.5430     6.8330     9.0430
 1510.5000    96.6470    10.7260     2.5390     0.0320   -42.4410     7.6070     6.7940     9.0590
 1511.0000    98.4720    10.7130     2.5350     0.0300   -42.4740     7.6550     6.7590     9.0410
 1511.5000    95.8900    10.7000     2.5400     0.0280   -42.5070     7.7040     6.7800     9.0200
 1512.0000    98.4350    10.6890     2.5460     0.0320   -42.5390     7.7520     6.7990     9.0000
 1512.5000    94.9690    10.6770     2.5520     0.0360   -42.5730     7.8010     6.8210     8.9740
 1513.0000    99.0970    10.6650     2.5560     0.0400   -42.6070     7.8250     6.8120     9.0560
 1513.5000    96.8940    10.6520     2.5590     0.0410   -42.6440     7.7700     6.8030     9.1700
 1514.0000    93.8680    10.6380     2.5610     0.0410   -42.6800     7.7270     6.7940     9.2270
 1514.5000    91.6870    10.6910     2.5580     0.0390   -42.7170     7.6850     6.7850     8.9820
 1515.0000    95.8570    10.7500     2.5540     0.0370   -42.7540     7.6430     6.7760     8.8190
 1515.5000    99.1310    10.7670     2.5490     0.0350   -42.7900     7.6130     6.7670     8.6570
 1516.0000   100.7330    10.7440     2.5440     0.0340   -42.8270     7.7020     6.7590     8.5750
 1516.5000    96.4620    10.7200     2.5410     0.0340   -42.8630     7.7710     6.8080     8.8210
 1517.0000    93.6200    10.7020     2.5430     0.0340   -42.9000     7.8390     6.8530     8.9770
 1517.5000    91.6850    10.7590     2.5470     0.0370   -42.9360     7.9080     6.8980     8.9410
 1518.0000    94.4010    10.6710     2.5520     0.0400   -42.9760     7.9690     6.9470     8.9130
 1518.5000    96.8110    10.6120     2.5570     0.0420   -42.9210     7.9360     6.9250     8.8860
 1519.0000    95.7530    10.6690     2.5560     0.0410   -42.8350     7.9050     6.9000     8.8580
 1519.5000    94.0990    10.7270     2.5550     0.0400   -42.7470     7.8740     6.8760     8.8300
 1520.0000    92.3990    10.6600     2.5590     0.0400   -42.6590     7.8430     6.8510     8.8030
 1520.5000    93.2410    10.6060     2.5570     0.0390   -42.5710     7.8120     6.8270     8.7750
 1521.0000    96.0250    10.7220     2.5550     0.0380   -42.4840     7.7810     6.8020     8.7470
 1521.5000    93.7000    10.8180     2.5540     0.0380   -42.3960     7.7540     6.7780     8.7340
 1522.0000    96.8710    10.7250     2.5560     0.0380   -42.3080     7.8260     6.7530     8.7450
 1522.5000   100.0330    10.7180     2.5590     0.0380   -42.2150     7.9080     6.7290     8.7520
 1523.0000   100.3910    10.8010     2.5580     0.0430   -42.2480     7.9890     6.6970     8.7600
 1523.5000    98.6220    10.7600     2.5640     0.0470   -42.3230     8.0700     6.7410     8.7670
 1524.0000    96.5910    10.6790     2.5650     0.0460   -42.3990     8.1510     6.8040     8.7740
 1524.5000    94.0630    10.6260     2.5610     0.0430   -42.4750     8.1910     6.8670     8.7820
 1525.0000    95.5600    10.6580     2.5550     0.0390   -42.5510     8.0770     6.9300     8.7890
 1525.5000    98.3590    10.6930     2.5460     0.0360   -42.6270     8.0000     6.9930     8.7970
 1526.0000    96.4790    10.7470     2.5380     0.0310   -42.7030     7.9240     7.0560     8.8040
 1526.5000    98.3950    10.7590     2.5380     0.0310   -42.7790     7.8250     7.0750     8.8100
 1527.0000   100.0370    10.7600     2.5420     0.0320   -42.8550     7.9350     6.9850     8.8960
 1527.5000    98.7640    10.7610     2.5400     0.0330   -42.9300     8.0910     6.9250     9.0120
 1528.0000    99.2800    10.7140     2.5380     0.0340   -42.9740     8.2480     6.8840     9.1290
 1528.5000    99.8730    10.6620     2.5410     0.0360   -42.9240     8.4050     6.9710     9.2460
 1529.0000    99.2240    10.6660     2.5450     0.0330   -42.8780     8.5610     7.0390     9.3620
 1529.5000    98.1590    10.6750     2.5420     0.0300   -42.8330     8.7340     7.1060     9.4380
 1530.0000    97.2090    10.6840     2.5390     0.0260   -42.7870     8.7650     7.1400     9.4960
 1530.5000    98.0280    10.6920     2.5350     0.0210   -42.7410     8.8140     7.0550     9.5710
 1531.0000    98.8200    10.6960     2.5380     0.0230   -42.6950     8.6650     6.9980     9.4320
 1531.5000    99.4820    10.6370     2.5440     0.0280   -42.6490     8.5010     6.9410     9.2330
 1532.0000    99.9990    10.6220     2.5510     0.0320   -42.6010     8.3360     6.8840     9.0340
 1532.5000    99.6890    10.6070     2.5580     0.0350   -42.5630     8.1710     6.8210     8.8950
 1533.0000    99.0280    10.5910     2.5650     0.0380   -42.5270     8.0060     6.8410     9.0870
 1533.5000    98.2290    10.5760     2.5720     0.0410   -42.4900     7.8250     6.8630     9.2350
 1534.0000    97.4000    10.5600     2.5790     0.0450   -42.4530     7.8470     6.8850     9.3970
 1534.5000    97.8540    10.5470     2.5850     0.0490   -42.4180     7.8710     6.9070     9.3490
 1535.0000   100.1730    10.5330     2.5890     0.0530   -42.4660     7.8950     6.9290     9.2960
 1535.5000   102.2310    10.5200     2.5960     0.0580   -42.7770     7.9190     6.9510     9.2270
 1536.0000   104.3300    10.5060     2.6020     0.0640   -42.5980     7.9430     6.9730     9.3060
