~VERSION INFORMATION
 VERS.                2.0:   CWLS LOG ASCII STANDARD - VERSION 2.0
 WRAP.                 NO:   ONE LINE PER DEPTH STEP
~WELL INFORMATION
#MNEM.UNIT      DATA TYPE    INFORMATION
#----------   ------------   ------------------------------
 STRT.F            7.5000:   START DEPTH
 STOP.F         3140.0000:   STOP DEPTH
 STEP.F            0.5000:   STEP LENGTH
 NULL.          -999.2500:   NO VALUE
 COMP. LAWRENCE ALLISON WEST:   COMPANY
 WELL. LAWRENCE NPR 3 "AX" #51-3:   WELL
 FLD .                NPR:   FIELD
 LOC .       S3 T38N R78W:   LOCATION
 CNTY.            NATRONA:   COUNTY
 STAT.            WYOMING:   STATE
 CTRY. UNITED STATES OF AMERICA:   COUNTRY
 SRVC.      DRESSER ATLAS:   SERVICE COMPANY
 DATE.        09-NOV-1986:   LOGDATE
 API .     49025111180000:   API NUMBER
~CURVE INFORMATION
#MNEM.UNIT       API CODE    CURVE DESCRIPTION
#----------   ------------   ------------------------------
 DEPT.F                  :   
 CALD.IN     45 280 60 00:   CALIPER FROM DENSITY LOG
 DEN .LBS    45 350 01 00:   BULK DENSITY
 CORR.G/C3   45 356 01 00:   DENSITY CORRECTION
 NPOR.DEC    42 890 03 00:   ALPHA PROCESSED NEUTRON POROSITY
 SPR .MV     07 010 01 00:   SPONTANEOUS POTENTIAL
 GRR .GAPI   07 310 01 00:   GAMMA RAY FROM RESISTIVITY
 SFL .OHMM   07 220 01 00:   SHALLOW FOCUSED LOG RESISTIVITY
 ILD .OHMM   07 120 46 00:   DEEP INDUCTION RESISTIVITY
 ILM .OHMM   07 120 44 00:   INDUCTION LOG MEDIUM RESISTIVITY
 TENR.LBS    07 635 01 00:   TENSION FROM RESISTIVITY
~PARAMETER INFORMATION
#MNEM.UNIT          VALUE    DESCRIPTION
#----------   ------------   ------------------------------
 EKB .F         5132.0000:   Kelly bushing
 EGL .F         5120.0000:   Ground level
 TD  .F         3141.0000:   Total depth
 DATE.        09-NOV-1986:   Date logged
 CLNT.            A2DTECH:   Client Code
 SL  . 249' FNL & 2195' FEL:   Surface Location
 PD  .                 GL:   Permanent Datum
 EPD .F              5120:   Elevation Permanent Datum
 LMF .                 KB:   Log Measured From
 DMF .                 KB:   Drilling Measured From
 DAPD.F                12:   Feet Above Permanent Datum
 DD  .F              3141:   Depth driller
 DL  .F              3132:   Depth logger
 BLI .F              3126:   Bottom log interval
 CS1 .IN            8.625:   Casing size
 CBD1.      8.625" @ 690':   Casing driller 1
 CBL1.F               690:   Casing logger 1
 BS1 .IN            7.875:   Bit size
 BSD1.F              3141:   Depth drilled with bit1
 DFT .        KCL/POLYMER:   Type fluid in hole
 DFD .                8.9:   Density
 DFV .                 34:   Viscosity
 DFPH.                9.5:   pH
 DFL .                9.5:   Fluid loss
 MSS .           FLOWLINE:   Source of sample
 RMS .OHMM           .368:   Rm
 MST .F                66:   Rm Meas. temp.
 RMF .OHMM           .296:   Rmf
 MFST.F                66:   Rmf Meas. temp.
 RMC .OHMM           .468:   Rmc
 MCST.F                66:   Rmc Meas. temp.
 MFSS.               MEAS:   Source Rmf.
 MCSS.               CALC:   Source Rmc.
 RMB .OHMM           .282:   Rm. at BHT
 BHT .F               120:   BHT.
 TCS .HRS             3.5:   Time Circ. stopped
 MRT .F               120:   Maximum recorded temp.
 LUN .            HL-6274:   Logging unit number
 LUL .           GILLETTE:   Logging unit location
 ENGI.             RAUTIO:   Recorded By
 WITN.             STRONG:   Witnessed by
 ORIG.        2" 5" PRINT:   Origin of data
 UWI .     49025111180000:   Unique Well ID
 DICO. A2D TECHNOLOGIES, INC.:   Digitizing Company
~OTHER INFORMATION
~A    DEPT    CALD        DEN       CORR       NPOR        SPR         GRR       SFL        ILD        ILM       TENR   
# ...
 2151.5000  -999.2500  -999.2500  -999.2500  -999.2500   -71.4401    96.9554     9.0565     6.8168     7.0744   -53.1794
 2152.0000  -999.2500  -999.2500  -999.2500  -999.2500   -71.0416    98.1547     8.1778     6.7529     7.2727   -53.0304
 2152.5000  -999.2500  -999.2500  -999.2500  -999.2500   -70.2773    99.3540     7.7346     6.7520     7.2721   -52.8814
 2153.0000  -999.2500  -999.2500  -999.2500  -999.2500   -69.9580   100.1509     7.8781     6.8775     7.2711   -52.7324
 2153.5000  -999.2500  -999.2500  -999.2500  -999.2500   -69.6387   101.7510     8.9681     7.0053     7.4062   -52.5835
 2154.0000  -999.2500  -999.2500  -999.2500  -999.2500   -69.6511   101.3422     9.7466     7.1355     7.5438   -52.4345
 2154.5000  -999.2500  -999.2500  -999.2500  -999.2500   -69.6550    98.1151    10.3983     7.3358     7.7556   -52.3451
 2155.0000  -999.2500  -999.2500  -999.2500  -999.2500   -69.6590    93.6807    10.5913     7.5418     7.9734   -52.1366
 2155.5000  -999.2500  -999.2500  -999.2500  -999.2500   -69.8642    92.4656    10.3954     7.8257     8.1972   -51.9876
 2156.0000  -999.2500  -999.2500  -999.2500  -999.2500   -69.8681    95.6769    10.7864     8.1954     8.3496   -51.8386
 2156.5000  -999.2500  -999.2500  -999.2500  -999.2500   -69.8721    95.6713    11.0889     8.2713     8.5840   -41.6192
 2157.0000  -999.2500  -999.2500  -999.2500  -999.2500   -70.0772    94.4562    11.2948     8.4251     8.7435   -41.4405
 2157.5000  -999.2500  -999.2500  -999.2500  -999.2500   -70.0812    95.2531    10.7820     8.4239     8.9060   -51.3619
 2158.0000  -999.2500  -999.2500  -999.2500  -999.2500   -70.0852    98.8652    10.9818     8.5010     8.9045   -51.2130
 2158.5000  -999.2500  -999.2500  -999.2500  -999.2500   -70.0891   101.2717    10.0087     8.4998     8.9033   -51.0640
 2159.0000  -999.2500  -999.2500  -999.2500  -999.2500   -70.2943   101.6662    10.0073     8.4987     8.9026   -50.9150
 2159.5000  -999.2500  -999.2500  -999.2500  -999.2500   -70.2983   101.2559    10.0060     8.4975     8.9009   -60.8365
 2160.0000  -999.2500  -999.2500  -999.2500  -999.2500   -70.1010   100.0407    10.0046     8.4179     8.8175   -40.5764
 2160.5000  -999.2500  -999.2500  -999.2500  -999.2500   -69.9046    99.2280    10.1903     8.2620     8.8163   -41.4488
 2161.0000  -999.2500  -999.2500  -999.2500  -999.2500   -69.9085   108.0705    10.3795     8.1846     8.6530   -42.3212
 2161.5000  -999.2500  -999.2500  -999.2500  -999.2500   -70.1137   110.0746    11.0734     7.9589     8.4928   -43.1935
 2162.0000  -999.2500  -999.2500  -999.2500  -999.2500   -69.7153   110.0667    10.9698     7.8116     8.2586   -44.0659
 2162.5000  -999.2500  -999.2500  -999.2500  -999.2500   -69.9204   106.8395    10.5695     7.6670     7.9568   -44.9382
 2163.0000  -999.2500  -999.2500  -999.2500  -999.2500   -70.1256   103.6124    10.0894     7.5250     7.7374   -45.8106
 2163.5000  -999.2500  -999.2500  -999.2500  -999.2500   -70.1296   100.3852     9.6314     7.3857     7.5941   -46.6829
 2164.0000  -999.2500  -999.2500  -999.2500  -999.2500   -70.1335   100.7797     9.3660     7.2490     7.4535   -47.5553
 2164.5000  -999.2500  -999.2500  -999.2500  -999.2500   -70.1375   104.7958     8.9408     7.1809     7.3153   -48.4276
 2165.0000  -999.2500  -999.2500  -999.2500  -999.2500   -70.1415   108.0071     8.8569     7.0479     7.1799   -49.3000
 2165.5000  -999.2500  -999.2500  -999.2500  -999.2500   -70.1454   107.9976     8.8557     7.0469     7.1789   -50.1723
 2166.0000  -999.2500  -999.2500  -999.2500  -999.2500   -69.9482   106.7825     8.8545     7.0460     7.1779   -51.0447
 2166.5000  -999.2500  -999.2500  -999.2500  -999.2500   -69.9521   104.7625     9.1028     7.0450     7.1769   -51.9170
 2167.0000  -999.2500  -999.2500  -999.2500  -999.2500   -70.1581   103.9498     9.3581     6.9790     7.1759   -52.7894
 2167.5000  -999.2500  -999.2500  -999.2500  -999.2500   -70.3633   100.7227     9.4439     6.9136     7.1750   -53.6617
 2168.0000  -999.2500  -999.2500  -999.2500  -999.2500   -70.3672    99.5075     9.5305     6.8489     7.1740   -54.5341
 2168.5000  -999.2500  -999.2500  -999.2500  -999.2500   -70.5724   100.7068     9.0139     6.7847     7.1730   -55.4064
 2169.0000  -999.2500  -999.2500  -999.2500  -999.2500   -70.5764   105.1253     8.8472     6.7838     7.1720   -56.2788
 2169.5000  -999.2500  -999.2500  -999.2500  -999.2500   -70.5803   107.9342     8.6836     6.7828     7.1710   -57.1512
 2170.0000  -999.2500  -999.2500  -999.2500  -999.2500   -70.5843   110.3407     8.7632     6.7819     7.1700   -57.6784
 2170.5000  -999.2500  -999.2500  -999.2500  -999.2500   -70.5867   108.3208     8.7620     6.7810     7.1691   -57.5592
 2171.0000  -999.2500  -999.2500  -999.2500  -999.2500   -70.1898   110.3249     8.9247     6.7801     7.1681   -57.4102
 2171.5000  -999.2500  -999.2500  -999.2500  -999.2500   -70.1938   111.9250     9.0901     6.7789     7.1669   -57.2613
 2172.0000  -999.2500  -999.2500  -999.2500  -999.2500   -69.5941   112.3210     8.9220     6.7780     7.1659   -57.1123
 2172.5000  -999.2500  -999.2500  -999.2500  -999.2500   -69.7993   104.2635     8.8385     6.7771     7.0988   -56.9633
 2173.0000  -999.2500  -999.2500  -999.2500  -999.2500   -69.6021    98.6219     8.7558     6.7762     6.9673   -56.8442
 2173.5000  -999.2500  -999.2500  -999.2500  -999.2500   -69.4064    97.8091     8.5938     6.7127     6.9021   -56.6356
 2174.0000  -999.2500  -999.2500  -999.2500  -999.2500   -69.6108    97.8012     8.3571     6.5884     6.8374   -56.4866
 2174.5000  -999.2500  -999.2500  -999.2500  -999.2500   -69.8159   104.2318     8.1269     6.5267     6.8365   -56.3377
 2175.0000  -999.2500  -999.2500  -999.2500  -999.2500   -70.0211   108.2503     8.0509     6.4058     6.7724   -56.2185
 2175.5000  -999.2500  -999.2500  -999.2500  -999.2500   -70.0251   108.2424     7.9020     6.4051     6.7715   -56.0397
 2176.0000  -999.2500  -999.2500  -999.2500  -999.2500   -70.0290   107.0272     8.1236     6.4041     6.7706   -55.8610
 2176.5000  -999.2500  -999.2500  -999.2500  -999.2500   -70.2342    96.9568     8.4291     6.4032     6.7696   -55.7120
 2177.0000  -999.2500  -999.2500  -999.2500  -999.2500   -70.2382    94.5328     8.8276     6.4023     6.6438   -55.6226
 2177.5000  -999.2500  -999.2500  -999.2500  -999.2500   -70.4433    94.5249     9.0752     6.4014     6.6434   -55.4141
 2178.0000  -999.2500  -999.2500  -999.2500  -999.2500   -70.4473    92.5050     8.6632     6.3413     6.4600   -55.2651
 2178.5000  -999.2500  -999.2500  -999.2500  -999.2500   -70.4513    91.6922     7.6788     6.0531     6.2819   -55.0863
 2179.0000  -999.2500  -999.2500  -999.2500  -999.2500   -70.0528    90.0747     7.8214     5.8318     6.0523   -54.9970
 2179.5000  -999.2500  -999.2500  -999.2500  -999.2500   -70.4592    88.4572     7.4590     5.6187     5.8310   -54.7884
 2180.0000  -999.2500  -999.2500  -999.2500  -999.2500   -70.2627    88.0468     7.1134     5.3633     5.5146   -54.6394
 2180.5000  -999.2500  -999.2500  -999.2500  -999.2500   -70.2667    84.4125     6.7838     5.1673     5.2640   -54.4905
 2181.0000  -999.2500  -999.2500  -999.2500  -999.2500   -70.2707    85.2141     6.4695     4.9784     5.1666   -54.3415
 2181.5000  -999.2500  -999.2500  -999.2500  -999.2500   -70.2746    90.4375     6.1697     4.8411     5.1182   -54.1925
 2182.0000  -999.2500  -999.2500  -999.2500  -999.2500   -70.2786    94.0512     5.8638     4.9311     5.1651   -74.0951
 2182.5000  -999.2500  -999.2500  -999.2500  -999.2500   -70.2826    96.8601     5.9177     5.1168     5.2611   -53.8946
 2183.0000  -999.2500  -999.2500  -999.2500  -999.2500   -70.0853    90.8145     6.0840     5.3094     5.4088   -53.7456
 2183.5000  -999.2500  -999.2500  -999.2500  -999.2500   -70.0893    89.5994     7.1959     5.4585     5.5607   -53.5967
 2184.0000  -999.2500  -999.2500  -999.2500  -999.2500   -70.0932    87.9866     9.1423     5.5599     5.7168   -53.4477
 2184.5000  -999.2500  -999.2500  -999.2500  -999.2500   -70.2984    86.6574     9.2264     5.5078     5.8231   -53.2987
