~VERSION INFORMATION
 VERS.                2.0:   CWLS LOG ASCII STANDARD - VERSION 2.0
 WRAP.                 NO:   ONE LINE PER DEPTH STEP
~WELL INFORMATION
#MNEM.UNIT      DATA TYPE    INFORMATION
#----------   ------------   ------------------------------
 STRT.F            0.0000:   START DEPTH
 STOP.F         5673.0000:   STOP DEPTH
 STEP.F            0.5000:   STEP LENGTH
 NULL.          -999.2500:   NO VALUE
 COMP.       FLUOR DANIEL:   COMPANY
 WELL.   FLUOR "X" #63-10:   WELL
 FLD .             NPR #3:   FIELD
 LOC .      S10 T38N R78W:   LOCATION
 CNTY.            NATRONA:   COUNTY
 STAT.            WYOMING:   STATE
 CTRY. UNITED STATES OF AMERICA:   COUNTRY
 SRVC.      WESTERN ATLAS:   SERVICE COMPANY
 DATE.        02-MAR-1996:   LOGDATE
 API .     49025227690000:   API NUMBER
~CURVE INFORMATION
#MNEM.UNIT       API CODE    CURVE DESCRIPTION
#----------   ------------   ------------------------------
 DEPT.F                  :   
 GRD .GAPI   45 310 01 00:   GAMMA RAY FROM DENSITY LOG
 TEND.LBS    45 635 01 00:   TENSION FROM DENSITY LOG
 CALD.IN     45 280 60 00:   CALIPER FROM DENSITY LOG
 ZCOR.G/C3   45 356 01 00:   DENSITY CORRECTION
 ZDEN.G/C3   45 350 01 00:   BULK DENSITY
 CNC .DEC    42 890 03 00:   COMPENSATED NEUTRON POROSITY SANDSTONE
 SPR .MV     11 010 01 00:   SPONTANEOUS POTENTIAL FROM RESISTIVITY
 RD  .OHMM   11 220 10 00:   RESISTIVITY DEEP
 RS  .OHMM   11 220 09 00:   RESISTIVITY SHALLOW
~PARAMETER INFORMATION
#MNEM.UNIT          VALUE    DESCRIPTION
#----------   ------------   ------------------------------
 EKB .F         5196.0000:   Kelly bushing
 EGL .F         5186.0000:   Ground level
 EDF .F         5195.0000:   Drilling floor
 TD  .F         5674.0000:   Total depth
 CLNT.            A2DTECH:   Client Code
 SL  . 1688' FNL & 1730' FEL:   Surface Location
 PD  .                 GL:   Permanent Datum
 EPD .F              5186:   Elevation Permanent Datum
 LMF .                 KB:   Log Measured From
 DMF .                 KB:   Drilling Measured From
 DAPD.F                10:   Feet Above Permanent Datum
 DATE.        02-MAR-1996:   Date Logged [DD-MMM-YYYY]
 DD  .F              5674:   Depth driller
 DL  .F              5674:   Depth logger
 BLI .F              5663:   Bottom log interval
 CS1 .IN            9.625:   Casing size
 CBD1.      9.625" @ 448':   Casing driller 1
 CBL1.F               448:   Casing logger 1
 BS1 .IN             8.75:   Bit size
 BSD1.F              5674:   Depth drilled with bit1
 DFT .               CHEM:   Type fluid in hole
 DFD .                9.7:   Density
 DFV .                 53:   Viscosity
 DFPH.                9.0:   pH
 DFL .                9.2:   Fluid loss
 MSS .           FLOWLINE:   Source of sample
 RMS .OHMM          0.628:   Rm
 MST .F                71:   Rm Meas. temp.
 RMF .OHMM          0.477:   Rmf
 MFST.F                71:   Rmf Meas. temp.
 MFSS.               MEAS:   Source Rmf.
 RMC .OHMM          0.779:   Rmc
 MCST.F                71:   Rmc Meas. temp.
 MCSS.               MEAS:   Source Rmc.
 RMB .OHMM          0.251:   Rm. at BHT
 BHT .F               178:   BHT.
 TCS .F               4.5:   Time Circ. stopped
 MRT .HRS             178:   Maximum recorded temp.
 LUN .            HL-6530:   Logging unit number
 LUL .             CASPER:   Logging unit location
 ENGI.      PAT RASMUSSEN:   Recorded By
 ORIG.           5" PRINT:   Origin of data
 UWI .     49025227690000:   Unique Well ID
 WITN.         LAFRENIERE:   Witnessed by
 DICO.   A2D TECHNOLOGIES:   Digitizing Company
~OTHER INFORMATION
~A  DEPTH      GRD       TEND       CALD       ZCOR       ZDEN        CNC        SPR         RD         RS
# ...
 1460.0000    88.9757   -89.5908     9.8138     0.1432     2.5230     0.2906   -71.8092    10.1860     7.9182
 1460.5000    90.4887   -82.3059     9.8138     0.1326     2.5200     0.2951   -71.7371    10.0428     7.8081
 1461.0000    93.2052   -75.0209     9.8288     0.1251     2.5223     0.2969   -71.6646     9.8324     7.6467
 1461.5000    94.7169   -67.7360     9.8438     0.1190     2.5329     0.2975   -71.5890     9.8292     7.4372
 1462.0000    94.1214   -60.4511     9.8589     0.1145     2.5532     0.2963   -71.4852     9.7583     7.6447
 1462.5000    92.0185   -53.2190     9.8889     0.1144     2.5690     0.2891   -71.3746     9.8228     7.9125
 1463.0000    91.1205   -38.4906     9.9039     0.1143     2.5765     0.2785   -71.2625    10.5223     8.1900
 1463.5000    90.8249   -23.7095     9.9189     0.1173     2.5728     0.2690   -71.1954    11.1177     8.5361
 1464.0000    91.1331    -8.9283     9.9363     0.1202     2.5615     0.2702   -71.4667    11.1921     8.5943
 1464.5000    92.0423    13.3491     9.9404     0.1262     2.5510     0.2756   -71.7310    10.8821     8.3006
 1465.0000    93.8565    43.0700     9.9446     0.1306     2.5428     0.2928   -71.9932    10.0109     7.9620
 1465.5000    94.4645    65.3474     9.9487     0.1351     2.5375     0.3069   -72.2548     9.2102     7.5322
 1466.0000    94.4701    87.6312     9.9528     0.1380     2.5406     0.3063   -72.3897     9.2719     7.2751
 1466.5000    94.7771    87.4063     9.9570     0.1334     2.5474     0.3009   -72.3897     9.2042     7.3245
 1467.0000    95.9888    64.6606     9.9611     0.1289     2.5564     0.2988   -72.3898     9.8597     7.5291
 1467.5000    96.5968    26.9680     9.9652     0.1048     2.5670     0.2946   -72.3897    10.1339     7.7931
 1468.0000    94.1687   -10.7246     9.9694     0.0957     2.5730     0.2934   -72.3894    10.2010     8.0108
 1468.5000    91.4889   -40.9737     9.9735     0.1002     2.5745     0.2904   -72.3715    10.2677     8.0654
 1469.0000    89.9870   -63.6738     9.9776     0.1016     2.5753     0.2895   -72.3109    10.3347     7.8984
 1469.5000    90.8976   -71.3814     9.9790     0.1000     2.5791     0.2940   -72.2510    10.4753     7.8429
 1470.0000    92.7119   -79.0890     9.9810     0.1000     2.5829     0.2986   -72.1910    10.5455     7.8418
 1470.5000    93.0187   -79.3531     9.9940     0.1119     2.5814     0.2956   -72.1312    10.2534     7.8406
 1471.0000    90.6146   -79.5644     9.9940     0.1224     2.5739     0.2896   -72.0712    10.1084     7.8942
 1471.5000    88.8130   -79.7758     9.9940     0.1268     2.5581     0.2818   -72.0118    10.1051     8.0585
 1472.0000    88.5174   -72.4908     9.9940     0.1133     2.5506     0.2803   -71.9050    10.3137     8.0575
 1472.5000    91.5364   -72.7550    10.0090     0.1042     2.5529     0.2833   -71.7705    10.6734     8.1124
 1473.0000    93.6505   -50.4776    10.0090     0.0981     2.5604     0.2815   -71.6351    10.8185     8.1110
 1473.5000    92.4526   -43.1398    10.0240     0.0996     2.5687     0.2749   -71.4996    10.8141     8.1666
 1474.0000    91.8544   -35.9070    10.0240     0.1070     2.5695     0.2659   -71.3648    10.8106     8.1089
 1474.5000    91.8614   -28.6228    10.0240     0.1130     2.5598     0.2677   -71.2264    10.2251     8.0517
 1475.0000    91.5658   -28.8870    10.0240     0.1219     2.5523     0.2740   -71.2913    10.0804     7.9400
 1475.5000    91.8740   -36.5946    10.0240     0.1293     2.5485     0.2817   -71.4448    10.2176     7.8299
 1476.0000    91.8796   -36.8066    10.0240     0.1338     2.5470     0.2834   -71.6015    10.3575     7.8288
 1476.5000    92.4890   -37.0701    10.0240     0.1367     2.5486     0.2846   -71.7578    10.3532     7.8276
 1477.0000    91.8922   -29.7323    10.0240     0.1367     2.5524     0.2909   -71.9139    10.2777     7.8265
 1477.5000    90.6928   -22.4474    10.0240     0.1411     2.5569     0.2966   -72.0700    10.2035     7.8255
 1478.0000    91.0012   -15.2153    10.0240     0.1485     2.5554     0.2972   -72.2263    10.2001     7.8245
 1478.5000    91.6092   -22.9757    10.0240     0.1500     2.5517     0.2909   -72.3820    10.1968     7.8232
 1479.0000    93.4220   -45.6758    10.0240     0.1454     2.5532     0.2810   -72.5413    10.1927     7.8222
 1479.5000    94.6325   -53.3305    10.0240     0.1424     2.5540     0.2813   -72.4926    10.1894     7.8755
 1480.0000    93.7358   -23.1145    10.0240     0.1468     2.5344     0.2828   -72.3513    10.1860     7.8745
 1480.5000    90.1269    -8.8813    10.0240     0.1467     2.5269     0.2810   -72.2069    10.1827     7.8732
 1481.0000    88.9277    -9.0926    10.0240     0.1421     2.5384     0.2771   -72.0628    10.1786     7.8179
 1481.5000    90.4407   -16.8002    10.0390     0.1241     2.5586     0.2777   -71.9190    10.1753     7.8169
 1482.0000    91.0487   -17.0165    10.0390     0.1226     2.5714     0.2805   -71.7751    10.2434     7.8158
 1482.5000    89.8495    -9.7266    10.0541     0.1360     2.5736     0.2871   -71.6312    10.3819     7.8691
 1483.0000    88.9515    -2.4417    10.0541     0.1465     2.5752     0.2895   -71.4870    10.4506     7.9227
 1483.5000    91.6693     4.7976    10.0691     0.1359     2.5805     0.2901   -71.3412    10.3028     7.9767
 1484.0000    92.8797    -2.9235    10.0541     0.1238     2.5812     0.2907   -71.2024    10.4430     7.9754
 1484.5000    89.2723    -3.1814    10.0390     0.1343     2.5542     0.2982   -71.6016    10.4396     7.8102
 1485.0000    87.4706    -3.3927    10.0090     0.1693     2.4952     0.3165   -71.9861    10.0109     7.6488
 1485.5000    86.5726   -11.1003     9.9940     0.2017     2.4805     0.3274   -71.9041     9.7345     7.4390
 1486.0000    86.6265   -18.8156     9.9640     0.1731     2.4971     0.3193   -71.8311     9.5314     7.1851
 1486.5000    90.5009   -26.5682     9.9489     0.1535     2.5302     0.3082   -71.7579     9.4626     7.3858
 1487.0000    91.1075   -49.2683     9.9339     0.1427     2.5431     0.3010   -71.6871     9.5905     7.6976
 1487.5000    88.4036   -49.4797     9.9339     0.1324     2.5446     0.2998   -71.6097     9.9938     7.8041
 1488.0000    86.6034   -27.2550     9.9189     0.1293     2.5513     0.2995   -72.0809    10.1306     7.8029
 1488.5000    86.6090   -19.9173     9.9189     0.1248     2.5634     0.3001   -72.7839    10.1265     7.8016
 1489.0000    87.2170   -12.6324     9.9189     0.1201     2.5780     0.2978   -72.7953    10.1224     7.8548
 1489.5000    87.5252   -20.5607     9.9189     0.1187     2.5830     0.2953   -72.5226    10.4031     8.0187
 1490.0000    87.8306   -28.1356     9.9189     0.1246     2.5793     0.2920   -72.0387    10.9917     8.2424
 1490.5000    85.4279   -28.3469     9.9339     0.1350     2.5695     0.2890   -71.5855    11.0644     8.4724
 1491.0000    86.0373   -28.5607     9.9378     0.1475     2.5595     0.2911   -71.6166    11.1376     8.4129
 1491.5000    88.4526   -28.8224     9.9489     0.1604     2.5492     0.2938   -71.9763    10.9800     8.2390
 1492.0000    89.9642   -29.0338     9.9489     0.1634     2.5387     0.2926   -71.9859    10.5301     8.0130
 1492.5000    90.2711   -29.2451     9.9640     0.1573     2.5282     0.2882   -71.8666    10.0985     7.7392
 1493.0000    90.8804   -36.9565     9.9640     0.1509     2.5230     0.2873   -71.7419     9.7511     7.6319
 1493.5000    92.0908   -37.2168     9.9640     0.1392     2.5335     0.2885   -71.6185     9.7479     7.5260
 1494.0000    91.4940   -37.4281     9.9640     0.1436     2.5373     0.2934   -71.4951     9.6776     7.4216
 1494.5000    88.4889   -45.1357     9.9790     0.1601     2.5336     0.2981   -71.3706     9.2810     7.3184
 1495.0000    88.4945   -46.1004     9.9790     0.1692     2.5137     0.3017   -71.2489     9.0239     7.1671
 1495.5000    90.3074   -53.1074     9.9790     0.1509     2.5058     0.3068   -71.1948     9.0210     7.1167
 1496.0000    93.3264   -60.8150     9.9790     0.1314     2.5164     0.3131   -71.9315     8.7719     7.0180
