~VERSION INFORMATION
 VERS.                2.0:   CWLS LOG ASCII STANDARD - VERSION 2.0
 WRAP.                 NO:   ONE LINE PER DEPTH STEP
~WELL INFORMATION
#MNEM.UNIT      DATA TYPE    INFORMATION
#----------   ------------   ------------------------------
 STRT.F            0.5000:   START DEPTH
 STOP.F         3195.0000:   STOP DEPTH
 STEP.F            0.5000:   STEP LENGTH
 NULL.          -999.2500:   NO VALUE
 COMP.   TESORO PETROLEUM:   COMPANY
 WELL. TESORO NPR 3 "A" #15-10:   WELL
 FLD .        TEAPOT DOME:   FIELD
 LOC .      S10 T38N R78W:   LOCATION
 CNTY.            NATRONA:   COUNTY
 STAT.            WYOMING:   STATE
 CTRY. UNITED STATES OF AMERICA:   COUNTRY
 SRVC.       SCHLUMBERGER:   SERVICE COMPANY
 DATE.        03-JUL-1969:   LOGDATE
 API .     49025600130000:   API NUMBER
~CURVE INFORMATION
#MNEM.UNIT       API CODE    CURVE DESCRIPTION
#----------   ------------   ------------------------------
 DEPT.F                  :   
 SPR .MV     05 010 01 00:   SPONTANEOUS POTENTIAL FROM RES.
 ASN .OHMM   05 041 16 00:   AMPLIFIED SHORT NORMAL 16"
 ILD .OHMM   05 120 46 00:   INDUCTION LOG DEEP
 CALD.IN     45 280 60 00:   CALIPER FROM DENSITY LOG
 GRD .GAPI   45 310 01 00:   GAMMA RAY FROM DENSITY LOG
 RHOB.G/C3   45 350 01 00:   BULK DENSITY
~PARAMETER INFORMATION
#MNEM.UNIT          VALUE    DESCRIPTION
#----------   ------------   ------------------------------
 EKB .F         5250.0000:   Kelly bushing
 EGL .F         5237.0000:   Ground level
 EDF .F            0.0000:   Drilling floor
 TD  .F         3200.0000:   Total depth
 CLNT.            A2DTECH:   Client Code
 SL  . 990' FWL & 1980' FSL:   Surface Location
 PD  .                 GL:   Permanent Datum
 EPD .F              5237:   Elevation Permanent Datum
 LMF .                 KB:   Log Measured From
 DMF .                 KB:   Drilling Measured From
 DAPD.F                13:   Feet Above Permanent Datum
 DATE.        03-JUL-1969:   Date Logged [DD-MMM-YYYY]
 DD  .F              3200:   Depth driller
 DL  .F              3196:   Depth logger
 BLI .F              3195:   Bottom log interval
 TLI .F               676:   Top log interval
 CS1 .IN            10.75:   Casing size
 CBD1.      10.75" @ 675':   Casing driller 1
 CBL1.F               676:   Casing logger 1
 BS1 .IN            6.125:   Bit size
 BSD1.F              3200:   Depth drilled with bit1
 DFT .      FRESH GEL MUD:   Type fluid in hole
 DFD .                9.5:   Density
 DFV .                 46:   Viscosity
 DFPH.                9.5:   pH
 DFL .                6.4:   Fluid loss
 MSS .           FLOWLINE:   Source of sample
 RMS .OHMM           2.05:   Rm
 MST .F                76:   Rm Meas. temp.
 RMF .OHMM           1.49:   Rmf
 MFST.F                78:   Rmf Meas. temp.
 MFSS.               MEAS:   Source Rmf.
 RMB .OHMM           1.34:   Rm. at BHT
 BHT .F               116:   BHT.
 TCS .HRS               2:   Time Circ. stopped
 MRT .F               116:   Maximum recorded temp.
 LUN .               4507:   Logging unit number
 LUL .               CSPR:   Logging unit location
 ENGI.             KNOBEL:   Recorded By
 WITN.                MAY:   Witnessed by
 ORIG.        2" 5" PRINT:   Origin of data
 UWI .     49025600130000:   Unique Well ID
 DICO. A2D TECHNOLOGIES, INC.:   Digitizing Company
~OTHER INFORMATION
~A    DEPT     SPR          ASN      ILD       CALD        GRD       RHOB   
# ...
 3120.5000   -27.7115    10.5616     8.0827     9.0588   113.5549     2.5239
 3121.0000   -27.7034    10.4144     8.0088     9.0588   110.0047     2.5210
 3121.5000   -28.2815    10.2692     7.8606     9.0588   109.7860     2.5210
 3122.0000   -28.1263    10.1231     7.7121     9.0588   110.6696     2.5241
 3122.5000   -27.6770    10.1284     7.4889     9.0588   111.5533     2.5234
 3123.0000   -27.6689    10.1326     7.4903     9.0588   111.5554     2.5264
 3123.5000   -28.1020    10.1368     7.4168     9.0588   110.2358     2.5265
 3124.0000   -28.3860    10.2925     7.4935     9.0441   107.5947     2.5326
 3124.5000   -28.5250    10.4471     7.5699     9.0294   105.6149     2.5424
 3125.0000   -28.5169    10.6769     7.7212     9.0294   103.8549     2.5454
 3125.5000   -28.6558    10.9235     8.0381     9.0294   101.6543     2.5417
 3126.0000   -28.9419    11.5134     8.7738     9.0147    98.7751     2.5178
 3126.5000   -29.3729    12.4199    10.1995     8.9706    95.7118     2.5028
 3127.0000   -30.2472    13.4768    10.7257     8.9412    91.5289     2.4961
 3127.5000   -31.5807    14.7602    12.2267     8.8971    85.8041     2.4946
 3128.0000   -34.0525    16.0426    13.1276     8.8646    77.3349     2.4984
 3128.5000   -40.5149    18.1521    14.6283     8.8382    66.8660     2.4947
 3129.0000   -44.4774    19.2194    15.9790     8.7941    60.2601     2.4550
 3129.5000   -46.6752    20.2669    17.7799     8.7500    56.0772     2.3883
 3130.0000   -51.9592    20.8726    19.5054     8.6765    54.7280     2.3830
 3130.5000   -52.8335    21.3279    20.1815     8.5588    52.9981     2.3853
 3131.0000   -54.0018    21.6340    20.1773     8.4853    51.6786     2.3771
 3131.5000   -55.4643    22.2397    20.0344     8.3971    49.9185     2.3719
 3132.0000   -57.8071    23.2965    19.8858     8.3529    45.2956     2.3802
 3132.5000   -59.4167    24.3534    19.8126     8.3235    44.6363     2.3728
 3133.0000   -60.7321    25.2609    19.7391     8.3088    45.7402     2.3646
 3133.5000   -61.9005    25.4155    19.7408     8.2941    47.2841     2.3594
 3134.0000   -62.4965    25.7205    19.6673     8.3088    49.0489     2.3887
 3134.5000   -63.0608    26.4902    19.5937     8.3088    50.1522     2.3865
 3135.0000   -63.1997    27.2338    19.3706     8.3235    51.0354     2.3798
 3135.5000   -63.0425    27.9898    19.2967     8.3235    51.2577     2.3746
 3136.0000   -63.3285    28.5956    19.2984     8.3088    51.7008     2.3581
 3136.5000   -63.6125    27.6986    19.1499     8.2059    51.9229     2.2981
 3137.0000   -63.6044    25.4472    18.8518     7.3824    52.1455     2.2884
 3137.5000   -63.5963    24.9240    18.6283     6.6029    51.9090     2.3380
 3138.0000   -63.5882    27.2752    18.7047     5.8824    51.7091     2.3756
 3138.5000   -63.2840    28.0173    19.1559     5.7941    52.1522     2.3809
 3139.0000   -62.6877    27.7197    19.0074     5.7647    55.2379     2.3840
 3139.5000   -61.3560    27.8753    18.7842     5.7353    58.3844     2.3908
 3140.0000   -56.2009    29.2611    17.6612     5.7353    59.4276     2.3969
 3140.5000   -55.0163    33.5991    16.6135     5.7206    57.4473     2.4014
 3141.0000   -59.4179    36.1597    16.1651     5.7206    54.1454     2.3996
 3141.5000   -63.0863    37.9685    15.8667     5.7206    51.7251     2.3640
 3142.0000   -64.9900    36.7707    15.7181     5.7206    50.6258     2.3685
 3142.5000   -65.8642    35.3464    15.6449     5.7206    50.6279     2.3708
 3143.0000   -65.5600    33.9972    15.5710     5.7206    50.4097     2.3581
 3143.5000   -65.2578    33.3141    15.6477     5.7353    47.9894     2.3619
 3144.0000   -63.9261    32.7275    15.8879     5.7353    43.3659     2.3732
 3144.5000   -63.0255    32.6565    16.9253     5.7407    42.4864     2.3755
 3145.0000   -62.5844    32.7369    18.2760     5.7500    43.3700     2.3643
 3145.5000   -61.6939    33.9452    19.7766     5.7647    44.2537     2.3764
 3146.0000   -61.3937    35.8291    22.4771     5.7794    44.4760     2.4087
 3146.5000   -61.8248    38.6153    24.8023     5.7794    44.9186     2.4454
 3147.0000   -61.6676    42.0870    27.7272     5.7794    47.4001     2.4802
 3147.5000   -59.3066    45.2414    31.3268     5.7647    50.4299     2.5208
 3148.0000   -56.3573    47.6516    35.0767     5.7647    52.1940     2.5313
 3148.5000   -52.2315    51.2458    35.3027     5.7647    54.8393     2.5359
 3149.0000   -50.1646    51.2015    34.3299     5.7647    50.8152     2.5359
 3149.5000   -51.3310    48.9098    32.3354     5.7500    50.4381     2.5232
 3150.0000   -53.5287    44.5115    28.6359     5.7353    51.1015     2.5023
 3150.5000   -57.7853    40.9053    25.7887     5.7353    51.3238     2.3784
 3151.0000   -59.8766    36.6983    23.1749     5.7353    51.3264     2.3537
 3151.5000   -60.8554    34.4454    20.0313     5.7229    51.9893     2.3665
 3152.0000   -61.5826    32.7189    18.8368     5.7284    53.9737     2.3688
 3152.5000   -61.8971    30.3164    17.5424     5.7338    56.6189     2.3681
 3153.0000   -61.3054    28.5147    15.7744     5.7398    54.8594     2.3759
 3153.5000   -60.2733    26.6378    14.8797     5.7404    53.9799     2.3960
 3154.0000   -59.5352    25.0459    14.1350     5.7412    57.2865     2.3788
 3154.5000   -58.5024    22.7343    13.6901     5.7420    60.1685     2.3826
 3155.0000   -56.7349    21.0078    13.5451     5.7280    63.4585     2.4108
 3155.5000   -55.2616    20.1835    13.3264     5.7287    64.3411     2.4180
 3156.0000   -54.9626    20.1111    13.1064     5.7295    63.2424     2.3963
 3156.5000   -58.9318    20.1898    13.1125     5.7301    62.7839     2.3693
 3157.0000   -61.1357    20.6437    13.2673     5.7456    62.3655     2.3648
 3157.5000   -59.0734    20.7970    13.6470     5.7463    61.9270     2.3829
 3158.0000   -56.7972    20.7245    14.2529     5.7471    60.1866     2.3882
 3158.5000   -54.3613    21.4047    14.7825     5.7625    58.2727     2.3928
 3159.0000   -53.9181    22.6124    15.3871     5.7486    55.0252     2.3951
 3159.5000   -56.1205    24.1178    16.0068     5.7493    49.9798     2.3659
 3160.0000   -59.4994    25.3236    16.8224     5.7500    48.2379     2.3419
 3160.5000   -60.0856    26.2286    17.5020     5.7508    48.4842     2.3329
 3161.0000   -60.6704    26.5322    18.4064     5.7515    48.5048     2.3300
 3161.5000   -61.2559    26.0846    19.4620     5.7375    48.0849     2.3458
 3162.0000   -60.5172    25.6362    19.9167     5.7382    46.5400     2.3541
 3162.5000   -60.3674    25.0375    20.3714     5.7390    45.7031     2.3572
 3163.0000   -60.2176    24.7396    20.6787     5.7397    48.3720     2.3572
 3163.5000   -60.5291    24.5920    20.6822     5.7404    50.8155     2.3618
 3164.0000   -60.8003    24.5955    20.6122     5.7413    53.2642     2.3738
 3164.5000   -60.3557    24.5990    20.3921     5.7419    53.7253     2.3807
 3165.0000   -59.6176    24.6018    19.6487     5.7446    53.9661     2.3777
 3165.5000   -58.4377    24.7550    19.0539     5.7480    54.6476     2.3755
 3166.0000   -57.1114    24.3074    18.3092     5.7515    55.7746     2.3808
 3166.5000   -56.5211    23.2575    17.4857     5.7549    54.0330     2.3764
 3167.0000   -56.9589    22.0573    16.1463     5.7583    52.7320     2.3802
 3167.5000   -56.9554    20.8420    15.0267     5.7617    50.2715     2.3817
 3168.0000   -57.1004    19.2065    13.9072     5.7652    49.0287     2.3758
 3168.5000   -56.9499    18.0063    13.1637     5.7686    51.0368     2.3661
 3169.0000   -56.0641    17.1068    12.7188     5.7720    55.2424     2.3579
 3169.5000   -54.5908    15.7569    12.5726     5.7754    59.4532     2.3564
 3170.0000   -51.9410    15.3086    12.3538     5.7789    59.2535     2.3617
 3170.5000   -52.5357    15.2355    11.9102     5.7823    57.2917     2.3625
 3171.0000   -56.0525    15.3142    11.3903     5.7857    55.9705     2.3588
 3171.5000   -58.2556    15.0162    11.0204     5.7891    54.9151     2.3649
 3172.0000   -58.6947    14.2679    10.5556     5.7926    55.1560     2.3762
