~VERSION INFORMATION
 VERS.                2.0:   CWLS LOG ASCII STANDARD - VERSION 2.0
 WRAP.                 NO:   ONE LINE PER DEPTH STEP
~WELL INFORMATION
#MNEM.UNIT      DATA TYPE    INFORMATION
#----------   ------------   ------------------------------
 STRT.F          200.0000:   START DEPTH
 STOP.F         3050.0000:   STOP DEPTH
 STEP.F            0.5000:   STEP LENGTH
 NULL.          -999.2500:   NO VALUE
 COMP.     FENIX & SISSON:   COMPANY
 WELL. FENIX & SISSON "AX" #16-28:   WELL
 FLD .              NPR 3:   FIELD
 LOC .      S28 T39N R78W:   LOCATION
 CNTY.            NATRONA:   COUNTY
 STAT.            WYOMING:   STATE
 CTRY. UNITED STATES OF AMERICA:   COUNTRY
 SRVC.      DRESSER ATLAS:   SERVICE COMPANY
 DATE.        01-JUL-1977:   LOGDATE
 API .     49025103930000:   API NUMBER
~CURVE INFORMATION
#MNEM.UNIT       API CODE    CURVE DESCRIPTION
#----------   ------------   ------------------------------
 DEPT.F                  :   
 CALD.IN     45 280 60 00:   CALIPER FROM DENSITY LOG
 GRD .GAPI   45 310 01 00:   GAMMA RAY FROM DENSITY LOG
 CORR.G/C3   45 356 01 00:   DENSITY CORRECTION
 TEND.LBS    45 635 01 00:   TENSION FROM DENSITY LOG
 SPR .MV     07 010 01 00:   SPONTANEOUS POTENTIAL
 ILD .OHMM   07 120 46 00:   DEEP INDUCTION RESISTIVITY
 ILM .OHMM   07 120 44 00:   INDUCTION LOG MEDIUM RESISTIVITY
 SFL .OHMM   07 220 01 00:   SHALLOW FOCUSED LOG RESISTIVITY
 RHOB.G/C3   45 350 01 00:   BULK DENSITY
~PARAMETER INFORMATION
#MNEM.UNIT          VALUE    DESCRIPTION
#----------   ------------   ------------------------------
 EKB .F         5067.0000:   Kelly bushing
 EGL .F         5057.0000:   Ground level
 EDF .F         5066.0000:   Drilling floor
 EPD .F            0.0000:   Permanent datum
 TD  .F         3036.0000:   Total depth
 DATE.        01-JUL-1977:   Date logged
 CLNT.            A2DTECH:   Client Code
 SL  . 1220' FSL & 330' FWL:   Surface Location
 PD  .                 GL:   Permanent Datum
 DAPD.F                10:   Feet Above Permanent Datum
 DD  .F              3034:   Depth driller
 DL  .F              3036:   Depth logger
 BLI .F              3034:   Bottom log interval
 TLI .F               214:   Top log interval
 CS1 .IN            8.625:   Casing size
 CBD1.      8.625" @ 204':   Casing driller 1
 CBL1.F               214:   Casing logger 1
 BS1 .IN            7.875:   Bit size
 BSD1.F              3034:   Depth drilled with bit1
 DFT .                KCL:   Type fluid in hole
 DFD .                  9:   Density
 DFV .                 34:   Viscosity
 DFPH.                7.2:   pH
 DFL .                8.8:   Fluid loss
 MSS .         CIRCULATED:   Source of sample
 RMS .OHMM           .112:   Rm
 MST .F                75:   Rm Meas. temp.
 RMF .OHMM           .085:   Rmf
 MFST.F                75:   Rmf Meas. temp.
 RMC .OHMM           .141:   Rmc
 MCST.F                75:   Rmc Meas. temp.
 MFSS.               MEAS:   Source Rmf.
 MCSS.               MEAS:   Source Rmc.
 RMB .OHMM           .067:   Rm. at BHT
 BHT .F               124:   BHT.
 TCS .HRS               1:   Time Circ. stopped
 MRT .F               124:   Maximum recorded temp.
 LUN .               6134:   Logging unit number
 LUL .              GLTTE:   Logging unit location
 ENGI.              GOULD:   Recorded By
 WITN.         PETTINGILL:   Witnessed by
 ORIG.       2.5"5" PRINT:   Origin of data
 UWI .     49025103930000:   Unique Well ID
 DICO. A2D TECHNOLOGIES, INC.:   Digitizing Company
~OTHER INFORMATION
~A   DEPT     CALD         GRD      CORR       TEND        SPR        ILD        ILM        SFL       RHOB   
# ...
  382.5000     8.2240    82.4750     0.0260   -53.2780   -25.7510     9.5770     9.5510    11.9370     2.3910
  383.0000     8.2240    81.6720     0.0250   -42.0270   -26.9900    10.1510    10.7400    13.2760     2.4040
  383.5000     8.2990    81.1190     0.0150   -30.7770   -28.3050    10.0700    12.0990    14.8060     2.4050
  384.0000     8.3310    81.7910     0.0150   -19.5260   -29.0840    10.0700    11.5690    13.8960     2.3980
  384.5000     8.3080    82.5330     0.0170   -26.3140   -29.2360    10.0700    10.6400    12.1630     2.3770
  385.0000     8.4320    83.2980     0.0200   -38.6900   -29.4580    10.4470    10.6730    11.4510     2.3650
  385.5000     8.2630    83.4920     0.0220   -51.0660   -29.6850    10.1510    10.7540    11.7640     2.3610
  386.0000     8.2280    83.2790     0.0230   -63.4420   -30.1420     9.6520    10.8370    12.7760     2.3630
  386.5000     8.2590    82.8380     0.0230   -76.3890   -31.1590     9.1520    10.3870    14.6200     2.3760
  387.0000     8.3100    82.3910     0.0210   -64.5830   -32.2910     8.8560     9.8870    16.4640     2.3930
  387.5000     8.4130    81.9450     0.0160   -52.2070   -33.3760     8.8560    12.7590    18.1190     2.3980
  388.0000     8.5150    82.5760     0.0110   -39.8310   -35.4240     9.6980    18.3870    22.1760     2.4030
  388.5000     8.4320    83.4840     0.0040   -27.4550   -37.1730    10.4610    21.9980    27.1340     2.3990
  389.0000     8.3300    82.8050     0.0010   -16.8650   -38.3650    11.3380    23.4280    26.1550     2.3930
  389.5000     8.2960    82.1220     0.0030   -17.2720   -39.4420    12.5630    21.8670    20.2290     2.3960
  390.0000     8.2840    82.1030     0.0060   -17.7020   -40.5280    13.7870    18.2250    19.8700     2.3930
  390.5000     8.3390    82.5770     0.0090   -18.1330   -41.6150    14.9280    14.5820    19.5180     2.4050
  391.0000     8.4180    83.3940     0.0120   -18.5630   -42.6870    15.3600    12.7770    19.1670     2.4030
  391.5000     8.4980    83.7890     0.0150   -18.9940   -43.8260    15.3600    12.3230    18.8150     2.4250
  392.0000     8.3810    83.5970     0.0180   -19.4240   -44.2670    14.8610    12.5850    18.4640     2.4170
  392.5000     8.2240    83.5030     0.0220   -19.8550   -44.0790    14.3300    13.0780    18.1120     2.4090
  393.0000     8.2240    83.9180     0.0260   -20.2860   -43.9140    13.7980    13.5710    17.7900     2.4410
  393.5000     8.2390    84.7460     0.0310   -20.7160   -44.1540    13.2670    14.0640    17.7900     2.4530
  394.0000     8.2570    86.0520     0.0300   -21.1470   -44.5820    12.7350    14.5370    17.7900     2.4470
  394.5000     8.3230    86.0410     0.0290   -21.5770   -45.0490    12.2890    14.7090    17.7900     2.4410
  395.0000     8.4000    85.2640     0.0220   -22.0080   -45.2270    12.1360    14.8060    17.7900     2.4470
  395.5000     8.2830    84.8830     0.0150   -22.4390   -45.4370    11.9840    14.6550    17.7900     2.4350
  396.0000     8.1650    84.8940     0.0020   -22.8690   -45.6180    11.8310    14.5040    18.1140     2.4080
  396.5000     8.1810    85.1740    -0.0050   -23.3000   -45.8160    11.6780    14.3530    18.3880     2.4000
  397.0000     8.2470    85.4660    -0.0020   -23.7300   -45.9950    11.4510    14.2020    18.7970     2.4030
  397.5000     8.3150    86.0160     0.0070   -24.1610   -46.1710    11.5040    14.0510    18.6250     2.4170
  398.0000     8.3850    86.6320     0.0110   -24.5920   -46.3450    11.6090    13.9000    18.2880     2.4330
  398.5000     8.0810    86.6630     0.0110   -25.0220   -46.5170    11.7140    13.7580    17.9520     2.4270
  399.0000     8.0510    86.3690     0.0120   -25.4530   -46.7670    11.8190    14.2310    17.6150     2.4320
  399.5000     8.0390    85.7900     0.0140   -25.8830   -47.2240    11.8790    14.6770    17.1480     2.4340
  400.0000     8.0280    85.2880     0.0140   -26.3140   -47.6760    11.8790    15.1220    17.2700     2.4290
  400.5000     8.1360    85.5570     0.0120   -26.7860   -48.1340    11.8790    15.5680    17.4700     2.4370
  401.0000     8.0750    86.3720     0.0120   -25.7620   -48.5910    11.8790    16.0140    17.6700     2.4350
  401.5000     8.0090    87.2190     0.0140   -24.6300   -49.0440    11.8790    16.4590    17.8690     2.4510
  402.0000     8.0330    87.4230     0.0130   -23.4980   -49.5130    11.8790    16.8360    18.0690     2.4560
  402.5000     8.0650    87.6080     0.0100   -22.3670   -50.1530    11.8790    17.0800    17.8010     2.4400
  403.0000     8.0970    87.4350     0.0070   -21.2350   -51.1080    11.8790    17.2910    17.3770     2.4370
  403.5000     8.0980    87.1540     0.0060   -20.1030   -52.0960    11.8790    17.5030    16.9530     2.4360
  404.0000     8.0880    86.1520     0.0130   -18.9710   -52.8490    11.8790    17.7140    16.5280     2.4480
  404.5000     8.0970    84.9030     0.0220   -17.8390   -53.3530    11.8790    17.9250    16.2290     2.4680
  405.0000     8.1200    84.4500     0.0250   -16.8650   -53.8970    11.8790    18.1190    16.4500     2.4690
  405.5000     8.1430    85.0070     0.0220   -11.0120   -54.4200    11.8800    17.4370    16.9040     2.4650
  406.0000     8.1120    85.4640     0.0200    -4.7870   -54.8910    11.8780    16.8050    17.8180     2.4640
  406.5000     8.0760    84.8670     0.0170     1.4380   -54.8140    11.8800    16.1740    19.5000     2.4630
  407.0000     8.0480    84.2710     0.0160     1.8400   -54.7260    11.8790    15.5420    18.2770     2.4600
  407.5000     8.0660    85.1040     0.0150     0.3310   -54.6230    11.8490    14.9110    17.1170     2.4560
  408.0000     8.0850    86.0700     0.0140    -1.1780   -54.5390    11.7160    14.2800    16.9750     2.4520
  408.5000     8.1040    85.8390     0.0130    -2.6880   -54.6390    11.5500    13.6480    16.8330     2.4480
  409.0000     8.0720    85.5250     0.0130    -4.1970   -54.7430    11.3620    13.0210    16.6910     2.4420
  409.5000     8.0360    85.2140     0.0160    -5.7060   -54.8490    11.1740    12.7840    16.5490     2.4350
  410.0000     8.0080    84.8970     0.0200    -7.1430   -55.0770    10.9860    12.8080    16.4070     2.4420
  410.5000     8.0270    85.4820     0.0240    -8.2500   -55.5150    10.7990    12.8730    16.2660     2.4570
  411.0000     8.0460    86.6070     0.0280    -9.3560   -55.9370    10.6110    12.9380    16.2290     2.4650
  411.5000     8.0640    86.7500     0.0310   -10.4630   -56.3760    10.4470    13.0030    16.2290     2.4710
  412.0000     8.0480    87.2120     0.0300   -11.5700   -56.5690    10.4470    12.6720    16.2290     2.4680
  412.5000     8.0290    88.1010     0.0250   -12.6760   -56.6610    10.5080    12.1870    16.2290     2.4500
  413.0000     8.0090    87.2640     0.0200   -13.7830   -56.7700    10.6280    11.7020    15.9890     2.4440
  413.5000     8.0330    87.9930     0.0150   -14.8900   -56.8230    10.8090    11.4510    15.7710     2.4360
  414.0000     8.0690    87.1120     0.0070   -15.9960   -57.2760    10.8020    11.4510    15.5520     2.4180
  414.5000     8.0560    86.3950     0.0030   -16.1000   -58.0900    10.6720    11.4510    15.3340     2.4150
  415.0000     8.0080    86.1590     0.0050   -12.5430   -58.9530    10.5420    11.6040    15.0810     2.4470
  415.5000     7.9710    85.5170     0.0070    -8.9850   -59.8140    10.4110    11.7500    14.8950     2.4590
  416.0000     8.0140    86.4150     0.0100    -5.4280   -60.7640    10.2810    11.8950    14.6730     2.4600
  416.5000     8.0580    86.5020     0.0140    -1.8710   -61.1570    10.1500    12.0990    14.4510     2.4630
  417.0000     8.0240    87.6460     0.0170     1.6870   -60.8220    10.0200    12.0180    14.2730     2.4510
  417.5000     8.0300    88.4930     0.0250     5.2440   -60.5270     9.8870    11.8840    13.6570     2.4650
  418.0000     8.0340    88.6040     0.0340     8.8010   -60.6260     9.5370    11.7490    13.1420     2.4490
  418.5000     8.0380    89.4010     0.0380    12.3580   -61.0350     9.1800    11.3920    12.7840     2.4360
