~VERSION INFORMATION
 VERS.                2.0:   CWLS LOG ASCII STANDARD - VERSION 2.0
 WRAP.                 NO:   ONE LINE PER DEPTH STEP
~WELL INFORMATION
#MNEM.UNIT      DATA TYPE    INFORMATION
#----------   ------------   ------------------------------
 STRT.F          620.0000:   START DEPTH
 STOP.F         3209.0000:   STOP DEPTH
 STEP.F            0.5000:   STEP LENGTH
 NULL.          -999.2500:   NO VALUE
 COMP. FENIX & SCISSON - US NAVY:   COMPANY
 WELL.   FENIX "A" #23-33:   WELL
 FLD .             NPR #3:   FIELD
 LOC .      S33 T39N R78W:   LOCATION
 CNTY.            NATRONA:   COUNTY
 STAT.            WYOMING:   STATE
 CTRY. UNITED STATES OF AMERICA:   COUNTRY
 SRVC.              WELEX:   SERVICE COMPANY
 DATE.        26-MAR-1977:   LOGDATE
 API .     49025103250000:   API NUMBER
~CURVE INFORMATION
#MNEM.UNIT       API CODE    CURVE DESCRIPTION
#----------   ------------   ------------------------------
 DEPT.F                  :   
 GRD .GAPI   45 310 01 00:   GAMMA RAY FROM DENSITY LOG
 CALD.IN     45 280 60 00:   CALIPER FROM DENSITY LOG
 CORR.G/C3   45 356 01 00:   DENSITY CORRECTION
 RHOB.G/C3   45 350 01 00:   BULK DENSITY
 SPR .MV     07 010 01 00:   SPONTANEOUS POTENTIAL
 ILD .OHMM   07 120 46 00:   DEEP INDUCTION RESISTIVITY
 ILM .OHMM   07 120 44 00:   INDUCTION LOG MEDIUM RESISTIVITY
 SGRD.OHMM   07 220 05 00:   SHALLOW SHORT GUARD RESISTIVITY
~PARAMETER INFORMATION
#MNEM.UNIT          VALUE    DESCRIPTION
#----------   ------------   ------------------------------
 EKB .F         5183.0000:   Kelly bushing
 EGL .F         5172.0000:   Ground level
 TD  .F         3213.0000:   Total depth
 CLNT.            A2DTECH:   Client Code
 SL  . 900' FWL & 1650' FNL:   Surface Location
 PD  .                 GL:   Permanent Datum
 EPD .F              5172:   Elevation Permanent Datum
 LMF .                 KB:   Log Measured From
 DMF .                 KB:   Drilling Measured From
 DAPD.F                11:   Feet Above Permanent Datum
 DATE.        26-MAR-1977:   Date Logged [DD-MMM-YYYY]
 DD  .F              3210:   Depth driller
 DL  .F              3213:   Depth logger
 BLI .F              3211:   Bottom log interval
 TLI .F               625:   Top log interval
 CS1 .IN            8.625:   Casing size
 CBD1.      8.625" @ 633':   Casing driller 1
 CBL1.F               635:   Casing logger 1
 BS1 .IN            7.875:   Bit size
 BSD1.F              3210:   Depth drilled with bit1
 DFT .            KCL MUD:   Type fluid in hole
 DFD .                9.5:   Density
 DFV .                 34:   Viscosity
 DFPH.                8.5:   pH
 DFL .                 14:   Fluid loss
 MSS .           FLOWLINE:   Source of sample
 RMS .OHMM           0.34:   Rm
 MST .F                86:   Rm Meas. temp.
 RMF .OHMM           0.25:   Rmf
 MFST.F                86:   Rmf Meas. temp.
 MFSS.            FANN KL:   Source Rmf.
 RMC .OHMM           0.55:   Rmc
 MCST.F                86:   Rmc Meas. temp.
 MCSS.            FANN KL:   Source Rmc.
 RMB .OHMM           0.31:   Rm. at BHT
 BHT .F                92:   BHT.
 TCS .HRS             2.5:   Time Circ. stopped
 MRT .F                92:   Maximum recorded temp.
 LUN .               8611:   Logging unit number
 LUL .             CASPER:   Logging unit location
 ENGI.            C. DOAK:   Recorded By
 WITN.            K. JAPP:   Witnessed by
 ORIG.           5" PRINT:   Origin of data
 UWI .     49025103250000:   Unique Well ID
 DICO. A2D TECHNOLOGIES, INC.:   Digitizing Company
~OTHER INFORMATION
~A   DEPT       GRD        CALD      CORR        RHOB      SPR        ILD        ILM       SGRD   
# ...
  782.0000    72.6680     9.8944     0.0208     2.4942   -35.3817     8.1127     8.3854     9.5973
  782.5000    72.6818     9.8954     0.0210     2.4928   -35.6824     8.1182     8.3324     9.6047
  783.0000    72.6956     9.8816     0.0225     2.4906   -35.9715     8.0668     8.3116     9.6095
  783.5000    72.5611     9.8826     0.0226     2.4906   -35.9283     8.0146     8.2779     9.5491
  784.0000    72.7268     9.8837     0.0227     2.4915   -35.3261     7.9639     8.2442     9.5166
  784.5000    73.9275     9.8847     0.0212     2.4930   -35.3130     7.9135     8.2105     9.4953
  785.0000    74.2381     9.8860     0.0228     2.4923   -35.0054     7.9189     8.1767     9.5018
  785.5000    73.6585     9.8870     0.0229     2.4931   -34.8450     7.8677     8.1430     9.5084
  786.0000    72.4853     9.8880     0.0260     2.4932   -34.6847     7.7652     8.1093     9.5142
  786.5000    71.6090     9.8890     0.0261     2.4932   -34.6716     7.7150     8.0756     9.2617
  787.0000    71.9195     9.9197     0.0262     2.4925   -34.9564     7.6135     8.0484     9.1393
  787.5000    72.7058     9.9207     0.0248     2.4911   -35.2345     7.5136     8.0532     9.0200
  788.0000    73.7288     9.9217     0.0234     2.4881   -35.3720     7.5184     8.1126     9.0269
  788.5000    73.7426     9.9228     0.0235     2.4829   -35.2084     7.4329     8.1165     9.2844
  789.0000    73.3113     9.9238     0.0236     2.4800   -35.0480     7.3725     8.1204     9.3542
  789.5000    72.8766     9.9248     0.0236     2.4831   -34.8877     7.3769     8.1242     9.3599
  790.0000    72.2969     9.9407     0.0237     2.4891   -34.8746     7.3298     8.1282     9.3013
  790.5000    71.4240     9.9565     0.0253     2.4944   -34.7142     7.3348     8.1882     9.2434
  791.0000    70.9926     9.9578     0.0254     2.4967   -34.7012     7.3381     8.1921     9.1227
  791.5000    71.3078     9.9588     0.0240     2.4934   -34.8354     7.3428     8.1969     9.1283
  792.0000    71.4659     9.9893     0.0226     2.4803   -34.9696     7.3468     8.2008     9.1339
  792.5000    71.7767     9.9905     0.0197     2.4766   -35.1037     7.3508     8.2613     9.0768
  793.0000    71.7934     9.9915     0.0183     2.4744   -34.9401     7.3543     8.2652     9.0825
  793.5000    72.1039     9.9925     0.0183     2.4722   -34.7798     7.3588     8.2692     9.0257
  794.0000    72.2661     9.9936     0.0154     2.4686   -34.7667     7.3112     8.2731     9.0314
  794.5000    72.4283     9.9946     0.0125     2.4649   -34.6063     7.3162     8.2770     8.9748
  795.0000    73.0356     9.9956     0.0126     2.4574   -34.5932     7.3201     8.2810     8.9187
  795.5000    73.4946     9.9966     0.0097     2.4544   -34.7307     7.3241     8.2849     8.9256
  796.0000    73.9535    10.0125     0.0068     2.4553   -35.1595     7.3788     8.2889     8.9301
  796.5000    74.5608    10.0283     0.0069     2.4538   -35.2937     7.3828     8.2928     8.9365
  797.0000    74.8714    10.0302     0.0040     2.4516   -35.2773     7.4379     8.2968     9.0037
  797.5000    75.1819    10.0454     0.0041     2.4487   -35.2642     7.5202     8.3007     9.1340
  798.0000    74.8990    10.0465     0.0042     2.4480   -35.2511     7.6029     8.3620     9.2027
  798.5000    74.3194    10.0475     0.0027     2.4510   -35.0908     7.6666     8.3660     9.3359
  799.0000    73.6870    10.0485     0.0028     2.4503   -35.0777     7.7482     8.3699     9.4061
  799.5000    72.8668    10.0495     0.0044     2.4572   -35.0646     7.8279     8.4317     9.4768
  800.0000    72.5805    10.0505     0.0075     2.4644   -35.0515     7.8322     8.4357     9.4826
  800.5000    73.1912    10.0365     0.0122     2.4730   -35.0383     7.8907     8.4398     9.4885
  801.0000    73.5018    10.0228     0.0138     2.4769   -35.0250     7.8950     8.3859     9.4943
  801.5000    73.8123    10.0091     0.0163     2.4769   -35.0118     7.9539     8.3900     9.5001
  802.0000    73.8262    10.0101     0.0201     2.4793   -35.1432     7.9582     8.3833     9.5059
  802.5000    73.8400    10.0111     0.0239     2.4839   -35.1301     7.9621     8.2831     9.5118
  803.0000    73.8538    10.0122     0.0251     2.4869   -35.2643     7.9665     8.2303     9.5176
  803.5000    73.7188     9.9986     0.0238     2.4885   -35.4018     7.9709     8.1777     9.4581
  804.0000    73.2880     9.9994     0.0240     2.4773   -35.1391     7.9755     8.1826     9.4639
  804.5000    72.5600    10.0153     0.0181     2.4691   -35.4264     7.9799     8.1865     9.4698
  805.0000    73.9392     9.9924     0.0153     2.4654   -35.5683     7.9293     8.1904     9.4756
  805.5000    74.8400     9.9944     0.0155     2.4647   -35.7065     7.8791     8.1372     9.4815
  806.0000    75.1272     9.9960     0.0172     2.4648   -36.1414     7.8835     8.1420     9.4874
  806.5000    75.1410     9.9976     0.0158     2.4648   -35.5448     7.8878     8.1455     9.5055
  807.0000    74.8547     9.9843     0.0160     2.4649   -34.9484     7.8378     8.1498     9.6983
  807.5000    74.8720    10.0008     0.0132     2.4650   -34.9411     7.8974     8.0968     9.7713
  808.0000    75.6276    10.0320     0.0118     2.4674   -34.6392     7.9017     8.1014     9.7773
  808.5000    75.7898    10.0634     0.0105     2.4651   -34.6303     7.9060     8.1055     9.8508
  809.0000    75.2102    10.0885     0.0122     2.4667   -34.4758     7.9643     8.1093     9.9249
  809.5000    74.0649    10.1411     0.0154     2.4713   -34.6177     8.0244     8.1692    10.0685
  810.0000    72.7448    10.1872     0.0200     2.4803   -34.6086     8.0843     8.2295     9.5338
  810.5000    72.0195    10.2185     0.0232     2.4864   -34.4541     8.1442     8.2334     9.3448
  811.0000    71.4413    10.2498     0.0249     2.4895   -34.4469     8.1487     8.2373     9.4165
  811.5000    71.4566    10.2959     0.0235     2.4910   -34.4396     8.2100     8.1847     9.4873
  812.0000    71.4718    10.3420     0.0238     2.4859   -34.4324     8.2712     8.1886     9.4931
  812.5000    71.4871    10.3732     0.0239     2.4807   -34.5743     8.2757     8.1364     9.4990
  813.0000    71.3299    10.4045     0.0241     2.4807   -34.7125     8.2802     8.0300     9.5048
  813.5000    71.0725    10.4358     0.0228     2.4808   -34.8527     8.1712     8.0338     9.4440
  814.0000    70.9394    10.4671     0.0229     2.4816   -34.8453     8.0638     7.9269     9.3221
  814.5000    70.9585    10.4984     0.0216     2.4809   -34.9853     7.9577     7.8232     8.8893
  815.0000    70.9737    10.5155     0.0202     2.4780   -35.1254     7.8459     7.7733     8.8336
  815.5000    71.2857    10.5332     0.0172     2.4713   -35.4127     7.7496     7.6698     8.8392
  816.0000    71.5977    10.5527     0.0116     2.4676   -35.4036     7.7016     7.6209     8.8446
  816.5000    71.9097    10.5793     0.0223     2.4700   -35.3964     7.6518     7.5722     8.8501
  817.0000    72.5184    10.5957     0.0240     2.4723   -35.2419     7.6570     7.5768     8.8555
  817.5000    73.1272    10.5973     0.0226     2.4663   -35.2346     7.6355     7.5804     8.8610
  818.0000    73.7359    10.5989     0.0198     2.4544   -35.3765     7.6117     7.6363     8.8665
  818.5000    74.3450    10.6005     0.0169     2.4432   -35.6620     7.5635     7.5876     8.8718
  819.0000    74.8056    10.6021     0.0111     2.4365   -35.9511     7.5682     7.5912     8.7450
  819.5000    75.2692    10.6186     0.0083     2.4373   -36.2384     7.5207     7.5426     8.6429
  820.0000    75.5812    10.6276     0.0099     2.4441   -36.2294     7.4721     7.4946     8.6472
  820.5000    76.0415    10.6366     0.0146     2.4510   -35.9276     7.3738     7.4467     8.5942
  821.0000    76.3535    10.6383     0.0178     2.4563   -35.6258     7.2777     7.4503     8.4820
  821.5000    76.6655    10.6402     0.0180     2.4609   -35.3240     7.1819     7.3520     8.4277
  822.0000    76.8292    10.6418     0.0197     2.4662   -35.3166     7.0875     7.2550     8.3177
