~VERSION INFORMATION
 VERS.                2.0:   CWLS LOG ASCII STANDARD - VERSION 2.0
 WRAP.                 NO:   ONE LINE PER DEPTH STEP
~WELL INFORMATION
#MNEM.UNIT      DATA TYPE    INFORMATION
#----------   ------------   ------------------------------
 STRT.F          212.0000:   START DEPTH
 STOP.F         2806.0000:   STOP DEPTH
 STEP.F            0.5000:   STEP LENGTH
 NULL.          -999.2500:   NO VALUE
 COMP.    FENIX & SCISSON:   COMPANY
 WELL.    FENIX AX #12-21:   WELL
 FLD .        TEAPOT DOME:   FIELD
 LOC .      S21 T39N R78W:   LOCATION
 CNTY.            NATRONA:   COUNTY
 STAT.            WYOMING:   STATE
 CTRY. UNITED STATES OF AMERICA:   COUNTRY
 SRVC.           BIRDWELL:   SERVICE COMPANY
 DATE.        14-AUG-1973:   LOGDATE
 API .     49025106930000:   API NUMBER
~CURVE INFORMATION
#MNEM.UNIT       API CODE    CURVE DESCRIPTION
#----------   ------------   ------------------------------
 DEPT.F                  :   
 SN  .OHMM   05 040 16 00:   SHORT NORMAL 16"
 ILD .OHMM   05 120 46 00:   INDUCTION LOG DEEP RESISTIVITY
 RHOB.G/C3   45 350 01 00:   BULK DENSITY
 CORR.G/C3   45 356 01 00:   DENSITY CORRECTION
 GRD .GAPI   45 310 01 00:   GAMMA RAY FROM DENSITY LOG
 CALD.IN     45 280 60 00:   CALIPER FROM DENSITY LOG
 SPR .MV     05 010 01 00:   SPONTANEOUS POTENTIAL
~PARAMETER INFORMATION
#MNEM.UNIT          VALUE    DESCRIPTION
#----------   ------------   ------------------------------
 EKB .F         4998.0000:   Kelly bushing
 EGL .F         4988.0000:   Ground level
 EDF .F            0.0000:   Drilling floor
 EPD .F         4988.0000:   Permanent datum
 TD  .F         2809.0000:   Total depth
 DATE.        14-AUG-1973:   Date logged
 CLNT.            A2DTECH:   Client Code
 SL  . 1300' FNL & 300' FWL:   Surface Location
 PD  .                 GL:   Permanent Datum
 DD  .F              2800:   Depth driller
 DL  .F              2809:   Depth logger
 BLI .F              2803:   Bottom log interval
 TLI .F               235:   Top log interval
 CS1 .IN            8.625:   Casing size
 BS1 .IN            7.875:   Bit size
 BSD1.F              2800:   Depth drilled with bit1
 DFT .                GEL:   Type fluid in hole
 DFD .                9.7:   Density
 DFV .                 34:   Viscosity
 DFPH.                 12:   pH
 MSS .           FLOWLINE:   Source of sample
 RMS .OHMM            .15:   Rm
 MST .F                57:   Rm Meas. temp.
 RMF .OHMM            .95:   Rmf
 MFST.F                69:   Rmf Meas. temp.
 RMC .OHMM            1.5:   Rmc
 MCST.F                78:   Rmc Meas. temp.
 MFSS.               MEAS:   Source Rmf.
 RMB .OHMM            .87:   Rm. at BHT
 BHT .F               115:   BHT.
 TCS .HRS               3:   Time Circ. stopped
 MRT .F               115:   Maximum recorded temp.
 LUN .               3006:   Logging unit number
 LUL .               CASP:   Logging unit location
 ENGI.             MILLER:   Recorded By
 WITN.           MCGINLEY:   Witnessed by
 UWI .     49025106930000:   Unique Well ID
 DICO. A2D TECHNOLOGIES, INC.:   Digitizing Company
 ORIG.           5" PRINT:   Origin of data
~OTHER INFORMATION
~A   DEPT       SN        ILD       RHOB       CORR         GRD      CALD        SPR   
# ...
  712.5000     8.9680     7.1840     2.5500     0.2000    76.8870     9.4520    -9.1900
  713.0000     8.9740     7.1660     2.5500     0.2000    79.3530     9.4210    -9.1900
  713.5000     8.9810     7.1470     2.5500     0.1990    79.4000     9.3880    -9.1900
  714.0000     8.9870     7.1290     2.5500     0.1990    77.2920     9.3740    -9.1900
  714.5000     8.9940     7.1110     2.5500     0.1980    75.4300     9.3710    -9.1900
  715.0000     9.0000     7.1080     2.5480     0.1950    75.3780     9.3690    -9.1900
  715.5000     9.0060     7.1050     2.5460     0.1840    76.6830     9.3660    -9.1900
  716.0000     9.0130     7.1030     2.5370     0.1720    77.8340     9.3630    -9.1900
  716.5000     9.0190     7.1000     2.5290     0.1610    77.3990     9.3610    -9.1900
  717.0000     9.0260     7.0970     2.5280     0.1560    76.9550     9.3580    -9.1900
  717.5000     9.0320     7.0940     2.5270     0.1550    76.5230     9.3570    -9.1900
  718.0000     9.0380     7.0920     2.5270     0.1550    77.4000     9.3620    -9.1900
  718.5000     9.0450     7.0890     2.5280     0.1540    77.6880     9.3660    -9.1900
  719.0000     9.0510     7.0860     2.5290     0.1530    77.3930     9.3700    -9.1900
  719.5000     9.0580     7.0830     2.5300     0.1530    77.1300     9.3750    -9.1900
  720.0000     9.0640     7.0810     2.5320     0.1500    78.2890     9.3790    -9.1900
  720.5000     9.0700     7.0780     2.5340     0.1460    78.2770     9.3830    -9.1900
  721.0000     9.0770     7.0750     2.5390     0.1410    78.4880     9.3880    -9.1900
  721.5000     9.0830     7.0720     2.5430     0.1380    80.7590     9.3920    -9.1900
  722.0000     9.0900     7.0700     2.5450     0.1370    82.0150     9.3960    -9.1900
  722.5000     9.0960     7.0670     2.5480     0.1360    80.8560     9.4010    -9.1870
  723.0000     9.1020     7.0640     2.5470     0.1350    80.5950     9.4050    -9.1770
  723.5000     9.1090     7.0610     2.5460     0.1340    81.8480     9.4090    -9.1680
  724.0000     9.1140     7.0590     2.5440     0.1330    83.1680     9.4130    -9.1580
  724.5000     9.0950     7.0560     2.5470     0.1290    82.0970     9.4180    -9.1490
  725.0000     9.0780     7.0530     2.5510     0.1230    80.6690     9.4220    -9.1390
  725.5000     9.0620     7.0500     2.5300     0.1260    80.4330     9.4260    -9.1300
  726.0000     9.0450     7.0470     2.5250     0.1310    80.2350     9.4310    -9.1210
  726.5000     9.0290     7.0410     2.5260     0.1410    80.3080     9.4360    -9.1110
  727.0000     9.0130     7.0310     2.5340     0.1510    83.4090     9.4440    -9.1020
  727.5000     8.9960     7.0200     2.5400     0.1600    86.8450     9.4530    -9.0920
  728.0000     8.9800     7.0100     2.5410     0.1670    91.4310     9.4620    -9.0830
  728.5000     8.9630     6.9990     2.5410     0.1730    88.6820     9.4710    -9.0730
  729.0000     8.9480     6.9880     2.5420     0.1730    84.9400     9.4790    -9.0640
  729.5000     8.8330     6.9780     2.5420     0.1740    82.6560     9.4880    -9.0550
  730.0000     8.7260     6.9670     2.5420     0.1740    82.9560     9.4850    -9.0450
  730.5000     8.6190     6.9570     2.5420     0.1740    82.7070     9.4670    -9.0360
  731.0000     8.5460     6.9460     2.5350     0.1740    82.4320     9.4480    -9.0260
  731.5000     8.5640     6.9360     2.5150     0.1740    83.6550     9.4360    -9.0170
  732.0000     8.5780     6.9250     2.5090     0.1750    85.6150     9.4430    -9.0080
  732.5000     8.5920     6.9140     2.5210     0.1880    86.4410     9.4500    -8.9980
  733.0000     8.6050     6.9040     2.5360     0.2000    84.6820     9.4570    -8.9810
  733.5000     8.6250     6.8930     2.5390     0.2010    82.4130     9.4650    -8.9480
  734.0000     8.5940     6.8830     2.5460     0.2020    81.1420     9.4710    -8.9160
  734.5000     8.5400     6.8720     2.5500     0.2030    82.7940     9.4940    -8.8840
  735.0000     8.4850     6.8610     2.5550     0.2030    83.1120     9.5220    -8.8520
  735.5000     8.4310     6.8510     2.5600     0.2040    83.4030     9.5510    -8.8200
  736.0000     8.3770     6.8400     2.5600     0.2040    83.8090     9.5450    -8.7870
  736.5000     8.3230     6.8300     2.5500     0.2020    87.1050     9.5360    -8.7550
  737.0000     8.3140     6.8190     2.5560     0.2060    90.1530     9.5280    -8.7230
  737.5000     8.3140     6.8090     2.5630     0.2180    90.3560     9.5210    -8.6910
  738.0000     8.3140     6.7980     2.5670     0.2160    89.5480     9.5120    -8.6590
  738.5000     8.3140     6.7870     2.5730     0.2130    86.2280     9.4950    -8.6260
  739.0000     8.3140     6.7770     2.5670     0.2100    85.7420     9.4770    -8.5970
  739.5000     8.3140     6.7660     2.5390     0.2070    84.9320     9.4590    -8.5830
  740.0000     8.3140     6.7560     2.5350     0.2100    82.4270     9.4400    -8.5700
  740.5000     8.3140     6.7450     2.5290     0.2140    81.0480     9.4250    -8.5570
  741.0000     8.3140     6.7350     2.5250     0.2180    82.9070     9.4100    -8.5450
  741.5000     8.3140     6.7300     2.5240     0.2230    84.3920     9.3950    -8.5320
  742.0000     8.3140     6.7290     2.5270     0.2270    85.8070     9.3800    -8.5190
  742.5000     8.3140     6.7290     2.5290     0.2320    87.4790     9.3660    -8.5060
  743.0000     8.3130     6.7290     2.5420     0.2360    88.7100     9.3510    -8.4930
  743.5000     8.3110     6.7290     2.5480     0.2380    89.4000     9.3360    -8.4810
  744.0000     8.4490     6.7290     2.5510     0.2380    90.0530     9.3210    -8.4680
  744.5000     8.5880     6.7290     2.5550     0.2370    90.3190     9.3070    -8.4550
  745.0000     8.7270     6.7290     2.5590     0.2320    90.4000     9.2970    -8.4420
  745.5000     8.8670     6.9310     2.5660     0.2280    90.4020     9.2960    -8.4290
  746.0000     9.0870     7.1330     2.5740     0.2240    90.3780     9.2940    -8.4170
  746.5000     9.4210     7.3350     2.5790     0.2170    90.0110     9.2930    -8.4030
  747.0000     9.7550     7.5360     2.5770     0.2100    89.5030     9.2920    -8.5050
  747.5000    10.0890     7.7380     2.5790     0.2030    88.4250     9.2900    -8.8420
  748.0000    10.4050     7.9400     2.5810     0.1960    87.1520     9.2890    -9.4190
  748.5000    10.8530     8.0880     2.5810     0.1890    85.5900     9.2870    -9.5900
  749.0000    10.8390     8.1330     2.5760     0.1820    84.1480     9.2860    -9.6110
  749.5000    10.8080     8.1750     2.5670     0.1740    82.5760     9.2850    -9.6260
  750.0000    10.7780     8.2170     2.5570     0.1680    81.0560     9.2830    -9.6400
  750.5000    10.7480     8.2380     2.5510     0.1620    78.0960     9.2820    -9.6550
  751.0000    10.7170     8.2380     2.5510     0.1630    75.8010     9.2800    -9.6700
  751.5000    10.6870     8.2380     2.5500     0.1670    76.3890     9.2790    -9.6850
  752.0000    10.6560     8.2380     2.5490     0.1710    80.2270     9.2790    -9.7000
  752.5000    10.6260     8.2380     2.5480     0.1750    81.4260     9.2850    -9.7150
  753.0000    10.5960     8.2380     2.5420     0.1780    82.8930     9.2910    -9.7300
  753.5000    10.5650     8.2380     2.5390     0.1820    84.5180     9.2970    -9.7450
  754.0000    10.5350     8.2380     2.5390     0.1860    85.4940     9.3030    -9.7600
  754.5000    10.5040     8.2380     2.5400     0.1900    85.2230     9.3090    -9.7750
  755.0000    10.4740     8.2380     2.5400     0.1940    84.8840     9.3150    -9.7900
  755.5000    10.4430     8.2380     2.5400     0.1950    84.8080     9.3210    -9.8050
  756.0000    10.4130     8.2390     2.5390     0.1950    84.7380     9.3280    -9.8200
  756.5000    10.3830     8.2030     2.5390     0.1950    84.1500     9.3340    -9.8350
  757.0000    10.3520     8.1600     2.5390     0.1960    83.3380     9.3430    -9.8510
  757.5000    10.3220     8.1190     2.5380     0.1960    83.3780     9.3560    -9.8660
