~VERSION INFORMATION
 VERS.                2.0:   CWLS LOG ASCII STANDARD - VERSION 2.0
 WRAP.                 NO:   ONE LINE PER DEPTH STEP
~WELL INFORMATION
#MNEM.UNIT      DATA TYPE    INFORMATION
#----------   ------------   ------------------------------
 STRT.F            9.0000:   START DEPTH
 STOP.F         2876.0000:   STOP DEPTH
 STEP.F            0.5000:   STEP LENGTH
 NULL.          -999.2500:   NO VALUE
 COMP.    FENIX & SCISSON:   COMPANY
 WELL. FENIX & SCISSON "AX" #82-29:   WELL
 FLD .        TEAPOT DOME:   FIELD
 LOC .      S29 T39N R78W:   LOCATION
 CNTY.            NATRONA:   COUNTY
 STAT.            WYOMING:   STATE
 CTRY. UNITED STATES OF AMERICA:   COUNTRY
 SRVC.           BIRDWELL:   SERVICE COMPANY
 DATE.        12-JAN-1980:   LOGDATE
 API .     49025107980000:   API NUMBER
~CURVE INFORMATION
#MNEM.UNIT       API CODE    CURVE DESCRIPTION
#----------   ------------   ------------------------------
 DEPT.F                  :   
 GRD .GAPI   45 310 01 00:   GAMMA RAY FROM DENSITY LOG
 CALD.IN     45 280 60 00:   CALIPER FROM DENSITY LOG
 CORR.G/C3   45 356 01 00:   DENSITY CORRECTION
 RHOB.G/C3   45 350 01 00:   BULK DENSITY
 SPR .MV     07 010 01 00:   SPONTANEOUS POTENTIAL
 ILD .OHMM   07 120 46 00:   DEEP INDUCTION RESISTIVITY
 SN  .OHMM   07 220 01 00:   SHALLOW FOCUSED LOG RESISTIVITY
~PARAMETER INFORMATION
#MNEM.UNIT          VALUE    DESCRIPTION
#----------   ------------   ------------------------------
 EKB .F         4985.0000:   Kelly bushing
 EGL .F         4973.0000:   Ground level
 EDF .F         4982.0000:   Drilling floor
 TD  .F         2876.0000:   Total depth
 CLNT.            A2DTECH:   Client Code
 SL  . 1821' FEL & 414' FEL:   Surface Location
 DATE.        12-JAN-1980:   Date Logged [DD-MMM-YYYY]
 DD  .F              2870:   Depth driller
 DL  .F              2876:   Depth logger
 BLI .F              2876:   Bottom log interval
 TLI .F               320:   Top log interval
 CS1 .IN            8.625:   Casing size
 CBD1.      8.625" @ 280':   Casing driller 1
 CBL1.IN              320:   Casing logger 1
 BS1 .IN            7.875:   Bit size
 BSD1.F              2870:   Depth drilled with bit1
 DFT .            GEL MUD:   Type fluid in hole
 DFD .                8.7:   Density
 DFV .                 53:   Viscosity
 DFPH.               10.5:   pH
 DFL .               15.4:   Fluid loss
 MSS .            MUD PIT:   Source of sample
 RMS .OHMM            1.8:   Rm
 MST .F                50:   Rm Meas. temp.
 RMF .OHMM            1.4:   Rmf
 MFST.F                60:   Rmf Meas. temp.
 MFSS.               MEAS:   Source Rmf.
 RMC .OHMM            1.9:   Rmc
 MCST.F                60:   Rmc Meas. temp.
 MCSS.               MEAS:   Source Rmc.
 RMB .OHMM           0.65:   Rm. at BHT
 BHT .F               138:   BHT.
 TCS .HRS              11:   Time Circ. stopped
 MRT .F               138:   Maximum recorded temp.
 LUN .               3029:   Logging unit number
 LUL .             CASPEL:   Logging unit location
 ENGI.           T. VOLFF:   Recorded By
 WITN.          MR. AMEND:   Witnessed by
 ORIG.         2.5" PRINT:   Origin of data
 UWI .     49025107980000:   Unique Well ID
 DICO. A2D TECHNOLOGIES,INC.:   Digitizing Company
 PD  .                 GL:   Permanent Datum
 EPD .F              4973:   Elevation Permanent Datum
 LMF .                 DF:   Log Measured From
 DMF .                 KB:   Drilling Measured From
 DAPD.F                 9:   Feet Above Permanent Datum
~OTHER INFORMATION
~A    DEPT      GRD      CALD       CORR       RHOB        SPR        ILD         SN   
# ...
  327.5000   100.3495    11.4848     0.1268     2.5181   -18.7614     8.4073     9.5398
  328.0000   100.1358    11.4242     0.1142     2.5227   -18.6950     8.4270     9.6753
  328.5000   105.1020    11.3030     0.1035     2.5242   -18.4544     8.5274     9.8128
  329.0000   108.4470    11.3333     0.0943     2.5241   -18.8602     8.5280     9.9522
  329.5000   107.8406    11.3674     0.0911     2.5180   -19.7897     8.5286     9.9529
  330.0000   102.6749    11.3989     0.0849     2.5058   -20.1317     8.5292     9.9536
  330.5000   103.2843    11.4305     0.0879     2.5210   -19.9681     8.5298     9.9270
  331.0000   103.5897    11.4697     0.1124     2.5286   -19.6623     8.5304     9.6443
  331.5000   102.3754    11.5240     0.0924     2.5283   -19.6608     8.5311     9.2390
  332.0000   102.0730    11.5859     0.0914     2.5110   -19.6594     8.5317     8.8033
  332.5000   104.5694    11.6478     0.1016     2.5128   -19.9618     8.2960     8.5985
  333.0000   108.0029    11.7096     0.1024     2.5270   -21.1762     8.1809     8.2966
  333.5000   111.0061    11.7576     0.0650     2.5194   -22.6945     7.8440     8.1157
  334.0000   112.1094    11.7879     0.0346     2.5062   -23.3009     7.7352     7.9555
  334.5000   111.9211    11.7879     0.0346     2.5020   -22.9731     7.7464     7.9561
  335.0000   110.3648    11.8056     0.0377     2.5004   -22.0821     8.1966     8.4163
  335.5000   108.1121    11.8182     0.0377     2.4966   -22.3846     8.5581     8.6565
  336.0000   105.7325    11.7879     0.0407     2.4830   -22.1764     8.6881     8.7795
  336.5000   104.8219    11.7879     0.0438     2.4521   -20.5578     8.6189     9.0302
  337.0000   107.7617    11.7576     0.0503     2.3780   -20.4489     8.3276     9.1585
  337.5000   109.3845    11.7273     0.0580     2.3260   -20.2508     8.0719     9.1591
  338.0000   106.6500    11.7273     0.1037     2.3102   -20.1034     7.9015     9.1597
  338.5000   106.7028    11.8182     0.1952     2.3711   -20.1090     7.9606     9.1335
  339.0000   108.5278    12.1818     0.2634     2.4565   -20.8538     8.0737     8.8734
  339.5000   110.3027    12.2740     0.1542     2.4976   -21.7642     8.0742     8.5410
  340.0000   111.5200    12.0303     0.0598     2.4823   -22.6746     8.1889     8.0982
  340.5000   111.6099    11.9381     0.0348     2.4701   -23.2810     8.1895     7.8517
  341.0000   110.6111    11.9066     0.0529     2.4731   -23.2795     8.0759     7.8523
  341.5000   109.0929    11.8750     0.0697     2.4914   -22.6702     7.8523     7.6355
  342.0000   107.5746    11.8485     0.0617     2.5081   -22.3647     7.6281     7.5295
  342.5000   107.2340    11.8788     0.0581     2.4637   -22.0441     7.3214     7.4249
  343.0000   110.6171    11.9091     0.1019     2.4562   -21.4153     6.9994     7.0200
  343.5000   110.9478    11.9091     0.1202     2.4661   -20.8405     6.6790     6.7309
  344.0000   110.3161    11.9091     0.1324     2.4801   -20.8389     6.3917     7.8556
  344.5000   109.3804    11.9205     0.1330     2.4964   -21.4179     6.1880     7.2214
  345.0000   108.4954    11.9394     0.1081     2.5022   -22.3559     6.1021     6.9240
  345.5000   108.6110    11.9697     0.0776     2.4988   -22.3541     6.0556     7.1513
  346.0000   111.1833    11.9848     0.0685     2.4706   -21.5989     6.1031     7.9118
  346.5000   113.4898    12.0164     0.0593     2.4118   -20.5619     6.1898     8.4564
  347.0000   114.2764    12.0303     0.0696     2.2912   -21.4374     6.4565     8.7056
  347.5000   111.2136    12.0000     0.1173     2.1577   -22.0438     6.8299     9.0440
  348.0000   107.0862    11.9091     0.1688     2.0032   -22.3463     7.2250     8.7224
  348.5000   106.0742    11.9394     0.1996     1.9497   -22.3448     7.7509     8.9794
  349.0000   105.6453    12.0909     0.2180     2.0050   -22.0394     8.2027     9.1739
  349.5000   105.1657    12.5455     0.1208     2.1933   -21.1261     8.5645     9.4360
  350.0000   105.6230    12.3939     0.0361     2.3328   -20.8207     8.6946     9.7053
  350.5000   106.4099    11.6970     0.0320     2.4432   -19.9073     8.9514     9.8432
  351.0000   107.8299    11.6667     0.0407     2.4629   -19.9058     9.0874    10.1242
  351.5000   111.2510    11.6364     0.0486     2.4768   -19.9043     9.1771    10.2681
  352.0000   111.7589    11.6061     0.0534     2.4923   -19.9027     9.2349    10.4140
  352.5000   106.0868    11.5758     0.0456     2.5000   -19.9012     9.3082    10.5619
  353.0000   103.3528    11.5733     0.0352     2.4952   -19.8997     9.3089    10.5697
  353.5000   104.2661    11.5455     0.0260     2.4916   -19.8982     9.3096    10.7127
  354.0000   108.8269    11.5455     0.0199     2.5028   -20.0507     9.3102    10.7136
  354.5000   109.7402    11.5152     0.0108     2.5047   -20.3723     9.3109    10.7143
  355.0000   107.3101    11.4848     0.0078     2.4860   -21.1092     9.3115    10.7150
  355.5000   107.2863    11.4545     0.0108     2.4875   -22.3235     9.3121    10.5663
  356.0000   110.0486    11.4242     0.0322     2.4966   -21.7141     9.3128    10.5671
  356.5000   109.6956    11.4242     0.0414     2.5027   -22.0166     9.3134    10.4205
  357.0000   107.3160    11.4242     0.0414     2.5041   -22.0497     9.3140    10.4213
  357.5000   112.2189    11.4103     0.0353     2.5041   -21.1018     9.3148    10.4221
  358.0000   113.4489    11.3787     0.0323     2.5026   -20.4884     9.3154    10.4228
  358.5000   114.3115    11.3333     0.0319     2.4979   -19.8596     9.3160    10.4235
  359.0000   114.1612    11.3156     0.0292     2.4964   -19.2311     9.3167    10.4243
  359.5000   112.0478    11.3030     0.0262     2.4996   -18.6023     9.3173    10.4250
  360.0000   109.6557    11.3030     0.0232     2.5024   -17.9737     9.2487    10.4257
  360.5000   107.5167    11.3333     0.0272     2.5024   -17.4455     9.1887    10.4264
  361.0000   108.3159    11.3333     0.0323     2.4996   -18.1713     9.0613    10.2817
  361.5000   109.9007    11.3333     0.0274     2.4882   -17.4686     8.6882    10.2824
  362.0000   111.1308    11.3030     0.0096     2.4752   -16.8572     8.2143    10.2832
  362.5000   105.7114    11.2121     0.0080     2.4705   -18.2244     8.1003    10.2839
  363.0000   102.1672    11.0909     0.0080     2.4701   -18.3495     7.9879    10.2846
  363.5000   100.3450    11.0000     0.0080     2.4748   -18.3478     8.1027    10.1418
  364.0000   102.1702    10.9091     0.0172     2.4716   -18.0424     8.2258    10.1427
  364.5000   103.7295    10.8485     0.0203     2.4720   -17.7370     8.4689    10.1434
  365.0000   105.8966    10.8485     0.0325     2.4884   -17.4315     8.6924    10.1441
  365.5000   108.4817    10.8523     0.0325     2.4960   -16.2143     8.6930    10.1449
  366.0000   112.6625    10.8838     0.0234     2.4960   -17.7488     8.8165    10.1456
  366.5000   113.4239    10.9091     0.0173     2.4929   -18.6429     8.9418    10.2897
  367.0000   112.9697    10.9015     0.0081     2.4883   -18.9454     9.0689    10.2905
  367.5000   112.2110    10.8700     0.0051     2.4822   -18.5740     9.0696    10.2912
  368.0000   111.0985    10.8081     0.0082     2.4852   -18.2493     9.0703    10.2919
  368.5000   112.3282    10.7462     0.0147     2.4912   -18.4372     9.0709    10.4381
  369.0000   114.9514    10.7273     0.0204     2.4958   -19.3668     9.0715    10.4388
  369.5000   114.6489    10.6970     0.0204     2.4942   -19.0988     9.0721    10.4396
  370.0000   114.4986    10.6970     0.0131     2.4894   -17.9839     9.0727    10.5879
  370.5000   113.8794    10.6970     0.0021     2.4832   -16.8067     8.9469    10.5887
  371.0000   112.7790    10.7147     0.0040     2.4787   -16.1973     8.9475    10.5894
  371.5000   110.4000    10.7273     0.0104     2.4798   -16.1958     8.9481    10.6485
  372.0000   107.6659    10.7273     0.0186     2.4895   -15.8904     8.9488    10.7406
  372.5000   106.1476    10.7273     0.0235     2.5010   -15.5850     8.9494    10.7414
