~VERSION INFORMATION
 VERS.                2.0:   CWLS LOG ASCII STANDARD - VERSION 2.0
 WRAP.                 NO:   ONE LINE PER DEPTH STEP
~WELL INFORMATION
#MNEM.UNIT      DATA TYPE    INFORMATION
#----------   ------------   ------------------------------
 STRT.F          200.0000:   START DEPTH
 STOP.F         3058.0000:   STOP DEPTH
 STEP.F            0.5000:   STEP LENGTH
 NULL.          -999.2500:   NO VALUE
 COMP.    FENIX & SCISSON:   COMPANY
 WELL. FENIX & SCISSON "A" #45-34:   WELL
 FLD .              N P R:   FIELD
 LOC .      S34 T39N R78W:   LOCATION
 CNTY.            NATRONA:   COUNTY
 STAT.            WYOMING:   STATE
 CTRY. UNITED STATES OF AMERICA:   COUNTRY
 SRVC.              WELEX:   SERVICE COMPANY
 DATE.        11-MAY-1977:   LOGDATE
 API .     49025103760000:   API NUMBER
~CURVE INFORMATION
#MNEM.UNIT       API CODE    CURVE DESCRIPTION
#----------   ------------   ------------------------------
 DEPT.F                  :   
 GRD .GAPI   45 310 01 00:   GAMMA RAY FROM DENSITY LOG
 CALD.IN     45 280 60 00:   CALIPER FROM DENSITY LOG
 RHOB.G/C3   45 350 01 00:   BULK DENSITY
 CORR.G/C3   45 356 01 00:   DENSITY CORRECTION
 SPR .MV     07 010 01 00:   SPONTANEOUS POTENTIAL
 ILD .OHMM   07 120 46 00:   DEEP INDUCTION RESISTIVITY
 ILM .OHMM   07 120 44 00:   INDUCTION LOG MEDIUM RESISTIVITY
 GURD.OHMM   07 220 05 00:   GUARD LOG RESISTIVITY
~PARAMETER INFORMATION
#MNEM.UNIT          VALUE    DESCRIPTION
#----------   ------------   ------------------------------
 EKB .F         5123.0000:   Kelly bushing
 EGL .F         5113.0000:   Ground level
 EDF .F            0.0000:   Drilling floor
 EPD .F            0.0000:   Permanent datum
 TD  .F         3060.0000:   Total depth
 DATE.        11-MAY-1977:   Date logged
 CLNT.            A2DTECH:   Client Code
 SL  . 2310' FSL & 2310' FWL:   Surface Location
 PD  .                 GL:   Permanent Datum
 DD  .F              3060:   Depth driller
 DL  .F              3060:   Depth logger
 BLI .F              3058:   Bottom log interval
 CS1 .IN            8.625:   Casing size
 CBD1.      8.625" @ 205':   Casing driller 1
 CBL1.F               214:   Casing logger 1
 BS1 .IN            7.875:   Bit size
 DFT .            KCL/MUD:   Type fluid in hole
 DFD .                8.8:   Density
 DFV .                 45:   Viscosity
 MSS .           FLOWLINE:   Source of sample
 RMS .OHMM            3.2:   Rm
 MST .F                85:   Rm Meas. temp.
 RMF .OHMM            2.7:   Rmf
 MFST.F                85:   Rmf Meas. temp.
 RMC .OHMM            3.6:   Rmc
 MCST.F                85:   Rmc Meas. temp.
 MFSS.               CALC:   Source Rmf.
 RMB .OHMM           2.44:   Rm. at BHT
 BHT .F               112:   BHT.
 TCS .HRS             2.5:   Time Circ. stopped
 MRT .F               112:   Maximum recorded temp.
 LUN .               8611:   Logging unit number
 LUL .           GILLETTE:   Logging unit location
 ENGI.            C. DOAK:   Recorded By
 WITN.      B. HARRINGTON:   Witnessed by
 ORIG.           5" PRINT:   Origin of data
 UWI .     49025103760000:   Unique Well ID
 DICO. A2D TECHNOLOGIES, INC.:   Digitizing Company
 DAPD.F                10:   Feet Above Permanent Datum
 BSD1.F              3060:   Depth drilled with bit1
 MCSS.               CALC:   Source Rmc.
 TLI .F               200:   Top log interval
~OTHER INFORMATION
~A   DEPT       GRD      CALD         RHOB      CORR       SPR        ILD        ILM       GURD   
# ...
 2265.5000   117.4660    14.5390     2.0960     0.1480   -40.0050     7.6440     7.6400     8.9870
 2266.0000   118.9330    14.2160     2.0800     0.1400   -39.4870     7.7850     7.9070     9.3520
 2266.5000   120.3860     9.6580     2.1020     0.1200   -38.9530     7.8480     8.1740     9.7650
 2267.0000   122.0900    10.2830     2.1240     0.0990   -38.4510     7.9080     8.4410     9.9460
 2267.5000   124.0410    10.1060     2.1450     0.0750   -37.8840     7.9770     8.7450     9.9460
 2268.0000   125.9740    10.3630     2.1990     0.0500   -37.7840     7.7750     8.5540     9.9460
 2268.5000   128.0200    10.3740     2.3160     0.0280   -37.6960     7.5400     8.3320     9.9460
 2269.0000   129.3590    10.5220     2.3950     0.0290   -37.6330     7.3050     8.1100     9.8880
 2269.5000   129.8410    10.6320     2.4030     0.0320   -37.5520     7.0700     7.8880     9.7610
 2270.0000   130.4550    10.1230     2.4120     0.0360   -37.4780     6.8350     7.6660     9.6330
 2270.5000   131.0730     9.2260     2.4240     0.0390   -37.4030     6.6000     7.4440     9.0530
 2271.0000   131.3740     9.2200     2.4250     0.0390   -37.3280     6.3650     7.2220     8.2180
 2271.5000   131.4500     9.2100     2.4130     0.0360   -37.2530     6.1300     7.0000     7.3830
 2272.0000   130.4450     9.1990     2.4000     0.0290   -37.1780     5.8950     6.7790     6.5480
 2272.5000   128.1250     9.1930     2.3870     0.0230   -37.1020     5.6600     6.5570     5.7130
 2273.0000   125.9360     9.1860     2.3730     0.0160   -37.0070     5.4730     6.3350     5.2260
 2273.5000   125.1310     9.1820     2.3660     0.0100   -36.8860     5.3530     6.1130     5.2520
 2274.0000   124.4120     9.1780     2.3580     0.0020   -36.7640     5.2330     5.8910     6.5490
 2274.5000   125.7600     9.1700     2.3630     0.0030   -36.6420     5.1140     5.6250    10.1300
 2275.0000   127.1000     9.1610     2.3720     0.0160   -36.5180     4.9940     5.4550     9.1690
 2275.5000   128.2070     9.1530     2.3910     0.0290   -36.3990     4.8410     5.2430     7.9720
 2276.0000   128.0030     9.1440     2.4150     0.0460   -36.2810     4.6670     5.0310     6.7750
 2276.5000   127.8480     9.1350     2.4160     0.0550   -36.2760     4.3560     4.8190     5.3760
 2277.0000   127.6830     9.1270     2.4090     0.0450   -36.2730     4.1970     4.6070     5.4670
 2277.5000   127.5060     9.1180     2.4020     0.0350   -36.2750     4.1060     4.3950     5.6490
 2278.0000   128.5460     9.1100     2.3960     0.0270   -36.2740     4.0140     4.2660     5.8310
 2278.5000   129.9720     9.1040     2.3980     0.0280   -36.2740     3.9230     4.1600     6.0130
 2279.0000   131.3850     9.0940     2.4030     0.0290   -36.2750     3.8310     4.0550     5.8500
 2279.5000   132.9180     9.0690     2.4060     0.0310   -36.2740     3.7400     3.9490     5.5850
 2280.0000   133.7310     9.0630     2.3990     0.0350   -36.2750     3.6480     3.8430     5.2560
 2280.5000   133.3950     9.0660     2.3930     0.0270   -36.2750     3.5570     3.7540     4.6800
 2281.0000   133.2330     9.0690     2.3870     0.0140   -36.2750     3.4240     3.6860     4.7730
 2281.5000   132.9990     9.0730     2.3970     0.0060   -36.2750     3.4810     3.7600     5.0340
 2282.0000   133.7690     9.0760     2.4060     0.0070   -36.2750     3.5850     3.8370     5.2960
 2282.5000   134.8700     9.0790     2.4160     0.0080   -36.2750     3.6890     3.9150     5.5570
 2283.0000   135.9820     9.0820     2.4250     0.0090   -36.2750     3.7930     4.0470     5.7230
 2283.5000   135.5820     9.0850     2.4350     0.0110   -36.2750     3.8970     4.2850     5.8550
 2284.0000   135.1010     9.0890     2.4470     0.0120   -36.2750     4.0350     4.5240     6.2450
 2284.5000   134.5610     9.0910     2.4620     0.0140   -36.2750     4.2410     4.7620     7.3870
 2285.0000   134.0540     9.0960     2.4750     0.0150   -36.2750     4.4480     5.0000     7.3310
 2285.5000   133.5450     9.0970     2.4760     0.0170   -36.2750     4.6540     5.2380     7.1440
 2286.0000   133.0390     9.1010     2.4760     0.0180   -36.2740     4.8610     5.4770     7.3990
 2286.5000   132.4500     9.1110     2.4760     0.0190   -36.2750     5.0670     5.7150     8.2150
 2287.0000   132.3920     9.1460     2.4780     0.0190   -36.2750     5.2740     5.9530     9.0310
 2287.5000   133.3170     9.1400     2.4800     0.0190   -36.2740     5.4800     6.1910    10.1300
 2288.0000   134.1150     9.1430     2.4810     0.0190   -36.2770     5.6860     6.4300     9.9340
 2288.5000   135.1080     9.1430     2.4830     0.0180   -36.2460     5.8920     6.6680     9.2740
 2289.0000   134.4810     9.1400     2.4840     0.0170   -36.1800     6.0970     6.9060     8.2760
 2289.5000   132.9550     9.1470     2.4770     0.0160   -36.1170     6.3030     7.1440     8.6240
 2290.0000   131.6160     9.1100     2.4710     0.0150   -36.0550     6.5080     7.4110     9.3420
 2290.5000   130.2920     9.1020     2.4640     0.0150   -35.9910     6.7140     7.5780    10.0600
 2291.0000   129.1880     9.0910     2.4640     0.0140   -35.9280     6.9190     7.7680    10.7780
 2291.5000   128.3180     9.0840     2.4690     0.0130   -35.8650     7.1250     7.9580    11.4960
 2292.0000   128.8700     9.0720     2.4740     0.0120   -35.8020     7.3310     8.1480    12.0780
 2292.5000   129.4480     9.0590     2.4780     0.0120   -35.7390     7.5360     8.3370    12.5930
 2293.0000   130.0280     8.9970     2.4750     0.0110   -35.6770     7.7320     8.5270    13.1070
 2293.5000   130.4980     8.9390     2.4710     0.0100   -35.6120     7.8990     8.7170    13.5950
 2294.0000   129.5340     8.8630     2.4680     0.0090   -35.5510     8.0670     8.9070    13.3100
 2294.5000   128.6130     8.8230     2.4640     0.0080   -35.4970     8.2350     9.0970    13.0400
 2295.0000   127.5970     8.8270     2.4650     0.0080   -35.5470     8.4290     9.2610    12.7700
 2295.5000   126.5980     8.8260     2.4670     0.0070   -35.5980     8.5300     9.3460    12.4010
 2296.0000   126.3600     8.8260     2.4680     0.0060   -35.6540     8.6500     9.4320    13.3890
 2296.5000   128.3390     8.8260     2.4680     0.0050   -35.7060     8.7700     9.5170    14.9030
 2297.0000   130.2130     8.8260     2.4610     0.0040   -35.7600     8.8900     9.6020    14.2450
 2297.5000   132.0600     8.8260     2.4540     0.0040   -35.8130     9.0100     9.6870    13.2850
 2298.0000   132.1330     8.8260     2.4470     0.0030   -35.8670     9.1300     9.7720    13.3040
 2298.5000   132.1970     8.8260     2.4400     0.0040   -35.9200     9.2510     9.8580    13.8470
 2299.0000   131.8800     8.8260     2.4340     0.0050   -35.9740     9.3710     9.9430    13.4930
 2299.5000   131.3760     8.8260     2.4260     0.0060   -36.0270     9.4910    10.0280    13.1440
 2300.0000   130.8330     8.8260     2.4260     0.0070   -36.0810     9.5870    10.1300    12.8650
 2300.5000   130.9120     8.8260     2.4310     0.0060   -36.1340     9.5220    10.1020    14.6080
 2301.0000   131.9530     8.8260     2.4340     0.0040   -36.1880     9.4670    10.0660    15.3530
 2301.5000   131.7830     8.8260     2.4270     0.0030   -36.2410     9.4130    10.0310    15.7480
 2302.0000   131.2670     8.8260     2.4220     0.0010   -36.2950     9.3590     9.9950    14.8600
 2302.5000   130.8620     8.8260     2.4160     0.0000   -36.3480     9.3050     9.9590    12.8650
 2303.0000   129.5610     8.8260     2.4110    -0.0020   -36.4020     9.2510     9.9120    13.0070
 2303.5000   127.5160     8.8260     2.4050    -0.0030   -36.4550     9.1970     9.8590    13.2360
 2304.0000   125.3930     8.8260     2.4000    -0.0050   -36.5080     9.1420     9.8050    13.5950
 2304.5000   124.5820     8.8260     2.3940    -0.0040   -36.5630     9.0880     9.7520    13.3960
 2305.0000   125.8200     8.8250     2.3980    -0.0030   -36.6150     9.0340     9.6980    12.8650
 2305.5000   126.8240     8.8090     2.4040    -0.0020   -36.6630     8.9800     9.6440    13.3930
