~VERSION INFORMATION
 VERS.                2.0:   CWLS LOG ASCII STANDARD - VERSION 2.0
 WRAP.                 NO:   ONE LINE PER DEPTH STEP
~WELL INFORMATION
#MNEM.UNIT      DATA TYPE    INFORMATION
#----------   ------------   ------------------------------
 STRT.F          404.0000:   START DEPTH
 STOP.F         2919.0000:   STOP DEPTH
 STEP.F            0.5000:   STEP LENGTH
 NULL.          -999.2500:   NO VALUE
 COMP.    FENIX & SCISSON:   COMPANY
 WELL. FENIX & SCISSON "AX" #27-21:   WELL
 FLD .             NPR #3:   FIELD
 LOC .      S21 T39N R78W:   LOCATION
 CNTY.            NATRONA:   COUNTY
 STAT.            WYOMING:   STATE
 CTRY. UNITED STATES OF AMERICA:   COUNTRY
 SRVC.       SCHLUMBERGER:   SERVICE COMPANY
 DATE.        21-APR-1977:   LOGDATE
 API .     49025103730000:   API NUMBER
~CURVE INFORMATION
#MNEM.UNIT       API CODE    CURVE DESCRIPTION
#----------   ------------   ------------------------------
 DEPT.F                  :   
 SPR .MV     07 010 01 00:   SPONTANEOUS POTENTIAL
 ILM .OHMM   07 120 44 00:   INDUCTION LOG MEDIUM RESISTIVITY
 ILD .OHMM   07 120 46 00:   DEEP INDUCTION RESISTIVITY
 LL8 .OHMM   07 220 08 00:   LATEROLOG-8 RES.
 GRN .GAPI   35 310 01 00:   GAMMA RAY
 CALD.IN     45 280 60 00:   CALIPER FROM DENSITY LOG
 GRD .GAPI   45 310 01 00:   GAMMA RAY FROM DENSITY LOG
 CORR.G/C3   45 356 01 00:   DENSITY CORRECTION
 RHOB.G/C3   45 350 01 00:   BULK DENSITY
~PARAMETER INFORMATION
#MNEM.UNIT          VALUE    DESCRIPTION
#----------   ------------   ------------------------------
 EKB .F         5004.0000:   Kelly bushing
 EGL .F         4994.0000:   Ground level
 TD  .F         2920.0000:   Total depth
 CLNT.            A2DTECH:   Client Code
 SL  . 991' FWL & 1090' FSL:   Surface Location
 DATE.        21-APR-1977:   Date Logged [DD-MMM-YYYY]
 DD  .F              2920:   Depth driller
 DL  .F              2920:   Depth logger
 BLI .F              2914:   Bottom log interval
 TLI .F               419:   Top log interval
 CS1 .              8.625:   Casing size
 CBD1.      8.625" @ 425':   Casing driller 1
 CBL1.IN              419:   Casing logger 1
 BS1 .IN            7.875:   Bit size
 BSD1.F              2920:   Depth drilled with bit1
 DFT .                FGM:   Type fluid in hole
 DFD .                9.0:   Density
 DFV .                 34:   Viscosity
 DFPH.                8.0:   pH
 DFL .                8.0:   Fluid loss
 MSS .                PIT:   Source of sample
 RMS .OHMM          0.158:   Rm
 MST .F                72:   Rm Meas. temp.
 RMF .OHMM          0.158:   Rmf
 MFST.F                72:   Rmf Meas. temp.
 MFSS.               MEAS:   Source Rmf.
 RMB .OHMM          0.102:   Rm. at BHT
 BHT .F               112:   BHT.
 TCS .HRS            0500:   Time Circ. stopped
 TLAB.HRS            0700:   Time logger at bottom
 MRT .F               112:   Maximum recorded temp.
 LUN .               5642:   Logging unit number
 LUL .               CSPR:   Logging unit location
 ENGI.             TAYLOR:   Recorded By
 WITN.          PETTINGIL:   Witnessed by
 ORIG.      2.5" 5" PRINT:   Origin of data
 UWI .     49025103730000:   Unique Well ID
 DICO. A2D TECHNOLOGIES, INC.:   Digitizing Company
 PD  .                 GL:   Permanent Datum
 EPD .F              4994:   Elevation Permanent Datum
 LMF .                 KB:   Log Measured From
 DMF .                 KB:   Drilling Measured From
 DAPD.F                10:   Feet Above Permanent Datum
~OTHER INFORMATION
~A   DEPT      SPR        ILM        ILD        LL8        GRN       CALD         GRD      CORR       RHOB   
# ...
 1718.0000   -60.8512     9.5631     9.2850    11.7688   169.8449     8.3495   113.2705     0.0217     2.4539
 1718.5000   -60.8467     9.0718     9.0338    11.6935   170.7616     8.3794   111.4959     0.0086     2.4898
 1719.0000   -61.1399     8.7241     8.7893    11.2228   163.3824     8.3795   106.1606     0.0229     2.4914
 1719.5000   -61.5541     8.4729     8.4349    10.7020   165.6526     8.3836   102.6056     0.0332     2.4823
 1720.0000   -61.8453     8.1470     8.2067    10.4810   170.1684     8.4095   101.4245     0.0212     2.4973
 1720.5000   -62.1364     7.9413     7.8757    10.4728   173.3368     8.4393   102.6173     0.0171     2.5108
 1721.0000   -62.4276     8.0526     7.9852    10.5527   171.1161     8.4395   105.2939     0.0270     2.5048
 1721.5000   -63.0164     8.1787     8.2084    10.7015   166.6498     8.4439   106.1899     0.0219     2.4913
 1722.0000   -63.3075     8.2927     8.3226    10.9196   165.5456     8.4694   104.6963     0.0395     2.5018
 1722.5000   -63.8963     8.5120     8.3232    11.0052   168.4957     8.4696   103.1752     0.0424     2.5093
 1723.0000   -64.4852     8.5132     8.3237    10.9417   168.9695     8.4400   101.1415     0.0356     2.5108
 1723.5000   -65.3715     8.5143     8.3243    10.6470   167.4224     8.4356   100.2787     0.0432     2.5033
 1724.0000   -65.6627     8.5265     8.3249    10.5041   164.5280     8.4107   101.3170     0.0420     2.4749
 1724.5000   -65.8534     8.5064     8.2117    10.0813   161.1845     8.4108   104.0216     0.0215     2.4614
 1725.0000   -66.1466     8.2864     7.9895     9.8098   158.0655     8.4061   106.0338     0.0100     2.4659
 1725.5000   -66.4397     8.1742     7.8810     9.5997   158.7639     8.3814   107.4808     0.0349     2.4974
 1726.0000   -66.5298     8.0636     7.6679     9.7900   159.6807     8.3816   108.5105     0.0500     2.5109
 1726.5000   -66.7284     7.9470     7.5637     9.9273   156.5679     8.3817   109.9508     0.0520     2.5079
 1727.0000   -66.7232     7.7328     7.4609    10.0113   153.8980     8.3819   111.9826     0.0455     2.4779
 1727.5000   -66.7187     7.5184     7.3596    10.0134   155.7192     8.3820   114.5254     0.0305     2.4555
 1728.0000   -66.7142     7.3162     7.0628     9.7235   158.6631     8.3822   116.4471     0.0095     2.4585
 1728.5000   -66.7098     7.0267     6.9668     9.2531   155.5441     8.3823   115.9674     0.0091     2.4855
 1729.0000   -66.7054     6.8373     6.7784     8.8813   153.0926     8.3825   115.0761     0.0156     2.4871
 1729.5000   -66.7009     6.6564     6.7788     8.4502   153.5726     8.3885   114.4816     0.0186     2.4854
 1730.0000   -66.9946     6.7527     6.8355     8.1101   155.3938     8.4124   113.5904     0.0471     2.5049
 1730.5000   -67.0669     6.8468     6.9687     8.0407   158.7868     8.4126   112.5736     0.0610     2.5139
 1731.0000   -67.3582     7.0385     7.0656     8.8679   160.6079     8.4127   111.2463     0.0487     2.5062
 1731.5000   -67.6493     7.2336     7.1639     9.4539   156.3662     8.4129   110.1839     0.0322     2.4885
 1732.0000   -67.8696     7.3349     7.2212     9.8946   150.7772     8.4130   108.8427     0.0397     2.5072
 1732.5000   -67.8646     7.3367     7.3646     9.5825   151.7001     8.4132   106.1571     0.0473     2.5170
 1733.0000   -67.8601     7.4390     7.4671     9.4973   152.8476     8.4133   107.4481     0.0490     2.4923
 1733.5000   -67.8556     7.5428     7.5247     9.7209   150.6268     8.4135   111.9533     0.0338     2.4756
 1734.0000   -67.8512     7.6484     7.6287    10.0859   150.4208     8.4136   113.4599     0.0143     2.4661
 1734.5000   -67.5491     7.7555     7.7831    10.4666   153.3709     8.4070   112.5768     0.0127     2.4775
 1735.0000   -67.1875     7.7566     7.8913    10.2806   155.9054     8.4139   109.9121     0.0143     2.4871
 1735.5000   -66.8874     7.8652     7.8919    10.0463   158.8047     8.4071   104.5767     0.0189     2.4781
 1736.0000   -66.5874     7.9753     7.8924    10.2755   159.0957     8.3846    99.2206     0.0174     2.4847
 1736.5000   -65.9897     7.9764     7.8930    10.4749   163.2199     8.4144    97.7625     0.0129     2.4977
 1737.0000   -65.6894     8.0881     7.8935     9.7959   167.7531     8.4145    98.2620     0.0160     2.5109
 1737.5000   -65.4390     8.0892     7.8940     9.3476   169.9437     8.4147   102.5220     0.0329     2.5196
 1738.0000   -65.4345     8.0903     7.8945     9.4244   169.8233     8.4148    97.1876     0.0565     2.5279
 1738.5000   -65.3844     7.9808     7.8427     9.6892   169.2812     8.4150    97.1935     0.0443     2.5305
 1739.0000   -65.1280     7.8728     7.7878     9.7875   170.4627     8.4151    97.1993     0.0399     2.5193
 1739.5000   -65.1235     7.8739     7.7381     9.7895   171.6084     8.4153    98.6889     0.0386     2.5012
 1740.0000   -65.1190     7.7673     7.6336     9.6572   172.7545     8.4154   104.6884     0.0348     2.5061
 1740.5000   -65.1524     7.7684     7.4747     9.5269   173.6759     8.4156   108.8564     0.0227     2.4974
 1741.0000   -65.4080     7.7694     7.3732     9.4957   174.8757     8.4157   109.8101     0.0176     2.4737
 1741.5000   -65.4033     7.7705     7.3287     9.2083   177.2897     8.4159   107.9121     0.0245     2.4972
 1742.0000   -65.6967     7.7716     7.1742     9.0213   176.0723     8.4160   104.9507     0.0366     2.5024
 1742.5000   -65.9898     7.7727     7.1323     9.4681   163.4837     8.4162   101.9891     0.0464     2.5187
 1743.0000   -66.3105     7.7737     7.0773     9.8359   160.5219     8.4163   103.7755     0.0570     2.5295
 1743.5000   -66.5761     7.6684     7.1757    10.0799   160.6250     8.4164   105.5617     0.0726     2.5149
 1744.0000   -66.5714     7.5647     7.3171    10.0507   170.1466     8.4166   107.3480     0.0686     2.5214
 1744.5000   -66.2693     7.4623     7.4789     9.6461   176.6546     8.4167   108.8375     0.0537     2.5283
 1745.0000   -65.9474     7.4633     7.4794     9.3863   181.3097     8.4169   109.1401     0.0359     2.5224
 1745.5000   -65.6652     7.4643     7.4799     9.2870   181.5288     8.4170   108.2558     0.0428     2.4916
 1746.0000   -65.6607     7.3632     7.4804    10.1192   173.6465     8.4172   105.5911     0.0524     2.4987
 1746.5000   -65.6562     7.3643     7.3787    10.5481   164.9093     8.4173   105.5969     0.0397     2.5021
 1747.0000   -65.6518     7.4674     7.2049    10.8147   161.3935     8.4175   105.6028     0.0329     2.4857
 1747.5000   -65.6473     7.4685     6.9155    10.4411   163.8960     8.4176   105.3119     0.0371     2.4811
 1748.0000   -65.6428     7.5730     6.6703     9.4845   161.5908     8.4178   104.7243     0.0469     2.4992
 1748.5000   -65.6384     7.6791     6.4594     8.7563   158.0994     8.4179   103.5432     0.0523     2.4932
 1749.0000   -65.9316     7.6801     6.2587     8.4245   159.9207     8.4181   100.2850     0.0577     2.5307
 1749.5000   -66.2247     7.6983     6.3758     8.1977   153.6549     8.4182   102.9615     0.0512     2.5007
 1750.0000   -66.5179     7.5772     6.6440     8.1060   156.7164     8.4184   105.6380     0.0247     2.4499
 1750.5000   -66.5134     7.4746     6.8602     8.8672   158.5503     8.4185   108.6535     0.0203     2.4633
 1751.0000   -66.5089     7.3734     7.0851     9.6538   159.2456     8.4187   112.5583     0.0280     2.4783
 1751.5000   -66.8020     7.3745     7.1836    10.3193   153.2083     8.4188   114.8962     0.0388     2.4768
 1752.0000   -66.7976     7.3755     7.1841    10.6888   145.1343     8.4190   115.1570     0.0466     2.4993
 1752.5000   -66.7931     7.3765     7.1846     9.3892   144.1297     8.4191   111.7953     0.0410     2.5057
 1753.0000   -66.4910     7.3775     7.0869     9.0626   144.3785     8.4193   110.3381     0.0317     2.4873
 1753.5000   -66.4865     7.3786     7.0875     9.5960   142.1813     8.4194   109.1918     0.0266     2.5038
 1754.0000   -66.1844     7.3796     7.0880     9.7135   139.9757     8.4196   107.9682     0.0527     2.5352
