~VERSION INFORMATION
 VERS.                2.0:   CWLS LOG ASCII STANDARD - VERSION 2.0
 WRAP.                 NO:   ONE LINE PER DEPTH STEP
~WELL INFORMATION
#MNEM.UNIT      DATA TYPE    INFORMATION
#----------   ------------   ------------------------------
 STRT.F            0.0000:   START DEPTH
 STOP.F         4044.0000:   STOP DEPTH
 STEP.F            0.5000:   STEP LENGTH
 NULL.          -999.2500:   NO VALUE
 COMP. LAWRENCE-ALLISON & ASSOC.:   COMPANY
 WELL. LAWRENCE "X" #24-34:   WELL
 FLD .           N P R #3:   FIELD
 LOC .      S34 T39N R78W:   LOCATION
 CNTY.            NATRONA:   COUNTY
 STAT.            WYOMING:   STATE
 CTRY. UNITED STATES OF AMERICA:   COUNTRY
 SRVC.      DRESSER ATLAS:   SERVICE COMPANY
 DATE.        29-MAR-1984:   LOGDATE
 API .     49025109660000:   API NUMBER
~CURVE INFORMATION
#MNEM.UNIT       API CODE    CURVE DESCRIPTION
#----------   ------------   ------------------------------
 DEPT.F                  :   
 DT  .US/F   60 520 00 00:   DELTA TIME
 TENS.LBS    60 635 01 00:   TENSION FROM SONIC
 GRR .GAPI   07 310 01 00:   GAMMA RAY FROM RESISTIVITY
 SPR .MV     07 010 01 00:   SPONTANEOUS POTENTIAL
 CALR.IN     07 280 01 00:   CALIPER FROM RESISTIVITY
 TENR.LBS    07 635 01 00:   TENSION FROM RESISTIVITY
 RSFL.OHMM   07 221 01 00:   AMPPLIFIED SHALLOW FOCUSED LOG RESISTIVITY
 RILD.OHMM   07 120 46 00:   DEEP INDUCTION RESISTIVITY
 RILM.OHMM   07 120 44 00:   INDUCTION LOG MEDIUM RESISTIVITY
 RHOB.G/C3   45 350 01 00:   BULK DENSITY
 DRHO.G/C3   45 356 01 00:   DENSITY CORRECTION
 TEND.LBS    45 635 01 00:   TENSION FROM DENSITY LOG
 NPHI.DEC    42 890 03 00:   NEUTRON POROSITY SANDSTONE
~PARAMETER INFORMATION
#MNEM.UNIT          VALUE    DESCRIPTION
#----------   ------------   ------------------------------
 EKB .F         5101.0000:   Kelly bushing
 EGL .F         5089.0000:   Ground level
 EDF .F         5100.0000:   Drilling floor
 TD  .F         4050.0000:   Total depth
 DATE.        29-MAR-1984:   Date logged
 CLNT.            A2DTECH:   Client Code
 SL  . 2415' FNL & 839' FWL:   Surface Location
 PD  .                 GL:   Permanent Datum
 EPD .F              5089:   Elevation Permanent Datum
 LMF .                 KB:   Log Measured From
 DMF .                 KB:   Drilling Measured From
 DD  .F              4050:   Depth driller
 DL  .F              4043:   Depth logger
 BLI .F              4041:   Bottom log interval
 CS1 .IN            8.625:   Casing size
 CBD1.       8.625 @ 673':   Casing driller 1
 CBL1.F               671:   Casing logger 1
 BS1 .IN            7.875:   Bit size
 DFT .            GEL-KCL:   Type fluid in hole
 DFD .                8.9:   Density
 DFV .                 45:   Viscosity
 DFPH.                  8:   pH
 DFL .               12.8:   Fluid loss
 MSS .           MUD TANK:   Source of sample
 RMS .OHMM           0.46:   Rm
 MST .F                71:   Rm Meas. temp.
 RMF .OHMM           0.31:   Rmf
 MFST.F                71:   Rmf Meas. temp.
 RMC .OHMM           0.55:   Rmc
 MCST.F                71:   Rmc Meas. temp.
 MFSS.               MEAS:   Source Rmf.
 RMB .OHMM           0.25:   Rm. at BHT
 BHT .F               139:   BHT.
 TCS .HRS               4:   Time Circ. stopped
 MRT .F               139:   Maximum recorded temp.
 LUN .               6302:   Logging unit number
 LUL .               CODY:   Logging unit location
 ENGI.              GETTY:   Recorded By
 WITN.           JENNINGS:   Witnessed by
 ORIG.           5" PRINT:   Origin of data
 UWI .     49025109660000:   Unique Well ID
 DICO. A2D TECHNOLOGIES, INC.:   Digitizing Company
 DAPD.                 12:   Feet Above Permanent Datum
 BSD1.               4050:   Depth drilled with bit1
 MCSS.               MEAS:   Source Rmc.
~OTHER INFORMATION
~A  DEPTH       DT       TENS        GRR        SPR       CALR       TENR       RSFL       RILD       RILM       RHOB       DRHO       TEND       NPHI
# ...
 3146.0000    91.6960  -164.0550   122.2260   -27.9000     8.4640  -158.5010     4.4600     3.9220     4.0560     2.5210     0.0310  -178.0270     0.2600
 3146.5000    91.2550  -164.0550   120.2940   -27.9000     8.4470  -158.2900     4.4520     4.2550     4.5220     2.5200     0.0310  -180.0210     0.2620
 3147.0000    90.6160  -164.0550   119.0830   -27.9000     8.4310  -158.0780     5.4170     4.7690     4.9890     2.5190     0.0410  -175.7390     0.2430
 3147.5000    89.7360  -164.0550   116.2390   -27.9000     8.4140  -157.8670     6.3790     5.5500     5.8260     2.5230     0.0500  -169.8030     0.2160
 3148.0000    88.3010  -164.0550   111.6010   -27.9000     8.3980  -157.6550     7.3000     6.3640     6.7450     2.5350     0.0420  -163.8660     0.1890
 3148.5000    85.3330  -164.0550   105.6140   -27.9000     8.3810  -157.4440     8.1810     7.1780     7.6640     2.5490     0.0410  -157.9300     0.1830
 3149.0000    82.3660  -164.0550    99.6950   -27.8990     8.3640  -157.2320     8.7980     7.9920     8.5830     2.5630     0.0460  -151.9930     0.1780
 3149.5000    79.3980  -164.0550    95.4490   -27.9440     8.3480  -157.0210     9.6780     8.8060     8.9530     2.5750     0.0360  -150.8820     0.1710
 3150.0000    77.4050  -164.0550    97.6220   -28.0080     8.3310  -156.8090    10.9040     9.2180     9.0590     2.5830     0.0270  -152.1120     0.1590
 3150.5000    75.6260  -164.0550   100.2160   -28.0730     8.3140  -156.5980    10.6290     9.3920     9.1330     2.5910     0.0260  -153.3420     0.1470
 3151.0000    74.5990  -164.0550   102.8930   -28.1380     8.3110  -156.3860    10.0870     9.3920     8.9790     2.5980     0.0310  -154.5720     0.1500
 3151.5000    73.6840  -164.0550   104.2710   -28.2030     8.3120  -156.1750     9.5440     9.2080     8.7980     2.6000     0.0450  -155.8030     0.1550
 3152.0000    73.4180  -164.0550   105.6120   -28.2670     8.3140  -155.9630     9.0020     8.9050     8.6690     2.5990     0.0650  -157.0330     0.1600
 3152.5000    74.3090  -164.0550   106.9610   -28.3320     8.3150  -155.7510     8.5550     8.5040     8.4350     2.5960     0.0810  -158.2630     0.1630
 3153.0000    75.2380  -164.0550   108.3590   -28.3970     8.3160  -155.5400     8.7350     8.1040     8.2020     2.5910     0.0650  -159.4930     0.1640
 3153.5000    76.0900  -164.0550   107.2030   -28.4630     8.3180  -155.3280     8.9180     7.7210     7.9680     2.5860     0.0550  -160.7240     0.1650
 3154.0000    76.1480  -164.0550   104.8640   -28.6070     8.3190  -155.1170     9.1330     7.3630     7.7340     2.5890     0.0490  -161.9540     0.1660
 3154.5000    75.5140  -164.0550   102.6960   -28.8760     8.3210  -154.9050     8.7240     7.0050     7.3740     2.5930     0.0700  -163.1840     0.1670
 3155.0000    74.9340  -164.0550   103.8240   -29.1420     8.3220  -154.6940     8.2320     6.6470     6.9410     2.5960     0.0510  -164.4140     0.1670
 3155.5000    75.0330  -164.0550   108.0020   -29.4120     8.3230  -154.4820     7.7390     6.2790     6.5080     2.5900     0.0420  -165.6450     0.1670
 3156.0000    75.1370  -164.0550   113.1870   -29.4680     8.3250  -154.2710     7.2470     5.9080     6.1140     2.5820     0.0540  -166.8750     0.1680
 3156.5000    76.1770  -164.0550   118.3510   -29.4240     8.3260  -154.0590     6.7550     5.5360     5.7240     2.5720     0.0500  -168.1050     0.1750
 3157.0000    77.1310  -164.0550   120.1300   -29.3790     8.3270  -153.8480     6.2620     5.1640     5.3660     2.5600     0.0410  -169.3360     0.1830
 3157.5000    78.0850  -164.0550   122.4590   -29.3390     8.3290  -153.9580     5.7700     4.7920     5.0070     2.5470     0.0290  -170.5660     0.1910
 3158.0000    79.0390  -164.0550   127.4360   -29.4970     8.3300  -154.3500     5.2780     4.4200     4.6490     2.5350     0.0170  -171.7960     0.2030
 3158.5000    79.9920  -164.0550   132.4070   -29.3500     8.3310  -154.7430     4.7850     4.0480     4.2910     2.5220     0.0040  -173.0260     0.2160
 3159.0000    81.2560  -164.0550   132.9790   -29.2090     8.3330  -155.1360     4.0930     3.6760     3.9330     2.5160     0.0160  -174.2570     0.2190
 3159.5000    82.7460  -164.0550   130.5240   -29.0720     8.3340  -155.5290     4.1080     3.3530     3.5750     2.5120     0.0300  -175.4870     0.2200
 3160.0000    84.2360  -164.0550   129.1020   -28.9350     8.3360  -155.9220     4.1320     3.0640     3.2400     2.5110     0.0400  -176.7170     0.2190
 3160.5000    85.7250  -164.0550   128.6950   -28.7980     8.3370  -156.3150     4.1570     2.8380     2.9390     2.5090     0.0310  -177.9470     0.2180
 3161.0000    86.3250  -164.0550   131.8980   -28.6620     8.3380  -156.7080     4.1700     2.5820     2.6370     2.5080     0.0210  -179.1780     0.2160
 3161.5000    86.0700  -164.0550   136.6700   -28.5300     8.3400  -157.1010     3.8730     2.3250     2.3360     2.5070     0.0230  -180.4370     0.2180
 3162.0000    85.8130  -164.0550   141.8450   -28.2250     8.3410  -157.4940     3.5910     2.0680     2.0340     2.5070     0.0310  -175.8890     0.2190
 3162.5000    86.0270  -164.0550   159.0660   -27.8840     8.3420  -157.8860     3.1400     1.8350     1.9040     2.5040     0.0400  -171.2300     0.2330
 3163.0000    86.2590  -164.0550   176.2000   -27.4710     8.3440  -158.2790     2.6680     1.8760     1.9040     2.4900     0.0490  -166.5710     0.2510
 3163.5000    87.1690  -164.0550   182.7390   -26.4190     8.3450  -158.6720     2.0710     1.9570     2.0650     2.4700     0.0720  -161.9120     0.2820
 3164.0000    91.3860  -164.0550   171.9540   -25.4020     8.3460  -159.0650     2.2580     2.0380     2.2300     2.4330     0.1410  -157.2530     0.2990
 3164.5000    97.4980  -164.0550   156.6950   -24.5250     8.3480  -159.4580     2.6150     2.1170     2.6440     2.3620     0.2510  -152.5940     0.2770
 3165.0000   101.4260  -164.0550   140.7780   -25.0390     8.3490  -159.8510     4.6110     2.2820     3.0650     2.3830     0.2080  -149.1570     0.2550
 3165.5000    98.7490  -164.0550   135.6810   -25.5390     8.3510  -160.2440     5.5690     2.6490     3.1740     2.4310     0.1100  -147.1860     0.2330
 3166.0000    93.6980  -164.0550   132.9220   -26.0340     8.3520  -160.6370     4.5780     3.3330     3.7390     2.4790     0.0070  -145.2150     0.2130
 3166.5000    88.6470  -164.0550   124.1600   -26.5280     8.3530  -161.0300     5.0570     3.9410     4.3030     2.5120     0.0370  -143.2440     0.2030
 3167.0000    83.5970  -164.0550   116.9290   -27.0220     8.3550  -161.4230     5.8300     4.4470     4.7820     2.5070     0.0850  -141.2730     0.2030
 3167.5000    82.3150  -164.0550   113.7140   -27.5160     8.3560  -161.8150     6.4060     4.9520     5.1500     2.5170     0.0550  -141.7950     0.2120
 3168.0000    82.7910  -164.0550   116.1520   -28.0080     8.3570  -162.2080     6.0330     5.3510     5.5180     2.5380     0.0130  -147.7080     0.2170
 3168.5000    82.5260  -164.0550   118.5650   -28.3300     8.3590  -162.6010     5.7280     5.6980     5.8860     2.5530    -0.0090  -153.6210     0.2020
 3169.0000    81.4980  -164.0550   116.9680   -28.3920     8.3600  -162.9940     6.4190     6.0440     6.2540     2.5470     0.0040  -159.5350     0.1940
 3169.5000    80.6980  -164.0550   113.2320   -28.4580     8.3610  -163.3870     7.1930     6.3910     6.6500     2.5400     0.0230  -165.4480     0.1950
 3170.0000    80.9750  -164.0550   111.1500   -28.5230     8.3630  -163.7800     8.1650     6.7370     7.0410     2.5440     0.0290  -169.7210     0.1970
 3170.5000    81.2750  -164.0550   110.5730   -28.5890     8.3640  -163.3000     8.0890     7.0990     7.2320     2.5490     0.0160  -166.4150     0.1940
 3171.0000    81.0580  -164.0550   113.6470   -28.6540     8.3660  -162.5200     7.7470     7.1650     7.0230     2.5500     0.0030  -163.1090     0.1900
 3171.5000    80.4420  -164.0550   117.1310   -28.7190     8.3670  -161.7410     7.3890     7.2320     6.8670     2.5400    -0.0100  -159.8020     0.1850
