~VERSION INFORMATION
 VERS.                2.0:   CWLS LOG ASCII STANDARD - VERSION 2.0
 WRAP.                 NO:   ONE LINE PER DEPTH STEP
~WELL INFORMATION
#MNEM.UNIT      DATA TYPE    INFORMATION
#----------   ------------   ------------------------------
 STRT.F          484.0000:   START DEPTH
 STOP.F         4096.0000:   STOP DEPTH
 STEP.F            0.5000:   STEP LENGTH
 NULL.          -999.2500:   NO VALUE
 COMP.    FENIX & SCISSON:   COMPANY
 WELL. FENIX NPR "JX" #58-28:   WELL
 FLD .                NPR:   FIELD
 LOC .      S28 T39N R78W:   LOCATION
 CNTY.            NATRONA:   COUNTY
 STAT.            WYOMING:   STATE
 CTRY. UNITED STATES OF AMERICA:   COUNTRY
 SRVC.              WELEX:   SERVICE COMPANY
 DATE.        02-MAY-1978:   LOGDATE
 API .     49025107810000:   API NUMBER
~CURVE INFORMATION
#MNEM.UNIT       API CODE    CURVE DESCRIPTION
#----------   ------------   ------------------------------
 DEPT.F                  :   
 NPHI.DEC    42 890 03 00:   NEUTRON POROSITY SANDSTONE
 RHOB.G/C3   45 350 01 00:   BULK DENSITY
 CORR.G/C3   45 356 01 00:   DENSITY CORRECTION
 CALD.IN     45 280 60 00:   CALIPER FROM DENSITY LOG
 GRD .GAPI   45 310 01 00:   GAMMA RAY FROM DENSITY LOG
 SPR .MV     07 010 01 00:   SPONTANEOUS POTENTIAL
 ILD .OHMM   07 120 46 00:   DEEP INDUCTION RESISTIVITY
 SGRD.OHMM   07 220 05 00:   SHALLOW SHORT GUARD RESISTIVITY
 ILM .OHMM   07 120 44 00:   INDUCTION LOG MEDIUM RESISTIVITY
~PARAMETER INFORMATION
#MNEM.UNIT          VALUE    DESCRIPTION
#----------   ------------   ------------------------------
 EKB .F         5115.0000:   Kelly bushing
 EGL .F         5101.0000:   Ground level
 EDF .F            0.0000:   Drilling floor
 EPD .F         5101.0000:   Permanent datum
 TD  .F         4100.0000:   Total depth
 DATE.        02-MAY-1978:   Date logged
 CLNT.            A2DTECH:   Client Code
 SL  . 525' FSL & 2406' FEL:   Surface Location
 PD  .                 GL:   Permanent Datum
 DAPD.F                14:   Feet Above Permanent Datum
 DD  .F              4100:   Depth driller
 DL  .F              4098:   Depth logger
 BLI .F              4096:   Bottom log interval
 CS1 .IN            8.625:   Casing size
 CBD1.      8.625" @ 501':   Casing driller 1
 CBL1.F               500:   Casing logger 1
 BS1 .IN            7.875:   Bit size
 BSD1.F              4100:   Depth drilled with bit1
 DFT .            CHM GEL:   Type fluid in hole
 DFD .                9.4:   Density
 DFV .                 48:   Viscosity
 DFPH.                9.3:   pH
 DFL .                8.5:   Fluid loss
 MSS .           FLOWLINE:   Source of sample
 RMS .OHMM           1.24:   Rm
 MST .F                70:   Rm Meas. temp.
 RMF .OHMM            .57:   Rmf
 MFST.F                70:   Rmf Meas. temp.
 RMC .OHMM           1.48:   Rmc
 MCST.F                70:   Rmc Meas. temp.
 MFSS.               MEAS:   Source Rmf.
 MCSS.               MEAS:   Source Rmc.
 RMB .OHMM            .87:   Rm. at BHT
 BHT .F               123:   BHT.
 TCS .HRS               4:   Time Circ. stopped
 MRT .F               123:   Maximum recorded temp.
 LUN .               1892:   Logging unit number
 LUL .             CASPER:   Logging unit location
 ENGI.               REIN:   Recorded By
 WITN.           DINSMORE:   Witnessed by
 ORIG.         2.5" PRINT:   Origin of data
 UWI .     49025107810000:   Unique Well ID
 DICO. A2D TECHNOLOGIES, INC.:   Digitizing Company
 TLI .                500:   Top log interval
~OTHER INFORMATION
~A   DEPT       NPHI     RHOB       CORR       CALD         GRD       SPR        ILD       SGRD        ILM   
# ...
 1214.0000     0.2960     2.5960     0.0960    10.2940    74.4000   -14.2630     6.1720     7.0740     6.5240
 1214.5000     0.2960     2.5850     0.1000    10.2940    74.3730   -14.7800     6.1860     7.0600     6.5390
 1215.0000     0.2960     2.5730     0.0890    10.2940    74.5590   -15.3350     6.2000     7.0470     6.5540
 1215.5000     0.2960     2.5700     0.0920    10.2940    74.7680   -15.5670     6.2140     7.0340     6.5680
 1216.0000     0.2960     2.5720     0.0950    10.2940    75.5250   -15.4220     6.2280     6.9040     6.5830
 1216.5000     0.2960     2.5740     0.0990    10.2940    77.6110   -15.3150     6.2420     6.7820     6.5980
 1217.0000     0.2950     2.5750     0.1040    10.3030    77.8690   -15.2070     6.2550     6.6550     6.6120
 1217.5000     0.2950     2.5810     0.1020    10.3300    74.9800   -15.0890     6.2690     6.6550     6.6270
 1218.0000     0.2940     2.5910     0.0980    10.3550    74.8280   -14.9780     6.2830     6.9120     6.6420
 1218.5000     0.2930     2.6090     0.0990    10.3740    75.3800   -14.8690     6.2970     7.1660     6.6560
 1219.0000     0.2930     2.6280     0.1060    10.3580    76.1910   -14.7490     6.3110     7.1660     6.6710
 1219.5000     0.2920     2.6280     0.1120    10.3370    74.8360   -14.6430     6.3250     7.1660     6.6860
 1220.0000     0.2920     2.6190     0.1030    10.3160    72.0820   -14.5450     6.3390     7.1660     6.7000
 1220.5000     0.2910     2.6040     0.0950    10.2960    71.2200   -14.3690     6.3530     7.1660     6.7150
 1221.0000     0.2910     2.5920     0.0860    10.2740    73.4310   -14.8870     6.3670     7.1660     6.7300
 1221.5000     0.2900     2.5820     0.0780    10.2520    75.3580   -16.0230     6.3800     7.1660     6.7440
 1222.0000     0.2890     2.5900     0.0760    10.1920    76.4340   -16.4320     6.3940     7.1660     6.7590
 1222.5000     0.2890     2.5990     0.0760    10.1340    75.1630   -16.3830     6.4120     7.1660     6.7780
 1223.0000     0.2880     2.5980     0.0760    10.0720    73.9570   -16.4020     6.4080     7.1660     6.7740
 1223.5000     0.2880     2.5990     0.0760    10.0070    71.4010   -16.4250     6.3990     7.1660     6.7640
 1224.0000     0.2870     2.6020     0.0760     9.9840    69.7250   -16.7950     6.3910     7.1660     6.7550
 1224.5000     0.2870     2.6050     0.0760    10.0410    71.2690   -17.1240     6.3830     7.1660     6.7470
 1225.0000     0.2870     2.6010     0.0760    10.0550    75.0710   -17.4770     6.3750     7.1660     6.7380
 1225.5000     0.2880     2.5940     0.0760    10.0600    80.6370   -17.8570     6.3670     7.1660     6.7300
 1226.0000     0.2890     2.6000     0.0760    10.0650    81.6890   -17.8210     6.3580     7.1660     6.7210
 1226.5000     0.2900     2.6040     0.0760    10.0710    82.6100   -17.2620     6.3500     7.1660     6.7130
 1227.0000     0.2910     2.6080     0.0760    10.0760    82.2400   -16.7050     6.3420     7.1660     6.7040
 1227.5000     0.2920     2.6160     0.0760    10.0820    80.7390   -16.3700     6.3340     7.1660     6.6950
 1228.0000     0.2920     2.6250     0.0760    10.0870    82.2830   -16.4040     6.3260     7.1680     6.6870
 1228.5000     0.2920     2.6320     0.0760    10.0920    83.1780   -16.3850     6.3180     7.1390     6.6780
 1229.0000     0.2920     2.6310     0.0760    10.0900    82.8490   -16.5150     6.3100     7.0630     6.6700
 1229.5000     0.2930     2.6410     0.0760    10.0870    81.3620   -16.7570     6.3020     6.9880     6.6610
 1230.0000     0.2930     2.6510     0.0760    10.0840    80.6800   -16.9770     6.2880     6.9050     6.6470
 1230.5000     0.2930     2.6520     0.0740    10.0810    81.8200   -17.2010     6.2600     6.7190     6.6170
 1231.0000     0.2940     2.6490     0.0720    10.0780    81.6470   -17.4260     6.2310     6.5080     6.5870
 1231.5000     0.2940     2.6340     0.0710    10.0750    79.1950   -17.6070     6.2030     6.4130     6.5570
 1232.0000     0.2940     2.6300     0.0690    10.0720    78.1940   -17.5590     6.1750     6.4050     6.5270
 1232.5000     0.2940     2.6210     0.0670    10.0690    79.1630   -17.4960     6.1470     6.3940     6.4980
 1233.0000     0.2950     2.6100     0.0650    10.0660    79.9220   -17.4260     6.1190     6.3840     6.4680
 1233.5000     0.2940     2.6100     0.0640    10.0640    81.9770   -17.3590     6.0910     6.3740     6.4380
 1234.0000     0.2930     2.6080     0.0620    10.0610    83.2290   -17.2920     6.0630     6.3630     6.4080
 1234.5000     0.2910     2.6050     0.0600    10.0580    83.7590   -17.2240     6.0350     6.3530     6.3790
 1235.0000     0.2900     2.6020     0.0600    10.0550    84.3980   -17.1570     6.0070     6.3420     6.3490
 1235.5000     0.2880     2.5990     0.0600    10.0520    84.6920   -17.0890     5.9780     6.3320     6.3200
 1236.0000     0.2870     2.5980     0.0610    10.0490    84.4420   -17.0210     5.9500     6.3220     6.2900
 1236.5000     0.2850     2.6000     0.0610    10.0460    84.2670   -16.9550     5.9220     6.3110     6.2600
 1237.0000     0.2840     2.6010     0.0610    10.0430    83.9340   -16.8880     5.8930     6.3010     6.2290
 1237.5000     0.2860     2.5960     0.0620    10.0400    82.6090   -16.8170     5.8460     6.2950     6.1800
 1238.0000     0.2880     2.5880     0.0620    10.0370    80.6150   -16.8530     5.8690     6.3790     6.2030
 1238.5000     0.2900     2.5880     0.0620    10.0340    78.4760   -17.0330     5.9380     6.4980     6.2770
 1239.0000     0.2910     2.5880     0.0630    10.0310    77.9130   -17.2040     6.0070     6.6170     6.3500
 1239.5000     0.2920     2.5850     0.0630    10.0290    79.3140   -17.3740     6.0770     6.7350     6.4230
 1240.0000     0.2940     2.5820     0.0630    10.0260    79.4460   -17.5620     6.1460     6.8540     6.4960
 1240.5000     0.2950     2.5860     0.0640    10.0230    79.9250   -17.5340     6.2150     6.9730     6.5700
 1241.0000     0.2970     2.5940     0.0640    10.0200    78.3000   -17.3780     6.2850     7.0340     6.6430
 1241.5000     0.2980     2.6080     0.0680    10.0160    76.8820   -17.2360     6.3540     6.9740     6.7160
 1242.0000     0.2990     2.6210     0.0710    10.0140    75.8440   -17.0990     6.4130     6.9200     6.7790
 1242.5000     0.2990     2.6340     0.0750    10.0130    74.7510   -16.9540     6.3320     6.8650     6.6940
 1243.0000     0.2980     2.6390     0.0790    10.0370    75.0470   -16.8060     6.2620     6.8100     6.6190
 1243.5000     0.2970     2.6360     0.0820    10.0610    76.4760   -16.6760     6.1920     6.7320     6.5450
 1244.0000     0.2970     2.6360     0.0860    10.0870    77.9900   -16.5230     6.1220     6.6200     6.4710
 1244.5000     0.2970     2.6460     0.0900    10.1120    80.4220   -16.3220     6.0520     6.5090     6.3970
 1245.0000     0.2970     2.6530     0.0920    10.1370    80.5720   -15.2210     5.9810     6.3980     6.3230
 1245.5000     0.2970     2.6540     0.0920    10.1620    79.5530   -14.3090     5.9110     6.2860     6.2480
 1246.0000     0.2970     2.6540     0.0900    10.1870    77.5300   -13.0400     5.8410     6.1750     6.1740
 1246.5000     0.2960     2.6440     0.0840    10.2130    76.9140   -14.4960     5.7710     6.0630     6.1000
 1247.0000     0.2960     2.6330     0.0790    10.2380    75.8160   -15.1770     5.7010     5.9560     6.0260
 1247.5000     0.2940     2.6210     0.0720    10.2630    76.0780   -15.6310     5.6300     6.0510     5.9520
 1248.0000     0.2920     2.6140     0.0730    10.2880    76.9770   -15.5410     5.5600     6.1440     5.8770
 1248.5000     0.2930     2.6120     0.0730    10.3130    80.0180   -15.6150     5.4900     6.2370     5.8030
 1249.0000     0.2930     2.6100     0.0740    10.3330    83.0400   -15.8170     5.4300     6.3290     5.7390
 1249.5000     0.2940     2.6110     0.0750    10.3230    84.3340   -17.4680     5.4580     6.4220     5.7690
 1250.0000     0.2950     2.6110     0.0750    10.3150    82.9770   -17.4460     5.4960     6.5330     5.8100
