~VERSION INFORMATION
 VERS.                2.0:   CWLS LOG ASCII STANDARD - VERSION 2.0
 WRAP.                 NO:   ONE LINE PER DEPTH STEP
~WELL INFORMATION
#MNEM.UNIT      DATA TYPE    INFORMATION
#----------   ------------   ------------------------------
 STRT.F           31.0000:   START DEPTH
 STOP.F         2926.0000:   STOP DEPTH
 STEP.F            0.5000:   STEP LENGTH
 NULL.          -999.2500:   NO VALUE
 COMP. LAWERNCE ALLISON AND ASSOCIATES:   COMPANY
 WELL.   FENIX "X" #17-21:   WELL
 FLD .             NPR #3:   FIELD
 LOC .      S21 T39N R78W:   LOCATION
 CNTY.            NATRONA:   COUNTY
 STAT.            WYOMING:   STATE
 CTRY. UNITED STATES OF AMERICA:   COUNTRY
 SRVC.      WESTERN ATLAS:   SERVICE COMPANY
 DATE.        02-NOV-1987:   LOGDATE
 API .     49025111960000:   API NUMBER
~CURVE INFORMATION
#MNEM.UNIT       API CODE    CURVE DESCRIPTION
#----------   ------------   ------------------------------
 DEPT.F                  :   
 CALD.IN     45 280 60 00:   CALIPER FROM DENSITY LOG
 TEND.LBS    45 635 01 00:   TENSION FROM DENSITY LOG
 CORR.G/C3   45 356 01 00:   DENSITY CORRECTION
 RHOB.G/C3   45 350 01 00:   BULK DENSITY
 CNC .DEC    42 890 03 00:   NEUTRON POROSITY SANDSTONE
 SPR .MV     07 010 01 00:   SPONTANEOUS POTENTIAL
 GRR .GAPI   07 310 01 00:   GAMMA RAY FROM RESISTIVITY
 TENR.LBS    07 635 01 00:   TENSION FROM RESISTIVITY
 RFOC.OHMM   07 220 04 00:   RESISTIVITY FOCUSED LOG RES.
 RILD.OHMM   07 120 46 00:   DEEP INDUCTION RESISTIVITY
 RILM.OHMM   07 120 44 00:   INDUCTION LOG MEDIUM RESISTIVITY
~PARAMETER INFORMATION
#MNEM.UNIT          VALUE    DESCRIPTION
#----------   ------------   ------------------------------
 EKB .F         5006.0000:   Kelly bushing
 EGL .F         4995.0000:   Ground level
 EDF .F            0.0000:   Drilling floor
 TD  .F         2915.0000:   Total depth
 DATE.        02-NOV-1987:   Date logged
 CLNT.            A2DTECH:   Client Code
 SL  . 1824' FSL & 399' FWL:   Surface Location
 PD  .                 GL:   Permanent Datum
 DD  .F              2911:   Depth driller
 DL  .F              2915:   Depth logger
 BLI .F              2913:   Bottom log interval
 CS1 .IN            8.625:   Casing size
 CBD1.      8.625" @ 350':   Casing driller 1
 CBL1.F               350:   Casing logger 1
 BS1 .IN            7.875:   Bit size
 DFT .        KCL-POLYMER:   Type fluid in hole
 DFD .                8.8:   Density
 DFV .                 42:   Viscosity
 DFPH.                9.5:   pH
 DFL .                 11:   Fluid loss
 MSS .           FLOWLINE:   Source of sample
 RMS .OHMM           0.41:   Rm
 MST .F                78:   Rm Meas. temp.
 RMF .OHMM           0.29:   Rmf
 MFST.F                78:   Rmf Meas. temp.
 RMC .OHMM           0.51:   Rmc
 MCST.F                78:   Rmc Meas. temp.
 MFSS.               MEAS:   Source Rmf.
 RMB .OHMM           0.29:   Rm. at BHT
 BHT .F               108:   BHT.
 TCS .HRS               5:   Time Circ. stopped
 MRT .F               108:   Maximum recorded temp.
 LUN .            HL-6274:   Logging unit number
 LUL .           GILLETTE:   Logging unit location
 WITN.             STRONG:   Witnessed by
 ORIG.           5" PRINT:   Origin of data
 UWI .     49025111960000:   Unique Well ID
 DICO. A2D TECHNOLOGIES, INC.:   Digitizing Company
 DAPD.                 11:   Feet Above Permanent Datum
 BSD1.               2911:   Depth drilled with bit1
 MCSS.               CALC:   Source Rmc.
 EPD .               4995:   Elevation Permanent Datum
 LMF .                 KB:   Log Measured From
 DMF .                 KB:   Drilling Measured From
 TLI .                 11:   Top log interval
~OTHER INFORMATION
~A   DEPT     CALD       TEND       CORR       RHOB        CNC        SPR         GRR      TENR       RFOC       RILD       RILM   
# ...
 1220.5000  -999.2500  -999.2500  -999.2500  -999.2500  -999.2500   -26.2130   107.3830   -64.8940     6.6350     6.8940     6.6590
 1221.0000  -999.2500  -999.2500  -999.2500  -999.2500  -999.2500   -26.2390   106.9430   -64.7980     6.6530     6.9030     6.6680
 1221.5000  -999.2500  -999.2500  -999.2500  -999.2500  -999.2500   -26.2640   103.3420   -64.7030     6.6710     6.9120     6.6770
 1222.0000  -999.2500  -999.2500  -999.2500  -999.2500  -999.2500   -26.2640   103.6030   -64.6070     6.6880     6.9220     6.6850
 1222.5000  -999.2500  -999.2500  -999.2500  -999.2500  -999.2500   -26.2650   104.4970   -64.5110     6.7060     6.9310     6.6940
 1223.0000  -999.2500  -999.2500  -999.2500  -999.2500  -999.2500   -26.2650   108.9010   -64.4160     6.7180     6.9410     6.7030
 1223.5000  -999.2500  -999.2500  -999.2500  -999.2500  -999.2500   -26.2650   109.1360   -64.3200     6.6780     6.9490     6.7130
 1224.0000  -999.2500  -999.2500  -999.2500  -999.2500  -999.2500   -26.2650   108.4670   -64.2240     6.6350     6.9680     6.7210
 1224.5000  -999.2500  -999.2500  -999.2500  -999.2500  -999.2500   -26.2650   108.6020   -64.1280     6.5920     6.9580     6.7130
 1225.0000  -999.2500  -999.2500  -999.2500  -999.2500  -999.2500   -26.2650   107.6870   -64.0330     6.5490     6.8400     6.6240
 1225.5000  -999.2500  -999.2500  -999.2500  -999.2500  -999.2500   -26.2650   104.6050   -63.9370     6.5060     6.7110     6.5540
 1226.0000  -999.2500  -999.2500  -999.2500  -999.2500  -999.2500   -26.2650   103.2030   -63.8410     6.4820     6.7230     6.4820
 1226.5000  -999.2500  -999.2500  -999.2500  -999.2500  -999.2500   -26.2650   103.5750   -63.7460     6.5920     6.7750     6.6280
 1227.0000  -999.2500  -999.2500  -999.2500  -999.2500  -999.2500   -26.2650   106.1930   -63.6500     6.7610     6.8310     6.7400
 1227.5000  -999.2500  -999.2500  -999.2500  -999.2500  -999.2500   -26.2650   111.3160   -63.5540     6.9310     6.8860     6.8520
 1228.0000  -999.2500  -999.2500  -999.2500  -999.2500  -999.2500   -26.2650   111.2060   -63.4590     7.1000     6.9410     6.9650
 1228.5000  -999.2500  -999.2500  -999.2500  -999.2500  -999.2500   -26.2640   110.0320   -63.3630     7.2700     6.9960     7.0770
 1229.0000  -999.2500  -999.2500  -999.2500  -999.2500  -999.2500   -26.2640   107.3380   -63.2670     7.4390     7.0520     7.2160
 1229.5000  -999.2500  -999.2500  -999.2500  -999.2500  -999.2500   -26.2640   103.3510   -63.1710     7.4790     7.1070     7.2090
 1230.0000  -999.2500  -999.2500  -999.2500  -999.2500  -999.2500   -26.2630   103.7380   -63.0760     7.3700     7.1620     7.1900
 1230.5000  -999.2500  -999.2500  -999.2500  -999.2500  -999.2500   -26.2650   104.5070   -62.9800     7.2580     7.2160     7.1710
 1231.0000  -999.2500  -999.2500  -999.2500  -999.2500  -999.2500   -26.2640   106.7500   -62.8840     7.2160     7.0880     7.1520
 1231.5000  -999.2500  -999.2500  -999.2500  -999.2500  -999.2500   -26.2580   107.7130   -62.7890     7.2160     7.0880     7.1330
 1232.0000  -999.2500  -999.2500  -999.2500  -999.2500  -999.2500   -26.3560   107.5680   -62.6930     7.1620     7.0880     7.1140
 1232.5000  -999.2500  -999.2500  -999.2500  -999.2500  -999.2500   -26.6910   106.4100   -62.5970     7.1120     7.0880     7.0950
 1233.0000  -999.2500  -999.2500  -999.2500  -999.2500  -999.2500   -27.0140   107.0360   -62.5010     7.0610     7.0880     7.0760
 1233.5000  -999.2500  -999.2500  -999.2500  -999.2500  -999.2500   -27.3460   110.1370   -62.4060     7.0100     7.0880     7.0570
 1234.0000  -999.2500  -999.2500  -999.2500  -999.2500  -999.2500   -27.4340   111.4780   -62.3100     6.9590     7.2160     7.0380
 1234.5000  -999.2500  -999.2500  -999.2500  -999.2500  -999.2500   -27.3350   110.2720   -62.2140     6.9080     7.1820     7.0190
 1235.0000  -999.2500  -999.2500  -999.2500  -999.2500  -999.2500   -27.2330   109.4840   -62.1190     6.8580     7.1460     7.0000
 1235.5000  -999.2500  -999.2500  -999.2500  -999.2500  -999.2500   -27.1320   110.1370   -62.0230     6.8070     7.1110     6.9810
 1236.0000  -999.2500  -999.2500  -999.2500  -999.2500  -999.2500   -27.0300   112.2200   -61.9270     6.7560     7.0750     6.9630
 1236.5000  -999.2500  -999.2500  -999.2500  -999.2500  -999.2500   -26.9280   112.5730   -61.8320     6.7180     7.0400     6.8390
 1237.0000  -999.2500  -999.2500  -999.2500  -999.2500  -999.2500   -26.8260   110.9860   -61.7360     6.6700     7.0040     6.8040
 1237.5000  -999.2500  -999.2500  -999.2500  -999.2500  -999.2500   -26.7240   106.9610   -61.6400     6.6140     6.9680     6.7630
 1238.0000  -999.2500  -999.2500  -999.2500  -999.2500  -999.2500   -26.6220   105.8490   -61.5440     6.5580     6.9320     6.7220
 1238.5000  -999.2500  -999.2500  -999.2500  -999.2500  -999.2500   -26.5200   107.3560   -61.4490     6.5020     6.8970     6.6810
 1239.0000  -999.2500  -999.2500  -999.2500  -999.2500  -999.2500   -26.4170   107.3690   -61.3530     6.4460     6.8610     6.6410
 1239.5000  -999.2500  -999.2500  -999.2500  -999.2500  -999.2500   -26.3170   106.2240   -61.2570     6.3900     6.8390     6.5990
 1240.0000  -999.2500  -999.2500  -999.2500  -999.2500  -999.2500   -26.2130   106.0890   -61.1620     6.3670     6.8390     6.7180
 1240.5000  -999.2500  -999.2500  -999.2500  -999.2500  -999.2500   -26.1120   104.1200   -61.0660     6.5460     6.8870     6.8970
 1241.0000  -999.2500  -999.2500  -999.2500  -999.2500  -999.2500   -26.0140   102.5140   -60.9700     6.7180     6.9480     7.0460
 1241.5000  -999.2500  -999.2500  -999.2500  -999.2500  -999.2500   -25.8950   101.3330   -60.8750     7.1670     7.0090     7.1950
 1242.0000  -999.2500  -999.2500  -999.2500  -999.2500  -999.2500   -25.9960   102.2290   -60.7790     7.6990     7.0680     7.3440
 1242.5000  -999.2500  -999.2500  -999.2500  -999.2500  -999.2500   -26.2250   104.2140   -60.6830     8.1790     7.1280     7.4790
 1243.0000  -999.2500  -999.2500  -999.2500  -999.2500  -999.2500   -26.4340   107.3310   -60.5870     7.8900     7.1880     7.4010
 1243.5000  -999.2500  -999.2500  -999.2500  -999.2500  -999.2500   -26.6400   106.3340   -60.4920     7.4810     7.2160     7.3300
 1244.0000  -999.2500  -999.2500  -999.2500  -999.2500  -999.2500   -26.8520   102.3450   -60.3960     7.2160     7.3460     7.2590
 1244.5000  -999.2500  -999.2500  -999.2500  -999.2500  -999.2500   -27.0600    98.9030   -60.3000     7.2090     7.3460     7.1870
 1245.0000  -999.2500  -999.2500  -999.2500  -999.2500  -999.2500   -27.2700   100.8690   -60.2050     7.2010     7.3460     7.1160
 1245.5000  -999.2500  -999.2500  -999.2500  -999.2500  -999.2500   -27.4370   105.5540   -60.1090     7.1930     7.3510     7.0880
 1246.0000  -999.2500  -999.2500  -999.2500  -999.2500  -999.2500   -27.3590   108.0070   -60.0130     7.1850     7.3400     7.0880
 1246.5000  -999.2500  -999.2500  -999.2500  -999.2500  -999.2500   -27.1740   107.6400   -59.9170     7.1780     7.3370     7.0880
 1247.0000  -999.2500  -999.2500  -999.2500  -999.2500  -999.2500   -26.9950   105.1500   -59.8220     7.1700     7.4880     7.1090
 1247.5000  -999.2500  -999.2500  -999.2500  -999.2500  -999.2500   -26.8130   103.3630   -59.7260     7.1620     7.4830     7.1340
 1248.0000  -999.2500  -999.2500  -999.2500  -999.2500  -999.2500   -26.6300   105.5490   -59.6300     7.1540     7.5040     7.1580
 1248.5000  -999.2500  -999.2500  -999.2500  -999.2500  -999.2500   -26.4600   109.1060   -59.5350     7.1470     7.5250     7.1830
 1249.0000  -999.2500  -999.2500  -999.2500  -999.2500  -999.2500   -26.2570   109.1700   -59.4390     7.1390     7.5430     7.2070
 1249.5000  -999.2500  -999.2500  -999.2500  -999.2500  -999.2500   -26.0980   107.0540   -59.3430     7.1310     7.5590     7.2320
 1250.0000  -999.2500  -999.2500  -999.2500  -999.2500  -999.2500   -25.9620   106.2020   -59.2480     7.1230     7.5760     7.2570
 1250.5000  -999.2500  -999.2500  -999.2500  -999.2500  -999.2500   -26.3080   105.2910   -59.1520     7.1150     7.5930     7.2820
