~VERSION INFORMATION
 VERS.                2.0:   CWLS LOG ASCII STANDARD - VERSION 2.0
 WRAP.                 NO:   ONE LINE PER DEPTH STEP
~WELL INFORMATION
#MNEM.UNIT      DATA TYPE    INFORMATION
#----------   ------------   ------------------------------
 STRT.F          298.0000:   START DEPTH
 STOP.F         3084.0000:   STOP DEPTH
 STEP.F            0.5000:   STEP LENGTH
 NULL.          -999.2500:   NO VALUE
 COMP. LAWERNCE ALLISON AND ASSOCIATED:   COMPANY
 WELL. LAWERNCE "TX" #77-20:   WELL
 FLD .        TEAPOT DOME:   FIELD
 LOC .      S20 T39N R78W:   LOCATION
 CNTY.            NATRONA:   COUNTY
 STAT.            WYOMING:   STATE
 CTRY. UNITED STATES OF AMERICA:   COUNTRY
 SRVC.       SCHLUMBERGER:   SERVICE COMPANY
 DATE.        22-JAN-1982:   LOGDATE
 API .     49025108840000:   API NUMBER
~CURVE INFORMATION
#MNEM.UNIT       API CODE    CURVE DESCRIPTION
#----------   ------------   ------------------------------
 DEPT.F                  :   
 CALD.IN     45 280 60 00:   CALIPER FROM DENSITY LOG
 GRD .GAPI   45 310 01 00:   GAMMA RAY FROM DENSITY LOG
 TEND.LBS    45 635 01 00:   TENSION FROM DENSITY LOG
 RHOB.G/C3   45 350 01 00:   BULK DENSITY
 NPHI.DEC    42 890 03 00:   NEUTRON POROSITY SANDSTONE
 CORR.G/C3   45 356 01 00:   DENSITY CORRECTION
 SFLU.OHMM   07 220 01 00:   SPHERICALLY FOCUSED LOG UNAVERAGED RESISTIVITY
 ILD .OHMM   07 120 46 00:   INDUCTION LOG DEEP RESISTIVITY
 ILM .OHMM   07 120 44 00:   INDUCTION LOG MEDIUM RESISTIVITY
 TENR.LBS    07 635 01 00:   TENSION
 SPR .MV     07 010 01 00:   SPONTANEOUS POTENTIAL
~PARAMETER INFORMATION
#MNEM.UNIT          VALUE    DESCRIPTION
#----------   ------------   ------------------------------
 EKB .F         5022.0000:   Kelly bushing
 EGL .F         5012.0000:   Ground level
 EDF .F         5021.0000:   Drilling floor
 TD  .F         3079.0000:   Total depth
 DATE.        22-JAN-1982:   Date logged
 CLNT.            A2DTECH:   Client Code
 SL  . 986' FSL & 779' FEL:   Surface Location
 PD  .                 GL:   Permanent Datum
 EPD .F              5012:   Elevation Permanent Datum
 LMF .                 KB:   Log Measured From
 DMF .                 KB:   Drilling Measured From
 DAPD.F                10:   Feet Above Permanent Datum
 DD  .F              3079:   Depth driller
 DL  .F              3070:   Depth logger
 BLI .F              3064:   Bottom log interval
 TLI .F               328:   Top log interval
 CS1 .IN            9.625:   Casing size
 CBD1.      9.625" @ 300':   Casing driller 1
 CBL1.F               328:   Casing logger 1
 BS1 .IN            7.875:   Bit size
 BSD1.F              3079:   Depth drilled with bit1
 DFT .           CHEM/GEL:   Type fluid in hole
 DFD .                8.9:   Density
 DFV .                 50:   Viscosity
 DFPH.               10.5:   pH
 DFL .                  8:   Fluid loss
 MSS .           FLOWLINE:   Source of sample
 RMS .OHMM           2.53:   Rm
 MST .F                49:   Rm Meas. temp.
 RMF .OHMM           2.04:   Rmf
 MFST.F                49:   Rmf Meas. temp.
 RMC .OHMM           3.80:   Rmc
 MCST.F                49:   Rmc Meas. temp.
 MFSS.               MEAS:   Source Rmf.
 MCSS.               CALC:   Source Rmc.
 RMB .OHMM           1.04:   Rm. at BHT
 BHT .F               119:   BHT.
 TCS .HRS            0330:   Time Circ. stopped
 TLAB.HRS            0800:   Time logger at bottom
 MRT .F               119:   Maximum recorded temp.
 LUN .               8043:   Logging unit number
 LUL .               CSPR:   Logging unit location
 ENGI.            PERAKIS:   Recorded By
 WITN.              SCOTT:   Witnessed by
 ORIG.           5" PRINT:   Origin of data
 UWI .     49025108840000:   Unique Well ID
 DICO. A2D TECHNOLOGIES, INC.:   Digitizing Company
~OTHER INFORMATION
~A   DEPT       CALD       GRD      TEND         RHOB       NPHI     CORR       SFLU        ILD        ILM       TENR        SPR   
# ...
 2494.0000    10.1380    97.5070  1129.7030     2.4980     0.2350     0.0120    11.0890     8.1820     8.3030  1145.1100   -24.5580
 2494.5000    10.1430   101.2610  1135.0360     2.5150     0.2490     0.0160    10.1480     8.2730     8.5080  1150.7841   -24.5590
 2495.0000    10.1480   105.0610  1140.3690     2.5230     0.2490     0.0210     9.7880     8.1950     8.4360  1156.4580   -24.3760
 2495.5000    10.1520   105.6650  1145.7010     2.5310     0.2430     0.0270     9.7880     8.1310     8.2730  1162.1320   -24.1670
 2496.0000    10.1570   103.4470  1145.4420     2.5420     0.2360     0.0380     9.8800     8.0670     8.5190  1167.5129   -23.9540
 2496.5000    10.1620    97.9350  1130.2440     2.5480     0.2330     0.0420    10.5760     8.0040     8.8110  1152.8660   -23.7680
 2497.0000    10.1660    92.8940  1115.0460     2.5370     0.2240     0.0290    11.3930     7.8920     9.0830  1138.9390   -23.9550
 2497.5000    10.1710    91.4190  1099.8480     2.5190     0.2120     0.0190    12.2100     7.7220     8.9150  1125.0120   -24.1480
 2498.0000    10.1760    94.8900  1086.2939     2.5040     0.2060     0.0140    12.4780     7.5530     8.4910  1111.0840   -24.2920
 2498.5000    10.1810   101.8030  1090.6600     2.5120     0.2130     0.0170    11.3750     7.3900     8.0940  1111.3781   -24.1130
 2499.0000    10.1850   106.8960  1104.8990     2.5210     0.2280     0.0200     9.7480     7.1200     7.6980  1121.3540   -23.9990
 2499.5000    10.1900   107.7080  1119.1370     2.5200     0.2400     0.0210     8.2730     6.8500     7.3010  1131.3290   -23.8940
 2500.0000    10.1950   107.9720  1133.3760     2.5170     0.2480     0.0170     7.8220     6.5810     6.9050  1141.3051   -23.7890
 2500.5000    10.1990   109.1820  1147.6140     2.5150     0.2570     0.0100     7.3210     6.3110     6.5080  1151.2800   -23.6840
 2501.0000    10.2040   111.3460  1161.8530     2.5160     0.2690     0.0100     7.0580     6.0420     6.0780  1161.2560   -23.5780
 2501.5000    10.2090   110.5200  1176.0909     2.5200     0.2820     0.0110     6.6740     5.9660     6.1090  1171.2310   -23.4710
 2502.0000    10.2130   107.9230  1187.8170     2.5280     0.2790     0.0120     6.6110     6.0610     6.1670  1181.2070   -23.3670
 2502.5000    10.2180   102.0500  1171.5740     2.5380     0.2680     0.0130     7.1570     6.1640     6.2250  1187.8170   -23.5890
 2503.0000    10.2190    96.6250  1150.8630     2.5470     0.2490     0.0160     7.7420     6.3230     6.5970  1162.1520   -23.8390
 2503.5000    10.2200    94.7190  1130.1520     2.5570     0.2210     0.0210     8.2030     6.8140     7.2340  1134.8630   -24.0880
 2504.0000    10.2220    92.8020  1109.4420     2.5670     0.2100     0.0250     8.4390     7.3050     7.8700  1106.5990   -24.3830
 2504.5000    10.2230    88.5970  1088.7310     2.5770     0.1980     0.0330     9.2060     7.7950     8.5070  1113.9091   -24.5460
 2505.0000    10.2240    84.2350  1086.2939     2.5810     0.1810     0.0340    10.8810     8.2860     9.1440  1121.4890   -24.5540
 2505.5000    10.2250    80.2460  1094.4160     2.5840     0.1630     0.0340    12.5560     8.6970     9.7880  1129.0690   -24.5530
 2506.0000    10.2270    80.0750  1106.5990     2.5830     0.1590     0.0310    13.5730     8.9790     9.9460  1136.6500   -24.5520
 2506.5000    10.2280    83.3210  1126.9041     2.5790     0.1720     0.0240    12.8190     9.2620    10.0660  1144.2300   -24.5320
 2507.0000    10.2290    85.2690  1126.9041     2.5730     0.1850     0.0170    11.5800     9.4290    10.0660  1151.8101   -24.4760
 2507.5000    10.2310    86.3990  1126.9041     2.5580     0.1860     0.0100    11.1410     9.3750    10.0660  1159.3910   -24.4210
 2508.0000    10.2320    88.1310  1147.2080     2.5400     0.1880     0.0030    10.7070     9.2790     9.7420  1166.9709   -24.3650
 2508.5000    10.2330    90.7370  1167.5129     2.5250     0.1920    -0.0020    10.2740     9.0040     9.4250  1174.5520   -24.3100
 2509.0000    10.2350    92.2160  1167.5129     2.5290     0.1980     0.0020     9.6430     8.7290     9.1080  1182.1320   -24.2550
 2509.5000    10.2360    92.1940  1159.3910     2.5340     0.2040     0.0090     9.0120     8.4550     8.7900  1187.8170   -24.1970
 2510.0000    10.2370    93.6680  1142.1320     2.5310     0.2070     0.0130     8.5880     8.1960     8.4290  1169.8820   -24.0770
 2510.5000    10.2380    95.8090  1124.8730     2.5160     0.2080     0.0030     8.7130     8.2160     8.5330  1152.8260   -23.6990
 2511.0000    10.2380    97.3390  1107.6140     2.5020     0.2060    -0.0020     9.1820     8.2400     8.6900  1135.7700   -23.3200
 2511.5000    10.2380    95.6280  1090.3550     2.5060     0.2040    -0.0010     9.6510     8.2640     8.8470  1128.6340   -22.9520
 2512.0000    10.2380    92.5630  1086.2939     2.5230     0.2010     0.0040    10.1200     8.2870     9.0040  1134.7740   -23.4810
 2512.5000    10.2510    90.8680  1091.1680     2.5410     0.1930     0.0150    10.4490     8.3110     9.0830  1140.9139   -24.0880
 2513.0000    10.2700    91.6200  1103.5940     2.5400     0.1860     0.0170    10.4490     8.3340     9.0830  1147.0540   -24.5640
 2513.5000    10.2890    95.4210  1116.0200     2.5250     0.1820     0.0110    10.4490     8.3510     8.9870  1153.1940   -24.4610
 2514.0000    10.3080   100.1040  1128.4470     2.5240     0.1860     0.0090    10.1680     8.1430     8.6820  1159.3340   -24.2600
 2514.5000    10.3270   104.2930  1140.8730     2.5190     0.2010     0.0420     9.5510     7.9570     8.3760  1165.4740   -24.0610
 2515.0000    10.3400   104.1740  1147.2080     2.4990     0.2280     0.0630     8.4330     7.7710     8.0710  1171.6140   -23.9580
 2515.5000    10.3450   100.6940  1147.2080     2.4640     0.2500     0.0440     7.2590     7.5850     7.7490  1177.7540   -24.2080
 2516.0000    10.3500    95.6250  1147.2080     2.4370     0.2610     0.0210     8.0970     7.4650     8.0060  1183.8940   -24.4920
 2516.5000    10.3560    89.7560  1145.4310     2.4710     0.2350     0.0040     9.6170     7.4650     8.4290  1176.7310   -24.7780
 2517.0000    10.3610    91.4410  1142.1949     2.5090     0.2160     0.0090    11.2600     7.5630     8.3650  1146.0300   -25.0840
 2517.5000    10.3660    96.0980  1138.9590     2.5260     0.2110     0.0160    10.8460     7.7240     8.1960  1127.6200   -25.3040
 2518.0000    10.3710   100.7150  1135.7230     2.5220     0.2140     0.0120     9.7490     7.8850     8.2720  1131.6331   -24.9900
 2518.5000    10.3760   101.5020  1132.4871     2.5130     0.2210     0.0040     9.0830     8.0460     8.4680  1135.6460   -24.5860
 2519.0000    10.3810    96.5900  1129.2510     2.5170     0.2280    -0.0030     9.1410     8.2070     8.6640  1139.6600   -24.1820
 2519.5000    10.3860    92.0060  1126.9041     2.5240     0.2300    -0.0050     9.3670     8.3680     8.8600  1143.6730   -23.7780
 2520.0000    10.3910    91.7670  1137.0560     2.5260     0.2260    -0.0010     9.9020     8.5290     9.0550  1147.6860   -23.7170
 2520.5000    10.3960    94.1300  1147.2080     2.5220     0.2190    -0.0100    10.4370     8.6900     9.1870  1151.6990   -23.6320
 2521.0000    10.4020    95.4450  1143.8000     2.5210     0.2120    -0.0110    10.8470     8.7890     9.2300  1155.7120   -23.7410
 2521.5000    10.4070    95.8730  1140.1021     2.5310     0.2070    -0.0100    10.6340     8.8520     9.2740  1159.7250   -23.8540
 2522.0000    10.4120    94.8780  1136.4030     2.5480     0.2020     0.0000    10.4490     8.9150     9.3170  1163.7380   -23.9390
 2522.5000    10.4170    93.7080  1132.7050     2.5650     0.2020     0.0110    10.4490     8.9990     9.3410  1167.5129   -24.1550
 2523.0000    10.4210    92.8170  1129.0070     2.5690     0.2040     0.0170    10.4490     8.9120     9.3410  1159.0360   -24.1510
 2523.5000    10.4190    94.7800  1125.3080     2.5570     0.2090     0.0140    10.4490     8.7820     9.3410  1146.2440   -24.1550
 2524.0000    10.4180    97.0660  1121.6100     2.5420     0.2160     0.0100    10.2440     8.6510     9.1430  1133.4520   -24.1560
