~VERSION INFORMATION
 VERS.                2.0:   CWLS LOG ASCII STANDARD - VERSION 2.0
 WRAP.                 NO:   ONE LINE PER DEPTH STEP
~WELL INFORMATION
#MNEM.UNIT      DATA TYPE    INFORMATION
#----------   ------------   ------------------------------
 STRT.F           36.0000:   START DEPTH
 STOP.F         3488.0000:   STOP DEPTH
 STEP.F            0.5000:   STEP LENGTH
 NULL.          -999.2500:   NO VALUE
 COMP. LAWRENCE - ALLISON  & ASSOCIATE:   COMPANY
 WELL. LAWRENCE "STX" #76-23:   WELL
 FLD .              NPR 3:   FIELD
 LOC .      S23 T38N R78W:   LOCATION
 CNTY.            NATRONA:   COUNTY
 STAT.            WYOMING:   STATE
 CTRY. UNITED STATES OF AMERICA:   COUNTRY
 SRVC.       SCHLUMBERGER:   SERVICE COMPANY
 DATE.        07-MAY-1982:   LOGDATE
 API .     49025108920000:   API NUMBER
~CURVE INFORMATION
#MNEM.UNIT       API CODE    CURVE DESCRIPTION
#----------   ------------   ------------------------------
 DEPT.F                  :   
 CORR.G/C3   45 356 01 00:   DENSITY CORRECTION
 CALD.IN     45 280 60 00:   CALIPER FROM DENSITY LOG
 GRD .GAPI   45 310 01 00:   GAMMA RAY FROM DENSITY LOG
 RHOB.G/C3   45 350 01 00:   BULK DENSITY
 SFL .OHMM   07 220 01 00:   SHALLOW FOCUSED LOG RESISTIVITY
 ILD .OHMM   07 120 46 00:   DEEP INDUCTION RESISTIVITY
 ILM .OHMM   07 120 44 00:   INDUCTION LOG MEDIUM RESISTIVITY
 TENR.LBS    07 635 01 00:   TENSION
 SPR .MV     07 010 01 00:   SPONTANEOUS POTENTIAL
 NPHI.DEC    42 890 03 00:   NEUTRON POROSITY SANDSTONE
 TEND.LBS    45 635 01 00:   TENSION FROM DENSITY LOG
~PARAMETER INFORMATION
#MNEM.UNIT          VALUE    DESCRIPTION
#----------   ------------   ------------------------------
 EKB .F         5441.0000:   Kelly bushing
 EGL .F         5431.0000:   Ground level
 EDF .F            0.0000:   Drilling floor
 EPD .F            0.0000:   Permanent datum
 TD  .F         3788.0000:   Total depth
 DATE.        07-MAY-1982:   Date logged
 CLNT.            A2DTECH:   Client Code
 SL  . 1327' FSL & 1190' FEL:   Surface Location
 PD  .                 GL:   Permanent Datum
 DAPD.F                10:   Feet Above Permanent Datum
 DD  .F              3788:   Depth driller
 DL  .F              3478:   Depth logger
 BLI .F              3471:   Bottom log interval
 TLI .F              1615:   Top log interval
 CS1 .IN            9.625:   Casing size
 CBD1.     9.625" @ 1603':   Casing driller 1
 CBL1.F              1615:   Casing logger 1
 BS1 .IN            7.875:   Bit size
 BSD1.F              3788:   Depth drilled with bit1
 DFT .                AIR:   Type fluid in hole
 TCS .HRS            1230:   Time Circ. stopped
 TLAB.HRS            1500:   Time logger at bottom
 MRT .F               125:   Maximum recorded temp.
 LUN .               8035:   Logging unit number
 LUL .               CSPR:   Logging unit location
 ENGI.              PENNY:   Recorded By
 WITN.    JENNINGS/STRONG:   Witnessed by
 ORIG.       2.5"5" PRINT:   Origin of data
 UWI .     49025108920000:   Unique Well ID
 DICO. A2D TECHNOLOGIES, INC.:   Digitizing Company
~OTHER INFORMATION
~A   DEPT       CORR     CALD        GRD         RHOB      SFL        ILD        ILM       TENR        SPR        NPHI      TEND   
# ...
 3421.5000     0.0790     9.7940   113.0050     2.5150  -999.2500     6.4280     6.8350  2231.7500  -999.2500  -999.2500  -999.2500
 3422.0000     0.1030     9.9310   110.2830     2.3800  -999.2500     6.3100     6.3120  2230.5569  -999.2500  -999.2500  -999.2500
 3422.5000     0.0690    10.1670   109.6620     2.2310  -999.2500     6.2040     5.7900  2229.3630  -999.2500  -999.2500  -999.2500
 3423.0000     0.0310    10.3800   108.1270     2.0920  -999.2500     6.1080     5.3370  2228.1699  -999.2500  -999.2500  -999.2500
 3423.5000    -0.0060    10.1820   106.5170     2.1230  -999.2500     6.0130     5.7210  2226.9771  -999.2500  -999.2500  -999.2500
 3424.0000    -0.0390     9.9080   105.2990     2.2440  -999.2500     5.9170     6.0610  2225.7830  -999.2500  -999.2500  -999.2500
 3424.5000    -0.0040     9.6390   106.5290     2.3920  -999.2500     5.8570     6.4000  2224.5901  -999.2500  -999.2500  -999.2500
 3425.0000     0.0350     9.6270   107.7090     2.5140  -999.2500     5.8570     6.6720  2223.3970  -999.2500  -999.2500  -999.2500
 3425.5000     0.0490     9.6270   108.8630     2.5350  -999.2500     6.3070     7.0010  2222.2029  -999.2500  -999.2500  -999.2500
 3426.0000     0.0510     9.6250   109.8150     2.5430  -999.2500     6.6820     7.2760  2221.0100  -999.2500  -999.2500  -999.2500
 3426.5000     0.0350     9.6240   106.8380     2.5200  -999.2500     7.0580     7.5510  2219.8169  -999.2500  -999.2500  -999.2500
 3427.0000     0.0160     9.6220   101.9440     2.5000  -999.2500     7.2210     7.8260  2218.6230  -999.2500  -999.2500  -999.2500
 3427.5000    -0.0020     9.6210    95.2510     2.4740  -999.2500     7.3480     8.1010  2217.4299  -999.2500  -999.2500  -999.2500
 3428.0000    -0.0100     9.6190    92.7220     2.4800  -999.2500     7.4750     8.2080  2216.2371  -999.2500  -999.2500  -999.2500
 3428.5000     0.0090     9.6180    90.8970     2.4900  -999.2500     7.6020     8.2380  2215.0430  -999.2500  -999.2500  -999.2500
 3429.0000     0.0240     9.6160    90.4660     2.5010  -999.2500     7.7290     8.2680  2213.8501  -999.2500  -999.2500  -999.2500
 3429.5000     0.0250     9.6150    90.1730     2.5120  -999.2500     7.8560     8.2980  2212.6570  -999.2500  -999.2500  -999.2500
 3430.0000     0.0260     9.6130    91.4630     2.5220  -999.2500     7.9830     8.3280  2211.4629  -999.2500  -999.2500  -999.2500
 3430.5000     0.0160     9.6120    93.7730     2.5210  -999.2500     8.1100     8.4930  2210.2700  -999.2500  -999.2500  -999.2500
 3431.0000     0.0060     9.6100    97.7670     2.4910  -999.2500     8.3410     8.7610  2209.0769  -999.2500  -999.2500  -999.2500
 3431.5000    -0.0050     9.6210   101.5220     2.4680  -999.2500     8.4980     9.0290  2207.8831  -999.2500  -999.2500  -999.2500
 3432.0000    -0.0080     9.6320   103.8420     2.4540  -999.2500     8.9360     9.2970  2206.6899  -999.2500  -999.2500  -999.2500
 3432.5000    -0.0090     9.6430   104.4410     2.4500  -999.2500     9.4760     9.5020  2205.4971  -999.2500  -999.2500  -999.2500
 3433.0000    -0.0060     9.6550   104.4090     2.4640  -999.2500    10.0160     9.5020  2204.3040  -999.2500  -999.2500  -999.2500
 3433.5000    -0.0020     9.6660   102.8930     2.4770  -999.2500    10.6240     9.5020  2203.1101  -999.2500  -999.2500  -999.2500
 3434.0000     0.0050     9.6790    99.5260     2.4860  -999.2500    10.6240     9.5020  2202.0200  -999.2500  -999.2500  -999.2500
 3434.5000     0.0200     9.6910    96.5420     2.4280  -999.2500     9.2780     8.4620  2203.4250  -999.2500  -999.2500  -999.2500
 3435.0000     0.0360     9.7170    94.7270     2.2390  -999.2500     8.0400     7.4620  2204.7170  -999.2500  -999.2500  -999.2500
 3435.5000     0.0490    10.8010    92.8860     1.9030  -999.2500     6.8020     6.4620  2206.0090  -999.2500  -999.2500  -999.2500
 3436.0000     0.0530    12.4700    92.3150     1.6450  -999.2500     5.7490     5.4620  2207.3020  -999.2500  -999.2500  -999.2500
 3436.5000     0.0510    16.1080    93.0190     1.4810  -999.2500     5.4130     4.4310  2208.5940  -999.2500  -999.2500  -999.2500
 3437.0000     0.0470    16.5700    93.7200     1.4290  -999.2500     5.1210     4.0110  2209.8860  -999.2500  -999.2500  -999.2500
 3437.5000     0.0430    16.8100    93.4390     1.3890  -999.2500     4.8290     3.6790  2211.1790  -999.2500  -999.2500  -999.2500
 3438.0000     0.0540    16.7600    92.0180     1.4100  -999.2500     4.5370     3.7490  2212.4709  -999.2500  -999.2500  -999.2500
 3438.5000     0.0670    16.6930    91.0780     1.4420  -999.2500     4.2450     3.8180  2213.7639  -999.2500  -999.2500  -999.2500
 3439.0000     0.0750    17.1020    91.1600     1.4490  -999.2500     3.9520     3.9250  2215.0559  -999.2500  -999.2500  -999.2500
 3439.5000     0.0640    18.6190    91.0980     1.3970  -999.2500     3.6110     4.0290  2216.3479  -999.2500  -999.2500  -999.2500
 3440.0000     0.0470    20.6940    86.7090     1.3420  -999.2500     3.7900     4.1330  2217.6411  -999.2500  -999.2500  -999.2500
 3440.5000     0.0480    20.7120    76.4900     1.3960  -999.2500     4.0580     4.2360  2218.9331  -999.2500  -999.2500  -999.2500
 3441.0000     0.0730    19.4760  -999.2500     1.4890  -999.2500     4.3490     4.3490  2220.2261  -999.2500  -999.2500  -999.2500
 3441.5000     0.1080    19.1120  -999.2500     1.5820  -999.2500     4.3760     4.3760  2221.5181  -999.2500  -999.2500  -999.2500
 3442.0000     0.1430    19.2870  -999.2500     1.6540  -999.2500     4.4060     4.4060  2222.8101  -999.2500  -999.2500  -999.2500
 3442.5000     0.1610    19.6020  -999.2500     1.7070  -999.2500     4.4310     4.4310  2224.1030  -999.2500  -999.2500  -999.2500
 3443.0000     0.1580    19.4600  -999.2500     1.7020  -999.2500     4.3170     4.3300  2225.3950  -999.2500  -999.2500  -999.2500
 3443.5000     0.1450    19.2660  -999.2500     1.6910  -999.2500     4.2760     4.3050  2226.6870  -999.2500  -999.2500  -999.2500
 3444.0000     0.1330    19.0700  -999.2500     1.6880  -999.2500     4.2340     4.2800  2227.9800  -999.2500  -999.2500  -999.2500
 3444.5000     0.1250    18.3690  -999.2500     1.7080  -999.2500     4.1920     4.2550  2229.2720  -999.2500  -999.2500  -999.2500
 3445.0000     0.1400    17.1410  -999.2500     1.7230  -999.2500     4.1510     4.2300  2230.5649  -999.2500  -999.2500  -999.2500
 3445.5000     0.1520    16.0130  -999.2500     1.7330  -999.2500     4.1090     4.2050  2231.8569  -999.2500  -999.2500  -999.2500
 3446.0000     0.1570    15.8640  -999.2500     1.7070  -999.2500     4.0670     4.1800  2233.1489  -999.2500  -999.2500  -999.2500
 3446.5000     0.1560  -999.2500  -999.2500     1.6920  -999.2500     4.0260     4.1550  2234.4419  -999.2500  -999.2500  -999.2500
 3447.0000     0.1540  -999.2500  -999.2500     1.6920  -999.2500     3.9840     4.1300  2235.7339  -999.2500  -999.2500  -999.2500
 3447.5000     0.1540  -999.2500  -999.2500     1.6910  -999.2500     3.9420     4.0680  2237.0259  -999.2500  -999.2500  -999.2500
 3448.0000     0.1560  -999.2500  -999.2500     1.6910  -999.2500     3.9010     3.9270  2238.3191  -999.2500  -999.2500  -999.2500
 3448.5000     0.1570  -999.2500  -999.2500     1.6890  -999.2500     3.8630     3.8630  2239.6111  -999.2500  -999.2500  -999.2500
 3449.0000  -999.2500  -999.2500  -999.2500     1.6860  -999.2500     3.7840     3.7840  2240.9041  -999.2500  -999.2500  -999.2500
 3449.5000  -999.2500  -999.2500  -999.2500     1.6820  -999.2500     3.7050     3.7050  2242.1960  -999.2500  -999.2500  -999.2500
 3450.0000  -999.2500  -999.2500  -999.2500  -999.2500  -999.2500     3.6270     3.6270  2243.4880  -999.2500  -999.2500  -999.2500
 3450.5000  -999.2500  -999.2500  -999.2500  -999.2500  -999.2500     3.5480     3.5480  2244.7810  -999.2500  -999.2500  -999.2500
 3451.0000  -999.2500  -999.2500  -999.2500  -999.2500  -999.2500     3.4700     3.4700  2246.0730  -999.2500  -999.2500  -999.2500
 3451.5000  -999.2500  -999.2500  -999.2500  -999.2500  -999.2500     3.3910     3.3910  2247.3660  -999.2500  -999.2500  -999.2500
