~VERSION INFORMATION
 VERS.                2.0:   CWLS LOG ASCII STANDARD - VERSION 2.0
 WRAP.                 NO:   ONE LINE PER DEPTH STEP
~WELL INFORMATION
#MNEM.UNIT      DATA TYPE    INFORMATION
#----------   ------------   ------------------------------
 STRT.F          450.5000:   START DEPTH
 STOP.F         3173.5000:   STOP DEPTH
 STEP.F            0.5000:   STEP LENGTH
 NULL.          -999.2500:   NO VALUE
 COMP.    FENIX & SCISSON:   COMPANY
 WELL. FENIX & SCISSONNPR #72-TX-33:   WELL
 FLD .              N.P.R:   FIELD
 LOC .      S33 T39N R78W:   LOCATION
 CNTY.            NATRONA:   COUNTY
 STAT.            WYOMING:   STATE
 CTRY. UNITED STATES OF AMERICA:   COUNTRY
 SRVC.       SCHLUMBERGER:   SERVICE COMPANY
 DATE.        03-SEP-1981:   LOGDATE
 API .     49025108810000:   API NUMBER
~CURVE INFORMATION
#MNEM.UNIT       API CODE    CURVE DESCRIPTION
#----------   ------------   ------------------------------
 DEPT.F                  :   
 CALD.IN     45 280 60 00:   CALIPER FROM DENSITY LOG
 GRD .GAPI   45 310 01 00:   GAMMA RAY FROM DENSITY LOG
 DPHI.DEC    45 890 03 00:   
 RHOB.G/C3   45 350 01 00:   BULK DENSITY
 CORR.G/C3   45 356 01 00:   DENSITY CORRECTION
 SPR .MV     07 010 01 00:   SPONTANEOUS POTENTIAL
 SFL .OHMM   07 220 01 00:   SHALLOW FOCUSED LOG RESISTIVITY
 ILD .OHMM   07 120 46 00:   DEEP INDUCTION RESISTIVITY
 ILM .OHMM   07 120 44 00:   INDUCTION LOG MEDIUM RESISTIVITY
 TENR.LBS    07 635 01 00:   TENSION FROM RESISTIVITY
~PARAMETER INFORMATION
#MNEM.UNIT          VALUE    DESCRIPTION
#----------   ------------   ------------------------------
 EKB .F         5115.0000:   Kelly bushing
 EGL .F         5105.0000:   Ground level
 EDF .F            0.0000:   Drilling floor
 TD  .F         3162.0000:   Total depth
 DATE.        03-SEP-1981:   Date logged
 CLNT.            A2DTECH:   Client Code
 CTRY.                USA:   Country
 SL  . 808' FNL & 954' FEL:   Surface Location
 PD  .                 GL:   Permanent Datum
 EPD .F              5105:   Elevation Permanent Datum
 LMF .                 KB:   Log Measured From
 DMF .                 KB:   Drilling Measured From
 DAPD.F                10:   Feet Above Permanent Datum
 DD  .F              3162:   Depth driller
 DL  .F              3162:   Depth logger
 BLI .F              3158:   Bottom log interval
 TLI .F              1612:   Top log interval
 CS1 .IN            9.625:   Casing size
 CBD1.      9.625" @ 480':   Casing driller 1
 BS1 .IN            7.875:   Bit size
 BSD1.F              3162:   Depth drilled with bit1
 DFT .              WATER:   Type fluid in hole
 MSS .               TANK:   Source of sample
 RMS .OHMM            6.3:   Rm
 MST .F                73:   Rm Meas. temp.
 RMF .OHMM            6.3:   Rmf
 MFST.F                73:   Rmf Meas. temp.
 TCS .HRS            2200:   Time Circ. stopped
 TLAB.HRS            0300:   Time logger at bottom
 MRT .F               100:   Maximum recorded temp.
 LUN .               8039:   Logging unit number
 LUL .               CSPR:   Logging unit location
 ENGI.           C. PEARR:   Recorded By
 WITN.           R. SCOTT:   Witnessed by
 ORIG.         2.5" PRINT:   Origin of data
 UWI .     49025108810000:   Unique Well ID
 DICO. A2D TECHNOLOGIES, INC.:   Digitizing Company
~OTHER INFORMATION
~A   DEPT     CALD         GRD      DPHI       RHOB       CORR        SPR        SFL        ILD        ILM       TENR   
# ...
 2427.0000     9.7930   111.6291     0.0850     2.5375     0.0560   -27.4590     6.5049     5.4107     4.9419   551.1499
 2427.5000     9.7560   110.4717     0.0889     2.5258     0.0521   -27.0657     6.2745     5.4111     4.9699   531.1933
 2428.0000     9.7546   110.4768     0.0905     2.5238     0.0364   -27.0646     6.5072     5.4122     5.1264   570.4853
 2428.5000     9.6773   111.0606     0.0897     2.5474     0.0345   -26.6719     6.7481     5.4130     5.1271   550.6064
 2429.0000     9.6388   112.2265     0.0897     2.5650     0.0462   -26.8702     6.9983     5.4145     4.9869   550.2958
 2429.5000     9.6002   111.6495     0.0646     2.5611     0.0521   -26.4780     7.1272     5.4156     4.9461   550.1405
 2430.0000     9.5616   110.4937     0.0638     2.5434     0.0502   -26.0858     7.3915     5.5155     5.0925   549.9076
 2430.5000     9.5618   108.1750     0.0865     2.5258     0.0445   -25.1019     7.1307     5.9307     5.7205   549.7015
 2431.0000     9.5619   102.9553     0.0873     2.5082     0.0443   -23.9269     7.3941     6.7337     5.8255   549.5194
 2431.5000     9.5621   104.7000     0.0920     2.4788     0.0443   -23.1435     8.8632     7.5082     6.4955   549.3641
 2432.0000     9.5622    89.6100     0.1406     2.4435     0.0306   -22.3596    14.1928     8.3713     6.8592   549.1311
 2432.5000     9.5622    85.5486     0.1649     2.4083     0.0169   -21.9672    16.1122     9.5047     7.7879   548.9759
 2433.0000     9.5625    82.0688     0.1649     2.4043     0.0031   -21.5743    20.7636    10.0369     9.0034   548.7429
 2433.5000     9.5626    80.9100     0.1541     2.4200     0.0012   -21.1820    21.5321    11.6041     9.8581   548.5256
 2434.0000     9.5627    79.1717     0.1383     2.4455     0.0012   -20.7890    21.5367    13.1753    10.6010   548.3547
 2434.5000     9.5629    79.7548     0.1367     2.4534     0.0149   -20.7878    23.5818    14.1672    11.9537   548.1994
 2435.0000     9.6017    81.5006     0.1061     2.4965     0.0247   -20.3948    25.3561    15.2348    13.1810   547.9534
 2435.5000     9.6406    82.0838     0.1061     2.4906     0.0384   -20.3930    26.2965    16.0878    12.7130   547.7336
 2436.0000     9.6794    84.4106     0.1227     2.4534     0.0403   -20.0006    25.3652    15.5188    12.2634   547.5783
 2436.5000     9.7957    86.1555     0.1367     2.4279     0.0306   -19.9988    21.1700    15.2424    12.0441   527.7769
 2437.0000     9.8346    89.6442     0.1625     2.4083     0.0306   -19.9976    18.9940    14.1793    11.0046   547.1901
 2437.5000     9.8733    94.2949     0.1633     2.4064     0.0306   -19.6045    17.3542    13.9288    10.6146   546.9571
 2438.0000     9.9898    96.6211     0.1550     2.4181     0.0306   -19.9945    16.7395    13.1951    10.2392   546.7432
 2438.5000     9.9899    97.2064     0.1512     2.4260     0.0306   -19.9926    15.8582    12.4991    10.0562   546.5689
 2439.0000     9.9901    96.0476     0.1461     2.4318     0.0279   -20.3826    15.2965    12.2765     9.8785   546.4136
 2439.5000     9.9902    94.3093     0.1476     2.4319     0.0286   -20.3808    14.7558    11.8423     9.8792   546.3360
 2440.0000    10.0198    93.7312     0.1469     2.4299     0.0267   -20.3796    14.4932    11.8445     9.8813   526.3017
 2440.5000    10.0293    91.4117     0.1555     2.4221     0.0234   -20.3777    15.1850    11.6339     9.7074   545.7925
 2441.0000    10.0682    89.0906     0.1625     2.4025     0.0228   -20.3765    15.1871    11.6356     9.8238   545.7148
 2441.5000    10.1070    89.0947     0.1664     2.4005     0.0169   -20.3747    15.7513    11.6381     9.7102   545.3843
 2442.0000    10.1072    91.4215     0.1656     2.4103     0.0149   -20.7641    16.0418    11.6397     9.7123   545.1713
 2442.5000    10.1611    97.8171     0.1547     2.4240     0.0228   -20.7629    16.3388    11.6414     9.7137   545.0937
 2443.0000    10.2237    98.4012     0.1406     2.4476     0.0326   -21.5436    15.4771    11.4453     9.5547   544.7831
 2443.5000    10.2239    97.8246     0.1359     2.4534     0.0343   -21.5424    15.7614    11.2321     9.3715   544.6278
 2444.0000    10.2628    97.2465     0.1343     2.4574     0.0345   -21.9319    13.7477    11.2337     9.2142   544.4725
 2444.5000    10.3017    96.6698     0.1327     2.4593     0.0365   -21.9307    13.7497    11.2361     9.0413   544.1847
 2445.0000    10.3266    96.0916     0.1307     2.4613     0.0404   -22.3202    13.7526    10.6449     8.8803   544.0067
 2445.5000    10.3021    97.8396     0.1296     2.4652     0.0424   -22.7103    13.7546    10.6457     8.8822   543.9290
 2446.0000    10.3022   100.7501     0.1288     2.4652     0.0365   -22.1259    13.2684    10.6479     8.8841   543.6184
 2446.5000    10.3023   103.6592     0.1288     2.4633     0.0291   -22.1247    13.0322    10.6495     8.8854   543.4632
 2447.0000    10.3413   103.6640     0.1267     2.4652     0.0267   -22.1229    12.5716    11.0446     9.2151   543.3855
 2447.5000    10.3415   101.9234     0.1249     2.4731     0.0305   -22.1217    12.8030    11.0462     9.3841   542.9973
 2448.0000    10.3417    94.9525     0.1202     2.4790     0.0326   -22.1199    14.8011    11.2497     9.7324   542.8420
 2448.5000    10.3418    93.2115     0.1202     2.4790     0.0345   -22.1182    16.8040    11.2521     9.9123   542.7644
 2449.0000    10.3032    93.7971     0.1162     2.4731     0.0346   -22.1175    17.1134    11.2537     9.5618   542.4217
 2449.5000    10.3034    94.9627     0.1319     2.4653     0.0346   -22.1157    14.8095    11.2553     9.2229   542.2209
 2450.0000    10.3034   101.3623     0.1303     2.4633     0.0326   -22.1145    12.8149    11.2585     9.0594   542.0656
 2450.5000    10.3425   102.5281     0.1272     2.4731     0.0306   -22.8949    12.5877    11.2609     9.0606   541.8326
 2451.0000    10.3425   103.1143     0.1241     2.4751     0.0307   -22.8937    12.5895    11.2625     8.8993   541.6774
 2451.5000    10.3428   102.5360     0.1233     2.4790     0.0287   -22.8931    13.0564    10.8642     8.9012   541.5221
 2452.0000    10.3429   102.5407     0.1280     2.4751     0.0287   -22.8913    13.5396    10.6707     8.9025   541.2891
 2452.5000    10.3431   104.8714     0.1288     2.4692     0.0248   -22.8895    13.5425    10.2926     8.7452   541.0562
 2453.0000    10.3433   107.2006     0.1272     2.4673     0.0287   -23.2792    13.5444    10.1093     8.7464   540.9009
 2453.5000    10.3822   109.5317     0.1264     2.4712     0.0307   -23.2774    13.0657     9.9314     8.5907   540.6392
 2454.0000    10.3823   110.1166     0.1162     2.4829     0.0307   -23.2762    12.6029     9.9321     8.4377   540.4351
 2454.5000    10.3574   107.7953     0.1068     2.4908     0.0365   -23.6659    12.3795     9.9335     8.1399   540.2798
 2455.0000    10.3440   105.4722     0.1006     2.5084     0.0393   -23.6647    12.1592     9.9357     8.1410   540.0553
 2455.5000    10.3829   104.3138     0.0966     2.5104     0.0405   -23.6636    11.9436     9.9378     8.1427   539.8915
 2456.0000    10.3831   104.3170     0.1031     2.5202     0.0307   -23.6618    12.1644     9.9392     8.1444   539.6586
 2456.5000    10.3832   104.9035     0.1099     2.4849     0.0209   -24.0521    12.3883     9.9413     8.1457   539.4495
 2457.0000    10.3834   104.9067     0.1233     2.4712     0.0111   -24.0504    12.6173     9.9427     8.3628   539.2704
 2457.5000    10.3836   102.0029     0.1248     2.4693     0.0033   -24.0492    12.6191    10.1259     8.5857   539.1151
 2458.0000    10.3838    96.7704     0.1256     2.4751     0.0013   -24.0468    13.3261    10.5016     8.8145   539.0375
 2458.5000    10.3839    90.3754     0.1186     2.4830     0.0091   -24.0452    14.3288    10.5031     9.2532   538.7269
 2459.0000    10.3841    88.0510     0.1147     2.4908     0.0170   -24.0451    15.6895    10.6981     9.2545   538.4940
 2459.5000    10.3842    88.0551     0.1107     2.4771     0.0229   -24.0433    16.2702    10.6996     9.0904   552.4297
 2460.0000    10.4232    89.2214     0.1303     2.4713     0.0209   -24.0416    15.6950    10.7019     8.9285   577.5532
