~VERSION INFORMATION
 VERS.                2.0:   CWLS LOG ASCII STANDARD - VERSION 2.0
 WRAP.                 NO:   ONE LINE PER DEPTH STEP
~WELL INFORMATION
#MNEM.UNIT      DATA TYPE    INFORMATION
#----------   ------------   ------------------------------
 STRT.F            0.0000:   START DEPTH
 STOP.F         4134.5000:   STOP DEPTH
 STEP.F            0.5000:   STEP LENGTH
 NULL.          -999.2500:   NO VALUE
 COMP. LAWRENCE ALLISON & ASSOCIATES:   COMPANY
 WELL. LAWRENCE NPR 3 "X" #72-10:   WELL
 FLD .            WILDCAT:   FIELD
 LOC .      S10 T38N R78W:   LOCATION
 CNTY.            NATRONA:   COUNTY
 STAT.            WYOMING:   STATE
 CTRY. UNITED STATES OF AMERICA:   COUNTRY
 SRVC.      DRESSER ATLAS:   SERVICE COMPANY
 DATE.        29-JUL-1983:   LOGDATE
 API .     49025109390000:   API NUMBER
~CURVE INFORMATION
#MNEM.UNIT       API CODE    CURVE DESCRIPTION
#----------   ------------   ------------------------------
 DEPT.F                  :   
 CALD.IN     45 280 60 00:   CALIPER FROM DENSITY LOG
 DEN .G/C3   45 350 01 00:   BULK DENSITY
 CORR.G/C3   45 356 01 00:   DENSITY CORRECTION
 TEND.LBS    45 635 01 00:   TENSION FROM DENSITY LOG
 NPHI.DEC    42 890 03 00:   NEUTRON POROSITY SANDSTONE
 GRD .GAPI   45 310 01 00:   GAMMA RAY FROM DENSITY LOG
 SPR .MV     07 010 01 00:   SPONTANEOUS POTENTIAL
 RILD.OHMM   07 120 46 00:   DEEP INDUCTION RESISTIVITY
 RILM.OHMM   07 120 44 00:   INDUCTION LOG MEDIUM RESISTIVITY
 RFOC.OHMM   07 220 04 00:   RESISTIVITY FOCUSED LOG RES.
 TENR.LBS    07 635 01 00:   TENSION FROM RESISTIVITY
 AC  .US/F   60 250 00 00:   ACCOUSTIC
 TENS.LBS    60 635 01 00:   TENSION FROM SONIC
 GRR .GAPI   07 310 01 00:   GAMMA RAY FROM RESISTIVITY
~PARAMETER INFORMATION
#MNEM.UNIT          VALUE    DESCRIPTION
#----------   ------------   ------------------------------
 EKB .F         5182.0000:   Kelly bushing
 EGL .F         5172.0000:   Ground level
 EDF .F            0.0000:   Drilling floor
 TD  .F         4139.0000:   Total depth
 DATE.        29-JUL-1983:   Date logged
 CLNT.            A2DTECH:   Client Code
 SL  . 900' FNL & 900' FEL:   Surface Location
 PD  .                 GL:   Permanent Datum
 EPD .F              5172:   Elevation Permanent Datum
 LMF .                 KB:   Log Measured From
 DMF .                 KB:   Drilling Measured From
 DAPD.F                10:   Feet Above Permanent Datum
 DD  .F              4139:   Depth driller
 DL  .F              4134:   Depth logger
 BLI .F              4132:   Bottom log interval
 CS1 .IN            9.625:   Casing size
 CBD1.      9.625" @ 476':   Casing driller 1
 BS1 .IN            7.875:   Bit size
 BSD1.F              4139:   Depth drilled with bit1
 DFT .               LSND:   Type fluid in hole
 DFD .                6.6:   Density
 DFV .                 41:   Viscosity
 DFPH.                8.5:   pH
 DFL .                 10:   Fluid loss
 MSS .           FLOWLINE:   Source of sample
 RMS .OHMM            .27:   Rm
 MST .F                91:   Rm Meas. temp.
 RMF .OHMM            .19:   Rmf
 MFST.F                87:   Rmf Meas. temp.
 RMC .OHMM            .34:   Rmc
 MCST.F                87:   Rmc Meas. temp.
 MFSS.               MEAS:   Source Rmf.
 MCSS.               CALC:   Source Rmc.
 RMB .OHMM            .19:   Rm. at BHT
 BHT .F               130:   BHT.
 TCS .HRS               3:   Time Circ. stopped
 MRT .F               130:   Maximum recorded temp.
 LUN .               6274:   Logging unit number
 LUL .               GLTF:   Logging unit location
 ENGI.             RAUTIC:   Recorded By
 WITN.             STRONG:   Witnessed by
 ORIG.           5" PRINT:   Origin of data
 UWI .     49025109390000:   Unique Well ID
 DICO. A2D TECHNOLOGIES, INC.:   Digitizing Company
~OTHER INFORMATION
~A    DEPT    CALD        DEN       CORR       TEND       NPHI        GRD        SPR       RILD       RILM       RFOC       TENR         AC       TENS         GRR  
# ...
 2891.0000     8.7420     2.5440     0.0330   -70.3040     0.1940   140.0210   -41.5220     8.7350     8.6280     9.9210   -68.3010    74.5350   -55.0050   116.5320
 2891.5000     8.7380     2.5410     0.0370   -69.9980     0.1970   143.8100   -41.6340     8.4360     8.2200     9.2220   -66.7260    76.0550   -54.4040   116.9820
 2892.0000     8.7340     2.5370     0.0230   -69.6910     0.2010   145.4740   -41.7960     8.1360     7.8680     8.4430   -65.1510    77.7700   -53.8030   118.2620
 2892.5000     8.7310     2.5360     0.0000   -69.3850     0.2080   142.9430   -42.2080     7.8680     7.7830     8.0140   -63.5760    79.4860   -53.2030   119.4550
 2893.0000     8.7270     2.5410    -0.0150   -69.0780     0.2130   135.0270   -42.4400     7.6540     7.6930     8.0480   -62.0010    80.0620   -52.6970   117.6000
 2893.5000     8.7230     2.5540     0.0290   -68.7720     0.2130   129.0530   -42.6080     7.7080     7.6540     8.1620   -60.4260    79.7080   -57.6920   115.5990
 2894.0000     8.7200     2.5590     0.0350   -68.4660     0.2080   130.7750   -42.8420     7.7960     7.7860     8.4920   -58.8510    78.8820   -54.9730   113.9870
 2894.5000     8.7160     2.5630     0.0340   -68.1590     0.2040   132.9240   -43.0830     7.7960     7.9220     8.9340   -54.8680    78.1310   -52.6970   112.9880
 2895.0000     8.7120     2.5620     0.0280   -67.8530     0.2010   128.7280   -43.3150     7.9400     8.0580     9.1140   -38.8310    77.7020   -44.3720   112.5610
 2895.5000     8.7090     2.5590     0.0120   -62.6190     0.2000   123.7990   -43.2490     7.9810     8.1940     9.0860   -22.9540    77.2730   -35.9640   112.9850
 2896.0000     8.7050     2.5570     0.0120   -51.1990     0.1980   122.6460   -43.2080     8.0490     8.3300     9.0160   -22.9540    76.8450   -36.8380   113.4010
 2896.5000     8.7010     2.5580     0.0240   -42.7070     0.1900   123.5770   -43.2050     8.1620     8.4660     8.9480   -30.6640    76.4750   -52.6970   113.8480
 2897.0000     8.6970     2.5590     0.0320   -42.7070     0.1790   124.2220   -43.0910     8.5310     8.6020     8.9480   -38.2240    76.3070   -56.9600   112.9100
 2897.5000     8.6940     2.5600     0.0350   -42.7070     0.1660   118.8490   -42.7540     9.2660     8.9700     9.2830   -45.7830    76.1390   -55.2780   111.2820
 2898.0000     8.6900     2.5600     0.0270   -46.8120     0.1540   107.0110   -42.4270    10.5520    10.0440     9.6640   -53.3430    75.6910   -53.5960   109.1690
 2898.5000     8.6860     2.5600     0.0120   -52.9200     0.1420    94.8810   -42.0950    11.8370    11.1180    10.0840   -60.9030    74.8270   -52.6970   106.7640
 2899.0000     8.6830     2.5700     0.0030   -59.0280     0.1290    85.6820   -41.8990    13.1230    12.9370    11.0030   -67.8640    72.9120   -52.6970    98.0520
 2899.5000     8.6790     2.5820     0.0100   -65.1360     0.1170    80.0050   -41.7140    14.3000    15.5790    13.3600   -61.3890    70.8420   -52.6970    86.4400
 2900.0000     8.6750     2.5950     0.0270   -71.2450     0.1090    71.1520   -41.2600    17.5150    18.2210    18.0670   -55.3890    68.7720   -52.6970    75.3660
 2900.5000     8.6720     2.5900     0.0450   -77.3530     0.1070    58.9350   -40.8170    20.4670    20.8620    22.7740   -49.3890    66.7030   -53.0350    71.0730
 2901.0000     8.6680     2.5610     0.0470   -82.6670     0.1170    58.6320   -40.2160    24.8220    23.5040    28.1950   -42.9140    64.6330   -53.7020    67.8080
 2901.5000     8.6640     2.5190     0.0480   -81.9280     0.1330    72.7230   -39.8090    24.4700    25.2830    35.1570   -45.3570    62.5630   -54.3680    62.0260
 2902.0000     8.6610     2.4910     0.0480   -76.8530     0.1520    86.7270   -39.3950    23.7970    22.1540    41.5330   -48.0090    61.7280   -55.0340    60.8840
 2902.5000     8.6570     2.4640     0.0400   -71.7780     0.1710   105.7760   -38.9890    23.1250    19.7960    38.2140   -50.6620    63.1250   -55.7010    72.6190
 2903.0000     8.6530     2.4360     0.0260   -66.7030     0.1760   113.5890   -38.6350    22.4530    17.3440    28.4280   -52.6840    65.4950   -56.3670    82.6680
 2903.5000     8.6490     2.4110     0.0070   -61.6280     0.1700    99.5630   -38.6060    21.6250    16.2630    18.6420   -51.3580    67.8650   -57.0340    89.7950
 2904.0000     8.6530     2.3990     0.0010   -56.5530     0.1660    85.0720   -38.4490    21.2870    16.6300    15.4190   -50.0320    70.2360   -57.6920    89.6060
 2904.5000     8.6590     2.3990     0.0220   -51.4790     0.1610    70.7310   -38.3000    21.0410    17.2690    14.6990   -48.7050    72.6060   -57.6920    84.6120
 2905.0000     8.6640     2.3920     0.0100   -46.4040     0.1580    56.1950   -38.1570    20.8450    17.9070    16.4140   -49.5680    74.5150   -57.6920    76.2610
 2905.5000     8.6700     2.3740     0.0070   -41.3290     0.1550    53.0130   -38.0270    21.2310    19.6980    18.6650   -53.7670    73.7620   -57.6920    67.4330
 2906.0000     8.6750     2.3570     0.0220   -36.2540     0.1560    55.3320   -37.9490    23.1460    22.2450    21.6340   -57.9670    72.2430   -57.6920    64.0480
 2906.5000     8.6810     2.3440     0.0390   -32.7170     0.1580    58.7440   -37.8760    25.6230    26.2300    25.5160   -62.1670    70.5080   -60.1000    63.5630
 2907.0000     8.6860     2.3400     0.0300   -27.7220     0.1600    60.5610   -37.6090    28.1000    25.5020    24.6200   -61.7100    69.8200   -65.1650    64.6980
 2907.5000     8.6920     2.3450     0.0360   -23.1020     0.1610    62.3780   -36.8590    28.9040    23.8320    23.1000   -60.3100    70.5290   -67.6820    66.0830
 2908.0000     8.6970     2.3450     0.0440   -16.7580     0.1630    64.2000   -36.0530    29.3940    22.1630    21.5790   -58.9100    72.6730   -67.6820    66.9400
 2908.5000     8.7030     2.3410     0.0490   -10.4150     0.1680    68.4690   -35.3000    30.1080    20.2780    20.4650   -57.8840    75.1740   -67.6820    66.1080
 2909.0000     8.7080     2.3260     0.0380    -4.0710     0.1720    74.2250   -34.5990    30.6660    20.4070    20.2780   -57.8840    77.0730   -62.6870    64.3350
 2909.5000     8.7130     2.3120     0.0310     2.2730     0.1720    74.9930   -33.9100    30.7130    20.6790    20.3910   -57.8840    78.3360   -58.6480    64.4850
 2910.0000     8.7190     2.3000     0.0320     8.6160     0.1710    64.2250   -33.5270    30.7660    20.9510    20.5760   -57.8840    78.4760   -52.6970    65.2310
 2910.5000     8.7230     2.2880     0.0370    14.9600     0.1700    54.6340   -33.0900    30.8190    21.2240    20.9500   -57.8840    78.4300   -52.6970    65.6880
 2911.0000     8.7290     2.2830     0.0510     4.6500     0.1710    46.2080   -32.4620    30.8720    21.4960    21.4270   -57.8840    78.5130   -52.6970    63.4080
 2911.5000     8.7530     2.2830     0.0640   -14.9580     0.1750    41.8730   -31.8990    30.9250    21.6250    20.9700   -57.8840    78.9730   -54.2930    59.7000
 2912.0000     8.7750     2.2860     0.0650   -34.5650     0.1780    38.7390   -31.3420    32.0720    21.4270    20.1700   -57.8840    79.8410   -55.8750    55.9260
 2912.5000     8.7980     2.3000     0.0550   -54.1730     0.1700    35.6080   -30.6950    34.1730    22.3180    19.0140   -57.8840    80.7090   -57.4580    50.1750
 2913.0000     8.8080     2.3140     0.0350   -68.9980     0.1600    32.4610   -30.1550    36.8550    23.2650    19.1790   -57.8840    81.4240   -57.6920    44.2440
 2913.5000     8.8100     2.3420     0.0300   -73.2270     0.1410    31.3340   -30.0100    40.7770    26.8280    19.4780   -57.8840    81.6880   -57.1140    41.3610
 2914.0000     8.8120     2.4020     0.0320   -77.4560     0.1220    32.0480   -30.4710    52.7330    34.3780    20.6620   -54.4370    81.6160   -55.0030    43.3050
 2914.5000     8.8140     2.4670     0.0330   -81.6850     0.1040    34.6790   -30.6580    66.7400    47.1850    22.2910   -45.2730    80.5820   -52.6970    44.3090
 2915.0000     8.8160     2.5200     0.0340   -85.9140     0.0850    37.3110   -30.9190    80.7460    59.9920    25.0280   -38.7120    77.3660   -47.7020    44.7760
