~VERSION INFORMATION
 VERS.                2.0:   CWLS LOG ASCII STANDARD - VERSION 2.0
 WRAP.                 NO:   ONE LINE PER DEPTH STEP
~WELL INFORMATION
#MNEM.UNIT      DATA TYPE    INFORMATION
#----------   ------------   ------------------------------
 STRT.F            1.0000:   START DEPTH
 STOP.F         2854.0000:   STOP DEPTH
 STEP.F            0.5000:   STEP LENGTH
 NULL.          -999.2500:   NO VALUE
 COMP.          INTEX OIL:   COMPANY
 WELL. INTEX N.P.R. "AX" #42-29:   WELL
 FLD .             TEAPOT:   FIELD
 LOC .      S29 T39N R78W:   LOCATION
 CNTY.            NATRONA:   COUNTY
 STAT.            WYOMING:   STATE
 CTRY. UNITED STATES OF AMERICA:   COUNTRY
 SRVC.       SCHLUMBERGER:   SERVICE COMPANY
 DATE.        30-MAY-1986:   LOGDATE
 API .     49025095240000:   API NUMBER
~CURVE INFORMATION
#MNEM.UNIT       API CODE    CURVE DESCRIPTION
#----------   ------------   ------------------------------
 DEPT.F                  :   
 SPR .MV     05 010 01 00:   SPONTANEOUS POTENTIAL FROM RES.
 ASN .OHMM   05 041 16 00:   AMPLIFIED SHORT NORMAL 16"
 ILD .OHMM   05 120 46 00:   INDUCTION LOG DEEP
 GRD .GAPI   45 310 01 00:   GAMMA RAY FROM DENSITY LOG
 CALD.IN     45 280 60 00:   CALIPER FROM DENSITY LOG
 CORR.G/C3   45 356 01 00:   DENSITY CORRECTION
 RHOB.G/C3   45 350 01 00:   BULK DENSITY
 CALI.IN     30 280 01 00:   CALIPER FROM GAMMA RAY LOG
 GR  .GAPI   30 310 01 00:   GAMMA RAY
~PARAMETER INFORMATION
#MNEM.UNIT          VALUE    DESCRIPTION
#----------   ------------   ------------------------------
 EKB .F         5020.3000:   Kelly bushing
 EGL .F         5010.0000:   Ground level
 EDF .F            0.0000:   Drilling floor
 TD  .F         2860.0000:   Total depth
 CLNT.            A2DTECH:   Client Code
 DATE.        30-MAY-1986:   Date Logged [DD-MMM-YYYY]
 DD  .F              2860:   Depth driller
 DL  .F              2855:   Depth logger
 BLI .F              2854:   Bottom log interval
 TLI .F               164:   Top log interval
 CS1 .              8.625:   Casing size
 CBD1.      8.625" @ 167':   Casing driller 1
 CBL1.IN              164:   Casing logger 1
 BS1 .IN            7.875:   Bit size
 BSD1.F              2860:   Depth drilled with bit1
 DFT .  LIGND-SULFATE LCM:   Type fluid in hole
 DFD .                8.9:   Density
 DFV .                 33:   Viscosity
 DFPH.               11.0:   pH
 DFL .                9.2:   Fluid loss
 MSS .           FLOWLINE:   Source of sample
 RMS .OHMM           1.47:   Rm
 MST .F                55:   Rm Meas. temp.
 RMF .OHMM           1.13:   Rmf
 MFST.F                75:   Rmf Meas. temp.
 RMB .OHMM           0.78:   Rm. at BHT
 BHT .F               108:   BHT.
 TCS .HRS               3:   Time Circ. stopped
 MRT .F               108:   Maximum recorded temp.
 LUN .               3527:   Logging unit number
 LUL .               CSPR:   Logging unit location
 ENGI.            MANGOLO:   Recorded By
 WITN.             TUTTLE:   Witnessed by
 ORIG.      1" 2.5" PRINT:   Origin of data
 UWI .     49025095240000:   Unique Well ID
 DICO. A2D TECHNOLOGIES, INC.:   Digitizing Company
 PD  .                 GL:   Permanent Datum
 EPD .               5010:   Elevation Permanent Datum
 LMF .                 KB:   Log Measured From
 DMF .                 KB:   Drilling Measured From
 DAPD.              10.32:   Feet Above Permanent Datum
 MFSS.         MEAS PRESS:   Source Rmf.
~OTHER INFORMATION
~A    DEPT     SPR        ASN        ILD        GRD       CALD       CORR       RHOB        CALI        GR   
# ...
 2629.0000   -33.3333     7.9753     4.5894   123.0228     8.4184     0.0071     2.5160  -999.2500  -999.2500
 2629.5000   -33.3333     7.9759     4.5902   122.5498     8.4178     0.0001     2.5099  -999.2500  -999.2500
 2630.0000   -33.3333     7.9765     4.5909   122.4889     8.3865    -0.0018     2.4930  -999.2500  -999.2500
 2630.5000   -33.3333     7.9477     4.5917   122.5110     8.3859     0.0024     2.4942  -999.2500  -999.2500
 2631.0000   -33.3333     7.9189     4.5924   122.9769     8.3853     0.0100     2.5072  -999.2500  -999.2500
 2631.5000   -33.3333     7.8606     4.5932   124.3303     8.3847     0.0155     2.5164  -999.2500  -999.2500
 2632.0000   -33.3333     7.8318     4.5939   124.4822     8.3840     0.0185     2.5179  -999.2500  -999.2500
 2632.5000   -33.3333     7.8030     4.5947   122.5962     8.4141     0.0224     2.5194  -999.2500  -999.2500
 2633.0000   -33.3333     7.7741     4.5954   124.3966     8.4135     0.0224     2.5223  -999.2500  -999.2500
 2633.5000   -33.3333     7.7747     4.5962   124.9814     8.4129     0.0224     2.5260  -999.2500  -999.2500
 2634.0000   -33.0303     7.7753     4.5969   123.5532     8.4123     0.0318     2.5345  -999.2500  -999.2500
 2634.5000   -33.0303     7.7773     4.5978   120.4688     8.4117     0.0399     2.5368  -999.2500  -999.2500
 2635.0000   -33.0303     7.8373     4.5985   118.2720     8.4111     0.0324     2.5348  -999.2500  -999.2500
 2635.5000   -33.0303     7.8679     4.5993   116.0751     8.4104     0.0224     2.5129  -999.2500  -999.2500
 2636.0000   -33.0303     7.9279     4.6000   115.6509     8.4405     0.0117     2.5060  -999.2500  -999.2500
 2636.5000   -33.0303     7.9841     4.4492   117.4507     8.4399     0.0031     2.5107  -999.2500  -999.2500
 2637.0000   -33.0303     8.0185     4.4500   120.5793     8.4393     0.0001     2.5152  -999.2500  -999.2500
 2637.5000   -33.0303     8.0735     4.4508   123.2641     8.4387    -0.0023     2.5199  -999.2500  -999.2500
 2638.0000   -33.0303     8.0742     4.4515   123.2862     8.4381     0.0077     2.5261  -999.2500  -999.2500
 2638.5000   -33.0303     8.0747     4.4523   122.8645     8.4375     0.0183     2.5299  -999.2500  -999.2500
 2639.0000   -33.0303     8.0753     4.4532   118.8926     8.4675     0.0166     2.5332  -999.2500  -999.2500
 2639.5000   -33.0303     8.0904     4.4539   110.0389     8.4669     0.0159     2.5376  -999.2500  -999.2500
 2640.0000   -33.0303     8.2176     4.4547   105.1794     8.4663     0.0198     2.5489  -999.2500  -999.2500
 2640.5000   -32.7273     8.4343     4.4554   109.1955     8.4657     0.0281     2.5600  -999.2500  -999.2500
 2641.0000   -32.7273     8.5867     4.4562   114.0993     8.4698     0.0366     2.5674  -999.2500  -999.2500
 2641.5000   -32.4242     8.6761     4.6084   118.1155     8.4951     0.0455     2.5724  -999.2500  -999.2500
 2642.0000   -32.1212     8.7553     4.6092   119.0251     8.4944     0.0345     2.5742  -999.2500  -999.2500
 2642.5000   -32.1212     8.7049     4.6099   119.4910     8.4938     0.0261     2.5758  -999.2500  -999.2500
 2643.0000   -32.4242     8.5459     4.6107   121.2883     8.4932     0.0209     2.5589  -999.2500  -999.2500
 2643.5000   -33.0303     8.4216     4.7629   122.1979     8.4926     0.0178     2.5348  -999.2500  -999.2500
 2644.0000   -33.0303     8.3753     4.9152   123.1076     8.5228     0.0156     2.5262  -999.2500  -999.2500
 2644.5000   -32.7273     8.3759     5.0675   123.1297     8.5221     0.0132     2.5233  -999.2500  -999.2500
 2645.0000   -32.7273     8.4196     5.2197   120.4891     8.5214     0.0094     2.5218  -999.2500  -999.2500
 2645.5000   -32.7273     8.4645     5.3720   116.0733     8.5208     0.0094     2.5234  -999.2500  -999.2500
 2646.0000   -33.0303     8.6432     5.5243   111.2138     8.5124     0.0124     2.5300  -999.2500  -999.2500
 2646.5000   -33.0303     8.9263     5.6765   106.7980     8.4890     0.0155     2.5300  -999.2500  -999.2500
 2647.0000   -32.7273     9.3016     5.9803   105.0449     8.5191     0.0185     2.5322  -999.2500  -999.2500
 2647.5000   -33.0303     9.6687     6.1326   104.1790     8.4877     0.0245     2.5463  -999.2500  -999.2500
 2648.0000   -33.3333     9.9977     6.1333   107.3081     8.4871     0.0306     2.5690  -999.2500  -999.2500
 2648.5000   -33.3333     9.7631     6.1341   109.1053     8.4958     0.0351     2.5735  -999.2500  -999.2500
 2649.0000   -33.0303     9.7636     6.1348   110.0150     8.5167     0.0366     2.5580  -999.2500  -999.2500
 2649.5000   -32.7273     9.7642     6.1356   112.2560     8.5159     0.0305     2.5419  -999.2500  -999.2500
 2650.0000   -32.4242     9.7648     6.1364   115.3846     8.5051     0.0259     2.5309  -999.2500  -999.2500
 2650.5000   -32.7333     9.6182     6.1371   118.8356     8.4841     0.0213     2.5331  -999.2500  -999.2500
 2651.0000   -33.0303     9.4719     6.1379   115.1041     8.4834     0.0198     2.5332  -999.2500  -999.2500
 2651.5000   -33.0303     9.4724     6.1386   110.6294     8.4828     0.0182     2.5295  -999.2500  -999.2500
 2652.0000   -33.0303     9.4730     6.1394   107.6369     8.4822     0.0319     2.5574  -999.2500  -999.2500
 2652.5000   -32.7273     9.4736     6.1401   107.2511     8.4816     0.0358     2.5597  -999.2500  -999.2500
 2653.0000   -32.7635     9.4742     6.1409   108.7138     8.4810     0.0288     2.5355  -999.2500  -999.2500
 2653.5000   -33.0303     9.6218     6.2932   109.9973     8.4804     0.0226     2.5259  -999.2500  -999.2500
 2654.0000   -33.0303     9.7695     6.4454   109.7939     8.4798     0.0257     2.5223  -999.2500  -999.2500
 2654.5000   -33.0303     9.9171     6.4462   108.9523     8.4792     0.0256     2.5274  -999.2500  -999.2500
 2655.0000   -33.0303     9.9177     6.3839   108.0154     8.5092     0.0210     2.5362  -999.2500  -999.2500
 2655.5000   -33.0303    10.0653     6.2293   106.6699     8.5086     0.0271     2.5421  -999.2500  -999.2500
 2656.0000   -33.0303    10.0659     6.1455    94.7501     8.5080     0.0240     2.5378  -999.2500  -999.2500
 2656.5000   -32.6484    10.2136     5.9202    92.3898     8.5074     0.0148     2.5537  -999.2500  -999.2500
 2657.0000   -32.4242    10.3612     5.5409   100.6963     8.5068     0.0194     2.5794  -999.2500  -999.2500
 2657.5000   -32.8181    10.8030     5.3901   111.3539     8.5062     0.0178     2.5951  -999.2500  -999.2500
 2658.0000   -33.0303    10.6565     5.1535   120.4959     8.5056     0.0239     2.5996  -999.2500  -999.2500
 2658.5000   -33.0303    10.0658     4.9990   124.1899     8.5049     0.0284     2.5848  -999.2500  -999.2500
 2659.0000   -33.0303     9.4388     4.9378   123.5970     8.5043     0.0208     2.5442  -999.2500  -999.2500
 2659.5000   -32.7273     9.1123     4.9388   122.7823     8.5036     0.0177     2.5364  -999.2500  -999.2500
 2660.0000   -32.4242     8.5706     4.7879   126.4631     8.5194     0.0162     2.5331  -999.2500  -999.2500
 2660.5000   -32.4242     8.3159     4.7888   124.3534     8.5331     0.0161     2.5306  -999.2500  -999.2500
 2661.0000   -32.4242     8.1636     4.6379   122.6183     8.5325     0.0176     2.5306  -999.2500  -999.2500
 2661.5000   -32.4242     8.0747     4.6387   122.9947     8.5319     0.0191     2.5307  -999.2500  -999.2500
 2662.0000   -32.4242     8.0141     4.6395   124.1093     8.5313     0.0237     2.5303  -999.2500  -999.2500
 2662.5000   -32.4242     8.0294     4.6402   123.5000     8.5486     0.0206     2.5202  -999.2500  -999.2500
 2663.0000   -32.4242     8.1047     4.7925   123.1615     8.5607     0.0129     2.5173  -999.2500  -999.2500
 2663.5000   -32.5879     8.2694     4.7932   123.6133     8.5600     0.0083     2.5139  -999.2500  -999.2500
 2664.0000   -32.7273     8.4188     4.7940   123.6000     8.5901    -0.0024     2.5026  -999.2500  -999.2500
 2664.5000   -32.7273     8.5218     4.7947   122.9832     8.5895     0.0022     2.5055  -999.2500  -999.2500
 2665.0000   -32.7273     8.6648     4.7955   121.5848     8.5888     0.0128     2.5278  -999.2500  -999.2500
