~VERSION INFORMATION
 VERS.                2.0:   CWLS LOG ASCII STANDARD - VERSION 2.0
 WRAP.                 NO:   ONE LINE PER DEPTH STEP
~WELL INFORMATION
#MNEM.UNIT      DATA TYPE    INFORMATION
#----------   ------------   ------------------------------
 STRT.F          206.0000:   START DEPTH
 STOP.F         3218.0000:   STOP DEPTH
 STEP.F            0.5000:   STEP LENGTH
 NULL.          -999.2500:   NO VALUE
 COMP.    FENIX & SCISSON:   COMPANY
 WELL.     FENIX AX #16-2:   WELL
 FLD .              NPR 3:   FIELD
 LOC .       S2 T38N R78W:   LOCATION
 CNTY.            NATRONA:   COUNTY
 STAT.            WYOMING:   STATE
 CTRY. UNITED STATES OF AMERICA:   COUNTRY
 SRVC.       SCHLUMBERGER:   SERVICE COMPANY
 DATE.        10-OCT-1977:   LOGDATE
 API .     49025105780000:   API NUMBER
~CURVE INFORMATION
#MNEM.UNIT       API CODE    CURVE DESCRIPTION
#----------   ------------   ------------------------------
 DEPT.F                  :   
 GRD .GAPI   45 310 01 00:   GAMMA RAY FROM DENSITY LOG
 CALD.IN     45 280 60 00:   CALIPER FROM DENSITY LOG
 RHOB.G/C3   45 350 01 00:   BULK DENSITY
 CORR.G/C3   45 356 01 00:   DENSITY CORRECTION
 SPR .MV     07 010 01 00:   SPONTANEOUS POTENTIAL FROM RES.
 RILD.OHMM   07 120 46 00:   DEEP INDUCTION RESISTIVITY
 RILM.OHMM   07 120 44 00:   INDUCTION LOG MEDIUM RESISTIVITY
 RLL8.OHMM   07 220 08 00:   LATEROLOG-8 RES.
~PARAMETER INFORMATION
#MNEM.UNIT          VALUE    DESCRIPTION
#----------   ------------   ------------------------------
 EKB .F         5123.0000:   Kelly bushing
 EGL .F         5113.0000:   Ground level
 EDF .F            0.0000:   Drilling floor
 TD  .F         3220.0000:   Total depth
 CLNT.            A2DTECH:   Client Code
 SL  . 1772' FSL & 576' FWL:   Surface Location
 PD  .                 GL:   Permanent Datum
 EPD .F              5113:   Elevation Permanent Datum
 LMF .                 KB:   Log Measured From
 DMF .                 KB:   Drilling Measured From
 DAPD.F                10:   Feet Above Permanent Datum
 DATE.        10-OCT-1977:   Date Logged [DD-MMM-YYYY]
 DD  .F              3220:   Depth driller
 DL  .F              3218:   Depth logger
 BLI .F              3212:   Bottom log interval
 TLI .F               223:   Top log interval
 CS1 .IN            8.625:   Casing size
 CBD1.      8.625" @ 222':   Casing driller 1
 CBL1.F               223:   Casing logger 1
 BS1 .IN            7.875:   Bit size
 BSD1.F              3220:   Depth drilled with bit1
 DFT .                KCL:   Type fluid in hole
 DFD .                8.6:   Density
 DFV .                 32:   Viscosity
 DFPH.                 11:   pH
 MSS .            MUD PIT:   Source of sample
 RMS .OHMM           0.29:   Rm
 MST .F                82:   Rm Meas. temp.
 RMF .OHMM          0.228:   Rmf
 MFST.F                81:   Rmf Meas. temp.
 MFSS.               MEAS:   Source Rmf.
 RMB .OHMM           0.21:   Rm. at BHT
 BHT .F               122:   BHT.
 TCS .HRS            0600:   Time Circ. stopped
 MRT .F               122:   Maximum recorded temp.
 LUN .               5642:   Logging unit number
 ENGI. CHALUPSKY PETERSON:   Recorded By
 WITN.     WES PETTINGILL:   Witnessed by
 ORIG.           5" PRINT:   Origin of data
 UWI .     49025105780000:   Unique Well ID
 DICO. A2D TECHNOLOGIES, INC.:   Digitizing Company
 TLAB.HRS            1000:   Time logger at bottom
 LUL .               CSPR:   Logging unit location
~OTHER INFORMATION
~A   DEPT       GRD      CALD       RHOB       CORR        SPR       RILD       RILM       RLL8   
# ...
 2555.0000   127.8254    10.0245     2.5197     0.0044   -39.2080     6.4774     6.3360     6.5426
 2555.5000   128.8857    10.0137     2.5137    -0.0108   -39.4818     6.5317     6.4807     6.7018
 2556.0000   127.8312     9.9859     2.5100    -0.0031   -39.6061     6.6813     6.6286     7.0494
 2556.5000   123.2113     9.9726     2.5079    -0.0002   -39.5800     6.7373     6.7317     7.4841
 2557.0000   122.9148     9.9744     2.5125     0.0067   -39.5546     6.7938     6.8363     8.2003
 2557.5000   126.0962     9.9607     2.5171     0.0120   -39.5242     6.8508     6.8932     8.6916
 2558.0000   128.5205     9.9479     2.4998     0.0022   -38.0043     6.8591     6.9010     8.4558
 2558.5000   129.4342     9.9196     2.5157     0.0038   -36.0359     6.8674     6.9089     8.2265
 2559.0000   132.7648     9.9063     2.5196     0.0091   -34.6654     6.8267     6.8675     8.0012
 2559.5000   133.8296     9.8631     2.5197     0.0132   -34.0423     6.8350     6.7777     7.8961
 2560.0000   132.1754     9.8949     2.5205     0.0201   -33.7182     6.7942     6.7352     7.9066
 2560.5000   128.8550     9.9117     2.5093     0.0209   -33.3941     6.7540     6.6948     8.0288
 2561.0000   129.2263     9.8960     2.5094     0.0120   -33.5247     6.7624     6.6547     8.0374
 2561.5000   132.3504     9.8702     2.5094     0.0008   -33.7921     6.7223     6.6642     7.9318
 2562.0000   130.6961     9.8569     2.5170     0.0190   -34.5206     6.6825     6.6224     7.8256
 2562.5000   130.2485     9.8441     2.5271     0.0100   -34.9376     6.6906     6.6793     7.7228
 2563.0000   130.8619     9.8008     2.5323     0.0101   -35.5103     6.6510     6.6869     7.6214
 2563.5000   132.2288     9.8026     2.5308     0.0110   -36.5315     6.6116     6.6450     7.5213
 2564.0000   133.5957     9.8044     2.5264     0.0076   -37.2537     6.5689     6.5600     7.6396
 2564.5000   133.1499     9.8061     2.5182    -0.0070   -38.1254     6.4824     6.4724     7.7577
 2565.0000   131.9487     9.8079     2.5213    -0.0099   -39.7444     6.3061     6.3530     7.7731
 2565.5000   133.9200     9.8096     2.5274     0.0031   -40.3171     6.1716     6.2609     7.7742
 2566.0000   132.4030     9.8114     2.5222     0.0160   -40.5919     5.9680     6.1354     7.5633
 2566.5000   132.5770     9.7982     2.5199     0.0055   -40.5657     5.7746     5.9693     7.3581
 2567.0000   135.0013     9.8000     2.5277     0.0237   -40.3911     5.6187     5.7664     7.0571
 2567.5000   137.5767     9.8021     2.5157     0.0140   -40.2164     5.5837     5.6101     6.8104
 2568.0000   138.6414     9.7884     2.5090    -0.0025   -39.7428     5.5506     5.4975     6.3349
 2568.5000   139.7062     9.7906     2.5083    -0.0001   -38.6570     5.5989     5.5038     5.7967
 2569.0000   143.0369     9.8074     2.5092     0.0000   -36.3771     5.6458     5.5893     5.9793
 2569.5000   151.3530     9.8092     2.5160     0.0091   -35.0184     5.7340     5.6374     6.3757
 2570.0000   155.7410     9.8260     2.5229     0.0107   -34.5590     5.8236     5.7235     6.9040
 2570.5000   152.6015     9.8277     2.5079    -0.0058   -34.3842     5.9145     5.8125     7.2655
 2571.0000   143.0844     9.8295     2.5163    -0.0065   -34.5095     5.9641     5.9029     7.1701
 2571.5000   131.8967     9.8313     2.5095    -0.0018   -34.6275     5.9713     5.9948     7.0256
 2572.0000   131.2980     9.8480     2.5140     0.0021   -34.7518     5.9785     6.0447     6.9333
 2572.5000   134.3284     9.8498     2.5190     0.0074   -35.0319     5.9413     6.0081     6.9407
 2573.0000   136.8036     9.8667     2.5219     0.0045   -35.5581     5.8641     6.0167     6.9480
 2573.5000   139.3280     9.8685     2.5242     0.0001   -36.2917     5.8294     5.9380     6.9041
 2574.0000   139.1843     9.8550     2.5198     0.0018   -37.0253     5.7949     5.9008     6.8622
 2574.5000   137.5091     9.8722     2.5123     0.0011   -38.1061     5.7213     5.8654     6.8714
 2575.0000   136.4801     9.8739     2.5087    -0.0162   -39.2873     5.7282     5.8738     6.8279
 2575.5000   136.9424     9.9057     2.5133    -0.0078   -40.8515     5.6943     5.7557     6.7865
 2576.0000   139.3667     9.9075     2.5239    -0.0009   -41.7232     5.7011     5.7196     6.6974
 2576.5000   142.0932     9.9406     2.5308     0.0052   -41.5485     5.7080     5.6870     6.6094
 2577.0000   146.3301     9.9649     2.5346     0.0068   -41.2244     5.6737     5.7343     6.6182
 2577.5000   148.4523     9.9730     2.5272     0.0001   -40.9002     5.6862     5.7819     6.5779
 2578.0000   146.1938     9.9901     2.5182    -0.0073   -40.5761     5.7695     5.8300     6.5382
 2578.5000   143.9350     9.9918     2.5130    -0.0004   -39.5046     5.8675     5.9631     6.5452
 2579.0000   144.5469    10.0086     2.5070    -0.0014   -38.1341     6.0816     6.0992     6.5521
 2579.5000   148.6438    10.0254     2.5041    -0.0100   -36.4647     6.3104     6.2832     7.0487
 2580.0000   148.3682    10.0422     2.5103    -0.0069   -34.9447     6.5012     6.5191     7.6903
 2580.5000   143.3624    10.0440     2.5141     0.0030   -34.4711     6.7458     6.7639     8.3985
 2581.0000   139.1402    10.0457     2.5232     0.0069   -34.4460     6.9996     7.0682     8.8906
 2581.5000   134.6159    10.0625     2.5180    -0.0006   -34.4208     7.2113     7.2814     9.1606
 2582.0000   124.6541    10.0643     2.5295    -0.0036   -34.5514     7.3239     7.3420     9.2901
 2582.5000   125.7188    10.0823     2.5349     0.0056   -34.9683     7.3328     7.4037     8.9099
 2583.0000   126.4815    10.0979     2.5318     0.0004   -35.6905     7.3943     7.4122     8.4242
 2583.5000   127.1191    10.1150     2.5274    -0.0032   -36.4127     7.4032     7.4206     7.9642
 2584.0000   127.3587    10.1318     2.5282     0.0003   -37.1349     7.3571     7.4290     7.8604
 2584.5000   128.0142    10.1486     2.5396     0.0121   -38.0066     7.3682     7.4375     8.0446
 2585.0000   129.5322    10.1654     2.5382     0.0069   -38.8783     7.4290     7.4993     8.4082
 2585.5000   131.2012    10.1822     2.5337     0.0093   -40.0489     7.4913     7.5617     8.6635
 2586.0000   135.8913    10.1839     2.5421     0.0124   -41.0701     7.5552     7.5703     8.7259
 2586.5000   137.1073    10.1857     2.5293    -0.0011   -41.1944     7.5643     7.5789     8.6090
 2587.0000   137.0918    10.2025     2.5174    -0.0056   -41.3255     7.5734     7.5875     8.4960
 2587.5000   136.6706    10.2042     2.5175    -0.0055   -42.1904     7.4750     7.5961     8.4445
 2588.0000   134.1100    10.2210     2.5161     0.0037   -41.2496     7.4285     7.5506     8.5163
 2588.5000   133.5113    10.2378     2.5102     0.0061   -40.2987     7.2819     7.5032     8.7099
 2589.0000   135.0311    10.2396     2.5117     0.0077   -39.5437     7.1873     7.4051     8.9079
 2589.5000   135.7937    10.2418     2.5194     0.0063   -38.6454     7.0938     7.3629     8.8539
 2590.0000   132.7800    10.2586     2.5285     0.0033   -36.3781     7.0497     7.2666     8.5525
 2590.5000   130.5211    10.2601     2.5309     0.0102   -36.0539     6.9602     7.2228     8.2025
 2591.0000   130.6799    10.2770     2.5256     0.0111   -35.8793     6.9190     7.2313     7.8648
 2591.5000   130.8417    10.2937     2.5288     0.0021   -35.8541     6.9053     7.1877     7.7615
 2592.0000   133.1601    10.3255     2.5213    -0.0016   -35.9847     6.8861     7.1447     7.7718
 2592.5000   137.5560    10.3273     2.5191    -0.0030   -35.9532     6.8946     7.1020     7.8920
 2593.0000   143.2484    10.3466     2.5192    -0.0021   -36.2270     6.8537     7.0595     7.9569
 2593.5000   141.4431    10.3763     2.5200     0.0010   -37.0986     6.8132     7.0676     8.0799
 2594.0000   139.7888    10.3931     2.5231     0.0059   -37.9703     6.8215     7.0252     8.1465
 2594.5000   139.4939    10.4099     2.5345     0.0171   -38.8420     6.8787     7.0333     8.2135
 2595.0000   139.0435    10.4266     2.5413     0.0164   -39.5642     6.9365     7.0413     8.1636
