~VERSION INFORMATION
 VERS.                2.0:   CWLS LOG ASCII STANDARD - VERSION 2.0
 WRAP.                 NO:   ONE LINE PER DEPTH STEP
~WELL INFORMATION
#MNEM.UNIT      DATA TYPE    INFORMATION
#----------   ------------   ------------------------------
 STRT.F           32.0000:   START DEPTH
 STOP.F         2998.0000:   STOP DEPTH
 STEP.F            0.5000:   STEP LENGTH
 NULL.          -999.2500:   NO VALUE
 COMP.   TESORO PETROLEUM:   COMPANY
 WELL. TESORO N.P.R. #3-34:   WELL
 FLD .        TEAPOT DOME:   FIELD
 LOC .      S34 T39N R78W:   LOCATION
 CNTY.            NATRONA:   COUNTY
 STAT.            WYOMING:   STATE
 CTRY. UNITED STATES OF AMERICA:   COUNTRY
 SRVC.       SCHLUMBERGER:   SERVICE COMPANY
 DATE.        08-AUG-1969:   LOGDATE
 API .     49025100250000:   API NUMBER
~CURVE INFORMATION
#MNEM.UNIT       API CODE    CURVE DESCRIPTION
#----------   ------------   ------------------------------
 DEPT.F                  :   
 SPR .MV     05 010 01 00:   SPONTANEOUS POTENTIAL FROM RES.
 ASN .OHMM   05 040 16 00:   AMPLIFIED SHORT NORMAL 16"
 ILD .OHMM   05 120 46 00:   INDUCTION LOG DEEP
 CORR.G/C3   45 356 01 00:   DENSITY CORRECTION
 GRD .GAPI   45 310 01 00:   GAMMA RAY FROM DENSITY LOG
 CALD.IN     45 280 60 00:   CALIPER FROM DENSITY LOG
 RHOB.G/C3   45 350 01 00:   BULK DENSITY
~PARAMETER INFORMATION
#MNEM.UNIT          VALUE    DESCRIPTION
#----------   ------------   ------------------------------
 EKB .F         5185.0000:   Kelly bushing
 EGL .F         5172.0000:   Ground level
 TD  .F         2999.0000:   Total depth
 CLNT.            A2DTECH:   Client Code
 SL  . 465' FWL & 1075' FSL':   Surface Location
 DATE.        08-AUG-1969:   Date Logged [DD-MMM-YYYY]
 DD  .F              2998:   Depth driller
 DL  .F              2999:   Depth logger
 BLI .F              2998:   Bottom log interval
 TLI .F               615:   Top log interval
 CS1 .              10.75:   Casing size
 CBD1.      10.75" @ 615':   Casing driller 1
 CBL1.IN              615:   Casing logger 1
 BS1 .IN                9:   Bit size
 BSD1.F              2998:   Depth drilled with bit1
 DFT .      FRESH GEL MUD:   Type fluid in hole
 DFD .                9.6:   Density
 DFV .                 55:   Viscosity
 DFPH.                9.5:   pH
 DFL .                7.0:   Fluid loss
 MSS .           FLOWLINE:   Source of sample
 RMS .OHMM           0.75:   Rm
 MST .F                87:   Rm Meas. temp.
 RMF .OHMM           1.09:   Rmf
 MFST.F                87:   Rmf Meas. temp.
 MFSS.               MEAS:   Source Rmf.
 RMB .OHMM           0.59:   Rm. at BHT
 BHT .F               111:   BHT.
 TCS .HRS               3:   Time Circ. stopped
 MRT .F               111:   Maximum recorded temp.
 LUN .               4507:   Logging unit number
 LUL .               CSPR:   Logging unit location
 ENGI.            ED MIXA:   Recorded By
 WITN.                MAY:   Witnessed by
 ORIG.   1" 2.5" 5" PRINT:   Origin of data
 UWI .     49025100250000:   Unique Well ID
 DICO. A2D TECHNOLOGIES, INC.:   Digitizing Company
~OTHER INFORMATION
~A   DEPT      SPR        ASN        ILD       CORR        GRD       CALD       RHOB   
# ...
 2580.0000   -24.0461     7.4742     6.4107     0.0061   105.4432     9.0581     2.5521
 2580.5000   -24.0475     7.5037     6.4089     0.0171   104.7961     9.0573     2.5664
 2581.0000   -24.1923     7.5332     6.3337     0.0319   105.4311     9.0566     2.5798
 2581.5000   -24.3371     7.5628     6.4065     0.0479   104.8134     9.0558     2.5842
 2582.0000   -24.3386     7.5923     6.4047     0.0536   104.1957     9.0551     2.5542
 2582.5000   -24.3402     7.6514     6.4030     0.0495   104.8169     9.0543     2.5694
 2583.0000   -24.1977     7.7253     6.4755     0.0374   105.4333     9.0535     2.5697
 2583.5000   -24.1994     7.7991     6.6218     0.0254   107.3103     9.0528     2.5501
 2584.0000   -24.2011     7.8730     6.8508     0.0266   107.1316     9.0341     2.5663
 2584.5000   -24.2024     7.9468     7.0622     0.0167   103.3727     9.0205     2.5736
 2585.0000   -24.2039     7.9025     7.2085     0.0078   101.1009     8.9892     2.5662
 2585.5000   -24.2051     7.8582     7.2806     0.0025   102.8134     8.9578     2.5455
 2586.0000   -24.2068     7.9025     7.2792     0.0012   107.4854     8.9571     2.5322
 2586.5000   -24.2082     8.0945     7.2775     0.0028   110.2574     8.9563     2.5263
 2587.0000   -24.2095     8.4195     7.2761     0.0099   107.9503     8.9556     2.5399
 2587.5000   -24.3543     8.6115     7.3486     0.0151   105.3523     8.9559     2.5557
 2588.0000   -24.3560     8.7297     7.4207     0.0197   110.2392     8.9563     2.5438
 2588.5000   -24.5009     8.7309     7.4193     0.0230   109.0092     8.9567     2.5460
 2589.0000   -24.6457     8.5377     7.2702     0.0251   109.9368     8.9570     2.5517
 2589.5000   -24.6470     8.2570     7.0472     0.0220   112.4001     8.9574     2.5540
 2590.0000   -24.7922     7.9911     6.9717     0.0243   113.8847     8.9578     2.5559
 2590.5000   -24.7935     7.7991     6.8964     0.0294   109.4017     8.9582     2.5618
 2591.0000   -24.9384     7.6809     6.8212     0.0367   110.0023     8.9585     2.5667
 2591.5000   -24.9397     7.6514     6.8198     0.0444   111.4200     8.9589     2.5727
 2592.0000   -24.9414     7.6957     6.8180     0.0494   108.4350     8.9593     2.5602
 2592.5000   -25.0862     7.8730     6.8167     0.0556   103.4556     8.9596     2.5580
 2593.0000   -25.0876     8.0650     6.7414     0.0608   103.3393     8.9600     2.5727
 2593.5000   -25.2324     8.1832     6.6662     0.0624   106.6763     8.9604     2.5936
 2594.0000   -25.2341     8.1832     6.5167     0.0555   109.7617     8.9608     2.5824
 2594.5000   -25.2354     8.0355     6.3676     0.0360   112.8902     8.9611     2.5565
 2595.0000   -25.2368     7.7548     6.2185     0.0175   114.1179     8.9615     2.5491
 2595.5000   -25.2381     7.4003     6.0694     0.0206   117.7984     8.9619     2.5328
 2596.0000   -25.0960     6.9129     5.9938     0.0250   125.2119     8.9623     2.5505
 2596.5000   -25.0977     6.6913     5.8447     0.0305   131.6354     8.9626     2.5549
 2597.0000   -25.0991     6.8538     5.8434     0.0365   134.0516     8.9630     2.5622
 2597.5000   -25.2439     7.2969     6.1447     0.0418   125.4659     8.9634     2.5625
 2598.0000   -25.2456     7.7843     6.6526     0.0452   108.6652     8.9637     2.5665
 2598.5000   -25.2469     8.5968     7.0205     0.0507    96.0416     8.9641     2.5798
 2599.0000   -25.2483     8.9365     7.5361     0.0568    91.7542     8.9645     2.5871
 2599.5000   -25.2496     9.0103     7.8302     0.0593    91.1050     8.9649     2.5708
 2600.0000   -25.1076     8.9808     7.7546     0.0494    96.0235     8.9652     2.5605
 2600.5000   -25.1076     8.9217     7.5316     0.0444    97.8532     8.9656     2.5767
 2601.0000   -25.1076     8.9069     7.3825     0.0355    98.4578     8.9652     2.5900
 2601.5000   -25.1076     8.9365     7.1595     0.0255   102.7331     8.9647     2.5704
 2602.0000   -25.1076     8.9513     7.0101     0.0154    94.7760     8.9643     2.5605
 2602.5000   -25.1076     8.8331     6.9349     0.0132    91.7118     8.9639     2.5539
 2603.0000   -25.1076     8.5964     6.8596     0.0206    93.5406     8.9634     2.5442
 2603.5000   -24.9641     8.3762     6.8624     0.0281   103.3205     8.9630     2.5534
 2604.0000   -24.8207     8.2878     6.8665     0.0364   110.6539     8.9625     2.5631
 2604.5000   -24.8207     8.2879     6.8685     0.0441   108.2013     8.9621     2.5678
 2605.0000   -24.8207     8.3619     6.9424     0.0472    97.9212     8.9617     2.5672
 2605.5000   -24.9641     8.8052     7.1640     0.0447    93.6459     8.9612     2.5670
 2606.0000   -24.9641     9.1303     7.2378     0.0384    89.9822     8.9608     2.5598
 2606.5000   -24.8207     9.3520     7.3855     0.0212    87.5418     8.9604     2.5587
 2607.0000   -24.8207     9.4851     7.5332     0.0079    85.7131     8.9599     2.5635
 2607.5000   -24.9641     9.7068     7.6071     0.0048    85.6218     8.9289     2.5626
 2608.0000   -24.9641     9.8694     7.6071     0.0156    88.1717     8.9284     2.5781
 2608.5000   -24.9641     9.6480     7.6071     0.0392    91.2359     8.9280     2.5848
 2609.0000   -25.1076     9.6038     7.6071     0.0493    91.3172     8.9581     2.5655
 2609.5000   -25.1076     9.6040     7.5332     0.0363    88.8016     8.9576     2.5605
 2610.0000   -25.1076     9.5894     7.5332     0.0197    88.6235     8.9572     2.5574
 2610.5000   -25.1076     9.3917     7.4594     0.0054    92.4834     8.9873     2.5461
 2611.0000   -25.1076     9.2647     7.4594    -0.0024    96.7709     8.9868     2.5416
 2611.5000   -25.1076     9.2205     7.4594     0.0128    99.8351     9.0170     2.5581
 2612.0000   -25.1076     9.1616     7.4594     0.0233   101.0644     9.0471     2.5788
 2612.5000   -25.1076     9.0731     7.4594     0.0325   102.9053     9.0466     2.5926
 2613.0000   -24.9641     9.0125     7.4594     0.0385   103.5230     9.0462     2.5909
 2613.5000   -24.9505     9.0144     7.4594     0.0417   100.4710     9.0457     2.5796
 2614.0000   -24.8207     9.1179     7.4594     0.0417   102.9236     9.0759     2.5885
 2614.5000   -24.8207     9.1328     7.4594     0.0373   102.3060     9.0754     2.5959
 2615.0000   -24.6772     9.0739     7.3855     0.0340    98.0122     9.1055     2.5973
 2615.5000   -24.6772     8.9234     7.2378     0.0352    95.6024     9.1051     2.5978
 2616.0000   -24.6772     8.7788     7.0162     0.0402   100.0624     9.1046     2.5649
 2616.5000   -24.5337     8.7346     6.9311     0.0158   106.6237     9.0736     2.5442
 2617.0000   -24.5337     8.7199     6.7208     0.0100   105.9029     9.0731     2.5472
 2617.5000   -24.5145     8.7644     6.6470     0.0065   101.6061     9.0726     2.5575
 2618.0000   -24.3902     8.7634     6.6470     0.0035    98.0266     9.0658     2.5649
 2618.5000   -24.5337     8.6318     6.6470    -0.0002    96.8621     9.0412     2.5501
 2619.0000   -24.6772     8.4251     6.6470    -0.0039    98.8379     9.0407     2.5516
 2619.5000   -24.6772     8.2332     6.6470    -0.0039   100.6189     9.0402     2.5472
 2620.0000   -24.6772     8.0414     6.7208    -0.0012    99.7756     9.0397     2.5383
 2620.5000   -24.6772     7.9972     6.7208     0.0025    98.6329     9.0393     2.5560
 2621.0000   -24.6772     8.1303     6.7208     0.0062    97.4085     9.0388     2.5619
 2621.5000   -24.6772     8.2929     6.7208     0.0098    96.8986     9.0383     2.5487
 2622.0000   -24.6772     8.4260     6.7208     0.0135    99.1803     9.0379     2.5590
 2622.5000   -24.5337     8.5295     6.7208     0.0143   103.0275     9.0374     2.5608
 2623.0000   -24.5127     8.5599     6.7208     0.0116   101.0744     9.0370     2.5457
 2623.5000   -24.3883     8.5742     6.7208     0.0112   101.7312     9.0365     2.5619
 2624.0000   -24.2468     8.5300     6.7208     0.0209   105.6307     9.0361     2.5654
 2624.5000   -24.1033     8.4858     6.7208     0.0310   107.3333     9.0356     2.5737
 2625.0000   -24.1033     8.4860     6.7208     0.0350   105.0454     9.0352     2.5796
