~VERSION INFORMATION
 VERS.                2.0:   CWLS LOG ASCII STANDARD - VERSION 2.0
 WRAP.                 NO:   ONE LINE PER DEPTH STEP
~WELL INFORMATION
#MNEM.UNIT      DATA TYPE    INFORMATION
#----------   ------------   ------------------------------
 STRT.F         2496.0000:   START DEPTH
 STOP.F         4120.0000:   STOP DEPTH
 STEP.F            0.5000:   STEP LENGTH
 NULL.          -999.2500:   NO VALUE
 COMP. LAWRENCE ALLISON AND ASSOCIATES:   COMPANY
 WELL. LAWRENCE "X" #85-10:   WELL
 FLD .              N P R:   FIELD
 LOC .      S10 T38N R78W:   LOCATION
 CNTY.            NATRONA:   COUNTY
 STAT.            WYOMING:   STATE
 CTRY. UNITED STATES OF AMERICA:   COUNTRY
 SRVC.      DRESSER ATLAS:   SERVICE COMPANY
 DATE.        20-JAN-1984:   LOGDATE
 API .     49025109580000:   API NUMBER
~CURVE INFORMATION
#MNEM.UNIT       API CODE    CURVE DESCRIPTION
#----------   ------------   ------------------------------
 DEPT.F                  :   
 SPR .MV     07 010 01 00:   SPONTANEOUS POTENTIAL
 TENR.LBS    07 635 01 00:   TENSION FROM RESISTIVITY
 ILD .OHMM   07 120 46 00:   DEEP INDUCTION RESISTIVITY
 ILM .OHMM   07 120 44 00:   INDUCTION LOG MEDIUM RESISTIVITY
 RFOC.OHMM   07 220 04 00:   RESISTIVITY FOCUSED LOG RES.
 GRD .GAPI   45 310 01 00:   GAMMA RAY FROM DENSITY LOG
 CALD.IN     45 280 60 00:   CALIPER FROM DENSITY LOG
 TEND.LBS    45 635 01 00:   TENSION FROM DENSITY LOG
 RHOB.G/C3   45 350 01 00:   BULK DENSITY
 CORR.G/C3   45 356 01 00:   DENSITY CORRECTION
 CN  .DEC    42 890 03 00:   NEUTRON POROSITY SANDSTONE
~PARAMETER INFORMATION
#MNEM.UNIT          VALUE    DESCRIPTION
#----------   ------------   ------------------------------
 EKB .F         5231.0000:   Kelly bushing
 EGL .F         5221.0000:   Ground level
 EDF .F            0.0000:   Drilling floor
 TD  .F         4115.0000:   Total depth
 DATE.        20-JAN-1984:   Date logged
 CLNT.            A2DTECH:   Client Code
 SL  . 2159' FSL & 292' FEL:   Surface Location
 PD  .                 GL:   Permanent Datum
 EPD .F              5221:   Elevation Permanent Datum
 LMF .                 KB:   Log Measured From
 DMF .                 KB:   Drilling Measured From
 DD  .F              4115:   Depth driller
 DL  .F              4111:   Depth logger
 BLI .F              4109:   Bottom log interval
 TLI .F              2496:   Top log interval
 CS1 .IN            8.625:   Casing size
 CBD1.       8.625 @ 537':   Casing driller 1
 BS1 .IN            7.875:   Bit size
 DFT .            GEL KCL:   Type fluid in hole
 DFD .                8.8:   Density
 DFV .                 40:   Viscosity
 DFPH.                  9:   pH
 DFL .                9.8:   Fluid loss
 MSS .           FLOWLINE:   Source of sample
 RMS .OHMM           0.61:   Rm
 MST .F                77:   Rm Meas. temp.
 RMF .OHMM           0.51:   Rmf
 MFST.F                69:   Rmf Meas. temp.
 RMC .OHMM           0.76:   Rmc
 MCST.F                77:   Rmc Meas. temp.
 MFSS.               MEAS:   Source Rmf.
 RMB .OHMM           0.38:   Rm. at BHT
 BHT .F               122:   BHT.
 TCS .HRS               4:   Time Circ. stopped
 MRT .F               122:   Maximum recorded temp.
 LUN .               6307:   Logging unit number
 LUL .               GLTE:   Logging unit location
 ENGI.            DEYOUNG:   Recorded By
 WITN.           R. SCOTT:   Witnessed by
 ORIG.           5" PRINT:   Origin of data
 UWI .     49025109580000:   Unique Well ID
 DICO. A2D TECHNOLOGIES, INC.:   Digitizing Company
 DAPD.                 10:   Feet Above Permanent Datum
 MCSS.               CALC:   Source Rmc.
~OTHER INFORMATION
~A  DEPT       SPR       TENR        ILD        ILM       RFOC        GRD       CALD       TEND       RHOB       CORR         CN   
# ...
 3655.0000   -52.8680   -27.1700     3.9300     4.3440     5.9420   179.0470     8.1940   -21.1420     2.4790     0.0930     0.2360
 3655.5000   -53.1090   -27.3320     4.0760     4.4300     5.7040   179.6960     8.1940   -21.0350     2.4810     0.0740     0.2430
 3656.0000   -53.3510   -27.4940     4.2210     4.5160     5.3870   184.9480     8.1930   -20.9280     2.4840     0.0470     0.2480
 3656.5000   -53.5920   -27.6560     4.3560     4.6470     5.5300   190.8140     8.1920   -20.8210     2.4830     0.0420     0.2530
 3657.0000   -53.8290   -27.8190     4.2920     4.6220     5.7440   196.6790     8.1910   -20.7140     2.4810     0.0460     0.2580
 3657.5000   -53.9300   -27.9810     4.2340     4.5720     5.9580   201.9150     8.1900   -20.6080     2.4780     0.0510     0.2630
 3658.0000   -53.5920   -28.1430     4.1590     4.5210     6.1870   202.2440     8.1890   -20.5010     2.4840     0.0550     0.2680
 3658.5000   -53.2670   -28.3050     4.2270     4.4840     5.9660   202.4690     8.1880   -20.3940     2.4900     0.0600     0.2710
 3659.0000   -52.9420   -28.4670     4.3540     4.5420     5.7260   204.9910     8.1870   -20.2870     2.4880     0.0640     0.2690
 3659.5000   -52.6170   -28.6300     4.4820     4.5980     5.4870   209.7760     8.1870   -20.1800     2.4830     0.0680     0.2630
 3660.0000   -52.2920   -28.7920     4.5610     4.6540     5.3590   214.5660     8.1860   -20.0740     2.4770     0.0720     0.2580
 3660.5000   -51.9660   -28.9540     4.5160     4.7770     5.5830   216.3110     8.1850   -19.9670     2.4710     0.0760     0.2580
 3661.0000   -51.6410   -29.1160     4.2760     4.6520     5.7620   211.7420     8.1840   -19.8600     2.4800     0.0790     0.2570
 3661.5000   -51.3160   -29.2790     4.0360     4.3430     5.9410   208.2720     8.1830   -19.7530     2.4920     0.0750     0.2540
 3662.0000   -50.9900   -29.4410     3.7960     4.0330     6.1200   204.7760     8.1820   -19.6460     2.5030     0.0700     0.2510
 3662.5000   -50.6630   -29.6030     3.5410     3.7230     6.3610   201.2700     8.1810   -19.5400     2.5050     0.0790     0.2540
 3663.0000   -50.5780   -29.7650     3.2830     3.4130     6.2520   197.7900     8.1800   -19.4330     2.5070     0.0890     0.2590
 3663.5000   -50.5460   -29.7570     3.0250     3.0660     5.7070   195.0720     8.1790   -19.3260     2.5040     0.0990     0.2760
 3664.0000   -50.5160   -29.5100     2.7670     3.1920     4.1650   198.2820     8.1800   -19.2190     2.4880     0.1100     0.2930
 3664.5000   -50.4860   -29.2640     2.5090     3.4510     2.4790   209.6190     8.2040   -19.1120     2.4570     0.1430     0.2810
 3665.0000   -50.4560   -29.0180     2.4340     3.7100     3.3440   215.3120     8.2280   -19.0060     2.4250     0.1760     0.2700
 3665.5000   -50.4260   -28.7710     2.8300     3.9530     4.5610   208.6100     8.2510   -18.8990     2.4000     0.1740     0.2560
 3666.0000   -50.3950   -28.5250     3.1320     4.0870     5.7790   196.7650     8.2750   -18.7920     2.4440     0.1010     0.2600
 3666.5000   -50.3650   -28.2790     3.4330     4.2220     7.0420   183.3680     8.2980   -18.6850     2.4880     0.0560     0.2650
 3667.0000   -50.3350   -28.0320     3.7350     4.3570     6.7370   187.9610     8.3180   -18.5780     2.5210     0.0680     0.2670
 3667.5000   -50.3040   -27.7860     4.0360     4.4920     5.7220   196.2800     8.3060   -18.4720     2.5270     0.0830     0.2650
 3668.0000   -50.2740   -27.5400     4.3380     4.6270     4.9110   204.5760     8.2940   -18.3650     2.5200     0.0990     0.2610
 3668.5000   -50.2440   -27.2930     4.3960     4.7770     5.4520   211.2420     8.2820   -18.2580     2.5090     0.0970     0.2650
 3669.0000   -50.2140   -27.0470     4.3170     4.7160     5.9020   199.0160     8.2700   -18.1510     2.5100     0.0930     0.2710
 3669.5000   -50.2220   -26.8010     4.2400     4.6560     6.4200   187.1400     8.2590   -18.0440     2.5160     0.0900     0.2680
 3670.0000   -50.2810   -26.5540     4.1980     4.5950     6.1670   178.9330     8.2610   -17.9380     2.5220     0.1010     0.2650
 3670.5000   -50.3400   -26.3080     4.1980     4.5350     5.8690   180.5200     8.2630   -17.8310     2.5220     0.1110     0.2620
 3671.0000   -50.3990   -26.0620     4.1980     4.4750     5.5500   181.7620     8.2650   -17.7240     2.5220     0.1080     0.2590
 3671.5000   -50.4580   -25.8150     4.1980     4.4150     5.6170   181.7390     8.2670   -18.3710     2.5220     0.1020     0.2560
 3672.0000   -50.5170   -25.5690     4.1660     4.3550     5.7050   178.1570     8.2680   -19.7720     2.5270     0.0690     0.2530
 3672.5000   -50.5760   -25.3230     4.1220     4.2940     5.8000   175.6920     8.2700   -21.1730     2.5360     0.0470     0.2510
 3673.0000   -50.6350   -25.0760     4.0770     4.2340     5.6470   175.4270     8.2720   -22.5740     2.5460     0.0550     0.2580
 3673.5000   -50.6940   -24.8300     4.0330     4.1740     5.4820   171.4590     8.2740   -23.9750     2.5500     0.0690     0.2640
 3674.0000   -50.7540   -24.5840     3.9880     4.1140     5.3180   167.0270     8.2760   -25.3760     2.5460     0.0790     0.2680
 3674.5000   -50.8130   -24.3370     3.9440     4.0540     5.1540   162.6180     8.2780   -26.7770     2.5410     0.0840     0.2660
 3675.0000   -50.8720   -24.0910     3.8990     3.9940     4.9570   158.3660     8.2800   -28.1780     2.5350     0.0890     0.2640
 3675.5000   -50.9310   -23.8450     3.8550     3.9330     5.0020   152.4340     8.2810   -29.7190     2.5300     0.0850     0.2620
 3676.0000   -50.9900   -23.5980     3.8100     3.8760     5.0590   148.7030     8.2830   -29.5810     2.5240     0.0790     0.2640
 3676.5000   -51.0490   -23.3520     3.7650     3.8240     5.1150   146.9460     8.2850   -29.4280     2.5330     0.0720     0.2660
 3677.0000   -51.1080   -23.1060     3.7210     3.7710     5.1910   145.1340     8.2870   -29.2740     2.5420     0.0750     0.2660
 3677.5000   -51.1670   -22.8590     3.6410     3.7230     5.1270   146.6570     8.2890   -29.1210     2.5520     0.0780     0.2640
 3678.0000   -51.2260   -22.6130     3.4620     3.5300     5.0300   150.0260     8.2910   -28.9670     2.5600     0.0810     0.2640
 3678.5000   -51.2860   -22.3670     3.2840     3.3510     4.9330   152.3270     8.2930   -28.8140     2.5570     0.0840     0.2710
 3679.0000   -51.3480   -22.1210     3.1050     3.1710     4.8660   154.6950     8.2940   -28.6610     2.5550     0.0990     0.2740
 3679.5000   -51.3810   -21.8740     2.9260     2.9920     4.9110   158.1420     8.2960   -28.5070     2.5570     0.1130     0.2750
 3680.0000   -50.7380   -21.6280     2.7480     2.8120     4.4620   162.6590     8.2980   -28.3540     2.5590     0.1140     0.2760
 3680.5000   -50.0720   -21.3820     2.5690     2.6320     4.0630   167.1670     8.3000   -28.2010     2.5470     0.1140     0.2770
 3681.0000   -49.4080   -21.1350     2.3910     2.4530     3.6640   171.6760     8.3020   -28.0470     2.5300     0.1200     0.2780
 3681.5000   -48.7450   -20.8890     2.1390     2.4020     3.2650   176.2000     8.3040   -27.8940     2.5120     0.1280     0.2810
 3682.0000   -48.0840   -20.6430     2.1620     2.3890     2.8650   178.3020     8.3060   -27.7410     2.4950     0.1320     0.2890
 3682.5000   -47.7610   -20.3960     2.2020     2.5190     2.5490   174.9660     8.3070   -27.5870     2.4870     0.1360     0.2850
 3683.0000   -47.4860   -20.1500     2.2420     2.6490     2.9600   167.6850     8.3090   -27.4340     2.4920     0.1410     0.2760
 3683.5000   -47.2120   -19.9040     2.2820     2.7790     3.3680   158.9350     8.3110   -27.2810     2.4970     0.1460     0.2680
 3684.0000   -47.6340   -19.6570     2.3220     2.9200     3.7750   137.2950     8.3130   -27.1270     2.5020     0.1450     0.2600
 3684.5000   -48.1240   -19.4110     2.3620     2.8670     4.1830   131.0910     8.3150   -26.9740     2.5070     0.1450     0.2510
 3685.0000   -48.6130   -19.1650     2.4020     2.7960     4.3550   125.2110     8.3170   -26.8210     2.5290     0.1180     0.2430
