~VERSION INFORMATION
 VERS.                2.0:   CWLS LOG ASCII STANDARD - VERSION 2.0
 WRAP.                 NO:   ONE LINE PER DEPTH STEP
~WELL INFORMATION
#MNEM.UNIT      DATA TYPE    INFORMATION
#----------   ------------   ------------------------------
 STRT.F          648.0000:   START DEPTH
 STOP.F         3196.0000:   STOP DEPTH
 STEP.F            0.5000:   STEP LENGTH
 NULL.          -999.2500:   NO VALUE
 COMP.    FENIX & SCISSON:   COMPANY
 WELL.   FENIX "AX" #18-2:   WELL
 FLD .             NPR #3:   FIELD
 LOC .       S2 T38N R78W:   LOCATION
 CNTY.            NATRONA:   COUNTY
 STAT.            WYOMING:   STATE
 CTRY. UNITED STATES OF AMERICA:   COUNTRY
 SRVC.              WELEX:   SERVICE COMPANY
 DATE.        05-OCT-1980:   LOGDATE
 API .     49025108500000:   API NUMBER
~CURVE INFORMATION
#MNEM.UNIT       API CODE    CURVE DESCRIPTION
#----------   ------------   ------------------------------
 DEPT.F                  :   
 GRD .GAPI   45 310 01 00:   GAMMA RAY FROM DENSITY LOG
 CALD.IN     45 280 60 00:   CALIPER FROM DENSITY LOG
 CORR.G/C3   45 356 01 00:   DENSITY CORRECTION
 RHOB.G/C3   45 350 01 00:   BULK DENSITY
 SPR .MV     07 010 01 00:   SPONTANEOUS POTENTIAL FROM RES.
 ILD .OHMM   07 120 46 00:   INDUCTION LOG DEEP RESISTIVITY
 ILM .OHMM   07 120 44 00:   INDUCTION LOG MEDIUM RESISTIVITY
 SGRD.OHMM   07 220 05 00:   SHORT GUARD RESISTIVITY
~PARAMETER INFORMATION
#MNEM.UNIT          VALUE    DESCRIPTION
#----------   ------------   ------------------------------
 EKB .F         5162.0000:   Kelly bushing
 EGL .F         5152.0000:   Ground level
 EDF .F            0.0000:   Drilling floor
 TD  .F         3200.0000:   Total depth
 CLNT.            A2DTECH:   Client Code
 PD  .                 GL:   Permanent Datum
 EPD .F              5152:   Elevation Permanent Datum
 LMF .                 KB:   Log Measured From
 DMF .                 KB:   Drilling Measured From
 DAPD.F                10:   Feet Above Permanent Datum
 DATE.        05-OCT-1980:   Date Logged [DD-MMM-YYYY]
 DD  .F              3200:   Depth driller
 DL  .F              3198:   Depth logger
 BLI .F              3196:   Bottom log interval
 TLI .F               646:   Top log interval
 CS1 .IN            8.625:   Casing size
 CBD1.      8.625" @ 647':   Casing driller 1
 CBL1.F               650:   Casing logger 1
 BS1 .IN            7.875:   Bit size
 BSD1.F              3200:   Depth drilled with bit1
 DFT .           CHEM GEL:   Type fluid in hole
 DFD .                8.6:   Density
 DFV .                 38:   Viscosity
 DFPH.                9.5:   pH
 MSS .           FLOWLINE:   Source of sample
 MFSS.               MEAS:   Source Rmf.
 MCSS.               MEAS:   Source Rmc.
 RMB .OHMM           1.24:   Rm. at BHT
 BHT .F               118:   BHT.
 TCS .HRS               5:   Time Circ. stopped
 MRT .F               118:   Maximum recorded temp.
 LUN .               1892:   Logging unit number
 LUL .             CASPER:   Logging unit location
 ORIG.           5" PRINT:   Origin of data
 UWI .     49025108500000:   Unique Well ID
 DICO. A2D TECHNOLOGIES, INC.:   Digitizing Company
 SL  . 313' FSL & 565' FWL:   Surface Location
 RMS .               2.34:   Rm
~OTHER INFORMATION
~A   DEPT       GRD      CALD       CORR       RHOB        SPR        ILD        ILM       SGRD   
# ...
 2308.5000   103.2667    10.5806     0.0430     2.4207   -38.0381     4.6015     5.6523     6.4768
 2309.0000   104.6104    10.5667     0.0447     2.4350   -38.1342     4.7004     5.7355     7.3857
 2309.5000   105.5093    10.5528     0.0389     2.4450   -38.2303     4.8345     5.8191     7.8492
 2310.0000   105.5285    10.5539     0.0346     2.4502   -38.3264     4.9384     5.9038     5.4893
 2310.5000   106.4275    10.5547     0.0363     2.4435   -38.4225     5.0445     5.9487     5.7244
 2311.0000   108.0134    10.5406     0.0319     2.4331   -38.5186     5.0824     5.9527     7.6498
 2311.5000   109.3299    10.5564     0.0125     2.4302   -38.6148     5.1206     5.9567     8.2570
 2312.0000   101.6511    10.5573     0.0006     2.4385   -38.7105     5.0885     5.9607     8.3753
 2312.5000   100.3458    10.5582     0.0083     2.4461   -38.8084     5.0917     6.0060     7.1535
 2313.0000    99.2701    10.5740     0.0205     2.4499   -38.7607     5.1300     6.0101     7.6157
 2313.5000    97.7497    10.5748     0.0253     2.4508   -38.6231     5.2409     6.0141     8.1115
 2314.0000    94.9097    10.5904     0.0315     2.4464   -38.4838     5.3905     6.0599     8.5134
 2314.5000    94.7089    10.6207     0.0332     2.4375   -38.3444     5.5827     6.0717     5.9958
 2315.0000    96.7960    10.6657     0.0349     2.4264   -38.2052     5.7420     6.1533     5.7162
 2315.5000   100.0307    10.6813     0.0320     2.4145   -38.0659     5.8251     6.1574     7.5874
 2316.0000   103.1290    10.6527     0.0292     2.4108   -37.9262     5.8689     6.1616     9.7288
 2316.5000   104.9078    10.6389     0.0278     2.4334   -37.7866     5.7922     6.1658     8.9008
 2317.0000   101.4079    10.6547     0.0311     2.4581   -37.6707     5.5612     6.1699     7.9208
 2317.5000    99.2277    10.6702     0.0403     2.4635   -37.7965     5.2664     6.1306     7.9816
 2318.0000    98.1471    10.6858     0.0510     2.4606   -37.9286     4.8501     6.0518     7.6630
 2318.5000    98.3908    10.7309     0.0572     2.4682   -38.0601     4.5909     6.0143     6.0249
 2319.0000    99.5382    10.7612     0.0589     2.4630   -38.1913     4.4425     5.8144     5.9872
 2319.5000   101.0687    10.7915     0.0561     2.4421   -38.3224     4.3543     5.1330     5.3664
 2320.0000   102.8475    10.8071     0.0517     2.3973   -38.4536     4.2968     4.8668     4.7109
 2320.5000    98.9077    10.8521     0.0489     2.3607   -38.5848     4.1832     4.8710     4.7463
 2321.0000    96.0676    10.8679     0.0461     2.3241   -38.7162     4.0721     4.8075     4.8819
 2321.5000    93.6675    10.9277     0.0417     2.3175   -38.8471     3.9913     4.4285     4.9186
 2322.0000    91.4873    10.9431     0.0510     2.3610   -38.9782     3.8586     4.1363     8.5397
 2322.5000    88.4049    10.8999     0.0723     2.4749   -39.0030     3.7303     3.8901     9.1017
 2323.0000    85.9578    10.8859     0.0966     2.5199   -38.8830     3.5815     3.7608     8.0361
 2323.5000    84.9466    10.9017     0.1118     2.5282   -38.7634     3.3660     3.6826     6.1683
 2324.0000    85.6304    10.9320     0.1286     2.5013   -38.6436     3.1836     3.5846     4.0358
 2324.5000    87.4091    10.9629     0.1198     2.4408   -38.5239     2.9595     3.4460     3.5711
 2325.0000    88.9679    10.9926     0.1139     2.3982   -38.4042     2.8026     3.3086     4.1294
 2325.5000    89.8668    11.0231     0.1080     2.3861   -38.2845     2.7094     3.1986     3.0520
 2326.0000    84.3875    11.0387     0.1037     2.3782   -38.1649     2.6556     3.1347     5.3724
 2326.5000    83.0870    11.0543     0.1023     2.3693   -38.0452     2.6573     3.0732     5.1580
 2327.0000    84.2830    11.0552     0.1025     2.3926   -37.9254     2.6589     3.0331     4.0554
 2327.5000    86.2094    11.0560     0.1193     2.4728   -37.8049     2.6605     3.0138     3.6344
 2328.0000    87.7682    11.0421     0.1331     2.4609   -37.6829     2.6438     3.0164     5.1343
 2328.5000    90.2067    11.0430     0.1031     2.4318   -37.7740     2.6637     3.0815     3.4874
 2329.0000    91.9854    11.0439     0.1017     2.4439   -37.8922     2.6668     3.1929     3.3291
 2329.5000    94.6439    11.0597     0.1004     2.4477   -38.0109     2.7447     3.3571     3.3546
 2330.0000    97.7422    11.1194     0.0524     2.3864   -38.1290     2.8395     3.5940     4.9709
 2330.5000   100.1940    11.2676     0.0329     2.3752   -38.2472     2.9005     3.8266     4.8387
 2331.0000    99.9848    11.3126     0.0195     2.3888   -38.3653     3.0039     4.0464     4.2477
 2331.5000    98.4644    11.3576     0.0090     2.4143   -38.4834     3.1978     4.2493     4.0223
 2332.0000    97.3839    11.3879     0.0033     2.4249   -38.6016     3.4043     4.4624     5.3017
 2332.5000    96.5185    11.4035     0.0019     2.3966   -38.7197     3.6240     4.7186     6.4779
 2333.0000    98.0821    11.4065     0.0022     2.3968   -38.8378     3.8580     5.0588     6.3932
 2333.5000   100.0808    11.4202     0.0144     2.4265   -38.9561     4.1640     5.3862     6.0444
 2334.0000   101.6396    11.4210     0.0282     2.4709   -39.0736     4.4037     5.6563     5.9338
 2334.5000   100.2915    11.4366     0.0359     2.4875   -39.1958     4.6936     5.7784     7.1031
 2335.0000    95.7443    11.4375     0.0406     2.4966   -39.0456     5.0244     5.8224     7.5620
 2335.5000    92.4644    11.4383     0.0455     2.5086   -38.7465     5.2035     5.7803     8.1610
 2336.0000    91.1639    11.4392     0.0500     2.5199   -38.4439     5.2066     5.7109     8.7496
 2336.5000    91.6230    11.4401     0.0532     2.5043   -38.1411     5.2098     5.7552     7.4721
 2337.0000    95.8210    11.4409     0.0549     2.5037   -37.8377     5.2129     5.8794     6.9789
 2337.5000    99.5792    11.4420     0.0551     2.5138   -37.5279     5.3249     6.0898     6.7933
 2338.0000   103.5574    11.4428     0.0477     2.5210   -37.5596     5.4020     6.3952     5.7220
 2338.5000   106.6557    11.4437     0.0388     2.4912   -37.6641     5.5562     6.7159     6.6627
 2339.0000   104.2604    11.4446     0.0299     2.4778   -37.7703     5.7148     7.1014     6.9961
 2339.5000   104.7194    11.4601     0.0226     2.4704   -37.8758     5.8795     7.4063     7.2958
 2340.0000   106.0583    11.4610     0.0168     2.4668   -37.9813     6.1352     7.7243     8.6126
 2340.5000    99.2593    11.4766     0.0124     2.4646   -38.0867     6.4813     8.1691     9.1819
 2341.0000    97.7389    11.4316     0.0095     2.4632   -38.1911     6.8997     8.5904     9.8304
 2341.5000    94.2390    11.3460     0.0098     2.4648   -38.2570     7.4470     9.1342    10.6840
 2342.0000    95.3579    11.2585     0.0099     2.4664   -38.2412     7.9277     9.3314    11.2962
 2342.5000    97.8190    11.1857     0.0131     2.4717   -38.2268     8.2670     9.2719    10.8454
 2343.0000    98.4802    11.1129     0.0286     2.4823   -38.2122     8.4446     9.2798    10.6283
 2343.5000    98.7194    11.0696     0.0422     2.5026   -38.1977     8.5669     9.2860    11.1963
 2344.0000    98.7386    11.0410     0.0454     2.5206   -38.1831     8.6313     9.2269    10.2825
 2344.5000    98.5378    11.0271     0.0425     2.5013   -38.1686     8.6962     9.4277     9.8720
 2345.0000    97.8972    10.9985     0.0427     2.4976   -38.1540     8.7616     9.5650    10.7294
 2345.5000    94.8372    10.9554     0.0429     2.4969   -38.1395     8.8276     9.6451    12.0782
 2346.0000    91.7772    10.9121     0.0430     2.5023   -38.1250     8.7735     9.5779    11.8318
 2346.5000    90.6967    10.8835     0.0495     2.5136   -38.1104     8.6574     9.5147    11.2041
 2347.0000    90.7207    10.8401     0.0631     2.5309   -38.0958     8.6033     9.4595    10.9062
 2347.5000    93.8190    10.7968     0.0708     2.5377   -38.0811     8.6098     9.4675    11.1407
 2348.0000    96.6974    10.7388     0.0634     2.5288   -38.0639     8.6745     9.4739    11.8604
 2348.5000   100.0158    10.7102     0.0470     2.4893   -38.1738     8.6798     9.5459    10.7765
