~VERSION INFORMATION
 VERS.                2.0:   CWLS LOG ASCII STANDARD - VERSION 2.0
 WRAP.                 NO:   ONE LINE PER DEPTH STEP
~WELL INFORMATION
#MNEM.UNIT      DATA TYPE    INFORMATION
#----------   ------------   ------------------------------
 STRT.F          197.0000:   START DEPTH
 STOP.F         3074.5000:   STOP DEPTH
 STEP.F            0.5000:   STEP LENGTH
 NULL.          -999.2500:   NO VALUE
 COMP.    FENIX & SCISSON:   COMPANY
 WELL.   FENIX "A" #36-21:   WELL
 FLD .             NPR #3:   FIELD
 LOC .      S21 T39N R78W:   LOCATION
 CNTY.            NATRONA:   COUNTY
 STAT.            WYOMING:   STATE
 CTRY. UNITED STATES OF AMERICA:   COUNTRY
 SRVC.              WELEX:   SERVICE COMPANY
 DATE.        06-JUL-1977:   LOGDATE
 API .     49025103920000:   API NUMBER
~CURVE INFORMATION
#MNEM.UNIT       API CODE    CURVE DESCRIPTION
#----------   ------------   ------------------------------
 DEPT.F                  :   
 CALD.IN     45 280 60 00:   CALIPER FROM DENSITY LOG
 GRD .GAPI   45 310 01 00:   GAMMA RAY FROM DENSITY LOG
 CORR.G/C3   45 356 01 00:   DENSITY CORRECTION
 RHOB.G/C3   45 350 01 00:   BULK DENSITY
 SPR .MV     11 010 01 00:   SPONTANEOUS POTENTIAL FROM RES.
 FORX.OHMM   11 000 00 00:   FORMATION FACTOR
 GURD.OHMM   11 220 05 00:   GUARD LOG RESISTIVITY
 NPHI.DEC    42 890 03 00:   NEUTRON POROSITY SANDSTONE
~PARAMETER INFORMATION
#MNEM.UNIT          VALUE    DESCRIPTION
#----------   ------------   ------------------------------
 EKB .F         4960.0000:   Kelly bushing
 EGL .F         4950.0000:   Ground level
 EDF .F            0.0000:   Drilling floor
 EPD .F         4950.0000:   Permanent datum
 TD  .F         3078.0000:   Total depth
 CLNT.            A2DTECH:   Client Code
 SL  . 1650' FSL & 1650' FWL:   Surface Location
 PD  .                 GL:   Permanent Datum
 DAPD.F                10:   Feet Above Permanent Datum
 DATE.        06-JUL-1977:   Date Logged [DD-MMM-YYYY]
 DD  .F              3066:   Depth driller
 DL  .F              3078:   Depth logger
 BLI .F              3076:   Bottom log interval
 TLI .F               200:   Top log interval
 CS1 .IN            8.625:   Casing size
 BS1 .IN            7.875:   Bit size
 BSD1.F              3066:   Depth drilled with bit1
 DFT .            KCL MUD:   Type fluid in hole
 DFD .                9.2:   Density
 DFV .                 35:   Viscosity
 DFPH.                7.5:   pH
 DFL .                 18:   Fluid loss
 MSS .           FLOWLINE:   Source of sample
 RMS .OHMM            0.9:   Rm
 MST .F                80:   Rm Meas. temp.
 RMF .OHMM           0.81:   Rmf
 MFST.F                80:   Rmf Meas. temp.
 MFSS.               FANN:   Source Rmf.
 RMC .OHMM           1.06:   Rmc
 MCST.F                80:   Rmc Meas. temp.
 MCSS.                KIT:   Source Rmc.
 RMB .OHMM           0.60:   Rm. at BHT
 BHT .F               119:   BHT.
 TCS .HRS               3:   Time Circ. stopped
 MRT .F               119:   Maximum recorded temp.
 LUN .               8611:   Logging unit number
 LUL .             CASPER:   Logging unit location
 ENGI.             C DOAK:   Recorded By
 WITN.         HARRINGTON:   Witnessed by
 ORIG.           5" PRINT:   Origin of data
 UWI .     49025103920000:   Unique Well ID
 DICO. A2D TECHNOLOGIES,INC.:   Digitizing Company
~OTHER INFORMATION
~A   DEPT     CALD         GRD      CORR       RHOB        SPR       FORX       GURD       NPHI   
# ...
  966.5000     8.2187    88.8355    -0.0195     2.0704   -68.4204     7.9402     6.2684     0.3086
  967.0000     8.2352    89.5924    -0.0192     2.1143   -68.7025     6.6372     4.6595     0.3104
  967.5000     8.2370    89.9049    -0.0037     2.1842   -68.6808     6.3683     5.7314     0.3101
  968.0000     8.2235    90.5136     0.0325     2.2720   -68.8174     8.6250     7.0498     0.3089
  968.5000     8.2257    91.5668     0.0457     2.3241   -68.7957     8.3328     7.3991     0.3077
  969.0000     8.2275    92.6200     0.0516     2.3606   -68.9281     8.1622     7.2480     0.3067
  969.5000     8.2292    93.6733     0.0533     2.3704   -68.9102     7.9951     7.2987     0.3049
  970.0000     8.2009    90.8746     0.0520     2.3734   -69.0431     8.6847     7.3026     0.3027
  970.5000     8.2031    88.3723     0.0506     2.3734   -69.0214     8.9893     7.1997     0.3009
  971.0000     8.1897    86.1662     0.0508     2.3728   -69.0040     8.7432     6.8520     0.3033
  971.5000     8.1766    84.7009     0.0510     2.3855   -68.9867     8.3843     6.5377     0.3060
  972.0000     8.1788    84.2726     0.0512     2.3944   -68.9693     8.1518     6.6290     0.3087
  972.5000     8.1653    85.7778     0.0514     2.3982   -68.9520     7.8172     6.6755     0.3144
  973.0000     8.1527    87.7264     0.0515     2.3983   -68.9341     7.4113     6.4942     0.3141
  973.5000     8.1545    88.6178     0.0517     2.3835   -69.0669     7.4113     6.2744     0.3083
  974.0000     8.1563    88.6341     0.0514     2.3761   -69.0452     7.9402     6.5853     0.2999
  974.5000     8.1432    89.2632     0.0505     2.3687   -69.0279     7.6185     6.9595     0.2938
  975.0000     8.1450    90.1729     0.0508     2.3658   -69.0105     6.1103     5.8171     0.2905
  975.5000     8.1165    90.9084     0.0494     2.3674   -68.9932     6.3683     6.6323     0.2899
  976.0000     8.0893    90.4802     0.0481     2.3696   -68.9758     8.7448     6.8183     0.2905
  976.5000     8.0911    90.6445     0.0468     2.3712   -69.1082     8.5069     6.8660     0.2917
  977.0000     8.1077    91.5496     0.0455     2.3683   -69.2405     8.2755     6.8665     0.2949
  977.5000     8.1098    92.3065     0.0472     2.3624   -69.2188     8.2755     6.8669     0.3009
  978.0000     8.1116    92.6189     0.0473     2.3580   -69.2015     8.5069     6.7267     0.3040
  978.5000     8.1133    92.3388     0.0475     2.3565   -69.1841     8.2755     6.5441     0.3070
  979.0000     8.1151    92.7994     0.0477     2.3559   -69.3208     8.1622     6.6354     0.3072
  979.5000     8.1168    94.1489     0.0479     2.3589   -69.2991     8.1622     6.8216     0.3048
  980.0000     8.1186    91.4985     0.0481     2.3657   -69.4314     8.1622     6.9200     0.3005
  980.5000     8.1203    92.8480     0.0498     2.3776   -69.4097     8.0505     7.1169     0.3012
  981.0000     8.1221    93.9012     0.0499     2.3739   -69.3924     8.1622     7.2691     0.3011
  981.5000     8.1238    94.6581     0.0516     2.3764   -69.3750     8.5069     7.3109     0.3011
  982.0000     8.1104    95.5631     0.0518     2.3862   -69.3577     9.3689     7.1124     0.3014
  982.5000     8.0973    96.1719     0.0520     2.3942   -69.4943     8.8662     6.9193     0.3010
  983.0000     8.0995    94.2622     0.0551     2.3846   -69.6227     8.7448     6.7314     0.2971
  983.5000     8.1013    92.2043     0.0568     2.3869   -69.7547     8.8678     6.6395     0.2926
  984.0000     8.1030    91.6238     0.0585     2.3996   -69.8827     9.1771     6.8259     0.2871
  984.5000     8.1048    93.1255     0.0586     2.4145   -69.8653     8.8548     6.9212     0.2850
  985.0000     8.0769    94.7713     0.0588     2.4272   -69.8480     8.4914     7.0178     0.2880
  985.5000     8.0787    96.1208     0.0560     2.4102   -69.8306     8.2755     7.0183     0.2916
  986.0000     8.0805    96.7296     0.0547     2.3872   -69.8133     8.3904     6.8750     0.2910
  986.5000     8.0822    96.5970     0.0533     2.3791   -69.7959     8.8053     6.6423     0.2936
  987.0000     8.0840    97.3545     0.0521     2.3762   -69.7785     8.3904     6.2861     0.2951
  987.5000     8.0858    97.9633     0.0478     2.3784   -69.7605     8.1622     6.2433     0.2969
  988.0000     8.0879    96.3498     0.0479     2.3830   -69.7395     7.9402     6.2869     0.2999
  988.5000     8.0897    95.4771     0.0511     2.3875   -69.7222     7.7243     6.2874     0.2996
  989.0000     8.1062    94.7505     0.0513     2.3905   -69.5551     7.6185     6.2408     0.3006
  989.5000     8.1228    93.8692     0.0515     2.3854   -69.3880     7.5661     6.1050     0.3056
  990.0000     8.1245    92.2469     0.0500     2.3795   -69.3513     7.6185     5.8291     0.3113
  990.5000     8.1263    90.7586     0.0488     2.3766   -69.3533     7.7243     5.8699     0.3203
  991.0000     8.1280    89.2987     0.0505     2.3751   -69.3353     7.7243     6.1184     0.3245
  991.5000     8.1296    88.2691     0.0507     2.3856   -69.3143     7.7243     6.4660     0.3269
  992.0000     8.1315    87.4422     0.0509     2.3849   -69.4510     7.6185     6.8334     0.3296
  992.5000     8.1333    88.6476     0.0496     2.3708   -69.4293     7.6185     7.4751     0.3277
  993.0000     8.1351    89.7008     0.0498     2.3635   -69.4119     7.9951     7.4242     0.3232
  993.5000     8.1516    90.4577     0.0470     2.3643   -69.2448     8.7448     7.6399     0.3202
  994.0000     8.1681    87.6591     0.0471     2.3590   -69.2275     9.2406     7.4252     0.3204
  994.5000     8.1699    86.6382     0.0473     2.3562   -69.2096     9.1141     7.3746     0.3243
  995.0000     8.1717    86.8026     0.0490     2.3630   -69.1884     8.9893     7.4365     0.3231
  995.5000     8.1734    86.9669     0.0521     2.3816   -69.1754     8.9893     7.8567     0.3207
  996.0000     8.1604    87.1272     0.0538     2.3973   -69.2872     8.9893     7.9577     0.3175
  996.5000     8.1473    86.2585     0.0540     2.3922   -69.3890     8.9860     7.5311     0.3119
  997.0000     8.1195    85.5339     0.0512     2.3855   -69.4794     8.9275     7.2262     0.3013
  997.5000     8.1213    85.3979     0.0514     2.3826   -69.4757     8.9275     7.6367     0.3010
  998.0000     8.1082    86.8996     0.0515     2.3812   -69.4728     8.7948     7.4808     0.3010
  998.5000     8.0952    86.4713     0.0517     2.3820   -69.4699     8.6250     7.4297     0.3013
  999.0000     8.0974    85.3023     0.0549     2.3887   -69.4669     8.6250     7.3284     0.2976
  999.5000     8.0839    85.3185     0.0566     2.3933   -69.4640     8.8662     7.4309     0.2931
 1000.0000     8.1007   104.3071     0.0522     2.3948   -69.4611     9.0515     7.9622     0.2870
 1000.5000     8.1025   168.8114     0.0494     2.3867   -69.3084     9.1833     7.7996     0.2834
 1001.0000     8.1042   165.3276     0.0467     2.3801   -69.3054     9.3689     7.6402     0.2828
 1001.5000     8.1060   162.4227     0.0469     2.3779   -69.3019     9.4990     7.6409     0.2843
 1002.0000     8.1077   159.8123     0.0471     2.3841   -69.1492     9.4990     7.6414     0.2844
 1002.5000     8.1095   158.0856     0.0503     2.3894   -69.1463     9.3689     7.6419     0.2856
 1003.0000     8.1112   157.2425     0.0535     2.3916   -69.1434     9.3045     7.6428     0.2865
 1003.5000     8.1134   158.2003     0.0567     2.3984   -69.1404     8.9893     8.1326     0.2877
 1004.0000     8.1151   159.7839     0.0584     2.4186   -69.1375     8.8662     8.1849     0.2892
 1004.5000     8.1168   161.7927     0.0571     2.4216   -68.9849     8.8662     8.1849     0.2871
 1005.0000     8.1186   160.9497     0.0544     2.4061   -69.1317     8.9893     8.1849     0.2838
 1005.5000     8.1203   156.5720     0.0546     2.3951   -69.1287     9.5073     8.2416     0.2817
 1006.0000     8.1221   146.0088     0.0518     2.3870   -69.1377     9.7646     8.2416     0.2832
 1006.5000     8.1238   133.0891     0.0520     2.3804   -69.2725     9.6309     8.1849     0.2805
