~VERSION INFORMATION
 VERS.                2.0:   CWLS LOG ASCII STANDARD - VERSION 2.0
 WRAP.                 NO:   ONE LINE PER DEPTH STEP
~WELL INFORMATION
#MNEM.UNIT      DATA TYPE    INFORMATION
#----------   ------------   ------------------------------
 STRT.F         2676.0000:   START DEPTH
 STOP.F         3016.0000:   STOP DEPTH
 STEP.F            0.5000:   STEP LENGTH
 NULL.          -999.2500:   NO VALUE
 COMP.    FENIX & SCISSON:   COMPANY
 WELL.  FENIX "TX" #56-20:   WELL
 FLD .             NPR #3:   FIELD
 LOC .      S20 T39N R78W:   LOCATION
 CNTY.            NATRONA:   COUNTY
 STAT.            WYOMING:   STATE
 CTRY. UNITED STATES OF AMERICA:   COUNTRY
 SRVC.              WELEX:   SERVICE COMPANY
 DATE.        13-OCT-1980:   LOGDATE
 API .     49025108540000:   API NUMBER
~CURVE INFORMATION
#MNEM.UNIT       API CODE    CURVE DESCRIPTION
#----------   ------------   ------------------------------
 DEPT.F                  :   
 GRD .GAPI   45 310 01 00:   GAMMA RAY FROM DENSITY LOG
 CALD.IN     45 280 60 00:   CALIPER FROM DENSITY LOG
 RHOB.G/C3   45 350 01 00:   BULK DENSITY
 DRHO.G/C3   45 356 01 00:   DENSITY CORRECTION
 SPR .MV     07 010 01 00:   SPONTANEOUS POTENTIAL
 SGRD.OHMM   07 220 05 00:   SHALLOW GUARD
 ILM .OHMM   07 120 44 00:   INDUCTION LOG MEDIUM RESISTIVITY
 ILD .OHMM   07 120 46 00:   DEEP INDUCTION RESISTIVITY
~PARAMETER INFORMATION
#MNEM.UNIT          VALUE    DESCRIPTION
#----------   ------------   ------------------------------
 EKB .F         5035.0000:   Kelly bushing
 EGL .F         5030.0000:   Ground level
 EDF .F            0.0000:   Drilling floor
 TD  .F         3012.0000:   Total depth
 DATE.        13-OCT-1980:   Date logged
 CLNT.            A2DTECH:   Client Code
 PD  .                 GL:   Permanent Datum
 EPD .F              5030:   Elevation Permanent Datum
 LMF .                 KB:   Log Measured From
 DMF .                 KB:   Drilling Measured From
 DD  .F              3012:   Depth driller
 DL  .F              3010:   Depth logger
 BLI .F              3012:   Bottom log interval
 TLI .F              2688:   Top log interval
 CS1 .IN                7:   Casing size
 CBD1.         7" @ 2689':   Casing driller 1
 CBL1.F              2687:   Casing logger 1
 BS1 .IN             6.25:   Bit size
 BSD1.F              3012:   Depth drilled with bit1
 DFT .        FRESH WATER:   Type fluid in hole
 MSS .           FLOWLINE:   Source of sample
 RMS .OHMM           2.86:   Rm
 MST .F                50:   Rm Meas. temp.
 RMF .OHMM           2.29:   Rmf
 MFST.F                50:   Rmf Meas. temp.
 RMC .OHMM           3.43:   Rmc
 MCST.F                50:   Rmc Meas. temp.
 MFSS.               MEAS:   Source Rmf.
 MCSS.               MEAS:   Source Rmc.
 RMB .OHMM           1.21:   Rm. at BHT
 BHT .F               118:   BHT.
 TCS .HRS               5:   Time Circ. stopped
 MRT .F               118:   Maximum recorded temp.
 LUN .               1892:   Logging unit number
 LUL .             CASPER:   Logging unit location
 ENGI.           PERIMMER:   Recorded By
 WITN.              SCOTT:   Witnessed by
 ORIG.           5" PRINT:   Origin of data
 UWI .     49025108540000:   Unique Well ID
 DICO. A2D TECHNOLOGIES, INC.:   Digitizing Company
~OTHER INFORMATION
~A  DEPT        GRD        CALD       RHOB       DRHO      SPR       SGRD        ILM        ILD   
# ...
 2757.0000    69.7540     7.8130     2.4730     0.0450   -25.7470     7.8920     6.4050     4.8670
 2757.5000    69.2990     7.8220     2.4740     0.0440   -25.2720     7.3510     6.4050     4.8210
 2758.0000    68.8480     7.8140     2.4740     0.0440   -24.9060     7.8450     6.3460     4.7740
 2758.5000    68.5000     7.7870     2.4770     0.0430   -25.8280     8.1930     6.5240     4.7160
 2759.0000    69.4260     7.7820     2.4800     0.0430   -25.0560    11.5280     6.6450     4.6020
 2759.5000    70.8530     7.8000     2.4820     0.0460   -25.8810     9.1370     6.4640     4.6020
 2760.0000    72.3190     7.8030     2.4820     0.0490   -25.9360     6.8930     6.4640     4.6020
 2760.5000    72.6180     7.8850     2.4840     0.0510   -25.9690     7.3390     6.5240     4.6020
 2761.0000    72.9260     7.8850     2.4930     0.0580   -26.3050     8.7520     6.4640     4.5960
 2761.5000    75.6680     7.9000     2.5030     0.0750   -25.7890     8.4360     6.3460     4.5730
 2762.0000    75.8460     8.0870     2.5120     0.0920   -26.0610     8.5140     6.2310     4.5500
 2762.5000    74.6940     8.0380     2.5140     0.1060   -25.1640     6.9570     6.2880     4.5280
 2763.0000    77.2860     7.9970     2.5150     0.1010   -25.8590     9.0790     6.3460     4.4550
 2763.5000    78.2620     7.9670     2.5270     0.1100   -26.0380     8.2330     6.1490     4.2940
 2764.0000    79.5450     7.9940     2.5410     0.1220   -25.4020     7.9840     6.0060     4.1220
 2764.5000    81.0400     8.0230     2.5370     0.1230   -26.7580     9.4190     5.8430     4.0640
 2765.0000    80.9780     8.0510     2.5320     0.1100   -25.9360     6.8260     5.7100     3.9730
 2765.5000    79.8060     8.0700     2.5280     0.1080   -25.4410     5.4290     5.6320     3.8720
 2766.0000    78.7190     8.0790     2.5340     0.0960   -25.6160     7.6960     5.5810     3.7690
 2766.5000    77.6260     8.0880     2.5390     0.0880   -25.2360     7.4040     5.6320     3.6920
 2767.0000    77.1410     8.0970     2.5330     0.0980   -25.1560     6.7680     5.6320     3.6160
 2767.5000    77.2600     8.1050     2.5260     0.0870   -25.3070     7.4500     5.5690     3.5590
 2768.0000    77.4100     8.1040     2.5180     0.0700   -25.3900     8.1320     5.5070     3.4980
 2768.5000    78.7980     8.1030     2.5250     0.0570   -25.4780     7.3120     5.4440     3.4510
 2769.0000    79.9770     8.1020     2.5280     0.0630   -24.8650     6.1170     5.4290     3.3990
 2769.5000    80.3780     8.1010     2.5250     0.0620   -24.7170     6.4140     5.3790     3.3990
 2770.0000    80.3730     8.1000     2.5080     0.0560   -24.9640     6.9730     5.3790     3.3590
 2770.5000    80.4600     8.1000     2.4940     0.0480   -25.2800     7.4870     5.3300     3.3030
 2771.0000    80.9680     8.0990     2.5040     0.0630   -25.3580     6.5190     5.1380     3.2470
 2771.5000    81.4750     8.0980     2.5160     0.0800   -25.4520     5.7900     5.1380     3.1870
 2772.0000    81.8690     8.0970     2.5290     0.0980   -25.4760     6.0620     5.1850     3.2090
 2772.5000    81.5480     8.0960     2.5390     0.1120   -25.2890     6.7680     5.1850     3.2170
 2773.0000    81.5440     8.0950     2.5510     0.1190   -25.5160     6.0620     5.1380     3.1580
 2773.5000    81.7890     8.0940     2.5550     0.1170   -25.3170     6.1740     5.0910     3.1010
 2774.0000    79.9860     8.0930     2.5490     0.1130   -25.6960     5.4790     5.1850     3.0820
 2774.5000    78.1660     8.0920     2.5450     0.1110   -25.7480     6.1740     5.1850     3.0720
 2775.0000    77.7950     8.0910     2.5450     0.1100   -25.6710     6.0060     5.1380     3.0720
 2775.5000    79.4150     8.0900     2.5450     0.1090   -25.6940     6.5840     5.1070     3.0430
 2776.0000    81.0000     8.0890     2.5440     0.1080   -25.4650     6.3460     5.0420     3.0110
 2776.5000    82.5930     8.0880     2.5430     0.1130   -25.2860     6.1740     4.9780     2.9790
 2777.0000    84.2430     8.0870     2.5390     0.1150   -24.9990     6.3460     4.9140     2.9470
 2777.5000    84.5960     8.0860     2.5380     0.1130   -25.3350     6.0060     4.8630     2.8910
 2778.0000    84.8190     8.0860     2.5350     0.1110   -24.8750     5.0450     4.7310     2.8100
 2778.5000    85.0250     8.0890     2.5230     0.0960   -24.7190     6.5240     4.6440     2.7300
 2779.0000    85.2310     8.0910     2.5110     0.0790   -24.8330     5.5520     4.5600     2.6670
 2779.5000    85.4750     8.0930     2.4980     0.0700   -25.1630     5.1850     4.4360     2.5990
 2780.0000    86.6760     8.0950     2.4900     0.0650   -25.2940     4.9990     4.4360     2.5310
 2780.5000    87.8950     8.0980     2.4870     0.0620   -25.3310     4.8180     4.3950     2.4870
 2781.0000    88.3600     8.1000     2.4840     0.0620   -25.8640     5.1850     4.3150     2.4420
 2781.5000    88.2500     8.1020     2.4830     0.0610   -25.8380     5.7900     4.3550     2.4300
 2782.0000    88.1310     8.1050     2.4830     0.0640   -25.0640     5.2820     4.4360     2.4160
 2782.5000    88.9450     8.1070     2.4840     0.0650   -25.4070     5.8970     4.4360     2.4020
 2783.0000    90.1730     8.1090     2.4870     0.0660   -25.0800     5.6320     4.3550     2.3880
 2783.5000    90.9170     8.1110     2.4910     0.0740   -25.2170     6.1170     4.2690     2.3540
 2784.0000    91.5290     8.1140     2.4960     0.0850   -25.7070     4.9530     4.1880     2.3130
 2784.5000    92.1320     8.1160     2.5000     0.0950   -25.6370     4.8160     4.1070     2.2700
 2785.0000    92.7290     8.1180     2.5040     0.1030   -25.5380     4.6870     4.0470     2.2380
 2785.5000    92.4170     8.1210     2.5070     0.1000   -25.7170     4.6440     4.0100     2.1950
 2786.0000    90.9340     8.1230     2.5080     0.1010   -25.7540     5.1380     4.0100     2.1670
 2786.5000    89.5990     8.1250     2.5090     0.1180   -25.5010     4.8630     3.9730     2.1590
 2787.0000    90.5140     8.1270     2.5100     0.1270   -25.5030     5.1850     3.9860     2.1400
 2787.5000    91.0870     8.1300     2.5100     0.1150   -25.2980     4.8180     4.0160     2.1210
 2788.0000    90.7430     8.1320     2.5140     0.1040   -25.1340     5.3300     4.0470     2.1020
 2788.5000    92.2400     8.1340     2.5280     0.1120   -25.1010     4.4360     4.0100     2.0830
 2789.0000    91.8560     8.1370     2.5380     0.1350   -25.1000     5.0070     3.9370     2.0700
 2789.5000    91.4280     8.1390     2.5380     0.1400   -25.2130     5.4540     3.9010     2.0390
 2790.0000    92.2500     8.1410     2.5370     0.1430   -24.9300     4.4360     3.8650     2.0160
 2790.5000    92.5700     8.1440     2.5310     0.1400   -25.3220     4.7310     3.7950     1.9940
 2791.0000    92.8130     8.1640     2.5300     0.1370   -25.3400     4.4770     3.8300     1.9770
 2791.5000    92.9580     8.2340     2.5290     0.1340   -25.4550     4.8450     3.8300     1.9230
 2792.0000    94.7250     8.3050     2.5220     0.1200   -25.2690     5.2820     3.7670     1.9110
 2792.5000    95.9680     8.3220     2.5080     0.0830   -25.4690     3.9010     3.7070     1.8990
 2793.0000    95.2110     8.3480     2.4930     0.0700   -25.7050     4.2700     3.6580     1.8860
 2793.5000    95.0700     8.2260     2.4790     0.0610   -25.7020     4.4360     3.6630     1.8740
 2794.0000    95.0080     8.1860     2.4750     0.0570   -25.7600     4.1220     3.6690     1.8710
 2794.5000    96.1820     8.2820     2.4890     0.0750   -25.3310     4.6870     3.6750     1.8710
 2795.0000    97.4370     8.2800     2.4830     0.0860   -25.8330     4.7310     3.6810     1.8710
 2795.5000    98.2820     8.2240     2.4730     0.0800   -25.8880     4.3980     3.6870     1.8710
 2796.0000    98.2080     8.2270     2.4670     0.0810   -25.9810     4.0470     3.6920     1.8710
 2796.5000    98.0520     8.3060     2.4740     0.1000   -25.0450     4.6020     3.6570     1.8630
 2797.0000    97.9010     8.2740     2.4820     0.1000   -25.8250     4.2370     3.6160     1.8290
