~VERSION INFORMATION
 VERS.                2.0:   CWLS LOG ASCII STANDARD - VERSION 2.0
 WRAP.                 NO:   ONE LINE PER DEPTH STEP
~WELL INFORMATION
#MNEM.UNIT      DATA TYPE    INFORMATION
#----------   ------------   ------------------------------
 STRT.F          216.0000:   START DEPTH
 STOP.F         3241.0000:   STOP DEPTH
 STEP.F            0.5000:   STEP LENGTH
 NULL.          -999.2500:   NO VALUE
 COMP.    FENIX & SCISSON:   COMPANY
 WELL.    FENIX "A" #72-4:   WELL
 FLD .             NPR #3:   FIELD
 LOC .       S4 T38N R78W:   LOCATION
 CNTY.            NATRONA:   COUNTY
 STAT.            WYOMING:   STATE
 CTRY. UNITED STATES OF AMERICA:   COUNTRY
 SRVC.              WELEX:   SERVICE COMPANY
 DATE.        09-JUL-1977:   LOGDATE
 API .     49025103900000:   API NUMBER
~CURVE INFORMATION
#MNEM.UNIT       API CODE    CURVE DESCRIPTION
#----------   ------------   ------------------------------
 DEPT.F                  :   
 CORR.G/C3   45 356 01 00:   DENSITY CORRECTION
 GRD .GAPI   45 310 01 00:   GAMMA RAY FROM DENSITY LOG
 RHOB.G/C3   45 350 01 00:   BULK DENSITY
 CALD.IN     45 280 60 00:   CALIPER FROM DENSITY LOG
 SPR .MV     07 010 01 00:   SPONTANEOUS POTENTIAL
 ILD .OHMM   07 120 46 00:   DEEP INDUCTION RESISTIVITY
 ILM .OHMM   07 120 44 00:   INDUCTION LOG MEDIUM RESISTIVITY
 SGRD.OHMM   07 220 05 00:   SHALLOW SHORT GUARD RESISTIVITY
~PARAMETER INFORMATION
#MNEM.UNIT          VALUE    DESCRIPTION
#----------   ------------   ------------------------------
 EKB .F         5192.0000:   Kelly bushing
 EGL .F         5182.0000:   Ground level
 TD  .F         3243.0000:   Total depth
 CLNT.            A2DTECH:   Client Code
 SL  . 990' FNL & 990' FEL:   Surface Location
 PD  .                 GL:   Permanent Datum
 EPD .F              5182:   Elevation Permanent Datum
 LMF .                 KB:   Log Measured From
 DMF .                 KB:   Drilling Measured From
 DAPD.F                10:   Feet Above Permanent Datum
 DATE.        09-JUL-1977:   Date Logged [DD-MMM-YYYY]
 DD  .F              3230:   Depth driller
 DL  .F              3243:   Depth logger
 BLI .F              3241:   Bottom log interval
 TLI .F               224:   Top log interval
 CS1 .IN            8.625:   Casing size
 CBD1.      8.625" @ 221':   Casing driller 1
 CBL1.F               224:   Casing logger 1
 BS1 .IN            7.875:   Bit size
 BSD1.F              3230:   Depth drilled with bit1
 DFT .                KCL:   Type fluid in hole
 DFD .                8.9:   Density
 DFV .                 44:   Viscosity
 DFPH.                7.5:   pH
 DFL .                5.8:   Fluid loss
 MSS .            MUD PIT:   Source of sample
 RMS .OHMM           0.24:   Rm
 MST .F                68:   Rm Meas. temp.
 RMF .OHMM           0.20:   Rmf
 MFST.F                68:   Rmf Meas. temp.
 MFSS.               MEAS:   Source Rmf.
 RMC .OHMM           0.31:   Rmc
 MCST.F                68:   Rmc Meas. temp.
 MCSS.               MEAS:   Source Rmc.
 RMB .OHMM           0.13:   Rm. at BHT
 BHT .F               117:   BHT.
 TCS .HRS               3:   Time Circ. stopped
 MRT .F               117:   Maximum recorded temp.
 LUN .               8766:   Logging unit number
 LUL .             CASPER:   Logging unit location
 ENGI.          T. JOYNER:   Recorded By
 WITN.         HARRINGTON:   Witnessed by
 ORIG.           5" PRINT:   Origin of data
 UWI .     49025103900000:   Unique Well ID
 DICO. A2D TECHNOLOGIES, INC.:   Digitizing Company
~OTHER INFORMATION
~A   DEPT     CORR         GRD        RHOB     CALD        SPR        ILD        ILM       SGRD   
  216.0000  -999.2500    66.9986     2.0333  -999.2500  -999.2500  -999.2500  -999.2500  -999.2500
  216.5000  -999.2500    68.2743     2.0317     8.6868  -999.2500  -999.2500  -999.2500  -999.2500
  217.0000    -0.2889    70.6508     2.0220     8.7021  -999.2500  -999.2500  -999.2500  -999.2500
  217.5000    -0.2744    70.0170     2.0168     8.7179  -999.2500  -999.2500  -999.2500  -999.2500
  218.0000    -0.2645    70.0287     2.0199     8.7339  -999.2500  -999.2500  -999.2500  -999.2500
  218.5000    -0.2558    73.4681     2.0289     8.7198  -999.2500  -999.2500  -999.2500  -999.2500
  219.0000    -0.2423    76.6094     2.0455     8.7207  -999.2500  -999.2500  -999.2500  -999.2500
  219.5000    -0.2325    79.1545     2.0590     8.7365  -999.2500  -999.2500  -999.2500  -999.2500
  220.0000    -0.2257    81.9978     2.0741     8.7523  -999.2500  -999.2500  -999.2500  -999.2500
  220.5000    -0.2145    84.6920     2.0989     8.7681  -999.2500  -999.2500  -999.2500  -999.2500
  221.0000    -0.1583    87.3862     2.1529     8.7540  -999.2500  -999.2500  -999.2500  -999.2500
  221.5000    -0.0984    89.6394     2.2459     8.7848  -999.2500  -999.2500  -999.2500  -999.2500
  222.0000    -0.0259    92.4392     2.4431     8.8175  -999.2500  -999.2500  -999.2500  -999.2500
  222.5000     0.0597    95.9189     2.4634     8.8935  -999.2500  -999.2500  -999.2500  -999.2500
  223.0000     0.1293    98.8420     2.3338     9.2354  -999.2500  -999.2500  -999.2500  -999.2500
  223.5000     0.1099    99.9978     2.3038    10.0124  -999.2500  -999.2500  -999.2500  -999.2500
  224.0000     0.0800   101.3612     2.2626    10.7446    -9.8422  -999.2500     8.0711  -999.2500
  224.5000     0.0606   101.6267     2.2874    11.3574   -22.8018     0.9798     8.5345  -999.2500
  225.0000     0.0374   101.4893     2.3699    12.3434   -27.5708     3.1898     8.9623  -999.2500
  225.5000     0.0285   102.3981     2.4090    12.4338   -26.6766     6.1701     9.2888  -999.2500
  226.0000     0.0248   104.3442     2.4143    12.4794   -21.9076     7.5489     9.5484  -999.2500
  226.5000     0.0241   103.7598     2.4038    12.4654   -14.3070     7.4479     9.8210  -999.2500
  227.0000     0.0234   104.0724     2.4091    12.4663    -6.2593     7.8092     9.8256  -999.2500
  227.5000     0.0234   104.6802     2.4182    12.4672    -1.0432    11.7862     9.6952  -999.2500
  228.0000     0.0235   103.6486     2.4302    12.4384    -2.2355    14.1229     9.5653  -999.2500
  228.5000     0.0258   103.0641     2.4423    12.4392    -0.5961    14.5263     9.3743  -999.2500
  229.0000     0.0288   102.3070     2.4513    12.4401     0.0000    14.2328     9.1861  -999.2500
  229.5000     0.0326   101.8698     2.4604    12.4410     0.0000    13.2838     9.0016  -999.2500
  230.0000     0.0326   100.8665     2.4477    12.4419     0.0000    12.7471     8.8208  -999.2500
  230.5000     0.0274   102.6665     2.4350    12.4577    -7.6720    12.7380     8.6378  -999.2500
  231.0000     0.0237   103.1253     2.4215    12.4735   -24.7392    12.8463     8.4126  -999.2500
  231.5000     0.0223   104.7763     2.4155    12.5042   -30.4024    12.1441     8.1869  -999.2500
  232.0000     0.0208   107.1724     2.4149    12.5349   -37.2578    10.4401     8.0224  -999.2500
  232.5000     0.0194   108.6744     2.4240    12.5657   -48.7332     7.4857     7.8071  -999.2500
  233.0000     0.0179   108.2390     2.4285    12.5966   -56.0358     6.9866     7.6503  -999.2500
  233.5000     0.0180   107.9165     2.4293    12.6124   -61.2519     6.7044     7.4958  -999.2500
  234.0000     0.0165   109.3095     2.4219    12.6282   -66.9151     6.5682     7.2955  -999.2500
  234.5000     0.0166   110.5256     2.4114    12.6738   -66.7660     6.4361     7.0997  -999.2500
  235.0000     0.0166   109.6298     2.4047    12.7195   -65.8718     6.3936     6.9091  -999.2500
  235.5000     0.0159   109.0424     2.3995    12.7502   -63.7854     6.4413     6.8174  -999.2500
  236.0000     0.0145   110.2492     2.3936    12.8108   -64.6796     6.4440     6.9165  -999.2500
  236.5000     0.0108   109.9599     2.3784    12.8714   -67.3681     6.5368     7.2131  -999.2500
  237.0000     0.0086   110.8686     2.3688    12.9319   -67.9722     6.6314     7.5224  -999.2500
  237.5000     0.0064   109.3899     2.3675    12.9925   -68.1073     6.7268     7.8450  -999.2500
  238.0000     0.0049   107.9084     2.3676    13.0533   -67.6602     6.8712     8.0690  -999.2500
  238.5000     0.0035   109.4132     2.3676    13.0989   -66.6170     7.0186     8.2422  -999.2500
  239.0000     0.0035   107.4875     2.3699    13.1446   -65.4247     7.1196     8.4775  -999.2500
  239.5000     0.0036   106.4441     2.3775    13.1753   -64.3815     7.2220     8.6594  -999.2500
  240.0000     0.0066   105.0671     2.3940    13.2359   -63.6364     7.3260     8.7842  -999.2500
  240.5000     0.0104   103.5015     2.4016    13.2517   -63.1893     7.4314     8.9172  -999.2500
  241.0000     0.0142   101.7248     2.4054    13.2973   -64.9776     7.4904     8.9781  -999.2500
  241.5000     0.0150   100.9913     2.4046    13.3430   -62.8912     7.5414     8.9193  -999.2500
  242.0000     0.0158   100.8510     2.4017    13.3906   -59.7616     7.4404     8.6809  -999.2500
  242.5000     0.0150   100.4184     2.4070    13.4517   -56.9300     7.4442     8.4469  -999.2500
  243.0000     0.0143   100.2782     2.3913    13.5100   -56.0358     7.5513     8.2783  -999.2500
  243.5000     0.0129   100.5908     2.3779    13.5407   -59.9662     7.6070     8.2822  -999.2500
  244.0000     0.0099   100.6024     2.3757    13.5715   -68.3697     7.6631     8.4016  -999.2500
  244.5000     0.0085   100.9121     2.3757    13.6022   -75.2608     7.7196     8.5819  -999.2500
  245.0000     0.0070   101.0830     2.3750    13.6478   -76.7511     7.7765     8.7056  -999.2500
  245.5000     0.0071   101.7049     2.3751    13.6786   -77.0492     7.8339     8.8312  -999.2500
  246.0000     0.0094   102.2913     2.3766    13.6944   -75.8569     7.8371     9.0216  -999.2500
  246.5000     0.0094   101.8559     2.3782    13.7102   -76.7511     7.8410     9.0259  -999.2500
  247.0000     0.0087   101.8675     2.3892    13.7260   -76.3040     7.8442     9.0302  -999.2500
  247.5000     0.0088   102.1772     2.4023    13.7269   -75.2608     7.8474     9.0344  -999.2500
  248.0000     0.0066   102.7850     2.4053    13.7428   -74.2176     7.7955     8.9753  -999.2500
  248.5000     0.0044   102.4986     2.3994    13.7586   -73.3234     7.7994     8.8562  -999.2500
  249.0000     0.0029   101.6131     2.3950    13.7595   -72.7273     7.8026     8.7386  -999.2500
  249.5000     0.0015   103.1180     2.4010    13.7604   -72.5782     7.8057     8.6235  -999.2500
  250.0000     0.0015   102.8316     2.4026    13.7613   -73.1744     7.7549     8.6276  -999.2500
  250.5000     0.0024   102.2471     2.3996    13.7621   -74.2662     7.7044     8.7521  -999.2500
  251.0000     0.0046   102.5568     2.3997    13.7630   -76.1312     7.6542     8.7572  -999.2500
  251.5000     0.0069   102.2704     2.4020    13.7340   -76.2331     7.6043     8.7613  -999.2500
  252.0000     0.0099   102.5830     2.4058    13.7508   -74.1505     7.6082     8.7654  -999.2500
  252.5000     0.0092   102.7437     2.3926    13.7657   -71.8303     7.5064     8.7696  -999.2500
  253.0000     0.0093   102.0102     2.3819    13.7817   -69.5091     7.5094     8.7737  -999.2500
  253.5000     0.0085   101.2767     2.3774    13.7975   -67.3808     7.5124     8.7779  -999.2500
  254.0000     0.0078   101.1364     2.3812    13.8431   -65.5197     7.5155     8.7215  -999.2500
  254.5000     0.0064   102.4923     2.3835    13.8589   -63.5680     7.5185     8.6651  -999.2500
  255.0000     0.0049   103.2491     2.3746    13.8747   -62.2239     7.5216     8.6702  -999.2500
  255.5000     0.0035   102.9627     2.3769    13.8905   -60.6337     7.5248     8.6743  -999.2500
  256.0000     0.0035   103.0104     2.3844    13.8914   -62.1572     7.6337     8.6185  -999.2500
