~VERSION INFORMATION
 VERS.                2.0:   CWLS LOG ASCII STANDARD - VERSION 2.0
 WRAP.                 NO:   ONE LINE PER DEPTH STEP
~WELL INFORMATION
#MNEM.UNIT      DATA TYPE    INFORMATION
#----------   ------------   ------------------------------
 STRT.F           10.0000:   START DEPTH
 STOP.F         5812.0000:   STOP DEPTH
 STEP.F            0.5000:   STEP LENGTH
 NULL.          -999.2500:   NO VALUE
 COMP. LAWRENCE - ALLSISON:   COMPANY
 WELL. LAWRENCE "X" #11-11:   WELL
 FLD .              NPR 3:   FIELD
 LOC .      S11 T38N R78W:   LOCATION
 CNTY.            NATRONA:   COUNTY
 STAT.            WYOMING:   STATE
 CTRY. UNITED STATES OF AMERICA:   COUNTRY
 SRVC.      DRESSER ATLAS:   SERVICE COMPANY
 DATE.        12-NOV-1982:   LOGDATE
 API .     49025109160000:   API NUMBER
~CURVE INFORMATION
#MNEM.UNIT       API CODE    CURVE DESCRIPTION
#----------   ------------   ------------------------------
 DEPT.F                  :   
 TEND.LBS    45 635 01 00:   TENSION FROM DENSITY LOG
 CALD.IN     45 280 60 00:   CALIPER FROM DENSITY LOG
 CORR.G/C3   45 356 01 00:   DENSITY CORRECTION
 RHOB.G/C3   45 350 01 00:   BULK DENSITY
 CN  .DEC    42 890 03 00:   COMPENSATED NEUTRON POROSITY SANDSTONE
 AC  .US/F   60 520 00 00:   ACOUSTIC
 TENS.LBS    60 635 01 00:   TENSION FROM SONIC
 GRR .GAPI   11 310 01 00:   GAMMA RAY FROM RESISTIVITY
 RD  .OHMM   11 220 10 00:   RESISTIVITY DEEP
 RMLL.OHMM   11 270 04 00:   RESISTIVITY MICROLATEROLOG
 RS  .OHMM   11 220 09 00:   RESISTIVITY SHALLOW
 SPR .MV     11 010 01 00:   SPONTANEOUS POTENTIAL FROM RESISTIVITY
 TENR.LBS    11 635 01 00:   TENSION FROM RESISTIVITY
~PARAMETER INFORMATION
#MNEM.UNIT          VALUE    DESCRIPTION
#----------   ------------   ------------------------------
 EKB .F         5160.0000:   Kelly bushing
 EGL .F         5150.0000:   Ground level
 EDF .F            0.0000:   Drilling floor
 TD  .F         5800.0000:   Total depth
 CLNT.            A2DTECH:   Client Code
 SL  . 660' FNL & 660' FWL:   Surface Location
 PD  .                 GL:   Permanent Datum
 EPD .F              5150:   Elevation Permanent Datum
 LMF .                 KB:   Log Measured From
 DMF .                 KB:   Drilling Measured From
 DAPD.F                10:   Feet Above Permanent Datum
 DATE.        12-NOV-1982:   Date Logged [DD-MMM-YYYY]
 DD  .F              5800:   Depth driller
 DL  .F              5795:   Depth logger
 BLI .F              5702:   Bottom log interval
 TLI .F                 0:   Top log interval
 CS1 .IN            9.625:   Casing size
 CBD1.      9.625" @ 664':   Casing driller 1
 CBL1.F               660:   Casing logger 1
 BS1 .IN             8.75:   Bit size
 BSD1.F              5800:   Depth drilled with bit1
 DFT .                KCL:   Type fluid in hole
 DFD .                8.6:   Density
 DFV .                 45:   Viscosity
 DFPH.                8.5:   pH
 DFL .                7.8:   Fluid loss
 MSS .           FLOWLINE:   Source of sample
 RMS .OHMM           0.32:   Rm
 MST .F                92:   Rm Meas. temp.
 RMF .OHMM           0.26:   Rmf
 MFST.F                90:   Rmf Meas. temp.
 MFSS.               MEAS:   Source Rmf.
 RMB .OHMM           0.19:   Rm. at BHT
 BHT .F               160:   BHT.
 TCS .HRS               3:   Time Circ. stopped
 MRT .F               160:   Maximum recorded temp.
 LUN .               6270:   Logging unit number
 LUL .              WLSTN:   Logging unit location
 ENGI.            QUICKEL:   Recorded By
 WITN.             STRONG:   Witnessed by
 ORIG.        2" 5" PRINT:   Origin of data
 UWI .     49025109160000:   Unique Well ID
 DICO. A2D TECHNIOLOGIES,INC.:   Digitizing Company
 RMC .OHMM           0.40:   Rmc
 MCST.F                92:   Rmc Meas. temp.
 MCSS.               CALC:   Source Rmc.
~OTHER INFORMATION
~A  DEPTH     TEND       CALD       CORR       RHOB         CN         AC       TENS        GRR         RD       RMLL         RS        SPR       TENR
# ...
 4066.0000   -32.6772     9.7409    -0.0111     2.6095     0.2219    76.5223   -53.8889    83.8918     8.3412    10.0232     8.3456   -45.0783   -71.6725
 4066.5000   -25.1261     9.7417     0.0025     2.6013     0.2183    76.0727   -49.8782    87.4895     7.8351     8.0400     7.8058   -45.0798   -71.7646
 4067.0000   -21.3232     9.6976     0.0023     2.5990     0.2123    73.5116   -45.8677    89.2853     8.2791     7.8186     7.9121   -45.3825   -75.6034
 4067.5000   -21.2684     9.6668     0.0022     2.6054     0.1819    70.7242   -38.1006    87.9568     8.9320     8.4362     8.4775   -45.3840   -75.6777
 4068.0000   -24.9625     9.6394     0.0022     2.6185     0.1727    69.4451   -30.3303    83.3267     9.3084     9.1659     9.0832   -45.3855   -71.9857
 4068.5000   -32.4033     9.6852     0.0051     2.6163     0.1737    69.0709   -22.5103    77.8547     9.4357     9.4221     9.4659   -45.3873   -68.2944
 4069.0000   -36.0966     9.7159     0.0111     2.6095     0.1746    68.9231   -18.4996    74.5455     9.4331     9.2906     9.4627   -45.3888   -64.6030
 4069.5000   -28.5319     9.7466     0.0170     2.6035     0.1749    69.0769   -14.4890    72.7378     9.5779     9.5498     9.4595   -45.5409   -64.6952
 4070.0000   -20.9808     9.7474     0.0217     2.6065     0.1735    70.2261   -21.7397    73.0321     9.8280     9.6142     9.7223   -45.6930   -64.7590
 4070.5000    -9.6817     9.7482     0.0439     2.6125     0.1639    70.7420   -28.9903    73.9271    10.1006     9.7459     9.6518   -45.6945   -64.8426
 4071.0000    -5.8788     9.7490     0.0589     2.6155     0.1486    70.1424   -28.7334    74.8236    10.0979    10.3710     9.8514   -45.8465   -64.9163
 4071.5000    -2.0758     9.7500     0.0573     2.6192     0.1465    68.3354   -28.4765    74.8162    10.3787    10.5137    10.2665   -45.9986   -64.9900
 4072.0000    -2.0211     9.7508     0.0467     2.6290     0.1357    65.3217   -28.2197    73.6091    11.5116    10.8400    11.2227   -46.3013   -65.0602
 4072.5000    -5.7159     9.7516     0.0376     2.6350     0.1150    61.5540   -27.9628    69.6993    14.0681    13.6750    13.6328   -46.7546   -65.1374
 4073.0000   -13.1559     9.7524     0.0329     2.6350     0.1045    54.3171   -27.7027    63.3870    15.2830    16.6001    15.0178   -47.0573   -65.2108
 4073.5000   -16.8492     9.7532     0.0284     2.6207     0.1066    51.4543   -27.4399    60.3781    15.7091    17.0642    15.3284   -47.3600   -65.2861
 4074.0000   -20.5426     9.7540     0.0058     2.6139     0.1134    47.3094   -27.1279    57.9698    16.1448    16.5934    15.5385   -47.5121   -65.3614
 4074.5000   -20.4741     9.7548    -0.0048     2.6140     0.1280    47.6141   -26.9145    59.7657    15.6995    16.5900    15.7502   -47.5136   -72.9807
 4075.0000   -24.1811     9.7556     0.0011     2.6147     0.1528    52.2173   -26.6516    61.5616    14.7468    15.2630    12.7862   -47.5151   -73.0422
 4075.5000   -24.1126     9.7566     0.0101     2.6004     0.1881    59.4601   -30.1110    67.9302    11.0879    10.3515     9.1625   -47.5166   -73.1175
 4076.0000   -16.5616     9.7424     0.0069     2.5898     0.2306    79.6742   -33.6336    88.0689     7.2451     7.0205     6.7975   -47.5183   -73.2018
 4076.5000   -12.7587     9.7283    -0.0006     2.5831     0.2496    79.7526   -37.1049    95.2314     6.1570     6.4144     6.1238   -47.5196   -73.2681
 4077.0000   -16.4520     9.7290    -0.0082     2.5778     0.2376    76.4954   -40.6017    97.2721     5.9458     6.1094     6.0374   -47.5213   -73.3493
 4077.5000   -20.1454     9.7448    -0.0203     2.5733     0.2144    74.2540   -40.3448    94.8638     6.2828     6.3853     6.0901   -47.4464   -77.1880
 4078.0000   -23.8387     9.7306    -0.0354     2.5756     0.1964    74.0299   -40.0901    86.7498     6.9687     7.3631     6.9786   -47.3735   -81.0268
 4078.5000   -16.2856     9.7464    -0.0435     2.5778     0.1907    75.5419   -43.5811    81.9391     7.8372     9.5134     7.6345   -47.3751   -77.3343
 4079.0000    -1.2267     9.7474    -0.0356     2.5763     0.1893    76.2990   -43.8814    80.7320     7.9449    10.4082     7.8466   -47.3766   -73.5396
 4079.5000     6.3243     9.7631    -0.0297     2.5732     0.1890    77.6595   -46.8248    86.1315     7.3596     8.6302     7.4722   -47.2271   -65.7689
 4080.0000    -1.1171     9.7639    -0.0117     2.5627     0.1894    80.2265   -46.5037    89.1285     6.6317     6.9603     6.7316   -47.2290   -62.4963
 4080.5000   -12.3067     9.7647    -0.0027     2.5371     0.1930    83.3969   -46.2468    90.3238     6.6299     6.7223     6.5000   -47.0798   -62.5884
 4081.0000   -16.0138     9.7655    -0.0043     2.5055     0.2000    88.1510   -50.7433    83.1107     8.2724     8.8061    10.1988   -46.9307   -62.6622
 4081.5000   -15.9453     9.7663    -0.0224     2.4210     0.2152    94.2626   -53.3049    79.5012    10.5443    11.0668    11.0036   -46.9209   -62.7359
 4082.0000   -12.1424     9.7671    -0.1700     2.1559     0.2412    94.5194   -52.9837    78.8947     9.2206    10.9881     9.7765   -46.6325   -66.5746
 4082.5000    -8.3395     9.7681    -0.1475     2.0657     0.3331    90.5732   -52.7403    79.4893     5.4929     5.7667     6.9093   -46.4671   -66.6483
 4083.0000   -23.9984     9.6941     0.0887     2.0920     0.3603    85.0743   -52.4700    81.8858     4.5551     1.1576     4.7668   -46.3342   -62.9518
 4083.5000   -41.9493     9.6202     0.2015     2.1484     0.3549    81.1459   -52.2131    84.3002     3.9634     0.8512     4.0680   -46.3361   -59.2472
 4084.0000   -53.1389     9.5910     0.1578     2.2393     0.2860    78.8181   -51.9349    87.0505     3.9093     1.1074     3.8543   -46.0954   -55.5723
 4084.5000   -49.3360     9.5919     0.0569     2.4055     0.2632    78.2170   -51.6892    90.0182     4.1306     2.1240     4.0446   -45.7366   -59.4130
 4085.0000   -38.0369     9.5927     0.0011     2.5084     0.2419    77.8436   -47.6887    92.6715     5.9195     4.3131     4.9440   -45.7381   -67.0181
 4085.5000   -41.7439     9.5935     0.0026     2.5611     0.2157    76.7153   -47.3677    94.7677     6.6118     6.1141     6.1705   -45.7396   -74.6235
 4086.0000   -45.4372     9.5945    -0.0020     2.5777     0.1972    74.6067   -43.3570    95.0635     6.7956     6.7064     6.5203   -45.5901   -78.4779
 4086.5000   -37.8725     9.5953    -0.0096     2.5859     0.1750    71.1406   -35.5926    94.4555     7.1803     7.1862     6.7481   -45.5919   -78.5515
 4087.0000   -30.3215     9.5961    -0.0187     2.5949     0.1665    69.5598   -31.5819    88.1433     7.9641     7.5943     7.4854   -46.0452   -78.6253
 4087.5000   -26.5180     9.5670    -0.0128     2.6032     0.1710    69.9399   -20.0638    78.2275     8.8335     8.9668     8.8380   -46.4985   -74.9155
 4088.0000   -22.7156     9.5526     0.0413     2.6122     0.1804    72.2053   -19.8070    74.0174     9.5963    13.4935     9.6018   -47.2530   -67.4775
 4088.5000   -11.4074     9.5386     0.0804     2.6068     0.1928    77.3364   -23.3038    74.6121     9.7075    14.7626     9.5970   -47.8656   -63.7862
 4089.0000    -0.1082     9.5395     0.0487     2.5987     0.2028    78.4706   -26.8018    77.0085     8.2358    12.1563     8.5658   -48.1596   -63.8598
 4089.5000    -7.5497     9.5403     0.0080     2.5964     0.2055    77.8408   -34.0514    85.4110     7.6296     8.9595     7.8153   -48.0108   -63.9335
 4090.0000   -11.2430     9.5413    -0.0072     2.5986     0.2022    74.7610   -33.7838    89.0087     7.4192     7.8525     7.4695   -47.8414   -64.0073
 4090.5000   -14.9363     9.5419    -0.0042     2.6016     0.1890    68.9025   -33.4734    88.7025     7.9103     7.8542     7.8930   -47.5617   -64.0813
 4091.0000   -18.6297     9.5428     0.0002     2.6001     0.1755    64.3806   -37.0344    87.1951     8.5161     8.6554     8.4570   -47.5635   -64.1566
 4091.5000   -22.3230     9.5436    -0.0104     2.5986     0.1584    65.2131   -36.7492    83.2853     8.7529     8.9517     9.0612   -47.2637   -64.2468
