~VERSION INFORMATION
 VERS.                2.0:   CWLS LOG ASCII STANDARD - VERSION 2.0
 WRAP.                 NO:   ONE LINE PER DEPTH STEP
~WELL INFORMATION
#MNEM.UNIT      DATA TYPE    INFORMATION
#----------   ------------   ------------------------------
 STRT.F          197.0000:   START DEPTH
 STOP.F         3238.5000:   STOP DEPTH
 STEP.F            0.5000:   STEP LENGTH
 NULL.          -999.2500:   NO VALUE
 COMP.    FENIX & SCISSON:   COMPANY
 WELL. FENIX 28 "A" #28-11:   WELL
 FLD .              NPR-3:   FIELD
 LOC .      S11 T38N R78W:   LOCATION
 CNTY.            NATRONA:   COUNTY
 STAT.            WYOMING:   STATE
 CTRY. UNITED STATES OF AMERICA:   COUNTRY
 SRVC.              WELEX:   SERVICE COMPANY
 DATE.        25-OCT-1977:   LOGDATE
 API .     49025104350000:   API NUMBER
~CURVE INFORMATION
#MNEM.UNIT       API CODE    CURVE DESCRIPTION
#----------   ------------   ------------------------------
 DEPT.F                  :   
 SPR .MV     07 010 01 00:   SPONTANEOUS POTENTIAL
 TENR.LBS    07 635 01 00:   TENSION FROM RESISTIVITY
 ILM .OHMM   07 120 44 00:   INDUCTION LOG MEDIUM RESISTIVITY
 SGRD.OHMM   07 220 05 00:   SHALLOW SHORT GUARD RESISTIVITY
 ILD .OHMM   07 120 46 00:   INDUCTION LOG DEEP RESISTIVITY
 GRD .GAPI   45 310 01 00:   GAMMA RAY FROM DENSITY LOG
 CALD.IN     45 280 60 00:   CALIPER FROM DENSITY LOG
 CORR.G/C3   45 356 01 00:   DENSITY CORRECTION
 RHOB.G/C3   45 350 01 00:   BULK DENSITY
~PARAMETER INFORMATION
#MNEM.UNIT          VALUE    DESCRIPTION
#----------   ------------   ------------------------------
 EKB .F         5211.0000:   Kelly bushing
 EGL .F         5201.0000:   Ground level
 EDF .F            0.0000:   Drilling floor
 EPD .F         5201.0000:   Permanent datum
 TD  .F         3235.0000:   Total depth
 CLNT.            A2DTECH:   Client Code
 SL  . 330' FSL & 990' FWL:   Surface Location
 PD  .                 GL:   Permanent Datum
 DAPD.F                10:   Feet Above Permanent Datum
 DATE.        25-OCT-1977:   Date Logged [DD-MMM-YYYY]
 DD  .F              3235:   Depth driller
 DL  .F              3231:   Depth logger
 BLI .F              3229:   Bottom log interval
 TLI .F               200:   Top log interval
 CS1 .IN            8.625:   Casing size
 CBD1.      8.625" @ 217':   Casing driller 1
 CBL1.F               217:   Casing logger 1
 BS1 .              7.875:   Bit size
 BSD1.IN             3235:   Depth drilled with bit1
 DFT .            KCL MUD:   Type fluid in hole
 DFD .                8.9:   Density
 DFV .                 35:   Viscosity
 DFPH.               11.5:   pH
 DFL .               16.4:   Fluid loss
 MSS .           FLOWLINE:   Source of sample
 RMS .OHMM           1.18:   Rm
 MST .F                74:   Rm Meas. temp.
 RMF .OHMM           1.74:   Rmf
 MFST.F                74:   Rmf Meas. temp.
 MFSS.               MEAS:   Source Rmf.
 MCSS.               MEAS:   Source Rmc.
 RMB .OHMM           1.15:   Rm. at BHT
 BHT .F               116:   BHT.
 TCS .HRS               3:   Time Circ. stopped
 MRT .F               116:   Maximum recorded temp.
 LUN .               8611:   Logging unit number
 LUL .             CASPER:   Logging unit location
 ENGI.            C. DOAK:   Recorded By
 WITN.      W. PETTINGILL:   Witnessed by
 ORIG.           5" PRINT:   Origin of data
 UWI .     49025104350000:   Unique Well ID
 DICO. A2D TECHNOLOGIES, INC.:   Digitizing Company
~OTHER INFORMATION
~A   DEPT      SPR       TENR        ILM       SGRD        ILD         GRD      CALD       CORR       RHOB   
# ...
 1803.0000   -84.5174  1354.8000     5.4933     7.4621     5.2356   119.3655    10.0557    -0.0040     2.5359
 1803.5000   -84.8396  1390.0000     5.4512     7.4077     5.2345   121.2165    10.0546    -0.0071     2.5329
 1804.0000   -84.5531  1430.0000     5.3721     7.4047     5.1974   122.1314    10.0535    -0.0086     2.5479
 1804.5000   -84.4139  1430.0000     5.3681     7.5049     5.1963   122.1103    10.0524    -0.0009     2.5569
 1805.0000   -85.0392  1430.0000     5.3641     7.5540     5.1594   121.1532    10.0513     0.0053     2.5654
 1805.5000   -85.2066  1422.2819     5.4351     7.6562     5.1942   119.2601    10.0659     0.0147     2.5770
 1806.0000   -85.2227  1408.5636     5.4310     7.7063     5.1929   118.3027    10.0647     0.0207     2.5860
 1806.5000   -85.0875  1394.8455     5.5851     7.7567     5.2282   118.5939    10.0635     0.0207     2.5838
 1807.0000   -85.1076  1381.1273     5.7315     7.8617     5.2634   119.8156    10.0624     0.0207     2.5778
 1807.5000   -85.2750  1390.0000     5.8478     7.8577     5.2989   121.1961    10.0613     0.0191     2.5717
 1808.0000   -85.2911  1430.0000     5.8853     7.8004     5.3346   122.5815    10.0602     0.0191     2.5648
 1808.5000   -85.0046  1430.0000     5.7987     7.6900     5.3333   123.4964    10.0592     0.0175     2.5537
 1809.0000   -84.8654  1430.0000     5.6750     7.4768     5.3692   123.4754    10.0580     0.0051     2.5417
 1809.5000   -84.8856  1430.0000     5.5926     7.2683     5.3681   121.8762    10.0567    -0.0135     2.5245
 1810.0000   -84.9017  1410.0000     5.5498     7.1172     5.3668   120.6553    10.0558    -0.0197     2.5207
 1810.5000   -84.9183  1410.0000     5.7036     7.1137     5.3657   119.6627    10.0546    -0.0228     2.5387
 1811.0000   -84.9379  1370.0000     5.7835     7.1609     5.3276   118.3936    10.0535    -0.0151     2.5506
 1811.5000   -85.1053  1370.0000     5.8537     7.2579     5.3265   117.7484    10.0590    -0.0104     2.5598
 1812.0000   -85.2727  1290.0000     5.8078     7.4580     5.2887   117.1033    10.0670    -0.0058     2.5649
 1812.5000   -85.1375  1320.0000     5.7633     7.6651     5.2150   116.4582    10.0658    -0.0043     2.5581
 1813.0000   -84.9983  1348.7428     5.7192     8.0418     5.2140   116.1248    10.0645    -0.0043     2.5536
 1813.5000   -84.8671  1370.0000     5.6362     8.2073     5.2129   117.3468    10.0635    -0.0043     2.5491
 1814.0000   -84.5807  1370.0000     5.5930     7.9247     5.2118   119.7298    10.0624    -0.0028     2.5468
 1814.5000   -84.9034  1368.9661     5.5889     7.5418     5.2105   121.9848    10.0613    -0.0028     2.5498
 1815.0000   -84.9195  1365.1633     5.5461     7.4391     5.2095   123.2118    10.0602    -0.0028     2.5591
 1815.5000   -84.9356  1361.3756     5.5410     7.6981     5.2084   124.4388    10.0592    -0.0028     2.5685
 1816.0000   -85.1030  1357.5774     5.5369     7.4847     5.2074   124.7297    10.0737    -0.0028     2.5647
 1816.5000   -85.2704  1353.7811     5.5723     7.2271     5.1704   124.7086    10.0723    -0.0075     2.5482
 1817.0000   -85.2865  1349.9849     5.6460     7.1743     5.1694   125.3115    10.0869    -0.0137     2.5295
 1817.5000   -85.3026  1346.1887     5.7196     7.2220     5.1327   124.9732    10.0859    -0.0215     2.5130
 1818.0000   -85.1478  1342.3925     5.7154     7.3190     5.0963   124.3281    10.0848    -0.0356     2.5070
 1818.5000   -84.8809  1338.5941     5.7111     7.3160     5.0950   122.7469    10.0836    -0.0370     2.5197
 1819.0000   -84.9011  1334.7688     5.4741     7.3103     5.0588   120.5417    10.0982    -0.0262     2.5287
 1819.5000   -84.9172  1330.8107     5.3946     7.2015     5.0578   118.6486    10.0971    -0.0200     2.5369
 1820.0000   -84.7820  1330.1888     5.3154     7.0578     5.0568   116.6925    10.1117    -0.0107     2.5466
 1820.5000   -84.4915  1369.9946     5.2382     7.0062     5.0558   114.5450    10.1103    -0.0045     2.5579
 1821.0000   -84.8142  1409.8210     5.1621     7.0034     5.0547   118.5801    10.1092     0.0048     2.5683
 1821.5000   -84.9818  1410.0000     5.2304     6.9522     5.0537   119.1883    10.1082     0.0094     2.5743
 1822.0000   -84.3925  1410.0000     5.3365     6.9494     5.0878   118.2259    10.1071     0.0078     2.5661
 1822.5000   -84.8665  1410.0000     5.4447     7.0435     5.1256   115.7087    10.1060    -0.0015     2.5585
 1823.0000   -85.0339  1391.9095     5.6328     7.2887     5.1566   114.1275    10.1049    -0.0046     2.5503
 1823.5000   -84.8987  1368.8442     5.7471     7.4911     5.1914   114.7305    10.1038    -0.0046     2.5435
 1824.0000   -84.0071  1373.8185     5.7828     7.5980     5.1901   116.5762    10.1025    -0.0046     2.5383
 1824.5000   -84.6284  1377.6698     5.6193     7.7480     5.2253   119.0205    10.1014    -0.0031     2.5337
 1825.0000   -84.6445  1381.5409     5.5377     7.7987     5.1880   121.8382    10.1004    -0.0016     2.5314
 1825.5000   -84.6611  1385.4453     5.4953     7.8497     5.1869   124.0012    10.0993     0.0002     2.5292
 1826.0000   -84.6807  1389.4224     5.4912     7.7916     5.1859   125.5402    10.0982     0.0015     2.5472
 1826.5000   -84.9994  1389.9009     5.4492     7.5234     5.1491   127.0792    10.0971     0.0031     2.5517
 1827.0000   -85.1668  1349.8761     5.4075     7.2143     5.1125   128.3287    10.0960     0.0030     2.5509
 1827.5000   -85.1829  1350.0000     5.2921     7.0143     5.0760   128.9249    10.0949     0.0046     2.5494
 1828.0000   -85.0477  1350.0000     5.2148     6.9631     5.0400   129.2000    10.0936     0.0030     2.5486
 1828.5000   -84.9022  1350.0000     5.1395     7.0574     5.0042   129.4883    10.0925     0.0030     2.5464
 1829.0000   -85.2315  1350.0000     5.0993     7.1035     5.0032   129.4664    10.0915     0.0014     2.5486
 1829.5000   -85.1000  1350.0000     5.0253     7.1500     4.9677   129.4418    10.0904     0.0014     2.5553
 1830.0000   -84.6623  1350.0000     5.0574     7.1464     4.9324   129.3645    10.0893     0.0014     2.5621
 1830.5000   -84.6784  1350.0000     5.0528     7.1438     4.8974   129.0889    10.0882     0.0014     2.5688
 1831.0000   -84.6945  1350.0000     5.0141     7.1406     4.8627   129.0630    10.0712     0.0014     2.5763
 1831.5000   -85.1645  1350.0000     5.0104     7.0885     4.8281   129.3539    10.0703    -0.0018     2.5809
 1832.0000   -84.7267  1350.0000     5.0066     7.0367     4.8270   129.6501    10.0692    -0.0018     2.5800
 1832.5000   -84.5915  1350.0000     5.0029     7.0338     4.7927   129.6237    10.0680    -0.0033     2.5762
 1833.0000   -84.6082  1350.0000     5.0340     7.0799     4.7917   129.6027    10.0513    -0.0049     2.5740
 1833.5000   -84.7790  1350.0000     5.0653     7.0209     4.7908   129.2699    10.0502    -0.0080     2.5710
 1834.0000   -84.7952  1350.0000     5.0959     6.7387     4.8233   129.0078    10.0491    -0.0096     2.5672
 1834.5000   -84.8113  1350.0000     5.0921     6.7828     4.8221   128.5790    10.0321    -0.0096     2.5634
 1835.0000   -84.8274  1350.0000     5.0883     6.9705     4.8211   127.9530    10.0312    -0.0112     2.5603
 1835.5000   -84.8435  1350.0000     5.0845     7.0655     4.8201   127.3084    10.0300    -0.0112     2.5574
 1836.0000   -84.8596  1350.0000     5.0456     6.8216     4.8191   126.2927    10.0290    -0.0112     2.5551
 1836.5000   -84.8757  1350.0000     4.9724     6.8663     4.8179   126.0176    10.0278    -0.0113     2.5529
 1837.0000   -84.5892  1350.0000     4.9343     7.0076     4.8170   125.9966    10.0268    -0.0160     2.5491
 1837.5000   -84.6093  1350.0000     4.9305     7.1024     4.7828   126.1440    10.0257    -0.0200     2.5424
 1838.0000   -84.7767  1350.0000     4.9949     7.1489     4.8821   127.2720    10.0246    -0.0240     2.5309
 1838.5000   -84.7928  1351.9285     5.0963     7.0959     4.9492   128.5429    10.0234    -0.0268     2.5243
 1839.0000   -84.6577  1354.4730     5.1637     7.0931     4.9826   129.6511    10.0222    -0.0268     2.5288
