~VERSION INFORMATION
 VERS.                2.0:   CWLS LOG ASCII STANDARD - VERSION 2.0
 WRAP.                 NO:   ONE LINE PER DEPTH STEP
~WELL INFORMATION
#MNEM.UNIT      DATA TYPE    INFORMATION
#----------   ------------   ------------------------------
 STRT.F          500.0000:   START DEPTH
 STOP.F         2517.0000:   STOP DEPTH
 STEP.F            0.5000:   STEP LENGTH
 NULL.          -999.2500:   NO VALUE
 COMP.    FENIX & SCISSON:   COMPANY
 WELL. FENIX & SCISSON SHX #46-33:   WELL
 FLD .  TEAPOT DOME NPR-3:   FIELD
 LOC .      S33 T39N R78W:   LOCATION
 CNTY.            NATRONA:   COUNTY
 STAT.            WYOMING:   STATE
 CTRY. UNITED STATES OF AMERICA:   COUNTRY
 SRVC.           BIRDWELL:   SERVICE COMPANY
 DATE.        04-APR-1979:   LOGDATE
 API .     49025107670000:   API NUMBER
~CURVE INFORMATION
#MNEM.UNIT       API CODE    CURVE DESCRIPTION
#----------   ------------   ------------------------------
 DEPT.F                  :   
 GRD .GAPI   45 310 01 00:   GAMMA RAY FROM DENSITY LOG
 CALD.IN     45 280 60 00:   CALIPER FROM DENSITY LOG
 CORR.G/C3   45 356 01 00:   DENSITY CORRECTION
 RHOB.G/C3   45 350 01 00:   BULK DENSITY
~PARAMETER INFORMATION
#MNEM.UNIT          VALUE    DESCRIPTION
#----------   ------------   ------------------------------
 EKB .F         5217.0000:   Kelly bushing
 EGL .F         5207.0000:   Ground level
 EDF .F            0.0000:   Drilling floor
 TD  .F         2630.0000:   Total depth
 CLNT.            A2DTECH:   Client Code
 SL  . 1955' FSL & 1970' FWL:   Surface Location
 PD  .                 GL:   Permanent Datum
 EPD .F              5207:   Elevation Permanent Datum
 LMF .                 KB:   Log Measured From
 DMF .                 KB:   Drilling Measured From
 DAPD.                 10:   Feet Above Permanent Datum
 DATE.        04-APR-1979:   Date Logged [DD-MMM-YYYY]
 DD  .F              2630:   Depth driller
 DL  .F              2517:   Depth logger
 BLI .F              2517:   Bottom log interval
 TLI .F               504:   Top log interval
 CS1 .              9.625:   Casing size
 CBD1.      9.625" @ 300':   Casing driller 1
 CBL1.IN              306:   Casing logger 1
 BS1 .IN            7.875:   Bit size
 BSD1.F              2630:   Depth drilled with bit1
 DFT .                OIL:   Type fluid in hole
 LUL .             CASPER:   Logging unit location
 ENGI.            ROLLINS:   Recorded By
 ORIG.           5" PRINT:   Origin of data
 UWI .     49025107670000:   Unique Well ID
 DICO. A2D TECHNOLOGIES ,INC.:   Digitizing Company
 WITN.              AMUND:   Witnessed by
~OTHER INFORMATION
~A   DEPT      GRD       CALD       CORR       RHOB   
# ...
 1157.0000    16.5519    11.2124     0.3499     2.5406
 1157.5000    15.9760    11.3332     0.4008     2.5879
 1158.0000    13.9067    11.2145     0.4130     2.6484
 1158.5000    15.4110    11.1706     0.3083     2.6530
 1159.0000    15.4257    11.1268     0.1674     2.5959
 1159.5000    16.0348    11.0976     0.1414     2.5652
 1160.0000    17.2382    11.0540     0.1477     2.5615
 1160.5000    16.8035    11.0700     0.1846     2.5608
 1161.0000    18.1592    11.1010     0.2292     2.5654
 1161.5000    17.8767    11.1469     0.3012     2.6227
 1162.0000    19.8231    11.1327     0.3320     2.6574
 1162.5000    21.4722    11.0442     0.1793     2.6003
 1163.0000    20.2983    10.9851     0.1091     2.5943
 1163.5000    17.0440    10.9714     0.1598     2.6127
 1164.0000    14.3841    10.9725     0.1738     2.6172
 1164.5000    13.8039    10.9436     0.1801     2.6179
 1165.0000    16.1966    10.9147     0.1818     2.6157
 1165.5000    19.3317    10.9307     0.1835     2.6106
 1166.0000    22.3182    10.9767     0.1883     2.6016
 1166.5000    24.4131    10.9928     0.1977     2.6085
 1167.0000    23.9426    10.9036     0.2025     2.6213
 1167.5000    20.3916    10.8750     0.2011     2.6221
 1168.0000    18.7955    10.8760     0.1998     2.6177
 1168.5000    18.5284    10.8771     0.1985     2.6163
 1169.0000    19.3145    10.8781     0.2116     2.6254
 1169.5000    20.1960    10.8792     0.2507     2.6398
 1170.0000    19.0220    10.8804     0.2802     2.6504
 1170.5000    22.6028    10.8815     0.2513     2.6545
 1171.0000    26.7780    10.8376     0.2316     2.6446
 1171.5000    25.7526    10.7937     0.2211     2.6544
 1172.0000    23.3899    10.7499     0.2182     2.6620
 1172.5000    22.0673    10.7357     0.2276     2.6555
 1173.0000    21.7812    10.7218     0.2416     2.6381
 1173.5000    23.2855    10.7078     0.2586     2.6460
 1174.0000    23.7459    10.6942     0.2145     2.6503
 1174.5000    20.9375    10.6800     0.1596     2.6045
 1175.0000    18.1290    10.6511     0.1659     2.5850
 1175.5000    17.9915    10.6371     0.1814     2.5866
 1176.0000    21.2788    10.6082     0.2290     2.5980
 1176.5000    21.5907    10.5943     0.2995     2.6417
 1177.0000    22.4969    10.5956     0.2829     2.6644
 1177.5000    23.7003    10.5966     0.2586     2.6735
 1178.0000    23.8771    10.5977     0.2313     2.6510
 1178.5000    23.5812    10.5987     0.2162     2.6420
 1179.0000    23.0015    10.5998     0.2517     2.6692
 1179.5000    21.9683    10.6158     0.2511     2.6874
 1180.0000    21.0897    10.6318     0.2282     2.6880
 1180.5000    20.8168    10.6028     0.2119     2.6574
 1181.0000    22.1912    10.5291     0.2020     2.6537
 1181.5000    21.8316    10.5134     0.2006     2.6538
 1182.0000    20.1217    10.5761     0.2008     2.6387
 1182.5000    19.5384    10.5472     0.2010     2.6305
 1183.0000    19.5568    10.4584     0.1982     2.6255
 1183.5000    19.4192    10.4445     0.2060     2.6399
 1184.0000    19.7348    10.4455     0.2246     2.6400
 1184.5000    16.6292    10.4465     0.2370     2.6393
 1185.0000    15.8972    10.4491     0.2509     2.6514
 1185.5000    15.9156    10.4935     0.3047     2.6635
 1186.0000    13.9987    10.5245     0.2865     2.6704
 1186.5000    15.6479    10.4357     0.2745     2.6719
 1187.0000    17.2971    10.4370     0.2685     2.6690
 1187.5000    16.5688    10.4381     0.2626     2.6684
 1188.0000    15.8369    10.4541     0.2445     2.6542
 1188.5000    20.9073    10.4701     0.2324     2.6399
 1189.0000    24.1910    10.4409     0.2418     2.6408
 1189.5000    26.5831    10.4722     0.2388     2.6371
 1190.0000    26.4492    10.5181     0.2361     2.6312
 1190.5000    24.2351    10.5641     0.2627     2.6606
 1191.0000    24.0931    10.5651     0.2750     2.6652
 1191.5000    24.7103    10.5359     0.2764     2.6462
 1192.0000    25.1749    10.5971     0.2583     2.6527
 1192.5000    25.4929    10.6281     0.2402     2.6624
 1193.0000    26.2724    10.5690     0.2220     2.6535
 1193.5000    25.3600    10.5401     0.2054     2.6491
 1194.0000    20.5128    10.5264     0.1979     2.6597
 1194.5000    19.4494    10.5275     0.1950     2.6620
 1195.0000    20.6565    10.5133     0.1999     2.6493
 1195.5000    21.1170    10.5296     0.2062     2.6434
 1196.0000    19.4972    10.5456     0.2140     2.6337
 1196.5000    16.6887    10.5616     0.2173     2.6157
 1197.0000    13.7317    10.5776     0.2175     2.6060
 1197.5000    12.1119    10.5786     0.2192     2.6030
 1198.0000    15.6928    10.6096     0.2377     2.6046
 1198.5000    23.1369    10.7005     0.2899     2.6423
 1199.0000    23.7423    10.8512     0.3039     2.6627
 1199.5000    19.4516    10.7924     0.2964     2.6545
 1200.0000    16.4945    10.8084     0.2446     2.6471
 1200.5000    13.6861    10.8398     0.2465     2.6494
 1201.0000    11.9177    10.8853     0.2530     2.6495
 1201.5000    11.9324    10.9313     0.2623     2.6472
 1202.0000    12.8387    11.0084     0.2812     2.6520
 1202.5000    17.1634    11.0546     0.2980     2.6618
 1203.0000    14.8007    11.1009     0.2705     2.6551
 1203.5000    14.3659    11.1022     0.2493     2.6486
 1204.0000    14.6814    11.0736     0.2757     2.6435
 1204.5000    18.8566    11.1651     0.2816     2.6499
 1205.0000    22.1402    11.3760     0.2695     2.6536
 1205.5000    22.8978    11.4818     0.2575     2.6454
 1206.0000    22.4667    11.3337     0.2652     2.6523
 1206.5000    17.1124    11.2452     0.3004     2.6653
 1207.0000    16.2553    11.0819     0.2792     2.6684
 1207.5000    14.8537    10.8886     0.2229     2.6534
 1208.0000    12.3387    10.7851     0.1940     2.6489
 1208.5000    11.5444    10.7266     0.1865     2.6332
 1209.0000    16.3176    10.6680     0.1928     2.5984
 1209.5000    19.0069    10.6394     0.2020     2.5478
 1210.0000    20.0616    10.7156     0.2265     2.5290
 1210.5000    19.1848    10.9415     0.2648     2.4973
 1211.0000    15.4847    11.0176     0.2712     2.4195
 1211.5000    14.9050    11.0377     0.2147     2.3374
 1212.0000    14.1768    11.1700     0.1493     2.2181
 1212.5000    13.2999    10.8570     0.0716     2.0586
 1213.0000    13.1623    10.9930     0.1203     2.0149
 1213.5000    12.7349    10.7252     0.2069     2.1967
 1214.0000    12.6003    10.8164     0.2321     2.2090
 1214.5000    18.8563    10.8323     0.2109     2.1992
 1215.0000    23.7744    10.7289     0.2064     2.1682
 1215.5000    24.2367    11.2096     0.2447     2.1517
 1216.0000    22.7517    10.3426     0.3027     2.1495
 1216.5000    21.8731    10.1942     0.3958     2.2238
 1217.0000    21.2858    10.3752     0.4539     2.2648
 1217.5000    20.4338    10.6460     0.4906     2.3096
 1218.0000    19.8505     9.8839     0.5000     2.3566
 1218.5000    19.2708     9.5409     0.5000     2.3763
 1219.0000    18.9883     9.7839     0.5000     2.3613
 1219.5000    19.4524     9.8600     0.5000     2.3766
 1220.0000    20.6557     9.8742     0.5000     2.5205
 1220.5000    21.7105     9.8160     0.5000     2.7068
 1221.0000    19.9421     9.8020     0.4990     2.7569
 1221.5000    17.2822     9.7883     0.4870     2.6722
 1222.0000    15.2166     9.8199     0.4367     2.5800
 1222.5000    14.6333     9.8362     0.4354     2.5802
 1223.0000    15.8403     9.8073     0.4538     2.5825
 1223.5000    16.7465     9.8539     0.4225     2.5111
 1224.0000    18.5442     9.9300     0.3748     2.4389
 1224.5000    19.4504    10.1260     0.3856     2.4594
 1225.0000    19.7623     9.8878     0.3872     2.5208
 1225.5000    22.9451     9.6196     0.3782     2.5664
 1226.0000    26.0644     9.5611     0.3936     2.6089
 1226.5000    26.1956     9.6836     0.4638     2.6317
 1227.0000    26.6596     9.8195     0.4944     2.6446
 1227.5000    27.2687     9.8645     0.5000     2.6538
 1228.0000    25.7974     9.8661     0.4535     2.6600
 1228.5000    20.3143     9.8525     0.3972     2.6321
 1229.0000    17.9479     9.8385     0.3836     2.6133
 1229.5000    19.1550     9.8099     0.3685     2.6058
