~VERSION INFORMATION
 VERS.                2.0:   CWLS LOG ASCII STANDARD - VERSION 2.0
 WRAP.                 NO:   ONE LINE PER DEPTH STEP
~WELL INFORMATION
#MNEM.UNIT      DATA TYPE    INFORMATION
#----------   ------------   ------------------------------
 STRT.F            5.0000:   START DEPTH
 STOP.F         5604.0000:   STOP DEPTH
 STEP.F            0.5000:   STEP LENGTH
 NULL.          -999.2500:   NO VALUE
 COMP.   LAWRENCE ALLISON:   COMPANY
 WELL. LAWRENCE 62 TPX #10-10:   WELL
 FLD .           NPR NO 3:   FIELD
 LOC .      S10 T38N R78W:   LOCATION
 CNTY.            NATRONA:   COUNTY
 STAT.            WYOMING:   STATE
 CTRY. UNITED STATES OF AMERICA:   COUNTRY
 SRVC.      DRESSER ATLAS:   SERVICE COMPANY
 DATE.        08-NOV-1985:   LOGDATE
 API .     49025110490000:   API NUMBER
~CURVE INFORMATION
#MNEM.UNIT       API CODE    CURVE DESCRIPTION
#----------   ------------   ------------------------------
 DEPT.F                  :   
 TEND.LBS    45 635 01 00:   TENSION FORM DENSITY LOG
 CNC .DEC    42 890 03 00:   NEUTRON POROSITY SANDSTONE
 CORR.G/C3   45 356 01 00:   DENSITY CORRECTION
 RHOB.G/C3   45 350 01 00:   BULK DENSITY
 TENR.LBS    11 635 01 00:   TENSION FROM RESISTIVITY
 GRR .GAPI   11 310 01 00:   GAMMA RAY FROM RESISTIVITY
 SPR .MV     11 010 01 00:   SPONTANEOUS POTENTIAL FROM RES.
 CALR.IN     11 280 01 00:   CALIPER FROM RESISTIVITY
 RD  .OHMM   11 220 10 00:   RESISTIVITY DEEP
 RS  .OHMM   11 220 09 00:   RESISTIVITY SHALLOW
 RMLL.OHMM   11 270 04 00:   MICRO LATEROLOG
 TENS.LBS    60 635 01 00:   TENSION FROM SONIC
 DT  .US/F   60 520 00 00:   DELTA TIME
~PARAMETER INFORMATION
#MNEM.UNIT          VALUE    DESCRIPTION
#----------   ------------   ------------------------------
 EKB .F         5167.0000:   Kelly bushing
 EGL .F         5155.0000:   Ground level
 EDF .F            0.0000:   Drilling floor
 TD  .F         5600.0000:   Total depth
 CLNT.            A2DTECH:   Client Code
 PD  .                 GL:   Permanent Datum
 EPD .F              5155:   Elevation Permanent Datum
 LMF .                 KB:   Log Measured From
 DMF .                 KB:   Drilling Measured From
 DAPD.F                12:   Feet Above Permanent Datum
 DATE.        08-NOV-1985:   Date Logged [DD-MMM-YYYY]
 DD  .F              5600:   Depth driller
 DL  .F              5600:   Depth logger
 BLI .F              5597:   Bottom log interval
 TLI .F               467:   Top log interval
 CS1 .IN            9.625:   Casing size
 CBD1.      9.625" @ 467':   Casing driller 1
 CBL1.F               465:   Casing logger 1
 BS1 .IN             8.75:   Bit size
 BSD1.F              5600:   Depth drilled with bit1
 DFT .        KCL POLYMER:   Type fluid in hole
 DFD .                9.2:   Density
 DFV .                 38:   Viscosity
 DFPH.                8.5:   pH
 DFL .                8.6:   Fluid loss
 MSS .           FLOWLINE:   Source of sample
 RMS .OHMM           0.28:   Rm
 MST .F                75:   Rm Meas. temp.
 RMF .OHMM           0.21:   Rmf
 MFST.F                75:   Rmf Meas. temp.
 MFSS.               CALC:   Source Rmf.
 RMC .OHMM           0.35:   Rmc
 MCST.F                75:   Rmc Meas. temp.
 MCSS.               CALC:   Source Rmc.
 RMB .OHMM           0.13:   Rm. at BHT
 BHT .F               168:   BHT.
 TCS .HRS               7:   Time Circ. stopped
 MRT .F               168:   Maximum recorded temp.
 LUN .               6274:   Logging unit number
 LUL .               GLTE:   Logging unit location
 ENGI.               MACK:   Recorded By
 WITN.             STRONG:   Witnessed by
 ORIG.      2.5" 5" PRINT:   Origin of data
 UWI .     49025110490000:   Unique Well ID
 DICO. A2D TECHNOLOGIES, INC.:   Digitizing Company
~OTHER INFORMATION
~A  DEPTH     TEND        CNC       CORR       RHOB       TENR        GRR        SPR       CALR         RD         RS       RMLL       TENS         DT
# ...
 1487.0000  -999.2500  -999.2500  -999.2500  -999.2500   -55.1265    88.6619   -78.0553    11.7964     8.1808     6.0735     6.3125  -999.2500  -999.2500
 1487.5000  -999.2500  -999.2500  -999.2500  -999.2500   -54.9671    87.2061   -77.8801    11.7834     8.2463     6.1633     6.1463  -999.2500  -999.2500
 1488.0000  -999.2500  -999.2500  -999.2500  -999.2500   -54.8076    84.5444   -77.8547    11.7703     8.4871     6.2979     6.1955  -999.2500  -999.2500
 1488.5000  -999.2500  -999.2500  -999.2500  -999.2500   -54.6481    83.3715   -77.6795    11.7423     8.9186     6.3910     6.6011  -999.2500  -999.2500
 1489.0000  -999.2500  -999.2500  -999.2500  -999.2500   -54.4886    82.8056   -77.6540    11.7292     9.1791     6.5760     6.9364  -999.2500  -999.2500
 1489.5000  -999.2500  -999.2500  -999.2500  -999.2500   -54.3292    83.4456   -77.6286    11.7013     9.1886     6.7196     7.2888  -999.2500  -999.2500
 1490.0000  -999.2500  -999.2500  -999.2500  -999.2500   -54.1697    84.0773   -77.6031    11.6882     9.1346     6.7706     7.5536  -999.2500  -999.2500
 1490.5000  -999.2500  -999.2500  -999.2500  -999.2500   -54.0102    85.6073   -77.5793    11.6601     9.0182     6.6382     7.5093  -999.2500  -999.2500
 1491.0000  -999.2500  -999.2500  -999.2500  -999.2500   -53.8507    87.7360   -77.7082    11.6471     8.9629     6.5072     7.3116  -999.2500  -999.2500
 1491.5000  -999.2500  -999.2500  -999.2500  -999.2500   -53.6911    88.0684   -77.6764    11.6340     8.9102     6.4230     6.9726  -999.2500  -999.2500
 1492.0000  -999.2500  -999.2500  -999.2500  -999.2500   -53.5314    86.3049   -77.6509    11.6210     8.7989     6.3399     6.5125  -999.2500  -999.2500
 1492.5000  -999.2500  -999.2500  -999.2500  -999.2500   -53.4270    83.3438   -77.6254    11.6380     8.8081     6.3452     5.9990  -999.2500  -999.2500
 1493.0000  -999.2500  -999.2500  -999.2500  -999.2500   -53.4271    80.9815   -77.7560    11.6400     8.9404     6.3504     6.0891  -999.2500  -999.2500
 1493.5000  -999.2500  -999.2500  -999.2500  -999.2500   -53.4273    79.8086   -78.0300    11.6569     8.8879     6.3999     6.0533  -999.2500  -999.2500
 1494.0000  -999.2500  -999.2500  -999.2500  -999.2500   -53.4274    83.4426   -77.9981    11.6739     8.8334     6.4497     6.0178  -999.2500  -999.2500
 1494.5000  -999.2500  -999.2500  -999.2500  -999.2500   -53.4274    84.0744   -78.1287    11.7058     8.9064     6.5451     6.1506  -999.2500  -999.2500
 1495.0000  -999.2500  -999.2500  -999.2500  -999.2500   -53.4274    83.8079   -78.0969    11.7377     8.9778     6.5961     6.4184  -999.2500  -999.2500
 1495.5000  -999.2500  -999.2500  -999.2500  -999.2500   -53.4274    84.1402   -77.9217    11.7697     9.0497     6.6474     6.8861  -999.2500  -999.2500
 1496.0000  -999.2500  -999.2500  -999.2500  -999.2500   -53.4274    85.9696   -77.8962    11.8016     9.1856     6.7457     7.3880  -999.2500  -999.2500
 1496.5000  -999.2500  -999.2500  -999.2500  -999.2500   -53.4274    87.4995   -78.0268    11.8036     9.2592     6.7983     7.7633  -999.2500  -999.2500
 1497.0000  -999.2500  -999.2500  -999.2500  -999.2500   -53.4274    92.9217   -77.9950    11.7905     9.2689     6.8039     7.8798  -999.2500  -999.2500
 1497.5000  -999.2500  -999.2500  -999.2500  -999.2500   -53.4274    92.3558   -78.1256    11.7475     9.2120     6.8569     7.4626  -999.2500  -999.2500
 1498.0000  -999.2500  -999.2500  -999.2500  -999.2500   -53.4274    92.0811   -78.3932    11.7340     9.1603     6.8626     6.8742  -999.2500  -999.2500
 1498.5000  -999.2500  -999.2500  -999.2500  -999.2500   -53.4274    92.7211   -78.3677    11.7209     9.2336     6.9160     6.9292  -999.2500  -999.2500
 1499.0000  -999.2500  -999.2500  -999.2500  -999.2500   -53.4274    92.4546   -78.6416    11.6929     9.2433     6.9218     7.0821  -999.2500  -999.2500
 1499.5000  -999.2500  -999.2500  -999.2500  -999.2500   -53.4274    90.3917   -78.6225    11.6799     9.1866     6.9275     7.1388  -999.2500  -999.2500
 1500.0000  -999.2500  -999.2500  -999.2500  -999.2500   -53.4274    89.8176   -78.7468    11.6668     9.2625     6.9809     6.9992  -999.2500  -999.2500
 1500.5000  -999.2500  -999.2500  -999.2500  -999.2500   -53.4274    86.2576   -78.8710    11.6538     9.6647     7.0343     7.2041  -999.2500  -999.2500
 1501.0000  -999.2500  -999.2500  -999.2500  -999.2500   -53.4274    83.8924   -78.8392    11.6408     9.7408     7.0392     7.4116  -999.2500  -999.2500
 1501.5000  -999.2500  -999.2500  -999.2500  -999.2500   -53.4274    83.0239   -78.9697    11.6432     9.8858     7.0441     7.5218  -999.2500  -999.2500
 1502.0000  -999.2500  -999.2500  -999.2500  -999.2500   -53.4274    81.5572   -78.4888    11.6452    10.1027     7.0003     8.1815  -999.2500  -999.2500
 1502.5000  -999.2500  -999.2500  -999.2500  -999.2500   -53.4274    80.0749   -77.7148    11.6471     9.9703     6.9568     7.9650  -999.2500  -999.2500
 1503.0000  -999.2500  -999.2500  -999.2500  -999.2500   -53.4274    81.9166   -77.2403    11.6491     9.7085     6.9124     7.7007  -999.2500  -999.2500
 1503.5000  -999.2500  -999.2500  -999.2500  -999.2500   -53.4274    84.0424   -76.9154    11.6810     9.4514     6.9184     7.3937  -999.2500  -999.2500
 1504.0000  -999.2500  -999.2500  -999.2500  -999.2500   -53.4274    86.1683   -76.8899    11.6830     9.2630     6.8742     7.5559  -999.2500  -999.2500
 1504.5000  -999.2500  -999.2500  -999.2500  -999.2500   -53.4274    86.7971   -77.0205    11.6999     9.3380     6.9280     7.8293  -999.2500  -999.2500
 1505.0000  -999.2500  -999.2500  -999.2500  -999.2500   -53.4274    88.9229   -77.4441    11.7169     9.2798     6.9810     7.7821  -999.2500  -999.2500
 1505.5000  -999.2500  -999.2500  -999.2500  -999.2500   -53.4274    89.3174   -77.8141    11.7038     9.2240     6.9858     7.6821  -999.2500  -999.2500
 1506.0000  -999.2500  -999.2500  -999.2500  -999.2500   -53.4274    87.4859   -78.0340    11.6608     9.1685     6.8469     7.5308  -999.2500  -999.2500
 1506.5000  -999.2500  -999.2500  -999.2500  -999.2500   -53.4274    85.7195   -78.1638    11.6627     8.9898     6.5274     7.3316  -999.2500  -999.2500
 1507.0000  -999.2500  -999.2500  -999.2500  -999.2500   -53.4274    84.2525   -78.2918    11.6647     8.7518     6.3977     7.1376  -999.2500  -999.2500
 1507.5000  -999.2500  -999.2500  -999.2500  -999.2500   -53.4274    84.2826   -78.7137    11.6667     8.5200     6.3129     6.9968  -999.2500  -999.2500
 1508.0000  -999.2500  -999.2500  -999.2500  -999.2500   -53.4274    86.4084   -79.1465    11.6686     8.2925     6.1458     6.4445  -999.2500  -999.2500
 1508.5000  -999.2500  -999.2500  -999.2500  -999.2500   -53.4274    87.6360   -79.4241    11.6706     8.1291     6.0655     6.3173  -999.2500  -999.2500
 1509.0000  -999.2500  -999.2500  -999.2500  -999.2500   -53.4274    90.0612   -79.5520    11.6725     8.6026     6.0697     6.4115  -999.2500  -999.2500
 1509.5000  -999.2500  -999.2500  -999.2500  -999.2500   -53.4274    88.8936   -79.0757    11.6745     8.7914     6.1586     6.5977  -999.2500  -999.2500
 1510.0000  -999.2500  -999.2500  -999.2500  -999.2500   -53.4274    89.5225   -78.6049    11.6160     9.1098     6.2922     6.6496  -999.2500  -999.2500
 1510.5000  -999.2500  -999.2500  -999.2500  -999.2500   -53.4274    90.7501   -78.2837    11.5285     8.8073     6.3844     6.7485  -999.2500  -999.2500
 1511.0000  -999.2500  -999.2500  -999.2500  -999.2500   -53.4274    90.4732   -77.9626    11.4999     8.5740     6.5230     6.8489  -999.2500  -999.2500
 1511.5000  -999.2500  -999.2500  -999.2500  -999.2500   -53.4274    91.7083   -77.9408    11.5024     8.5225     6.5728     6.6216  -999.2500  -999.2500
 1512.0000  -999.2500  -999.2500  -999.2500  -999.2500   -53.4274    93.5347   -77.7693    11.5179     8.2968     6.5774     6.4449  -999.2500  -999.2500
 1512.5000  -999.2500  -999.2500  -999.2500  -999.2500   -53.4274    94.1636   -77.7476    11.5426     8.3621     6.5365     6.4062  -999.2500  -999.2500
