~VERSION INFORMATION
 VERS.                2.0:   CWLS LOG ASCII STANDARD - VERSION 2.0
 WRAP.                 NO:   ONE LINE PER DEPTH STEP
~WELL INFORMATION
#MNEM.UNIT      DATA TYPE    INFORMATION
#----------   ------------   ------------------------------
 STRT.F          197.0000:   START DEPTH
 STOP.F         3074.5000:   STOP DEPTH
 STEP.F            0.5000:   STEP LENGTH
 NULL.          -999.2500:   NO VALUE
 COMP.    FENIX & SCISSON:   COMPANY
 WELL.   FENIX "A" #36-21:   WELL
 FLD .             NPR #3:   FIELD
 LOC .      S21 T39N R78W:   LOCATION
 CNTY.            NATRONA:   COUNTY
 STAT.            WYOMING:   STATE
 CTRY. UNITED STATES OF AMERICA:   COUNTRY
 SRVC.              WELEX:   SERVICE COMPANY
 DATE.        06-JUL-1977:   LOGDATE
 API .     49025103920000:   API NUMBER
~CURVE INFORMATION
#MNEM.UNIT       API CODE    CURVE DESCRIPTION
#----------   ------------   ------------------------------
 DEPT.F                  :   
 CALD.IN     45 280 60 00:   CALIPER FROM DENSITY LOG
 GRD .GAPI   45 310 01 00:   GAMMA RAY FROM DENSITY LOG
 CORR.G/C3   45 356 01 00:   DENSITY CORRECTION
 RHOB.G/C3   45 350 01 00:   BULK DENSITY
 SPR .MV     11 010 01 00:   SPONTANEOUS POTENTIAL FROM RES.
 FORX.OHMM   11 000 00 00:   FORMATION FACTOR
 GURD.OHMM   11 220 05 00:   GUARD LOG RESISTIVITY
 NPHI.DEC    42 890 03 00:   NEUTRON POROSITY SANDSTONE
~PARAMETER INFORMATION
#MNEM.UNIT          VALUE    DESCRIPTION
#----------   ------------   ------------------------------
 EKB .F         4960.0000:   Kelly bushing
 EGL .F         4950.0000:   Ground level
 EDF .F            0.0000:   Drilling floor
 EPD .F         4950.0000:   Permanent datum
 TD  .F         3078.0000:   Total depth
 CLNT.            A2DTECH:   Client Code
 SL  . 1650' FSL & 1650' FWL:   Surface Location
 PD  .                 GL:   Permanent Datum
 DAPD.F                10:   Feet Above Permanent Datum
 DATE.        06-JUL-1977:   Date Logged [DD-MMM-YYYY]
 DD  .F              3066:   Depth driller
 DL  .F              3078:   Depth logger
 BLI .F              3076:   Bottom log interval
 TLI .F               200:   Top log interval
 CS1 .IN            8.625:   Casing size
 BS1 .IN            7.875:   Bit size
 BSD1.F              3066:   Depth drilled with bit1
 DFT .            KCL MUD:   Type fluid in hole
 DFD .                9.2:   Density
 DFV .                 35:   Viscosity
 DFPH.                7.5:   pH
 DFL .                 18:   Fluid loss
 MSS .           FLOWLINE:   Source of sample
 RMS .OHMM            0.9:   Rm
 MST .F                80:   Rm Meas. temp.
 RMF .OHMM           0.81:   Rmf
 MFST.F                80:   Rmf Meas. temp.
 MFSS.               FANN:   Source Rmf.
 RMC .OHMM           1.06:   Rmc
 MCST.F                80:   Rmc Meas. temp.
 MCSS.                KIT:   Source Rmc.
 RMB .OHMM           0.60:   Rm. at BHT
 BHT .F               119:   BHT.
 TCS .HRS               3:   Time Circ. stopped
 MRT .F               119:   Maximum recorded temp.
 LUN .               8611:   Logging unit number
 LUL .             CASPER:   Logging unit location
 ENGI.             C DOAK:   Recorded By
 WITN.         HARRINGTON:   Witnessed by
 ORIG.           5" PRINT:   Origin of data
 UWI .     49025103920000:   Unique Well ID
 DICO. A2D TECHNOLOGIES,INC.:   Digitizing Company
~OTHER INFORMATION
~A   DEPT     CALD         GRD      CORR       RHOB        SPR       FORX       GURD       NPHI   
# ...
 2100.5000     7.7033   106.5218     0.0381     2.4115   -58.0748    10.1085     6.7659     0.3054
 2101.0000     7.7053   110.1054     0.0397     2.4019   -58.2160     9.2432     6.9563     0.3072
 2101.5000     7.6924   114.8603     0.0428     2.4101   -58.6542     8.9930     8.4749     0.3090
 2102.0000     7.6796   120.5000     0.0443     2.4357   -59.2464    11.2662     9.1714     0.3088
 2102.5000     7.6816   123.1812     0.0459     2.4669   -59.3874    12.8739     7.4568     0.3046
 2103.0000     7.6836   119.0981     0.0445     2.4461   -59.3764     9.9771     6.7241     0.3006
 2103.5000     7.6856   115.2983     0.0431     2.4224   -59.2180     8.9981     6.0634     0.2978
 2104.0000     7.6727   111.4986     0.0402     2.4083   -59.2092     7.7329     5.0329     0.2947
 2104.5000     7.6748   107.4038     0.0388     2.4010   -59.2004     6.3763     4.4147     0.2899
 2105.0000     7.6619   104.1940     0.0389     2.4144   -59.1916     5.8708     3.8458     0.2883
 2105.5000     7.6644   101.5742     0.0405     2.4458   -59.1826     5.4045     4.1070     0.2913
 2106.0000     7.6663   102.7892     0.0421     2.4551   -59.1720     6.9799     5.2851     0.3012
 2106.5000     7.6683   107.2490     0.0422     2.4385   -59.1632    11.5425     9.5053     0.3015
 2107.0000     7.6703   109.9390     0.0437     2.4244   -59.1545     9.6497     6.8722     0.3012
 2107.5000     7.6722   109.0891     0.0438     2.4200   -59.1457     9.1328     7.3647     0.2993
 2108.0000     7.6742   104.9943     0.0439     2.4402   -59.1370    10.7779     6.8270     0.2987
 2108.5000     7.6762   101.1946     0.0447     2.4529   -59.2801     8.9485     6.1561     0.2957
 2109.0000     7.6782    97.9848     0.0458     2.4455   -59.2524     8.2961     6.1996     0.2930
 2109.5000     7.6801    95.9549     0.0462     2.4345   -59.2189     8.2984     6.5075     0.2905
 2110.0000     7.6821    95.3912     0.0463     2.4286   -59.1893     9.0117     6.8782     0.2893
 2110.5000     7.6841    99.8598     0.0480     2.4301   -59.1777    12.4656     9.0672     0.2893
 2111.0000     7.6860   105.2046     0.0485     2.4369   -59.3187    13.5420    10.2684     0.2893
 2111.5000     7.6880   108.7795     0.0499     2.4504   -59.4539    12.0464     9.1957     0.2856
 2112.0000     7.6900   111.1744     0.0472     2.4646   -59.4423    11.3232     8.2921     0.2795
 2112.5000     7.6920   110.3245     0.0458     2.4721   -59.4307     9.7984     6.4236     0.2727
 2113.0000     7.6939   109.4691     0.0430     2.4681   -59.2695     8.8369     6.3364     0.2702
 2113.5000     7.6811   108.8966     0.0403     2.4266   -59.2575     8.6572     6.3850     0.2708
 2114.0000     7.6831   108.0697     0.0420     2.3817   -59.0935     8.8007     6.7913     0.2714
 2114.5000     7.6851   107.8098     0.0451     2.3727   -59.0819    10.1478     8.4133     0.2696
 2115.0000     7.6875   108.1486     0.0483     2.3966   -58.9206    13.2799    11.9660     0.2683
 2115.5000     7.6895   109.6586     0.0515     2.4197   -58.9090    15.6715    10.0011     0.2692
 2116.0000     7.6762   112.3485     0.0517     2.4265   -58.8974    14.0366     7.2807     0.2701
 2116.5000     7.6786   115.3334     0.0519     2.4266   -58.8858    10.2234     7.1742     0.2686
 2117.0000     7.6806   118.9083     0.0505     2.4214   -59.0240     9.9277     7.9117     0.2628
 2117.5000     7.6826   122.4831     0.0463     2.4111   -59.1620    10.8060     9.2108     0.2584
 2118.0000     7.6846   123.6981     0.0420     2.3985   -59.3001    15.3723     6.5230     0.2529
 2118.5000     7.6865   123.7332     0.0377     2.3793   -59.2855     8.6694     4.9493     0.2478
 2119.0000     7.6885   122.5883     0.0335     2.3659   -59.2739     6.7647     5.3778     0.2480
 2119.5000     7.6905   122.3196     0.0306     2.3697   -59.2623     9.1004     6.5708     0.2516
 2120.0000     7.6924   125.3132     0.0278     2.3720   -59.2507    11.7458     8.3680     0.2543
 2120.5000     7.6944   130.3630     0.0251     2.3714   -59.2391    10.3765     9.0921     0.2585
 2121.0000     7.6964   134.8229     0.0238     2.3513   -59.2275    11.5885     8.1423     0.2624
 2121.5000     7.6984   139.2827     0.0225     2.3112   -59.2156    13.8680     6.8108     0.2647
 2122.0000     7.7003   143.4475     0.0212     2.3053   -59.2014     6.9945     5.3085     0.2650
 2122.5000     7.7023   145.8425     0.0214     2.3099   -59.0401     6.8181     4.8200     0.2671
 2123.0000     7.7043   147.0574     0.0216     2.3182   -59.0285     7.9909     4.8541     0.2719
 2123.5000     7.7063   146.2075     0.0218     2.3286   -59.0169     8.4451     6.0970     0.2767
 2124.0000     7.7083   144.1777     0.0235     2.3296   -58.8555     5.8611     3.0784     0.2818
 2124.5000     7.7107   143.3158     0.0252     2.3281   -58.6942     4.9337     3.1001     0.2857
 2125.0000     7.7126   147.1976     0.0253     2.3296   -58.6826     7.7777     6.5355     0.2900
 2125.5000     7.6998   151.1028     0.0270     2.3365   -58.8207    13.9766     9.1047     0.2934
 2126.0000     7.7018   154.1245     0.0272     2.3469   -58.9588    14.9239    12.0854     0.2921
 2126.5000     7.6885   157.4043     0.0274     2.3516   -59.0969    20.0088    13.1311     0.2816
 2127.0000     7.6909   160.4128     0.0261     2.3560   -59.2350    15.5060    11.0116     0.2750
 2127.5000     7.6929   161.2460     0.0248     2.3486   -59.3731    12.4380     8.2705     0.2677
 2128.0000     7.6949   160.9773     0.0220     2.3316   -59.3586     9.7056     9.2377     0.2551
 2128.5000     7.6969   160.4223     0.0207     2.3138   -59.3470    15.9460    13.7887     0.2482
 2129.0000     7.6988   159.2862     0.0194     2.3079   -59.3353    19.7480     8.1604     0.2439
 2129.5000     7.7008   158.6197     0.0196     2.3132   -59.3025    14.3833     5.8998     0.2397
 2130.0000     7.7028   157.4635     0.0230     2.3259   -59.3121     8.3443     7.3089     0.2367
 2130.5000     7.7047   156.1465     0.0306     2.3483   -59.2976    12.6212     8.5089     0.2334
 2131.0000     7.7215   153.8217     0.0383     2.3781   -59.2860    15.6305     7.6200     0.2303
 2131.5000     7.7235   150.0219     0.0474     2.4109   -59.2744    13.9038     8.1099     0.2270
 2132.0000     7.7255   145.3372     0.0553     2.4348   -59.2628    10.1967     5.3231     0.2261
 2132.5000     7.7426   140.9475     0.0613     2.4349   -59.4012     4.4899     3.6167     0.2330
 2133.0000     7.7738   138.3277     0.0612     2.4625   -59.3892     5.3720     3.7700     0.2402
 2133.5000     7.7758   136.5928     0.0585     2.4670   -59.3777     5.2991     3.0652     0.2545
 2134.0000     7.8074   137.5128     0.0571     2.4611   -59.5158     3.8053     2.6702     0.2725
 2134.5000     7.8394   138.7278     0.0558     2.4754   -59.5013     4.2514     3.7084     0.2890
 2135.0000     7.9005   138.4678     0.0561     2.4821   -59.4897     6.0852     4.5140     0.2989
 2135.5000     7.9616   136.4380     0.0578     2.4823   -59.4781     6.1703     4.2135     0.3004
 2136.0000     7.9932   134.1131     0.0609     2.4763   -59.4664     4.8818     3.9058     0.3016
 2136.5000     8.0248   131.7883     0.0611     2.4727   -59.4548     5.1593     3.6457     0.3039
 2137.0000     8.0267   129.1685     0.0628     2.4817   -59.4431     4.6853     3.5224     0.3066
 2137.5000     8.0287   127.1386     0.0630     2.4914   -59.4311     4.4344     3.8538     0.3093
 2138.0000     8.0159   125.0975     0.0632     2.4947   -59.4192     5.4274     4.5177     0.3156
 2138.5000     8.0026   123.6458     0.0634     2.5065   -59.4072     6.0211     4.5129     0.3183
 2139.0000     7.9750   122.4896     0.0636     2.5040   -59.5455     5.8451     4.2760     0.3203
 2139.5000     7.9478   121.9234     0.0638     2.5014   -59.3813     5.7656     4.5196     0.3191
 2140.0000     7.9498   122.0129     0.0624     2.5030   -59.3697     6.0935     4.4276     0.3155
 2140.5000     7.9518   122.9329     0.0627     2.4949   -59.3581     6.0525     4.1327     0.3191
