~VERSION INFORMATION
 VERS.                2.0:   CWLS LOG ASCII STANDARD - VERSION 2.0
 WRAP.                 NO:   ONE LINE PER DEPTH STEP
~WELL INFORMATION
#MNEM.UNIT      DATA TYPE    INFORMATION
#----------   ------------   ------------------------------
 STRT.F            4.5000:   START DEPTH
 STOP.F         3216.0000:   STOP DEPTH
 STEP.F            0.5000:   STEP LENGTH
 NULL.          -999.2500:   NO VALUE
 COMP. LAWRENCE ALLISON & ASSCOCIATES:   COMPANY
 WELL. LAWRENCE ALLISON #38-34:   WELL
 FLD . NAVAL PET. RES. NO. 3:   FIELD
 LOC .      S34 T39N R78W:   LOCATION
 CNTY.            NATRONA:   COUNTY
 STAT.            WYOMING:   STATE
 CTRY. UNITED STATES OF AMERICA:   COUNTRY
 SRVC.      DRESSER ATLAS:   SERVICE COMPANY
 DATE.        12-OCT-1986:   LOGDATE
 API .     49025111120000:   API NUMBER
~CURVE INFORMATION
#MNEM.UNIT       API CODE    CURVE DESCRIPTION
#----------   ------------   ------------------------------
 DEPT.F                  :   
 CALD.IN     45 280 60 00:   CALIPER FROM DENSITY LOG
 RHOB.G/C3   45 350 01 00:   BULK DENSITY
 CORR.G/C3   45 356 01 00:   DENSITY CORRECTION
 CNC .DEC    42 890 01 00:   NEUTRON POROSITY
 SPR .MV     07 010 01 00:   SPONTANEOUS POTENTIAL
 TENR.LBS    06 635 01 00:   TENSION FROM RESISTIVITY
 GRR .GAPI   07 310 01 00:   GAMMA RAY FROM RESISTIVITY
 ILD .OHMM   07 120 46 00:   DEEP INDUCTION RESISTIVITY
 ILM .OHMM   07 120 44 00:   INDUCTION LOG MEDIUM RESISTIVITY
 SFL .OHMM   07 220 01 00:   SHALLOW FOCUSED LOG RESISITIVITY
~PARAMETER INFORMATION
#MNEM.UNIT          VALUE    DESCRIPTION
#----------   ------------   ------------------------------
 EKB .F         5229.5000:   Kelly bushing
 EGL .F         5217.7000:   Ground level
 TD  .F         3200.0000:   Total depth
 CLNT.            A2DTECH:   Client Code
 SL  . 1338' FWL & 132' FSL:   Surface Location
 PD  .                 GL:   Permanent Datum
 EPD .F            5217.7:   Elevation Permanent Datum
 LMF .                 KB:   Log Measured From
 DMF .                 KB:   Drilling Measured From
 DAPD.F              11.8:   Feet Above Permanent Datum
 DATE.        12-OCT-1986:   Date Logged [DD-MMM-YYYY]
 DD  .F              3200:   Depth driller
 DL  .F              3200:   Depth logger
 BLI .F              3194:   Bottom log interval
 TLI .F                 0:   Top log interval
 CS1 .IN            8.625:   Casing size
 CBD1.      8.625" @ 668':   Casing driller 1
 CBL1.F               668:   Casing logger 1
 BS1 .IN            7.875:   Bit size
 BSD1.F              3200:   Depth drilled with bit1
 DFT .        KCL POLYMER:   Type fluid in hole
 DFD .                  9:   Density
 DFV .                 36:   Viscosity
 DFPH.                9.5:   pH
 MSS .           FLOWLINE:   Source of sample
 RMS .OHMM           0.25:   Rm
 MST .F                70:   Rm Meas. temp.
 RMF .OHMM          0.191:   Rmf
 MFST.F                70:   Rmf Meas. temp.
 MFSS.               MEAS:   Source Rmf.
 RMB .OHMM          0.132:   Rm. at BHT
 BHT .F               132:   BHT.
 TCS .HRS               3:   Time Circ. stopped
 MRT .F               132:   Maximum recorded temp.
 LUN .               6274:   Logging unit number
 ENGI.             RAUTIO:   Recorded By
 ORIG.   1" 2.5" 5" PRINT:   Origin of data
 UWI .     49025111120000:   Unique Well ID
 DICO. A2D TECHNOLOGIES, INC.:   Digitizing Company
 LUL .               CLIT:   Logging unit location
 RMC .OHMM           0.31:   Rmc
 MCST.F                70:   Rmc Meas. temp.
 MCSS.               CALC:   Source Rmc.
~OTHER INFORMATION
~A    DEPT    CALD       RHOB       CORR        CNC        SPR       TENR        GRR        ILD        ILM        SFL   
# ...
 1344.5000  -999.2500  -999.2500  -999.2500  -999.2500   -91.7655   -46.0531   100.4696     8.0585     7.7890     9.3333
 1345.0000  -999.2500  -999.2500  -999.2500  -999.2500   -91.6387   -47.1902   101.3152     7.9455     7.7865     9.3307
 1345.5000  -999.2500  -999.2500  -999.2500  -999.2500   -90.5522   -48.3272   102.5391     7.9439     7.7843     9.3276
 1346.0000  -999.2500  -999.2500  -999.2500  -999.2500   -89.5867   -49.4642   106.2852     7.9422     7.7822     8.9439
 1346.5000  -999.2500  -999.2500  -999.2500  -999.2500   -90.0531   -50.6013   108.1134     7.9406     7.7801     8.8179
 1347.0000  -999.2500  -999.2500  -999.2500  -999.2500   -91.1087   -51.7383   104.6059     7.9386     7.6706     8.6937
 1347.5000  -999.2500  -999.2500  -999.2500  -999.2500   -92.1310   -52.8753   103.3865     7.9370     7.5625     8.6914
 1348.0000  -999.2500  -999.2500  -999.2500  -999.2500   -92.8961   -54.0124   102.1670     7.8258     7.5605     8.5690
 1348.5000  -999.2500  -999.2500  -999.2500  -999.2500   -92.6023   -55.1494    99.7427     7.8242     7.4540     8.5667
 1349.0000  -999.2500  -999.2500  -999.2500  -999.2500   -92.3566   -56.2865   104.5474     7.8226     7.4519     8.8121
 1349.5000  -999.2500  -999.2500  -999.2500  -999.2500   -92.0656   -57.4240   106.9424     7.8210     7.3469     8.9404
 1350.0000  -999.2500  -999.2500  -999.2500  -999.2500   -91.7961   -58.5618   107.5301     7.9290     7.3449     9.1764
 1350.5000  -999.2500  -999.2500  -999.2500  -999.2500   -91.5187   -59.6939   104.4347     7.9273     7.3656     9.1736
 1351.0000  -999.2500  -999.2500  -999.2500  -999.2500   -91.2450   -60.8661   102.5440     8.0368     7.4439     9.1352
 1351.5000  -999.2500  -999.2500  -999.2500  -999.2500   -90.9719   -62.1150   100.1535     8.0350     7.4416     9.0418
 1352.0000  -999.2500  -999.2500  -999.2500  -999.2500   -90.6689   -63.1086   105.4703     8.0469     7.4395     9.0393
 1352.5000  -999.2500  -999.2500  -999.2500  -999.2500   -90.5985   -64.2457   104.7040     8.1445     7.4374     9.0368
 1353.0000  -999.2500  -999.2500  -999.2500  -999.2500   -90.8774   -64.7500   102.4157     8.1425     7.4354     9.0343
 1353.5000  -999.2500  -999.2500  -999.2500  -999.2500   -91.1227   -64.7500   100.1987     8.1408     7.5374     9.0318
 1354.0000  -999.2500  -999.2500  -999.2500  -999.2500   -91.3232   -45.2500   102.8634     8.1391     7.5349     9.2836
 1354.5000  -999.2500  -999.2500  -999.2500  -999.2500   -91.3291   -64.7500   102.2560     8.1374     7.5329     9.4115
 1355.0000  -999.2500  -999.2500  -999.2500  -999.2500   -91.3320   -64.7500    99.1263     8.1354     7.6367     9.4086
 1355.5000  -999.2500  -999.2500  -999.2500  -999.2500   -91.3303   -64.7500    96.5183     8.1337     7.7413     9.4060
 1356.0000  -999.2500  -999.2500  -999.2500  -999.2500   -91.3309   -64.7500   101.9254     8.1321     7.8478     9.0191
 1356.5000  -999.2500  -999.2500  -999.2500  -999.2500   -91.3311   -64.7500   103.7179     8.2445     7.8455     8.7692
 1357.0000  -999.2500  -999.2500  -999.2500  -999.2500   -91.3302   -64.7500   107.3178     8.2427     7.8433     8.7668
 1357.5000  -999.2500  -999.2500  -999.2500  -999.2500   -91.3302   -64.7500   102.4838     8.3565     7.9511     8.8976
 1358.0000  -999.2500  -999.2500  -999.2500  -999.2500   -91.3315   -64.7500    98.8547     8.3548     7.9489     9.3933
 1358.5000  -999.2500  -999.2500  -999.2500  -999.2500   -91.3288   -64.7500    99.4425     8.4701     7.9466     9.2608
 1359.0000  -999.2500  -999.2500  -999.2500  -999.2500   -91.3322   -64.7500   102.4640     8.4683     7.9444     9.2582
 1359.5000  -999.2500  -999.2500  -999.2500  -999.2500   -91.3427   -64.7500   103.6301     8.5853     8.0537     9.2914
 1360.0000  -999.2500  -999.2500  -999.2500  -999.2500   -91.5358   -64.7500    99.8391     8.5834     8.0513     9.7382
 1360.5000  -999.2500  -999.2500  -999.2500  -999.2500   -91.7569   -64.7500    97.0022     8.5816     8.1621    10.1670
 1361.0000  -999.2500  -999.2500  -999.2500  -999.2500   -92.0105   -64.7500    90.6366     8.5798     8.2743    10.5476
 1361.5000  -999.2500  -999.2500  -999.2500  -999.2500   -92.0289   -45.2500    91.4669     8.5780     8.3215    10.8510
 1362.0000  -999.2500  -999.2500  -999.2500  -999.2500   -91.6046   -45.2500    93.7471     8.5762     8.3851    10.6691
 1362.5000  -999.2500  -999.2500  -999.2500  -999.2500   -91.2091   -25.7500    94.7538     8.5744     8.3827     9.7685
 1363.0000  -999.2500  -999.2500  -999.2500  -999.2500   -90.8110   -25.7500    94.8053     8.5726     8.3800     9.4979
 1363.5000  -999.2500  -999.2500  -999.2500  -999.2500   -90.4041   -45.2500    92.9489     8.5705     8.3777     9.4953
 1364.0000  -999.2500  -999.2500  -999.2500  -999.2500   -89.9897   -45.2500    93.3574     8.5688     8.3754     9.4928
 1364.5000  -999.2500  -999.2500  -999.2500  -999.2500   -89.8165   -45.2500    98.0546     8.6871     8.3732     9.6232
 1365.0000  -999.2500  -999.2500  -999.2500  -999.2500   -90.1792   -45.2500   102.2568     8.6853     8.3709     9.7555
 1365.5000  -999.2500  -999.2500  -999.2500  -999.2500   -90.5219   -45.2500   102.3904     8.6836     8.3686     9.8894
 1366.0000  -999.2500  -999.2500  -999.2500  -999.2500   -90.8829   -45.2500   100.4203     8.6818     8.3664    10.0298
 1366.5000  -999.2500  -999.2500  -999.2500  -999.2500   -91.2357   -45.2500    99.2009     8.6800     8.3641    10.1629
 1367.0000  -999.2500  -999.2500  -999.2500  -999.2500   -91.5865   -45.2500    98.5838     8.6782     8.3618    10.3025
 1367.5000  -999.2500  -999.2500  -999.2500  -999.2500   -91.9659   -45.2500    97.9667     8.6764     8.3595    10.2994
 1368.0000  -999.2500  -999.2500  -999.2500  -999.2500   -92.1236   -45.2500    96.7473     8.6746     8.3571    10.3350
 1368.5000  -999.2500  -999.2500  -999.2500  -999.2500   -92.0293   -25.7500    98.6553     8.6728     8.3548    10.1569
 1369.0000  -999.2500  -999.2500  -999.2500  -999.2500   -91.9619   -25.7500   101.2106     8.6374     8.3525     9.3671
 1369.5000  -999.2500  -999.2500  -999.2500  -999.2500   -91.8903   -27.7325   105.6414     8.5494     8.3502     8.8971
 1370.0000  -999.2500  -999.2500  -999.2500  -999.2500   -91.8189   -31.7625   109.0563     8.5476     8.3478     8.7036
 1370.5000  -999.2500  -999.2500  -999.2500  -999.2500   -91.7405   -35.7925   107.5508     8.5458     8.2969     9.1596
 1371.0000  -999.2500  -999.2500  -999.2500  -999.2500   -91.7350   -39.8225    96.8009     8.6063     8.2279     9.7224
 1371.5000  -999.2500  -999.2500  -999.2500  -999.2500   -91.7327   -43.8525    95.1737     8.6620     8.2256     9.9941
 1372.0000  -999.2500  -999.2500  -999.2500  -999.2500   -91.7349   -45.2500    98.7153     8.6598     8.2233     9.5829
 1372.5000  -999.2500  -999.2500  -999.2500  -999.2500   -91.7336   -64.7500   103.9002     8.6581     8.1071     9.0617
 1373.0000  -999.2500  -999.2500  -999.2500  -999.2500   -91.7338   -64.7500   107.4369     8.5367     7.9929     8.9341
 1373.5000  -999.2500  -999.2500  -999.2500  -999.2500   -91.7353   -45.2500   107.8305     8.4171     7.9907     9.1837
 1374.0000  -999.2500  -999.2500  -999.2500  -999.2500   -91.7303   -45.2500   104.3955     8.4154     7.8782     9.1812
 1374.5000  -999.2500  -999.2500  -999.2500  -999.2500   -91.7316   -64.7500   102.5737     8.1828     7.7672     9.1787
 1375.0000  -999.2500  -999.2500  -999.2500  -999.2500   -91.4997   -45.2500   101.9566     8.0681     7.7651     9.1656
 1375.5000  -999.2500  -999.2500  -999.2500  -999.2500   -91.2229   -45.2500   101.9420     7.9549     7.7630     9.0292
 1376.0000  -999.2500  -999.2500  -999.2500  -999.2500   -90.9525   -64.7500   102.5297     7.9533     7.7609     8.9194
 1376.5000  -999.2500  -999.2500  -999.2500  -999.2500   -91.1455   -64.7500   103.1175     7.9516     7.7587     8.7937
 1377.0000  -999.2500  -999.2500  -999.2500  -999.2500   -91.3514   -45.2500   103.1387     7.9500     7.7566     8.8302
 1377.5000  -999.2500  -999.2500  -999.2500  -999.2500   -91.5723   -45.2500   103.6906     7.8385     7.7544     8.9124
