~VERSION INFORMATION
 VERS.                2.0:   CWLS LOG ASCII STANDARD - VERSION 2.0
 WRAP.                 NO:   ONE LINE PER DEPTH STEP
~WELL INFORMATION
#MNEM.UNIT      DATA TYPE    INFORMATION
#----------   ------------   ------------------------------
 STRT.F            0.5000:   START DEPTH
 STOP.F         5758.0000:   STOP DEPTH
 STEP.F            0.5000:   STEP LENGTH
 NULL.          -999.2500:   NO VALUE
 COMP.   LAWRENCE ALLISON:   COMPANY
 WELL. LAWRENCE "X" #51-10:   WELL
 FLD .          NPR NO. 3:   FIELD
 LOC .      S10 T38N R78W:   LOCATION
 CNTY.            NATRONA:   COUNTY
 STAT.            WYOMING:   STATE
 CTRY. UNITED STATES OF AMERICA:   COUNTRY
 SRVC.      DRESSER ATLAS:   SERVICE COMPANY
 DATE.        31-JAN-1987:   LOGDATE
 API .     49025111230000:   API NUMBER
~CURVE INFORMATION
#MNEM.UNIT       API CODE    CURVE DESCRIPTION
#----------   ------------   ------------------------------
 DEPT.F                  :   
 GRR .GAPI   07 310 01 00:   GAMMA RAY FROM RESISTIVITY
 TENR.LBS    07 635 01 00:   TENSION FROM RESISTIVITY
 SPR .MV     07 010 01 00:   SPONTANEOUS POTENTIAL
 RD  .OHMM   11 220 10 00:   RESISTIVITY DEEP
 RS  .OHMM   11 220 09 00:   RESISTIVITY SHALLOW
 CNC .DEC    42 890 03 00:   NEUTRON POROSITY
 CALD.IN     45 280 60 00:   CALIPER FROM DENSITY LOG
 DEN .G/C3   45 350 01 00:   BULK DENSITY
 CORR.G/C3   45 356 01 00:   DENSITY CORRECTION
 TEND.LBS    45 635 01 00:   TENSION FORM DENSITY LOG
~PARAMETER INFORMATION
#MNEM.UNIT          VALUE    DESCRIPTION
#----------   ------------   ------------------------------
 EKB .F         5227.0000:   Kelly bushing
 EGL .F         5215.0000:   Ground level
 EDF .F            0.0000:   Drilling floor
 TD  .F         5750.0000:   Total depth
 CLNT.            A2DTECH:   Client Code
 SL  . 2356' FEL & 170' FNL:   Surface Location
 PD  .                 GL:   Permanent Datum
 EPD .F              5215:   Elevation Permanent Datum
 LMF .                 KB:   Log Measured From
 DMF .                 KB:   Drilling Measured From
 DAPD.F                12:   Feet Above Permanent Datum
 DATE.        31-JAN-1987:   Date Logged [DD-MMM-YYYY]
 DD  .F              5747:   Depth driller
 DL  .F              5750:   Depth logger
 BLI .F              5748:   Bottom log interval
 CS1 .IN            9.625:   Casing size
 CBD1.      9.625" @ 511':   Casing driller 1
 CBL1.F               512:   Casing logger 1
 BS1 .IN             8.75:   Bit size
 BSD1.F              5747:   Depth drilled with bit1
 DFT .        KCL POLYMER:   Type fluid in hole
 DFD .                9.3:   Density
 DFV .                 43:   Viscosity
 DFPH.                9.5:   pH
 MSS .           FLOWLINE:   Source of sample
 RMS .OHMM          0.247:   Rm
 MST .F                74:   Rm Meas. temp.
 RMF .OHMM          0.162:   Rmf
 MFST.F                74:   Rmf Meas. temp.
 MFSS.               MEAS:   Source Rmf.
 RMC .OHMM          0.310:   Rmc
 MCST.F                74:   Rmc Meas. temp.
 MCSS.               CALC:   Source Rmc.
 RMB .OHMM          0.109:   Rm. at BHT
 BHT .F               167:   BHT.
 TCS .HRS               5:   Time Circ. stopped
 MRT .F               167:   Maximum recorded temp.
 LUN .            HL-6274:   Logging unit number
 LUL .           GILLETTE:   Logging unit location
 ORIG.        2" 5" PRINT:   Origin of data
 UWI .     49025111230000:   Unique Well ID
 DICO. A2D TECHNOLOGIES, INC.:   Digitizing Company
 ENGI.             RAUTIO:   Recorded By
 WITN.             STRONG:   Witnessed by
 DFL .                7.8:   Fluid loss
~OTHER INFORMATION
~A  DEPTH      GRR       TENR        SPR         RD         RS        CNC       CALD        DEN       CORR       TEND
# ...
 5025.5000    88.8445   -69.1228   -85.9742    21.2579    17.6525     0.2206    11.0333     2.5952     0.1367   -73.2234
 5026.0000   102.0446   -67.2807   -85.9609    19.7253    16.7002     0.2221    10.9457     2.6290     0.0883   -73.1506
 5026.5000   101.4789   -65.4386   -85.9477    19.4544    16.3571     0.2106    10.8998     2.6549     0.0068   -73.0827
 5027.0000    96.1161   -63.5965   -86.0892    19.5894    17.2427     0.1857    10.8689     2.6692     0.0174   -73.0051
 5027.5000    86.5617   -61.7544   -85.9211    20.7036    21.4451     0.1720    10.8532     2.6828     0.0387   -65.4136
 5028.0000    77.6061   -59.9123   -86.0627    27.8724    27.1546     0.1626    10.8375     2.6888     0.0324   -57.8196
 5028.5000    74.0397   -58.0702   -85.8914    35.9986    31.6364     0.1566    10.8672     2.6926     0.0233   -50.2122
 5029.0000    74.0728   -56.2281   -85.8781    41.3376    34.9280     0.1536    10.9271     2.6911     0.0248   -50.1395
 5029.5000    72.9017   -54.3860   -85.8649    44.9140    39.5102     0.1518    10.9265     2.6842     0.0278   -65.1043
 5030.0000    71.1317   -52.5439   -85.8516    48.4635    40.0651     0.1545    10.8955     2.6819    -0.0130   -72.5503
 5030.5000    70.2599   -50.7018   -86.1480    48.7997    40.3462     0.1630    10.7890     2.6849    -0.0206   -64.9588
 5031.0000    70.2952   -48.8594   -86.2895    44.6045    37.6375     0.1681    10.7279     2.6857    -0.0190   -42.3296
 5031.5000    74.2117   -47.0076   -86.4311    38.8435    32.7675     0.1854    10.6819     2.6804    -0.0070   -34.7368
 5032.0000    82.6213   -45.0152   -86.5697    33.1995    28.1292     0.1978    10.6814     2.6743     0.0051   -34.6471
 5032.5000    92.2286   -43.9080   -86.7108    26.1907    22.2177     0.2112    10.6808     2.6697     0.0141   -42.1113
 5033.0000    96.1473   -42.7011   -86.8524    21.1375    19.4740     0.2198    10.6953     2.6682     0.0232   -42.0204
 5033.5000    97.6870   -41.4943   -86.9940    19.4544    17.3080     0.2275    10.7250     2.6697     0.0322   -41.9476
 5034.0000    98.3026   -40.2874   -87.1355    18.6638    17.1892     0.2256    10.7243     2.6737     0.0201   -49.4118
 5034.5000    98.0297   -39.0805   -87.4286    19.5894    17.7976     0.2178    10.7237     2.6764    -0.0086   -56.8421
 5035.0000    96.2597   -37.8736   -87.5701    20.8472    19.0780     0.2102    10.7231     2.6636    -0.0162   -56.7669
 5035.5000    92.0945   -36.6667   -87.7117    22.0329    20.6521     0.1929    10.7225     2.6537     0.0019   -56.6917
 5036.0000    85.0800   -35.4598   -87.6951    23.4517    22.0749     0.1850    10.7372     2.6461     0.0231   -49.0844
 5036.5000    80.4708   -34.2529   -87.8400    24.9532    22.2301     0.1856    10.7516     2.6416     0.0200   -41.4928
 5037.0000    81.1026   -33.0460   -87.8234    23.6103    21.4732     0.1920    10.7976     2.6385     0.0110   -41.4201
 5037.5000    85.6201   -31.8391   -87.8068    19.7253    18.9203     0.2036    10.8739     2.6402     0.0049   -41.3473
 5038.0000    92.5328   -30.6322   -87.7936    17.9053    16.9619     0.2183    10.9162     2.6476     0.0049   -41.2745
 5038.5000   101.6646   -29.4253   -87.7803    17.0593    15.7161     0.2304    11.0214     2.6528     0.0170   -41.2018
 5039.0000   104.8677   -28.2184   -87.7671    16.8250    15.1811     0.2341    11.0965     2.6596     0.0353   -41.1278
 5039.5000   105.1936   -27.0115   -87.7538    16.9417    15.1821     0.2371    11.0959     2.6664     0.0411   -33.5193
 5040.0000   105.2200   -25.7942   -87.7373    16.8250    15.1833     0.2416    11.0196     2.6754     0.0320   -33.4465
 5040.5000   104.9465   -25.0058   -87.7240    16.7091    15.3966     0.2450    10.9737     2.6837     0.0184   -33.3738
 5041.0000   104.6380   -24.9962   -87.5560    16.9417    15.5048     0.2371    10.9277     2.6867     0.0078   -33.3010
 5041.5000   102.6114   -25.0000   -87.5427    17.0593    15.6138     0.2319    10.9118     2.6788    -0.0043   -33.2283
 5042.0000    99.9432   -25.0000   -87.5294    17.1777    15.8334     0.2243    10.9112     2.6685    -0.0118   -33.1554
 5042.5000   101.1673   -25.0000   -87.5129    17.4169    15.8344     0.2231    10.9107     2.6693    -0.0134   -40.6015
 5043.0000   102.9901   -25.0000   -87.6578    17.4703    15.8354     0.2274    10.9101     2.6776     0.0017   -40.5263
 5043.5000   106.7870   -25.0000   -87.6412    17.5377    15.9468     0.2219    10.9095     2.6881     0.0183   -40.4378
 5044.0000   106.0436   -25.0000   -87.6280    17.6594    16.2924     0.2170    10.9089     2.6934     0.0349   -40.3650
 5044.5000   102.7767   -25.0000   -87.6145    18.0342    16.5124     0.2134    10.9083     2.6949     0.0530   -40.2923
 5045.0000   100.7073   -25.0000   -87.5982    18.5352    16.9783     0.2110    10.9077     2.6949     0.0651   -40.2201
 5045.5000   100.1347   -25.0000   -87.5850    19.1872    17.7015     0.2073    10.9070     2.6948     0.0711   -40.1473
 5046.0000    98.3716   -25.0000   -87.5717    19.5894    18.8863     0.1940    10.8913     2.6941     0.0288   -40.0745
 5046.5000    93.6076   -25.0000   -87.4036    20.5609    20.9130     0.1791    10.8907     2.6903     0.0060   -40.0000
 5047.0000    90.0413   -25.0000   -87.3755    21.9484    22.7309     0.1757    10.8901     2.6857     0.0031   -39.9106
 5047.5000    84.3791   -25.0000   -87.2190    24.2725    24.7068     0.1733    10.9048     2.6796     0.0167   -39.8378
 5048.0000    78.7169   -25.0000   -86.8962    28.2605    26.3110     0.1721    10.9041     2.6834     0.0393   -39.7650
 5048.5000    77.5457   -25.0000   -86.8829    32.0062    27.2321     0.1724    10.9035     2.7030     0.0439   -47.2110
 5049.0000    77.8782   -25.0000   -86.8697    32.2283    27.6142     0.1746    10.9029     2.7222     0.0318   -47.1381
 5049.5000    79.4017   -25.0000   -86.8560    30.4939    26.1248     0.1758    10.9022     2.7347     0.0227   -47.0653
 5050.0000    80.0269   -25.0000   -86.8399    30.4939    25.9460     0.1761    10.9623     2.7385     0.0151   -54.5113
 5050.5000    77.9380   -25.0000   -86.6719    30.8993    26.1302     0.1720    10.9309     2.7362     0.0120   -54.4361
 5051.0000    75.2960   -25.4330   -86.6586    31.5742    26.3158     0.1642    10.9149     2.7263     0.0120   -46.8286
 5051.5000    75.6219   -26.0104   -86.5787    32.2402    27.2494     0.1576    10.9140     2.7029     0.0165   -39.2370
 5052.0000    76.2471   -26.5887   -86.4616    32.9203    28.4118     0.1506    10.8980     2.6893     0.0195   -39.1642
 5052.5000    76.5729   -27.1667   -86.6044    34.0839    30.2472     0.1469    10.8366     2.6877     0.0270   -39.0914
 5053.0000    75.9787   -27.7444   -86.7431    37.8139    37.3954     0.1415    10.7735     2.7078     0.0299   -39.0185
 5053.5000    67.9498   -28.3222   -86.7229    41.3758    45.2526     0.1369    10.7439     2.7179     0.0299   -38.9457
 5054.0000    64.3769   -28.9000   -86.7030    44.6515    50.5726     0.1578    10.7735     2.7239     0.0162   -39.1753
 5054.5000    68.6015   -29.4778   -86.8457    45.2792    34.5302     0.1818    10.8331     2.7087    -0.0021   -47.5891
 5055.0000    74.6160   -30.0556   -86.8257    33.4070    26.9899     0.1953    10.8927     2.7011    -0.0095   -53.7649
 5055.5000    86.5588   -30.6333   -86.9644    26.7792    20.5236     0.2232    10.9524     2.6981    -0.0020   -46.1550
 5056.0000   100.4240   -31.2111   -87.2540    20.7369    18.3688     0.2290    11.0118     2.7003     0.0010   -46.0822
 5056.5000   102.5463   -31.7889   -87.3927    19.0654    17.1394     0.2314    11.0566     2.7033     0.0039   -46.0094
 5057.0000   103.1715   -32.3667   -87.5355    17.9394    16.6665     0.2311    11.0705     2.7018     0.0160   -45.9365
 5057.5000   103.1980   -32.9444   -87.5154    17.6948    16.3308     0.2296    11.0392     2.6918     0.0129   -45.8637
 5058.0000   103.5244   -33.5222   -87.3405    17.6976    16.4473     0.2269    10.9627     2.6896     0.0037   -38.2721
 5058.5000   102.0599   -34.1000   -87.3245    18.0710    16.6793     0.2241    10.8559     2.6949     0.0042   -38.1811
