~VERSION INFORMATION
 VERS.                2.0:   CWLS LOG ASCII STANDARD - VERSION 2.0
 WRAP.                 NO:   ONE LINE PER DEPTH STEP
~WELL INFORMATION
#MNEM.UNIT      DATA TYPE    INFORMATION
#----------   ------------   ------------------------------
 STRT.F          448.5000:   START DEPTH
 STOP.F         4490.5000:   STOP DEPTH
 STEP.F            0.5000:   STEP LENGTH
 NULL.          -999.2500:   NO VALUE
 COMP.  FENIX AND SCISSON:   COMPANY
 WELL. FENIX AND SCISSON NPR 3 #11-10:   WELL
 FLD .              NPR-3:   FIELD
 LOC .      S10 T38N R78W:   LOCATION
 CNTY.            NATRONA:   COUNTY
 STAT.            WYOMING:   STATE
 CTRY. UNITED STATES OF AMERICA:   COUNTRY
 SRVC.              WELEX:   SERVICE COMPANY
 DATE.        22-DEC-1978:   LOGDATE
 API .     49025107450000:   API NUMBER
~CURVE INFORMATION
#MNEM.UNIT       API CODE    CURVE DESCRIPTION
#----------   ------------   ------------------------------
 DEPT.F                  :   
 SPR .MV     07 010 01 00:   SPONTANEOUS POTENTIAL
 ILM .OHMM   07 120 44 00:   INDUCTION LOG MEDIUM
 ILD .OHMM   07 120 46 00:   DEEP RESISTIVITY
 SGRD.OHMM   07 220 01 00:   SHALLOW SHORT GUARD RESISTIVITY
 TENR.LBS    07 635 01 00:   TENSION FROM RESISTIVITY
 NPHI.DEC    42 890 03 00:   NEUTRON POROSITY SANDSTONE
 CALD.IN     45 280 60 00:   CALIPER FROM DENSITY LOG
 GRD .GAPI   45 310 01 00:   GAMMA RAY FROM DENSITY LOG
 RHOB.G/C3   45 350 01 00:   BULK DENSITY
 DRHO.G/C3   45 356 01 00:   DENSITY CORRECTION
 TEND.LBS    45 635 01 00:   TENSION FROM DENSITY
~PARAMETER INFORMATION
#MNEM.UNIT          VALUE    DESCRIPTION
#----------   ------------   ------------------------------
 EKB .F         5275.0000:   Kelly bushing
 EGL .F         5265.0000:   Ground level
 EDF .F            0.0000:   Drilling floor
 EPD .F         5265.0000:   Permanent datum
 TD  .F         4500.0000:   Total depth
 DATE.        22-DEC-1978:   Date logged
 CLNT.            A2DTECH:   Client Code
 SL  . 300' FNL & 500' FWL:   Surface Location
 DD  .F              4500:   Depth driller
 DL  .F              4481:   Depth logger
 BLI .F              4479:   Bottom log interval
 TLI .F               450:   Top log interval
 CS1 .IN            8.625:   Casing size
 CBD1.      8.625" @ 500':   Casing driller 1
 CBL1.F               473:   Casing logger 1
 BS1 .IN            7.875:   Bit size
 BSD1.F              4500:   Depth drilled with bit1
 DFT .               LSND:   Type fluid in hole
 DFD .                8.7:   Density
 DFV .                 49:   Viscosity
 DFPH.               11.0:   pH
 DFL .                7.6:   Fluid loss
 MSS .           FLOWLINE:   Source of sample
 RMS .OHMM            1.1:   Rm
 MST .F                86:   Rm Meas. temp.
 RMF .OHMM           0.73:   Rmf
 MFST.F                86:   Rmf Meas. temp.
 RMC .OHMM           1.68:   Rmc
 MCST.F                86:   Rmc Meas. temp.
 MFSS.               CALC:   Source Rmf.
 MCSS.               CALC:   Source Rmc.
 RMB .OHMM           0.72:   Rm. at BHT
 BHT .F               130:   BHT.
 TCS .HRS             3.5:   Time Circ. stopped
 MRT .F               130:   Maximum recorded temp.
 LUN .               9685:   Logging unit number
 LUL .             CASPER:   Logging unit location
 ENGI.            BENTSEN:   Recorded By
 WITN.           DINSMORE:   Witnessed by
 ORIG.           5" PRINT:   Origin of data
 UWI .     49025107450000:   Unique Well ID
 DICO. A2D TECHNOLOGIES, INC.:   Digitizing Company
~OTHER INFORMATION
~A  DEPTH      SPR        ILM        ILD       SGRD       TENR       NPHI       CALD        GRD       RHOB       DRHO       TEND
# ...
 1272.0000   -67.8578     8.6211     9.6546     9.0687   706.1463     0.3315    15.3542    84.2757     2.5133     0.0898  1080.4551
 1272.5000   -67.8444     8.5453     9.5940     8.9538   706.4453     0.3355    15.3412    85.4806     2.5179     0.0840  1080.4568
 1273.0000   -67.8311     8.4300     9.5254     8.9621   706.7443     0.3397    15.3434    86.4947     2.5195     0.0752  1080.4586
 1273.5000   -67.9220     8.3614     9.4086     8.9054   707.0433     0.3445    15.3477    87.3346     2.5039     0.0634  1080.4603
 1274.0000   -68.0632     8.2424     9.3361     8.8569   707.3424     0.3474    15.3624    88.0581     2.5002     0.0576  1080.4620
 1274.5000   -68.0874     8.1923     9.2268     8.8681   707.6414     0.3504    15.3645    88.8235     2.4980     0.0547  1080.4639
 1275.0000   -68.0719     8.1424     9.1323     8.8418   707.9404     0.3506    15.3666    89.6424     2.4989     0.0534  1080.4656
 1275.5000   -68.0592     8.1490     8.9657     8.7647   708.2394     0.3490    15.3687    90.3734     2.5027     0.0537  1080.4673
 1276.0000   -68.0464     8.0994     8.8455     8.7285   708.5385     0.3451    15.3504    91.2803     2.5118     0.0539  1080.4690
 1276.5000   -68.0336     8.1060     8.7270     8.6393   708.8375     0.3413    15.3050    92.3882     2.5202     0.0542  1080.4708
 1277.0000   -68.0198     8.0522     8.6100     8.5873   709.1365     0.3382    15.2683    93.3013     2.5308     0.0544  1080.4490
 1277.5000   -68.0080     8.0076     8.5236     8.5615   709.4355     0.3361    15.2578    93.9909     2.5429     0.0576  1080.1061
 1278.0000   -68.1434     8.0152     8.4389     8.5382   709.7346     0.3349    15.2599    94.2335     2.5498     0.0639  1079.7632
 1278.5000   -68.1289     8.0220     8.3923     8.4857   710.0336     0.3348    15.2620    93.5253     2.5431     0.0686  1079.4203
 1279.0000   -68.1156     8.0435     8.3999     8.4706   710.3326     0.3348    15.2793    92.8347     2.5297     0.0703  1079.0774
 1279.5000   -68.1022     8.1087     8.4459     8.4401   710.6316     0.3343    15.2962    92.1900     2.5208     0.0676  1078.7344
 1280.0000   -68.0889     8.1545     8.5146     8.3883   710.9306     0.3321    15.2982    91.6767     2.5119     0.0663  1078.3915
 1280.5000   -68.0756     8.1614     8.5399     8.3806   711.2297     0.3287    15.3003    90.9859     2.5030     0.0620  1078.0486
 1281.0000   -68.1146     8.1931     8.5475     8.3333   711.5287     0.3241    15.3182    90.4680     2.5000     0.0607  1077.7057
 1281.5000   -68.1970     8.2320     8.5565     8.2842   711.8277     0.3201    15.3361    90.1513     2.4994     0.0579  1077.3628
 1282.0000   -68.1837     8.2390     8.5639     8.2926   712.1267     0.3182    15.3511    89.6975     2.5003     0.0551  1077.0199
 1282.5000   -68.1704     8.2460     8.5713     8.3010   712.4257     0.3187    15.3571    89.4970     2.5026     0.0554  1076.6770
 1283.0000   -68.0790     8.2530     8.4609     8.2521   712.7247     0.3198    15.3702    89.6572     2.5065     0.0571  1076.3341
 1283.5000   -67.9956     8.2228     8.3519     8.2035   713.0238     0.3210    15.3666    89.9143     2.5066     0.0634  1075.9912
 1284.0000   -67.9822     8.1706     8.3002     8.2123   713.3228     0.3220    15.3529    90.1714     2.5044     0.0726  1075.6483
 1284.5000   -67.9689     8.1603     8.2481     8.2266   713.6218     0.3229    15.3316    90.6989     2.5037     0.0804  1075.3053
 1285.0000   -67.9556     8.1672     8.1963     8.2949   713.9208     0.3236    15.2851    91.3885     2.5061     0.0851  1074.9624
 1285.5000   -67.9422     8.2321     8.1365     8.3516   714.2198     0.3241    15.2333    92.0781     2.5119     0.0922  1074.6195
 1286.0000   -67.9289     8.2960     8.0379     8.2731   714.5189     0.3247    15.1879    92.9913     2.5176     0.1067  1074.2766
 1286.5000   -67.9134     8.3604     7.9875     8.3708   714.8179     0.3250    15.1537    93.7028     2.5176     0.1174  1073.9337
 1287.0000   -67.9006     8.4838     7.9522     8.3796   715.1169     0.3251    15.0892    94.1490     2.5117     0.1267  1073.5908
 1287.5000   -67.8878     8.6090     7.9594     8.3885   715.4160     0.3252    15.0464    94.1692     2.5088     0.1360  1073.2479
 1288.0000   -67.8750     8.6163     8.0058     8.4205   715.7150     0.3252    15.0037    94.1386     2.5112     0.1422  1072.9050
 1288.5000   -67.8622     8.6230     8.1291     8.4904   716.0140     0.3261    14.9759    93.9218     2.5113     0.1198  1072.5621
 1289.0000   -67.8489     8.4970     8.2544     8.5323   716.3130     0.3269    14.9463    93.7824     2.5159     0.0899  1072.2191
 1289.5000   -67.8355     8.4012     8.3816     8.4798   716.6121     0.3277    14.9150    93.7116     2.5242     0.0841  1071.8762
 1290.0000   -67.8024     8.3845     8.4803     8.3671   716.9111     0.3286    14.8751    93.4948     2.5334     0.0904  1071.5333
 1290.5000   -67.6607     8.2861     8.5492     8.2560   717.2101     0.3294    14.8613    93.2779     2.5417     0.1012  1071.1904
 1291.0000   -67.6474     8.2335     8.5831     8.1463   717.5091     0.3300    14.8476    92.9299     2.5523     0.1089  1070.8475
 1291.5000   -67.6341     8.1423     8.5908     8.0381   717.8081     0.3305    14.8393    92.1871     2.5659     0.1212  1070.5046
 1292.0000   -67.6207     7.9746     8.4784     7.9717   718.1071     0.3307    14.8350    91.4173     2.5810     0.1304  1070.1617
 1292.5000   -67.6074     7.7874     8.2637     7.9228   718.4062     0.3304    14.8140    90.8978     2.5864     0.1386  1069.8188
 1293.0000   -67.5941     7.6217     8.0786     7.9190   718.7052     0.3284    14.7762    91.2641     2.5835     0.1475  1069.4760
 1293.5000   -67.5807     7.5729     7.9366     7.8738   719.0042     0.3271    14.7399    92.4008     2.5761     0.1537  1069.1331
 1294.0000   -67.4963     7.6090     7.9434     7.8818   719.3032     0.3307    14.8314    93.5375     2.5687     0.1569  1068.7900
 1294.5000   -67.3284     7.6707     7.8955     7.8897   719.6022     0.3340    15.0137    94.2333     2.5598     0.1557  1068.4471
 1295.0000   -67.2444     7.6980     7.8479     7.8977   719.9012     0.3367    15.1226    95.2011     2.5538     0.1529  1068.1042
 1295.5000   -67.2311     7.7046     7.7468     7.9060   720.2003     0.3387    15.1395    96.1693     2.5524     0.1426  1067.7614
 1296.0000   -67.2178     7.7111     7.5410     7.9137   720.4993     0.3403    15.1265    97.1370     2.5555     0.1308  1067.4185
 1296.5000   -67.2044     7.7176     7.3914     7.8552   720.7983     0.3412    15.1285    98.0499     2.5616     0.1174  1067.0756
 1297.0000   -67.0815     7.6191     7.3489     7.7669   721.0974     0.3410    15.1150    98.3010     2.5647     0.1131  1066.7327
 1297.5000   -67.0296     7.6782     7.3627     7.7763   721.3964     0.3392    15.1012    97.0455     2.5633     0.1239  1066.3898
 1298.0000   -66.8659     7.7378     7.4225     7.8113   721.6954     0.3370    15.0875    95.3607     2.5439     0.1362  1066.0469
 1298.5000   -66.8531     7.8521     7.4719     7.9172   721.9944     0.3344    15.0703    94.1766     2.5177     0.1439  1065.7040
 1299.0000   -66.8404     7.9130     7.4917     7.9646   722.2935     0.3315    15.0451    93.4933     2.5126     0.1426  1065.3610
 1299.5000   -66.8276     7.9747     7.5526     7.9730   722.5925     0.3293    15.0314    93.0395     2.5082     0.1429  1065.0181
 1300.0000   -66.9098     7.9809     7.6158     7.9519   722.8915     0.3282    15.0178    92.7372     2.5010     0.1446  1064.7296
 1300.5000   -66.9956     7.9528     7.6831     7.8864   723.1907     0.3277    15.0045    92.5243     2.4941     0.1538  1065.4697
 1301.0000   -67.0814     7.9267     7.6588     7.8209   723.4900     0.3263    14.9912    92.3113     2.4912     0.1645  1066.1085
 1301.5000   -67.1672     7.9006     7.5891     7.7597   723.7892     0.3250    14.9779    92.2869     2.4905     0.1737  1066.7473
 1302.0000   -67.2000     7.8794     7.5431     7.6977   724.0885     0.3262    14.9642    91.8668     2.4913     0.1724  1067.3861
