~VERSION INFORMATION
 VERS.                2.0:   CWLS LOG ASCII STANDARD - VERSION 2.0
 WRAP.                 NO:   ONE LINE PER DEPTH STEP
~WELL INFORMATION
#MNEM.UNIT      DATA TYPE    INFORMATION
#----------   ------------   ------------------------------
 STRT.F           48.0000:   START DEPTH
 STOP.F         3235.5000:   STOP DEPTH
 STEP.F            0.5000:   STEP LENGTH
 NULL.          -999.2500:   NO VALUE
 COMP.    TESORO PEROLEUM:   COMPANY
 WELL. TESORO P46 T 28 N.P.R. #3-28:   WELL
 FLD .        TEAPOT DOME:   FIELD
 LOC .      S28 T39N R78W:   LOCATION
 CNTY.            NATRONA:   COUNTY
 STAT.            WYOMING:   STATE
 CTRY. UNITED STATES OF AMERICA:   COUNTRY
 SRVC.      DRESSER ATLAS:   SERVICE COMPANY
 DATE.        17-SEP-1975:   LOGDATE
 API .     49025102530000:   API NUMBER
~CURVE INFORMATION
#MNEM.UNIT       API CODE    CURVE DESCRIPTION
#----------   ------------   ------------------------------
 DEPT.F                  :   
 CALD.IN     45 280 60 00:   CALIPER FROM DENSITY LOG
 RHOB.G/C3   45 350 01 00:   BULK DENSITY
 CORR.G/C3   45 356 01 00:   DENSITY CORRECTION
 TEND.LBS    45 635 01 00:   TENSION FORM DENSITY LOG
 NPHI.DEC    42 890 03 00:   NEUTRON POROSITY SANDSTONE
 SPR .MV     07 010 01 00:   SPONTANEOUS POTENTIAL
 ILD .OHMM   07 120 46 00:   DEEP INDUCTION RESISTIVITY
 ILM .OHMM   07 120 44 00:   INDUCTION LOG MEDIUM RESISTIVITY
 SFL .OHMM   07 220 01 00:   SHALLOW FOCUSED LOG RESISTIVITY
 GRD .GAPI   45 310 01 00:   GAMMA RAY FROM DENSITY LOG
~PARAMETER INFORMATION
#MNEM.UNIT          VALUE    DESCRIPTION
#----------   ------------   ------------------------------
 EKB .F         5088.0000:   Kelly bushing
 EGL .F         5075.0000:   Ground level
 TD  .F         3218.0000:   Total depth
 CLNT.            A2DTECH:   Client Code
 SL  . 2310' FWL & 1650' FSL:   Surface Location
 PD  .                 GL:   Permanent Datum
 EPD .F              5075:   Elevation Permanent Datum
 LMF .                 KB:   Log Measured From
 DMF .                 KB:   Drilling Measured From
 DAPD.F                13:   Feet Above Permanent Datum
 DATE.        17-SEP-1975:   Date Logged [DD-MMM-YYYY]
 DD  .F              3218:   Depth driller
 DL  .F              3217:   Depth logger
 BLI .F              3215:   Bottom log interval
 TLI .F               395:   Top log interval
 CS1 .IN            8.625:   Casing size
 CBD1.      8.625" @ 393':   Casing driller 1
 CBL1.F               395:   Casing logger 1
 BS1 .IN            7.875:   Bit size
 BSD1.F              3218:   Depth drilled with bit1
 DFT .           CHEM GEL:   Type fluid in hole
 DFD .                9.5:   Density
 DFV .                 60:   Viscosity
 DFPH.                9.5:   pH
 DFL .                 11:   Fluid loss
 MSS .           FLOWLINE:   Source of sample
 RMS .OHMM           0.55:   Rm
 MST .F                60:   Rm Meas. temp.
 RMF .OHMM           0.48:   Rmf
 MFST.F                62:   Rmf Meas. temp.
 MFSS.               MEAS:   Source Rmf.
 RMC .OHMM            1.6:   Rmc
 MCST.F                62:   Rmc Meas. temp.
 MCSS.               MEAS:   Source Rmc.
 RMB .OHMM            0.3:   Rm. at BHT
 BHT .F               112:   BHT.
 TCS .HRS               5:   Time Circ. stopped
 MRT .F               112:   Maximum recorded temp.
 LUN .               6008:   Logging unit number
 LUL .              GLTTE:   Logging unit location
 ENGI.            MILHOAN:   Recorded By
 WITN.               WOLF:   Witnessed by
 ORIG.           5" PRINT:   Origin of data
 UWI .     49025102530000:   Unique Well ID
 DICO. A2DTECHNOLOGIES,INC.:   Digitizing Company
~OTHER INFORMATION
~A   DEPT     CALD       RHOB       CORR       TEND       NPHI         SPR         ILD        ILM        SFL      GRD   
# ...
 2158.5000     8.5140     2.5575     0.0264  2008.4587     0.2971   -28.6194     9.2851     9.1132     9.3180    80.2502
 2159.0000     8.5159     2.5538     0.0236  2006.6462     0.3007   -28.7624     9.1626     9.1816     9.0669    81.4709
 2159.5000     8.5323     2.5479     0.0208  2004.8682     0.3054   -28.7551     9.1695     9.2495     8.9451    82.4516
 2160.0000     8.5338     2.5404     0.0179  2018.1268     0.3138   -29.0484     9.3035     9.3829     8.9511    84.6318
 2160.5000     8.5353     2.5345     0.0136  2015.9523     0.3108   -29.3402     9.4394     9.6516     9.0817    86.3322
 2161.0000     8.5368     2.5368     0.0122  2014.1646     0.2993   -29.4817     9.4451     9.7230     9.4745    87.3130
 2161.5000     8.5532     2.5497     0.0110  2012.3777     0.2936   -29.6262     9.3855     9.7949     9.7536    86.8492
 2162.0000     8.5547     2.5528     0.0096  2010.5898     0.2891   -29.6189     9.2617     9.7990     9.8899    85.4365
 2162.5000     8.5712     2.5303     0.0098  2009.0632     0.2860   -29.6131     9.2029     9.6565     9.7594    84.9775
 2163.0000     8.5727     2.5251     0.0100  2007.0153     0.2860   -29.6071     9.1449     9.4061     9.3650    84.5193
 2163.5000     8.5745     2.5267     0.0102  2020.5438     0.2890   -29.6000     9.2144     9.2800     9.1113    83.5709
 2164.0000     8.5760     2.5305     0.0104  2018.5463     0.2928   -29.4454     9.2202     9.4148     8.8657    82.8828
 2164.5000     8.5621     2.5314     0.0106  2016.9187     0.2919   -29.2908     9.2914     9.5507     8.8717    82.9050
 2165.0000     8.5486     2.5316     0.0122  2015.1052     0.2925   -29.2857     9.3618     9.6885     9.0011    82.4509
 2165.5000     8.5502     2.5338     0.0139  2013.1838     0.2934   -28.9815     9.4986    10.0355     9.1324    81.0328
 2166.0000     8.5519     2.5369     0.0156  2011.3970     0.2961   -28.9277     9.6373    10.2514     9.2655    78.4154
 2166.5000     8.5234     2.5415     0.0173  2009.6091     0.3014   -28.6723     9.7104    10.3993     9.2707    76.0378
 2167.0000     8.5249     2.5476     0.0205  2007.8551     0.2954   -28.6664     9.7841    10.2587     9.4071    74.1401
 2167.5000     8.5264     2.5522     0.0207  2006.0425     0.2923   -28.5118     9.9270    10.0520     9.5442    72.7220
 2168.0000     8.5277     2.5508     0.0209  2004.2300     0.2908   -28.5060     9.9330    10.1264     9.4160    73.2230
 2168.5000     8.5292     2.5478     0.0210  2002.4165     0.2893   -28.5000    10.0782    10.1305     9.4883    74.2038
 2169.0000     8.5308     2.5442     0.0182  2000.6040     0.2877   -28.4929    10.2256    10.2767    10.3212    74.2251
 2169.5000     8.5323     2.5390     0.0138  1998.4382     0.2856   -28.4871    10.3763    10.4250    11.3058    75.4457
 2170.0000     8.5338     2.5315     0.0125  1996.6514     0.3079   -28.6315    10.5279    10.7235    11.4707    77.6259
 2170.5000     8.5352     2.5211     0.0112  2010.4163     0.3108   -29.0707    10.5343    10.8783    10.5564    80.2858
 2171.0000     8.5367     2.5166     0.0129  2008.1824     0.3147   -29.5113    10.5407    10.8073    10.7852    81.9862
 2171.5000     8.5382     2.5175     0.0146  2006.3947     0.3213   -29.8031    10.4742    10.6549    10.6338    84.4734
 2172.0000     8.5397     2.5213     0.0163  2020.1598     0.3149   -29.7973    10.2629    10.3627    10.0018    91.3737
 2172.5000     8.5262     2.5222     0.0180  2033.4785     0.3140   -29.7915     9.8514    10.0246     9.5962    94.0440
 2173.0000     8.5126     2.5116     0.0184  2046.3496     0.3161   -29.4880     9.7214     9.7525    10.0127    91.4319
 2173.5000     8.4991     2.5136     0.0198  2059.6685     0.3048   -29.1845     9.5932     9.7575    11.0445    89.2942
 2174.0000     8.4856     2.5202     0.0200  2057.8806     0.3040   -29.0078     9.7335     9.9674    11.3628    85.4774
 2174.5000     8.4873     2.5202     0.0186  2071.6465     0.3106   -28.7251     9.8770    10.0411    10.9035    82.6148
 2175.0000     8.5039     2.5158     0.0174  2069.4116     0.3015   -28.5714     9.8830    10.0452    10.3180    86.4794
 2175.5000     8.5054     2.5129     0.0175  2067.6248     0.2949   -28.2670     9.8206     9.9095     9.9010    88.4197
 2176.0000     8.5219     2.5160     0.0162  2065.8608     0.2936   -28.2619     9.6240     9.5756    10.1892    88.9154
 2176.5000     8.5080     2.5206     0.0149  2064.0483     0.2948   -28.2554     9.4312     9.3817    10.6271    86.5432
 2177.0000     8.5098     2.5244     0.0151  2062.2358     0.2963   -28.2496     9.2410     9.2550    10.7819    85.8395
 2177.5000     8.4960     2.5268     0.0137  2060.4231     0.3053   -28.2438     9.1202     9.1318    10.2043    85.6252
 2178.0000     8.4978     2.5291     0.0139  2058.6108     0.2980   -28.2379     9.0628     9.0966     9.7919    86.1272
 2178.5000     8.4993     2.5322     0.0141  2056.7974     0.2986   -28.2321     9.0043     9.0129     9.6603    86.6282
 2179.0000     8.5308     2.5368     0.0143  2054.9846     0.2952   -28.0774     8.8787     9.0168     9.3999    84.7276
 2179.5000     8.5322     2.5406     0.0146  2053.1721     0.2949   -28.0714     8.6485     8.8958     9.3397    83.0395
 2180.0000     8.5337     2.5385     0.0162  2051.0913     0.2961   -28.0644     8.5344     8.7765     9.8818    81.3834
 2180.5000     8.5352     2.5363     0.0163  2064.4094     0.2976   -28.2074     8.6604     8.6588     9.9604    79.9966
 2181.0000     8.5367     2.5394     0.0165  2062.6226     0.3028   -28.2016     8.7261     8.5427     9.2035    80.5029
 2181.5000     8.5385     2.5426     0.0167  2060.8347     0.2981   -28.1958     8.6697     8.5471     9.5523    81.4837
 2182.0000     8.5397     2.5457     0.0139  2059.0479     0.2960   -28.4890     8.5553     8.4316    10.4723    81.9847
 2182.5000     8.5412     2.5479     0.0140  2057.2600     0.2944   -28.6306     8.4435     8.3185     9.9100    82.0059
 2183.0000     8.5480     2.5472     0.0112  2055.4731     0.2938   -28.7738     8.3322     8.2070     8.9315    81.5421
 2183.5000     8.5594     2.5548     0.0084  2068.8821     0.2941   -28.7677     8.1636     8.1543     7.9937    80.6092
 2184.0000     8.5609     2.5677     0.0085  2073.5159     0.2955   -28.7619     8.1138     8.1576     7.8863    79.9108
 2184.5000     8.5624     2.5685     0.0072  2080.3628     0.2986   -28.7560     8.1200     8.1036     7.8917    79.2124
 2185.0000     8.5639     2.5656     0.0089  2078.5352     0.3000   -28.7488     8.0129     7.9949     8.4657    78.7539
 2185.5000     8.5500     2.5597     0.0107  2076.7368     0.2985   -28.7430     7.9072     7.9990     9.0820    78.5343
 2186.0000     8.5668     2.5522     0.0138  2074.9243     0.2954   -28.4396     7.8028     7.8910     9.3432    78.3160
 2186.5000     8.5833     2.5448     0.0170  2073.1116     0.2918   -28.4338     7.6987     7.8950     7.7453    77.8579
 2187.0000     8.5848     2.5494     0.0217  2071.2991     0.2903   -28.1303     7.3901     7.7351     8.9716    77.3996
 2187.5000     8.6012     2.5593     0.0249  2069.4866     0.2893   -27.8269     6.9949     7.0692     9.5574    76.9411
 2188.0000     8.5877     2.5661     0.0281  2052.2578     0.2936   -27.8211     6.4394     6.4606     8.6137    76.1730
 2188.5000     8.5583     2.5662     0.0313  2050.4707     0.2992   -27.8153     6.0082     6.1536     7.6026    72.1913
 2189.0000     8.4995     2.5632     0.0345  2033.8367     0.2967   -27.6606     5.6845     5.9069     6.9966    69.3340
 2189.5000     8.4572     2.5542     0.0377  2032.0242     0.2958   -27.8036     5.6145     5.8684     6.2620    69.3552
 2190.0000     8.4741     2.5561     0.0409  2030.0027     0.2961   -27.7976     5.6188     5.9952     5.9672    70.0961
 2190.5000     8.4905     2.5590     0.0426  2028.3989     0.2970   -27.9394     5.7008     6.2533     6.1044    70.4101
 2191.0000     8.5220     2.5418     0.0443  2026.5864     0.3005   -28.0838     5.8244     6.5225     7.5402    70.8583
 2191.5000     8.5684     2.5133     0.0444  2024.6411     0.2933   -28.3756     6.0340     6.8033     9.1433    70.8795
