~VERSION INFORMATION
 VERS.                2.0:   CWLS LOG ASCII STANDARD - VERSION 2.0
 WRAP.                 NO:   ONE LINE PER DEPTH STEP
~WELL INFORMATION
#MNEM.UNIT      DATA TYPE    INFORMATION
#----------   ------------   ------------------------------
 STRT.F          517.0000:   START DEPTH
 STOP.F         3222.0000:   STOP DEPTH
 STEP.F            0.5000:   STEP LENGTH
 NULL.          -999.2500:   NO VALUE
 COMP.    FENIX & SCISSON:   COMPANY
 WELL.  FENIX "TX" #53-33:   WELL
 FLD .             NPR #3:   FIELD
 LOC .      S33 T39N R78W:   LOCATION
 CNTY.            NATRONA:   COUNTY
 STAT.            WYOMING:   STATE
 CTRY. UNITED STATES OF AMERICA:   COUNTRY
 SRVC.              WELEX:   SERVICE COMPANY
 DATE.        24-AUG-1980:   LOGDATE
 API .     49025108460000:   API NUMBER
~CURVE INFORMATION
#MNEM.UNIT       API CODE    CURVE DESCRIPTION
#----------   ------------   ------------------------------
 DEPT.F                  :   
 CALD.IN     45 280 60 00:   CALIPER FROM DENSITY LOG
 GRD .GAPI   45 310 01 00:   GAMMA RAY FROM DENSITY LOG
 CORR.G/C3   45 356 01 00:   DENSITY CORRECTION
 RHOB.G/C3   45 350 01 00:   BULK DENSITY
 SPR .MV     07 010 01 00:   SPONTANEOUS POTENTIAL
 ILD .OHMM   07 120 46 00:   DEEP INDUCTION RESISTIVITY
 ILM .OHMM   07 120 44 00:   INDUCTION LOG MEDIUM RESISTIVITY
 SGRD.OHMM   07 220 05 00:   SHALLOW SHORT GUARD RESISTIVITY
~PARAMETER INFORMATION
#MNEM.UNIT          VALUE    DESCRIPTION
#----------   ------------   ------------------------------
 EKB .F         5173.0000:   Kelly bushing
 EGL .F         5163.0000:   Ground level
 EDF .F            0.0000:   Drilling floor
 EPD .F            0.0000:   Permanent datum
 TD  .F         3224.0000:   Total depth
 CLNT.            A2DTECH:   Client Code
 SL  . 1650' FNL & 2500' FEL:   Surface Location
 PD  .                 GL:   Permanent Datum
 DAPD.F                10:   Feet Above Permanent Datum
 DATE.        24-AUG-1980:   Date Logged [DD-MMM-YYYY]
 DD  .F              3190:   Depth driller
 DL  .F              3224:   Depth logger
 BLI .F              3222:   Bottom log interval
 TLI .F               528:   Top log interval
 CS1 .IN            8.625:   Casing size
 CBD1.      8.625" @ 532':   Casing driller 1
 CBL1.F               528:   Casing logger 1
 BS1 .IN            7.875:   Bit size
 BSD1.F              3190:   Depth drilled with bit1
 DFT .     WATER BASE MUD:   Type fluid in hole
 DFD .                8.8:   Density
 DFV .                 45:   Viscosity
 DFL .                9.4:   Fluid loss
 MSS .            MUD PIT:   Source of sample
 RMS .OHMM           2.10:   Rm
 MST .F                65:   Rm Meas. temp.
 RMF .OHMM           1.68:   Rmf
 MFST.F                65:   Rmf Meas. temp.
 MFSS.               CALC:   Source Rmf.
 RMC .OHMM           2.52:   Rmc
 MCST.F                65:   Rmc Meas. temp.
 MCSS.               CALC:   Source Rmc.
 RMB .OHMM           1.14:   Rm. at BHT
 BHT .F               120:   BHT.
 TCS .HRS               3:   Time Circ. stopped
 MRT .F               120:   Maximum recorded temp.
 LUN .               1892:   Logging unit number
 LUL .             CASPER:   Logging unit location
 ENGI.           WACHTEIL:   Recorded By
 ORIG.         2.5" PRINT:   Origin of data
 UWI .     49025108460000:   Unique Well ID
 DICO. A2D TECHNOLOGIES, INC.:   Digitizing Company
~OTHER INFORMATION
~A   DEPT     CALD         GRD      CORR       RHOB        SPR        ILD        ILM       SGRD   
# ...
 3028.0000     8.9308   106.6666     0.0879     2.5137   -23.3282     2.9915     3.7048     4.5703
 3028.5000     8.9602   106.3969     0.0727     2.5061   -23.3368     2.9902     3.7636     4.5040
 3029.0000     8.9594   103.8107     0.0666     2.4984   -23.3454     2.9890     3.8049     4.5006
 3029.5000     8.9587   104.0316     0.0802     2.4923   -23.3544     2.9878     3.8559     4.7527
 3030.0000     8.9580   105.3153     0.0846     2.4889   -23.3634     2.9452     3.9071     4.8826
 3030.5000     8.9572   106.7794     0.0521     2.4846   -23.4500     2.9440     3.9050     5.0161
 3031.0000     8.9565   106.9910     0.0523     2.4957   -23.6817     2.9429     3.9024     5.0125
 3031.5000     8.9557   105.1683     0.0695     2.5089   -23.6907     2.9828     3.9004     5.0088
 3032.0000     8.9550   105.1511     0.0843     2.5133   -23.6997     2.9815     3.8983     4.8683
 3032.5000     8.9842   107.3861     0.0933     2.5179   -23.7103     2.9803     3.8963     4.7861
 3033.0000     8.9833   107.8198     0.0962     2.5269   -23.7189     2.9858     3.8942     4.7281
 3033.5000     8.9526   106.4507     0.0992     2.5375   -23.4264     3.0247     3.8920     4.7245
 3034.0000     8.9519   107.8922     0.0991     2.5435   -23.4359     3.0604     3.8363     4.7512
 3034.5000     8.9512   108.2180     0.0960     2.5374   -23.4445     3.1016     3.7815     4.8127
 3035.0000     8.9504   106.5766     0.0929     2.5312   -23.1528     3.1436     3.7569     4.7788
 3035.5000     8.9497   105.9279     0.0967     2.5235   -23.4625     3.1420     3.7253     4.9095
 3036.0000     8.9790   106.1259     0.1018     2.5188   -23.4715     3.1846     3.7748     5.1854
 3036.5000     8.9782   106.7928     0.0899     2.5159   -23.4805     3.2278     3.8788     5.4014
 3037.0000     8.9677   106.7718     0.0723     2.5143   -23.4895     3.3171     4.0412     5.5491
 3037.5000     8.9467   103.1510     0.0633     2.5148   -23.6612     3.5046     4.3891     5.7205
 3038.0000     8.9159   101.3320     0.0834     2.5164   -23.8094     3.6566     4.7031     5.8742
 3038.5000     8.8550   102.2156     0.0833     2.5220   -24.1183     3.7626     5.0511     6.1268
 3039.0000     8.8242   102.1798     0.0681     2.5369   -24.4272     3.9256     5.3504     6.4272
 3039.5000     8.8235    98.7788     0.0681     2.5338   -24.4358     4.0607     5.6432     6.8061
 3040.0000     8.8228    95.8576     0.0744     2.5307   -24.7447     4.1838     5.9204     7.2857
 3040.5000     8.8521    96.7412     0.0837     2.5306   -24.7538     4.3972     6.0996     7.5893
 3041.0000     8.8814    96.3787     0.0930     2.5367   -24.7628     4.6094     6.3542     7.3766
 3041.5000     8.8806    92.7020     0.0974     2.5554   -24.3887     4.8031     6.3508     7.1698
 3042.0000     8.8799    91.2793     0.1070     2.5728   -24.0701     4.8683     6.3475     6.7785
 3042.5000     8.8696    93.0600     0.1310     2.5870   -23.5886     4.7333     6.3441     6.4977
 3043.0000     8.8362    94.8446     0.1370     2.5802   -23.4324     4.6646     6.1675     6.3005
 3043.5000     8.8176    95.7283     0.1309     2.5623   -23.0075     4.5294     5.9957     6.1382
 3044.0000     8.7866    96.6119     0.1187     2.5328   -22.7159     4.3982     5.8148     6.0192
 3044.5000     8.7559    96.5808     0.0945     2.5204   -22.7245     4.3303     5.6245     5.9614
 3045.0000     8.7251    94.7756     0.0823     2.5241   -22.7331     4.2281     5.3580     5.8749
 3045.5000     8.6944    97.4365     0.0752     2.5088   -22.7442     4.1399     5.1755     5.7889
 3046.0000     8.6937   100.5230     0.0693     2.5027   -23.0511     4.1088     5.0246     5.7847
 3046.5000     8.6929   102.4285     0.0640     2.5011   -23.3604     3.9950     5.0603     5.7805
 3047.0000     8.6922   104.1258     0.0682     2.5011   -23.6697     3.9385     5.0577     6.0214
 3047.5000     8.7215   105.7435     0.0699     2.5025   -23.6787     3.8827     5.1970     6.1009
 3048.0000     8.7600   106.8257     0.0607     2.5043   -23.6877     3.8812     5.1942     6.1815
 3048.5000     8.7919   107.2589     0.0606     2.5093   -23.6967     3.8263     5.2639     6.2632
 3049.0000     8.8239   105.4399     0.0636     2.5155   -23.7072     3.8169     5.1885     6.2579
 3049.5000     8.8559   101.8190     0.0726     2.5206   -23.7158     3.7705     5.1143     6.0823
 3050.0000     8.8979    99.0991     0.0816     2.5160   -23.7244     3.7689     5.0412     5.8709
 3050.5000     8.9272    98.6314     0.0809     2.5205   -23.7331     3.7674     4.9397     5.5111
 3051.0000     8.9564    99.9655     0.0693     2.5219   -23.4414     3.7658     4.7642     5.2829
 3051.5000     8.9557   101.0905     0.0662     2.5143   -23.1497     3.7639     4.6310     5.0642
 3052.0000     8.9550   102.9546     0.0692     2.5173   -23.0993     3.7625     4.5649     5.4234
 3052.5000     8.9542   105.4730     0.0764     2.5263   -22.8666     3.7751     4.4998     5.8081
 3053.0000     8.9836   107.0991     0.0824     2.5171   -22.8769     3.8119     4.6237     6.0501
 3053.5000     9.0129   105.2761     0.0770     2.5192   -22.8859     3.8104     4.7511     6.1437
 3054.0000     9.0422   101.2048     0.0900     2.5325   -22.8949     3.8620     4.8219     6.3198
 3054.5000     9.0413    98.9353     0.0930     2.5318   -23.2057     3.8603     4.9611     6.3808
 3055.0000     9.0405    98.0172     0.0838     2.5291   -23.5146     3.8731     5.1045     6.3751
 3055.5000     9.0096    97.9999     0.0687     2.5347   -23.8235     3.9112     5.2520     6.3703
 3056.0000     8.9789    98.4331     0.0697     2.5435   -23.8321     3.9638     5.4038     6.2770
 3056.5000     8.9481    98.4144     0.0903     2.5472   -23.8408     4.0174     5.5915     6.2502
 3057.0000     8.9174    98.3964     0.0926     2.5410   -23.8848     4.0718     5.8250     6.3557
 3057.5000     8.8857    98.5360     0.0822     2.5471   -24.1592     4.0699     5.9034     6.6201
 3058.0000     8.8226    99.2070     0.0728     2.5531   -24.4685     4.1825     6.0657     6.8979
 3058.5000     8.7950   100.1441     0.0621     2.5470   -24.4775     4.2392     6.1471     7.0845
 3059.0000     8.7943    99.6724     0.0681     2.5471   -24.7868     4.2966     6.2295     7.0995
 3059.5000     8.7935    98.3038     0.0801     2.5533   -24.9683     4.3012     6.2259     7.1729
 3060.0000     8.8068    98.1982     0.0891     2.5590   -25.1065     4.4258     6.2225     6.9909
 3060.5000     8.8856   100.0711     0.0679     2.5358   -25.1152     4.5359     6.2190     6.6820
 3061.0000     8.9413   101.8557     0.0586     2.5224   -25.1238     4.5338     6.2156     6.4043
 3061.5000     8.9106   101.2922     0.0522     2.5299   -25.4327     4.5951     6.2121     6.3116
 3062.0000     8.8798    99.4958     0.0465     2.5267   -25.1410     4.6299     6.1227     6.1347
 3062.5000     8.8190    98.6487     0.0575     2.5237   -25.1502     4.5278     6.0353     5.9627
 3063.0000     8.8183    98.9368     0.0761     2.5298   -24.8579     4.4024     5.8673     5.9584
 3063.5000     8.8476   100.5453     0.0841     2.5388   -24.4749     4.2804     5.8642     5.9541
 3064.0000     8.8468   102.9008     0.0915     2.5433   -23.9743     4.1046     5.6978     6.0327
 3064.5000     8.8461   108.4831     0.0884     2.5433   -23.8374     3.9316     5.5215     6.0067
 3065.0000     8.8564   106.2136     0.0914     2.5432   -23.3934     3.7604     5.2237     5.7228
 3065.5000     8.8746   104.3946     0.0943     2.5462   -23.1035     3.6190     5.0016     5.5476
 3066.0000     8.8903   105.7287     0.1003     2.5465   -23.1121     3.5032     4.8180     5.2698
 3066.5000     8.9032   108.4142     0.1033     2.5492   -23.1207     3.4492     4.6174     5.0186
 3067.0000     8.8723   109.2978     0.1002     2.5470   -22.8288     3.3724     4.4169     4.8779
 3067.5000     8.8115   108.3108     0.1039     2.5446   -23.1381     3.2789     4.2163     4.7412
 3068.0000     8.8108   107.4615     0.1132     2.5414   -23.1873     3.2325     4.0157     4.7378
