~VERSION INFORMATION
 VERS.                2.0:   CWLS LOG ASCII STANDARD - VERSION 2.0
 WRAP.                 NO:   ONE LINE PER DEPTH STEP
~WELL INFORMATION
#MNEM.UNIT      DATA TYPE    INFORMATION
#----------   ------------   ------------------------------
 STRT.F          230.0000:   START DEPTH
 STOP.F         3480.0000:   STOP DEPTH
 STEP.F            0.5000:   STEP LENGTH
 NULL.          -999.2500:   NO VALUE
 COMP.    FENIX & SCISSON:   COMPANY
 WELL. FENIX NPR 3 "AX" #33-15:   WELL
 FLD .                NPR:   FIELD
 LOC .      S15 T38N R78W:   LOCATION
 CNTY.            NATRONA:   COUNTY
 STAT.            WYOMING:   STATE
 CTRY. UNITED STATES OF AMERICA:   COUNTRY
 SRVC.       SCHLUMBERGER:   SERVICE COMPANY
 DATE.        19-MAR-1981:   LOGDATE
 API .     49025108760000:   API NUMBER
~CURVE INFORMATION
#MNEM.UNIT       API CODE    CURVE DESCRIPTION
#----------   ------------   ------------------------------
 DEPT.F                  :   
 TENR.LBS    07 635 01 00:   TENSION
 SFL .OHMM   07 220 01 00:   SHALLOW FOCUSED LOG RESISTIVITY
 ILM .OHMM   07 120 44 00:   INDUCTION LOG MEDIUM RESISTIVITY
 ILD .OHMM   07 120 46 00:   INDUCTION LOG DEEP RESISTIVITY
 SPR .MV     07 010 01 00:   SPONTANEOUS POTENTIAL
 CALD.IN     45 280 60 00:   CALIPER FROM DENSITY LOG
 GRD .GAPI   45 310 01 00:   GAMMA RAY FROM DENSITY LOG
 CORR.G/C3   45 356 01 00:   DENSITY CORRECTION
 RHOB.G/C3   45 350 01 00:   BULK DENSITY
~PARAMETER INFORMATION
#MNEM.UNIT          VALUE    DESCRIPTION
#----------   ------------   ------------------------------
 EKB .F         5286.0000:   Kelly bushing
 EGL .F         5276.0000:   Ground level
 EDF .F            0.0000:   Drilling floor
 TD  .F         3500.0000:   Total depth
 DATE.        19-MAR-1981:   Date logged
 CLNT.            A2DTECH:   Client Code
 SL  . 1545' FNL & 1467' FWL:   Surface Location
 PD  .                 GL:   Permanent Datum
 EPD .F              5276:   Elevation Permanent Datum
 LMF .                 KB:   Log Measured From
 DMF .                 KB:   Drilling Measured From
 DAPD.F                10:   Feet Above Permanent Datum
 DD  .F              3500:   Depth driller
 DL  .F              3476:   Depth logger
 BLI .F              3470:   Bottom log interval
 TLI .F               234:   Top log interval
 CS1 .IN            8.625:   Casing size
 CBD1.      8.625" @ 250':   Casing driller 1
 CBL1.F               234:   Casing logger 1
 BS1 .IN            7.875:   Bit size
 BSD1.F              3500:   Depth drilled with bit1
 DFT .                FGM:   Type fluid in hole
 DFD .                8.9:   Density
 DFV .                 39:   Viscosity
 DFPH.                9.5:   pH
 DFL .                 10:   Fluid loss
 MSS .               TANK:   Source of sample
 RMS .OHMM           2.26:   Rm
 MST .F                54:   Rm Meas. temp.
 RMF .OHMM           1.60:   Rmf
 MFST.F                54:   Rmf Meas. temp.
 MFSS.               MEAS:   Source Rmf.
 RMB .OHMM            .87:   Rm. at BHT
 BHT .F               140:   BHT.
 TCS .HRS            1030:   Time Circ. stopped
 TLAB.HRS            1300:   Time logger at bottom
 MRT .F               140:   Maximum recorded temp.
 LUN .               8039:   Logging unit number
 LUL .               CSPR:   Logging unit location
 ENGI.           C. PFARR:   Recorded By
 WITN.           R. SCOTT:   Witnessed by
 ORIG.     2.5", 5" PRINT:   Origin of data
 UWI .     49025108760000:   Unique Well ID
 DICO. A2D TECHNOLOGIES, INC.:   Digitizing Company
~OTHER INFORMATION
~A   DEPT     TENR          SFL      ILM        ILD        SPR         CALD       GRD      CORR         RHOB 
# ...
 3223.0000  1787.1490    11.0530     7.9790     8.8110   -26.8070     8.4740    98.2270     0.0340     2.6120
 3223.5000  1787.1490    11.3500     7.7730     8.6430   -26.4630     8.4770    99.4540     0.0280     2.5890
 3224.0000  1787.1490    11.9040     7.7930     8.4750   -26.4730     8.4800   101.6410     0.0220     2.5770
 3224.5000  1787.1490    11.6630     7.8300     8.3710   -26.7330     8.4800   104.9470     0.0250     2.5750
 3225.0000  1787.1490    11.0270     7.8670     8.5520   -26.9910     8.4800   105.7840     0.0300     2.5790
 3225.5000  1787.1490    10.6510     7.9040     8.7350   -27.1840     8.4800   105.9450     0.0240     2.5750
 3226.0000  1787.1490    11.2850     8.1340     8.9190   -27.4200     8.4800   104.1270     0.0150     2.5640
 3226.5000  1787.1490    13.1870     8.4320     9.1030   -27.7350     8.4800   102.1260     0.0060     2.5540
 3227.0000  1787.1490    14.8680     8.7290     9.2870   -28.0240     8.4800   102.2280     0.0010     2.5550
 3227.5000  1787.1490    14.8680     9.0270     9.4700   -28.3450     8.4800   103.3630     0.0010     2.5570
 3228.0000  1787.1490    14.8680     9.3550     9.6540   -28.3790     8.4800   105.9280     0.0030     2.5610
 3228.5000  1787.1490    14.8680     9.2780     9.8380   -28.2910     8.4800   108.1740     0.0130     2.5660
 3229.0000  1787.1490    13.9050     9.1930     9.8900   -28.1280     8.4800   109.7160     0.0200     2.5700
 3229.5000  1787.1490    13.0380     9.1070     9.8290   -27.9900     8.4800   109.2240     0.0200     2.5720
 3230.0000  1787.1490    12.8190     9.0210     9.7630   -27.8470     8.4800   106.8240     0.0200     2.5740
 3230.5000  1787.1490    13.1150     8.9360     9.7080   -27.7000     8.4800   105.8140     0.0220     2.5840
 3231.0000  1787.1490    13.3040     8.8490     9.7080   -27.5860     8.4800   107.3130     0.0290     2.5900
 3231.5000  1787.1490    13.0010     8.8490     9.8320   -27.5800     8.4800   109.4820     0.0370     2.5900
 3232.0000  1787.1490    12.6970     9.0260    10.0400   -27.5660     8.4800   110.2200     0.0440     2.5770
 3232.5000  1787.1490    12.5840     9.4500    10.2470   -27.4170     8.4800   109.4660     0.0400     2.5650
 3233.0000  1787.1490    13.3040     9.8730    10.4550   -27.2860     8.4800   107.8250     0.0410     2.5670
 3233.5000  1787.1490    15.4880    10.2970    10.6620   -27.1430     8.4800   102.7180     0.0500     2.5860
 3234.0000  1787.1490    18.4150    10.7200    10.8700   -27.0120     8.4800    96.2960     0.0580     2.5950
 3234.5000  1787.1490    21.3410    10.8500    11.0770   -26.8700     8.4800    92.5150     0.0660     2.5930
 3235.0000  1787.1490    22.7700    10.8920    11.2600   -26.7310     8.4800    95.9780     0.0650     2.5770
 3235.5000  1787.1490    18.1850    10.5320    10.8930   -26.6160     8.4800   102.7850     0.0670     2.5680
 3236.0000  1787.1490    16.0120     9.8130    10.3870   -26.4150     8.4800   105.6680     0.0650     2.5610
 3236.5000  1787.1490    15.7180     9.0930     9.6890   -26.7070     8.4800   109.7550     0.0650     2.5540
 3237.0000  1787.1490    14.7030     8.3740     8.9300   -26.8520     8.4800   116.9890     0.0690     2.5510
 3237.5000  1787.1490    12.1840     7.6550     8.1700   -26.9160     8.4800   126.3560     0.0780     2.5510
 3238.0000  1787.1490     9.4630     6.9350     7.4110   -26.9600     8.4830   134.8300     0.0850     2.5540
 3238.5000  1787.1490     6.8270     6.2160     6.6510   -27.0300     8.4870   137.3930     0.0890     2.5560
 3239.0000  1787.1490     6.7020     5.6720     5.7780   -27.0840     8.4900   138.0140     0.0860     2.5590
 3239.5000  1787.1490     6.7020     5.3860     5.7780   -27.1500     8.4940   138.6850     0.0820     2.5580
 3240.0000  1787.1490     6.7020     5.2100     5.3680   -27.1680     8.4970   139.2550     0.0780     2.5490
 3240.5000  1787.1490     6.7240     5.0350     5.1700   -27.1070     8.5010   139.7720     0.0760     2.5400
 3241.0000  1787.1490     6.7690     4.9670     5.1500   -27.0550     8.5040   140.0130     0.0750     2.5350
 3241.5000  1787.1490     6.8150     4.9180     5.0860   -27.0010     8.5080   140.3810     0.0820     2.5430
 3242.0000  1787.1490     6.8270     4.8690     5.0210   -26.9460     8.5110   140.8820     0.0890     2.5500
 3242.5000  1787.1490     6.8270     4.8200     4.9570   -26.8920     8.5150   147.0910     0.1020     2.5570
 3243.0000  1787.1490     6.3640     4.7720     4.8910   -26.8380     8.5180   152.1660     0.1050     2.5600
 3243.5000  1787.1490     5.9650     4.7230     4.8910   -26.7830     8.5220   156.3680     0.1020     2.5550
 3244.0000  1787.1490     5.5680     4.6260     4.8910   -26.7290     8.5250   160.9530     0.1020     2.5320
 3244.5000  1787.1490     5.1700     4.7520     5.0650   -26.6750     8.5290   157.1310     0.0620     2.5040
 3245.0000  1787.1490     6.1870     4.9560     5.2010   -26.6210     8.5320   148.5460     0.0360     2.5250
 3245.5000  1787.1490     7.4180     5.1600     5.3370   -26.5660     8.5360   137.9570     0.0280     2.5470
 3246.0000  1787.1490     8.6480     5.3650     5.4720   -26.5120     8.5390   128.5350     0.0210     2.5590
 3246.5000  1787.1490     9.5300     5.5690     5.6080   -26.4590     8.5430   123.0980     0.0130     2.5650
 3247.0000  1787.1490     9.3340     5.7780     5.7430   -26.4020     8.5460   125.4560     0.0130     2.5600
 3247.5000  1787.1490     8.9900     5.7360     5.8790   -26.4110     8.5500   128.7250     0.0180     2.5550
 3248.0000  1787.1490     8.3750     5.6720     5.9960   -26.4850     8.5530   131.9180     0.0180     2.5510
 3248.5000  1787.1490     7.7610     5.6450     5.9280   -26.5560     8.5570   135.7850     0.0090     2.5450
 3249.0000  1787.1490     7.3520     5.6210     5.8360   -26.6300     8.5600   137.9990     0.0060     2.5350
 3249.5000  1787.1490     7.3520     5.5970     5.7780   -26.6970     8.5580   136.8540     0.0060     2.5330
 3250.0000  1787.1490     7.3520     5.5680     5.8190   -26.7800     8.5550   134.3700     0.0030     2.5350
 3250.5000  1787.1490     8.0460     5.6110     5.8890   -26.7900     8.5520   131.8770     0.0060     2.5390
 3251.0000  1787.1490     8.6250     5.6650     5.9590   -26.8600     8.5490   129.2960     0.0140     2.5500
 3251.5000  1787.1490     9.1830     5.7180     6.0280   -26.9310     8.5460   129.5600     0.0230     2.5620
 3252.0000  1787.1490     8.6500     5.7720     6.1090   -27.0040     8.5430   132.2000     0.0300     2.5740
 3252.5000  1787.1490     8.1360     5.8260     6.0850   -27.0710     8.5530   140.5410     0.0220     2.5690
 3253.0000  1787.1490     7.6210     5.8860     6.0340   -27.1620     8.6170   143.6890     0.0130     2.5620
 3253.5000  1787.1490     7.3520     5.7780     5.9830   -27.0520     8.6790   145.8740     0.0050     2.5610
 3254.0000  1787.1490     7.4990     5.7780     5.9320   -26.7450     8.7270   145.2620     0.0100     2.5630
 3254.5000  1787.1490     7.9180     5.6720     5.8860   -26.4630     8.7380   144.3580     0.0150     2.5580
 3255.0000  1787.1490     7.8350     5.5680     5.7730   -26.1710     8.7470   144.3420     0.0170     2.5470
 3255.5000  1787.1490     7.5710     5.4740     5.6700   -25.8880     8.7550   145.1240     0.0130     2.5360
 3256.0000  1787.1490     7.3080     5.3800     5.5680   -25.6120     8.7630   146.0780     0.0090     2.5390
 3256.5000  1787.1490     7.0850     5.2850     5.4650   -25.5950     8.7710   150.1240     0.0050     2.5480
 3257.0000  1787.1490     6.8270     5.1910     5.3620   -25.6210     8.7790   151.4670     0.0100     2.5570
 3257.5000  1787.1490     6.8270     5.0970     5.2600   -25.7050     8.7860   152.8810     0.0150     2.5690
 3258.0000  1787.1490     6.7590     5.0030     5.1570   -25.7770     8.7940   150.9810     0.0190     2.5660
 3258.5000  1787.1490     6.5820     4.8910     5.0750   -25.8530     8.8020   151.4440     0.0180     2.5490
 3259.0000  1787.1490     6.4060     4.8910     4.9820   -25.9290     8.8030   150.9810     0.0090     2.5310
