~VERSION INFORMATION
 VERS.                2.0:   CWLS LOG ASCII STANDARD - VERSION 2.0
 WRAP.                 NO:   ONE LINE PER DEPTH STEP
~WELL INFORMATION
#MNEM.UNIT      DATA TYPE    INFORMATION
#----------   ------------   ------------------------------
 STRT.F          404.0000:   START DEPTH
 STOP.F         2919.0000:   STOP DEPTH
 STEP.F            0.5000:   STEP LENGTH
 NULL.          -999.2500:   NO VALUE
 COMP.    FENIX & SCISSON:   COMPANY
 WELL. FENIX & SCISSON "AX" #27-21:   WELL
 FLD .             NPR #3:   FIELD
 LOC .      S21 T39N R78W:   LOCATION
 CNTY.            NATRONA:   COUNTY
 STAT.            WYOMING:   STATE
 CTRY. UNITED STATES OF AMERICA:   COUNTRY
 SRVC.       SCHLUMBERGER:   SERVICE COMPANY
 DATE.        21-APR-1977:   LOGDATE
 API .     49025103730000:   API NUMBER
~CURVE INFORMATION
#MNEM.UNIT       API CODE    CURVE DESCRIPTION
#----------   ------------   ------------------------------
 DEPT.F                  :   
 SPR .MV     07 010 01 00:   SPONTANEOUS POTENTIAL
 ILM .OHMM   07 120 44 00:   INDUCTION LOG MEDIUM RESISTIVITY
 ILD .OHMM   07 120 46 00:   DEEP INDUCTION RESISTIVITY
 LL8 .OHMM   07 220 08 00:   LATEROLOG-8 RES.
 GRN .GAPI   35 310 01 00:   GAMMA RAY
 CALD.IN     45 280 60 00:   CALIPER FROM DENSITY LOG
 GRD .GAPI   45 310 01 00:   GAMMA RAY FROM DENSITY LOG
 CORR.G/C3   45 356 01 00:   DENSITY CORRECTION
 RHOB.G/C3   45 350 01 00:   BULK DENSITY
~PARAMETER INFORMATION
#MNEM.UNIT          VALUE    DESCRIPTION
#----------   ------------   ------------------------------
 EKB .F         5004.0000:   Kelly bushing
 EGL .F         4994.0000:   Ground level
 TD  .F         2920.0000:   Total depth
 CLNT.            A2DTECH:   Client Code
 SL  . 991' FWL & 1090' FSL:   Surface Location
 DATE.        21-APR-1977:   Date Logged [DD-MMM-YYYY]
 DD  .F              2920:   Depth driller
 DL  .F              2920:   Depth logger
 BLI .F              2914:   Bottom log interval
 TLI .F               419:   Top log interval
 CS1 .              8.625:   Casing size
 CBD1.      8.625" @ 425':   Casing driller 1
 CBL1.IN              419:   Casing logger 1
 BS1 .IN            7.875:   Bit size
 BSD1.F              2920:   Depth drilled with bit1
 DFT .                FGM:   Type fluid in hole
 DFD .                9.0:   Density
 DFV .                 34:   Viscosity
 DFPH.                8.0:   pH
 DFL .                8.0:   Fluid loss
 MSS .                PIT:   Source of sample
 RMS .OHMM          0.158:   Rm
 MST .F                72:   Rm Meas. temp.
 RMF .OHMM          0.158:   Rmf
 MFST.F                72:   Rmf Meas. temp.
 MFSS.               MEAS:   Source Rmf.
 RMB .OHMM          0.102:   Rm. at BHT
 BHT .F               112:   BHT.
 TCS .HRS            0500:   Time Circ. stopped
 TLAB.HRS            0700:   Time logger at bottom
 MRT .F               112:   Maximum recorded temp.
 LUN .               5642:   Logging unit number
 LUL .               CSPR:   Logging unit location
 ENGI.             TAYLOR:   Recorded By
 WITN.          PETTINGIL:   Witnessed by
 ORIG.      2.5" 5" PRINT:   Origin of data
 UWI .     49025103730000:   Unique Well ID
 DICO. A2D TECHNOLOGIES, INC.:   Digitizing Company
 PD  .                 GL:   Permanent Datum
 EPD .F              4994:   Elevation Permanent Datum
 LMF .                 KB:   Log Measured From
 DMF .                 KB:   Drilling Measured From
 DAPD.F                10:   Feet Above Permanent Datum
~OTHER INFORMATION
~A   DEPT      SPR        ILM        ILD        LL8        GRN       CALD         GRD      CORR       RHOB   
# ...
 2046.5000   -67.7188     6.0734     5.4892     8.1100   135.5347     8.5478    88.7475     0.0163     2.4305
 2047.0000   -68.0151     5.6701     5.1252     7.7809   133.5340     8.5484    88.1919     0.0298     2.4911
 2047.5000   -68.1076     5.4415     4.8757     7.3629   134.9149     8.5490    89.3915     0.0253     2.4999
 2048.0000   -68.6074     5.5942     4.7904     6.5031   139.2083     8.5496   101.9226     0.0359     2.4967
 2048.5000   -68.9995     5.7752     4.9718     5.9044   143.2771     8.5502   105.3730     0.0600     2.4940
 2049.0000   -69.3937     5.5192     5.1545     6.0691   148.2441     8.5211   107.6937     0.0840     2.5000
 2049.5000   -69.8915     5.5200     5.2722     6.9658   150.9656     8.5217   108.8923     0.0916     2.5015
 2050.0000   -70.1885     5.5207     5.1994     8.6846   152.7889     8.4926   109.4975     0.0481     2.4761
 2050.5000   -70.6833     5.5980     5.3187     7.0616   155.5208     8.4932   109.8029     0.0391     2.4742
 2051.0000   -70.9794     5.8349     5.6699     6.0674   157.9895     8.4641   109.8110     0.0361     2.4806
 2051.5000   -70.9777     5.9166     5.9073     6.5000   159.3939     8.4647   109.8201     0.0256     2.4776
 2052.0000   -70.8731     6.2524     6.1546     7.6690   162.5210     8.4653   108.6420     0.0332     2.4776
 2052.5000   -70.2753     6.5170     6.2987     8.6816   157.9155     8.4658   105.9802     0.0377     2.4806
 2053.0000   -70.0804     6.6998     6.3850     8.6810   148.6388     8.4664    98.2739     0.0378     2.4896
 2053.5000   -69.6753     6.7935     6.4724     8.6804   149.3753     8.4967    98.5794     0.0363     2.5031
 2054.0000   -69.1845     6.7944     6.4467     8.8004   152.0955     8.4974   103.0392     0.0379     2.5048
 2054.5000   -68.8854     6.6496     6.3822     8.7997   157.6453     8.4980   103.0480     0.0459     2.5044
 2055.0000   -68.8839     6.5605     6.2713     8.7991   163.9144     8.4985   102.1666     0.0581     2.5106
 2055.5000   -68.8824     6.4235     6.0176     8.7985   167.4109     8.5288    97.0238     0.0650     2.5108
 2056.0000   -68.7698     6.2123     5.7743     8.7979   168.0711     8.5294    95.9525     0.0305     2.5090
 2056.5000   -68.5818     6.3141     5.5803     7.0557   158.0410     8.5300    95.6663     0.0398     2.4718
 2057.0000   -68.6934     6.7126     5.4080     5.6585   150.7382     8.5306    93.8947     0.0553     2.5092
 2057.5000   -68.8768     6.9446     6.0118     6.6762   151.9689     8.5312    90.3426     0.0648     2.5288
 2058.0000   -69.1729     7.1870     6.4164     8.0971   154.9082     8.5614    92.1319     0.0757     2.5187
 2058.5000   -69.1711     7.0896     6.6638     9.2935   158.5211     8.5620    91.8439     0.0625     2.4603
 2059.0000   -69.2869     6.9937     6.8480     9.6854   157.8676     8.5626    90.9625     0.0147     2.4305
 2059.5000   -69.4661     6.9491     6.9215     9.0395   156.0913     8.5632    89.7844     0.0112     2.4269
 2060.0000   -69.4643     6.8560     6.6049     8.7930   151.8450     8.5638    95.4311     0.0503     2.4767
 2060.5000   -69.7604     6.7222     6.2356     8.5533   151.6356     8.5940    96.0334     0.0492     2.4683
 2061.0000   -69.6379     6.4529     5.8222     7.8736   149.4152     8.5947    96.6357     0.0387     2.4569
 2061.5000   -69.3378     5.9906     5.4362     7.3486   148.0830     8.5953    93.3804     0.0347     2.4887
 2062.0000   -69.0377     5.5506     4.9726     6.9538   152.5992     8.5959    90.7186     0.0294     2.4733
 2062.5000   -68.8616     5.1259     4.2765     5.4251   157.5595     8.5965    89.8372     0.0265     2.4502
 2063.0000   -68.4375     4.7354     3.6741     4.1745   159.8251     8.5971    91.3297     0.0410     2.4246
 2063.5000   -67.9658     5.1163     4.1363     5.2768   156.7016     8.5977    92.2287     0.1076     2.4287
 2064.0000   -67.6667     5.6632     4.6345     6.2498   152.4502     8.6280    91.9407     0.1737     2.4495
 2064.5000   -67.6652     6.3200     5.1081     7.6149   154.0473     8.6286    90.7539     0.1077     2.3580
 2065.0000   -67.6637     6.8150     4.8166     9.1788   150.6991     8.6292    89.2479     0.0252     2.3103
 2065.5000   -67.6622     6.2113     4.4206    10.1073   146.4478     8.6298    87.3490     0.0372     2.4664
 2066.0000   -67.6607     5.2463     3.9674     9.3819   147.1416     8.6303    83.0504     0.0237     2.4939
 2066.5000   -67.9568     4.4496     3.6040     6.6708   144.6967     8.6309    82.7859     0.0328     2.4880
 2067.0000   -68.3859     4.0052     3.2737     4.4498   140.8995     8.6612    83.9107     0.0553     2.4740
 2067.5000   -68.8467     3.7245     3.0148     3.8367   144.2879     8.6914    89.8085     0.0839     2.4468
 2068.0000   -69.1428     3.5562     2.9007     3.6553   149.9218     8.7217    97.6498     0.0944     2.4166
 2068.5000   -69.1414     3.4746     2.8644     3.4371   146.5737     8.7816    96.8952     0.0539     2.3694
 2069.0000   -69.0032     3.6007     2.9879     3.3963   139.1836     8.8416    90.3285     0.0270     2.3113
 2069.5000   -68.7029     3.7893     3.0705     4.4794   135.1618     8.8422    80.8512     0.0315     2.2801
 2070.0000   -68.4027     3.7215     3.1553     4.7215   134.2787     8.9319    77.2699     0.0150     2.3734
 2070.5000   -68.2426     3.3586     3.1956     4.7212   136.5494     8.7247    76.6249     0.0166     2.3539
 2071.0000   -68.2411     3.2013     3.0661     4.7526   141.0606     8.6957    77.4144     0.0475     2.4482
 2071.5000   -68.2396     3.1580     2.9806     4.6003   143.9999     8.6072    78.7237     0.0947     2.4198
 2072.0000   -68.3809     3.1584     2.9414     4.1215   145.5919     8.6078    82.6110     0.0447     2.3959
 2072.5000   -68.6781     3.1589     2.9410     3.5484   148.9803     8.6084    84.1247     0.0654     2.4468
 2073.0000   -68.9752     3.1684     2.9824     3.6903   153.0424     8.6683    88.2072     0.1134     2.4842
 2073.5000   -69.2724     3.2123     3.0649     4.7005   158.0026     8.7283    92.4065     0.0761     2.3645
 2074.0000   -69.8670     3.3478     3.1501     5.1880   160.2683     8.6398    92.4154     0.0709     2.4528
 2074.5000   -70.0163     3.5461     3.2372     5.9175   158.9411     8.5811    92.8483     0.0889     2.4713
 2075.0000   -70.6099     3.7983     3.5627     5.5801   158.5071     8.5817    94.3620     0.0529     2.4613
 2075.5000   -71.0561     4.0306     3.9220     4.7326   160.3287     8.5526    97.3866     0.0485     2.5532
 2076.0000   -71.2024     4.4272     4.2586     4.4315   150.4686     8.5532   100.7466     0.0680     2.5517
 2076.5000   -71.3526     4.7322     4.6881     5.7541   145.5436     8.5537   101.8062     0.0495     2.5417
 2077.0000   -71.4970     4.9905     4.9525     6.6544   147.8143     8.5543   103.0857     0.0234     2.4993
 2077.5000   -71.6493     5.2009     5.0203     7.7167   149.6308     8.5252   105.5358     0.0186     2.4547
 2078.0000   -71.7917     5.2730     5.0891     7.5952   150.5441     8.5258   104.9511     0.0278     2.4934
 2078.5000   -71.7902     5.5867     5.3026     6.8374   147.1960     8.4967   100.2122     0.0374     2.5068
 2079.0000   -71.4911     5.9832     5.7577     6.5028   148.1144     8.4973    98.4391     0.0375     2.5278
 2079.5000   -71.1920     6.3133     6.2519     6.6006   143.4240     8.4979    98.1384     0.0269     2.5109
 2080.0000   -71.1905     6.5786     6.5142     7.4685   146.8124     8.4688    97.1914     0.0226     2.4963
 2080.5000   -70.7315     6.8496     6.6949     8.3744   150.6499     8.4694    94.1248     0.0305     2.5165
 2081.0000   -70.2946     6.9400     6.7014     9.3886   144.8317     8.4700    88.8119     0.0503     2.5473
 2081.5000   -69.9955     6.8460     6.6017    10.1500   146.1992     8.4706    85.3868     0.0654     2.5479
 2082.0000   -69.5336     6.7534     6.6008    10.2023   146.7007     8.4712    84.8420     0.0775     2.5454
 2082.5000   -69.0997     6.7543     6.5999     9.5031   144.4423     8.4718    85.2569     0.0820     2.5482
