~VERSION INFORMATION
 VERS.                2.0:   CWLS LOG ASCII STANDARD - VERSION 2.0
 WRAP.                 NO:   ONE LINE PER DEPTH STEP
~WELL INFORMATION
#MNEM.UNIT      DATA TYPE    INFORMATION
#----------   ------------   ------------------------------
 STRT.F          218.0000:   START DEPTH
 STOP.F         3062.0000:   STOP DEPTH
 STEP.F            0.5000:   STEP LENGTH
 NULL.          -999.2500:   NO VALUE
 COMP.    FEXIN & SCISSON:   COMPANY
 WELL. FEXIN 32 "A" #3-34:   WELL
 FLD .              N P R:   FIELD
 LOC .      S34 T39N R78W:   LOCATION
 CNTY.            NATRONA:   COUNTY
 STAT.            WYOMING:   STATE
 CTRY. UNITED STATES OF AMERICA:   COUNTRY
 SRVC.              WELEX:   SERVICE COMPANY
 DATE.        18-JUL-1977:   LOGDATE
 API .     49025103960000:   API NUMBER
~CURVE INFORMATION
#MNEM.UNIT       API CODE    CURVE DESCRIPTION
#----------   ------------   ------------------------------
 DEPT.F                  :   
 CALD.IN     45 280 60 00:   CALIPER FROM DENSITY LOG
 RHOB.G/C3   45 350 01 00:   BULK DENSITY
 GRD .GAPI   45 310 01 00:   GAMMA RAY FROM DENSITY LOG
 CORR.G/C3   45 356 01 00:   DENSITY CORRECTION
 SPR .MV     07 010 01 00:   SPONTANEOUS POTENTIAL
 SGRD.OHMM   07 220 05 00:   SHALLOW SHORT GUARD RESISTIVITY
 ILM .OHMM   07 120 44 00:   INDUCTION LOG MEDIUM RESISTIVITY
 ILD .OHMM   07 120 46 00:   DEEP INDUCTION RESISTIVITY
~PARAMETER INFORMATION
#MNEM.UNIT          VALUE    DESCRIPTION
#----------   ------------   ------------------------------
 EKB .F         5080.0000:   Kelly bushing
 EGL .F         5070.0000:   Ground level
 TD  .F         3070.0000:   Total depth
 DATE.        18-JUL-1977:   Date logged
 CLNT.            A2DTECH:   Client Code
 SL  . 900' FNL & 1650'FWL:   Surface Location
 PD  .                 GL:   Permanent Datum
 DD  .F              3070:   Depth driller
 DL  .F              3063:   Depth logger
 BLI .F              3061:   Bottom log interval
 CS1 .IN            8.625:   Casing size
 CBD1.      8.625" @ 212':   Casing driller 1
 CBL1.F               222:   Casing logger 1
 BS1 .IN            7.875:   Bit size
 DFT .           CEHM-GEL:   Type fluid in hole
 DFD .                8.8:   Density
 DFV .                 42:   Viscosity
 DFPH.                7.5:   pH
 DFL .                  8:   Fluid loss
 MSS .           FLOWLINE:   Source of sample
 RMS .OHMM            .89:   Rm
 MST .F                94:   Rm Meas. temp.
 RMF .OHMM            .54:   Rmf
 MFST.F                94:   Rmf Meas. temp.
 RMC .OHMM           1.24:   Rmc
 MCST.F                94:   Rmc Meas. temp.
 MFSS.               FANN:   Source Rmf.
 RMB .OHMM            .67:   Rm. at BHT
 BHT .F               122:   BHT.
 TCS .HRS               4:   Time Circ. stopped
 MRT .F               122:   Maximum recorded temp.
 LUN .               8611:   Logging unit number
 LUL .             CASPER:   Logging unit location
 ENGI.          C.A. DOAK:   Recorded By
 WITN.         PETTINGILL:   Witnessed by
 ORIG.           5" PRINT:   Origin of data
 UWI .     49025103960000:   Unique Well ID
 DICO. A2D TECHNOLOGIES, INC.:   Digitizing Company
 DAPD.                 12:   Feet Above Permanent Datum
 BSD1.F              3950:   Depth drilled with bit1
 MCSS.                KIT:   Source Rmc.
 EPD .F              5070:   Elevation Permanent Datum
 LMF .                 KB:   Log Measured From
 DMF .                 KB:   Drilling Measured From
 TLI .F               200:   Top log interval
~OTHER INFORMATION
~A   DEPT     CALD       RHOB        GRD       CORR        SPR       SGRD        ILM        ILD   
# ...
 2810.0000     8.2530     2.4800   123.4740     0.0030   -71.5700    33.0110    28.2820    22.8520
 2810.5000     8.2620     2.4830   125.4250     0.0030   -71.5650    32.7550    28.1680    22.6690
 2811.0000     8.2700     2.4840   127.3800     0.0030   -71.5600    32.7200    28.0540    22.4870
 2811.5000     8.2780     2.4790   128.7520     0.0030   -71.5550    32.6840    27.9400    22.3040
 2812.0000     8.2870     2.4810   126.7220     0.0030   -71.5490    32.6490    27.8260    22.1220
 2812.5000     8.2950     2.4840   124.7470     0.0040   -71.5440    32.6140    27.7120    21.9390
 2813.0000     8.2960     2.4770   123.1400     0.0040   -71.5390    32.5790    27.6040    21.7570
 2813.5000     8.2940     2.4700   124.0330     0.0040   -71.5340    32.2090    27.6360    21.5740
 2814.0000     8.2920     2.4700   125.8490     0.0060   -71.5290    31.4590    27.7060    21.4000
 2814.5000     8.2890     2.4740   127.6610     0.0130   -71.5240    31.0290    27.7770    21.5070
 2815.0000     8.2870     2.4780   127.9870     0.0190   -71.5190    31.5580    27.8480    21.6090
 2815.5000     8.2850     2.4820   125.9050     0.0250   -71.5140    32.3820    27.9190    21.7110
 2816.0000     8.2820     2.4820   122.4890     0.0320   -71.5090    33.0110    27.9900    21.8140
 2816.5000     8.2800     2.4810   119.0750     0.0360   -71.5040    32.9730    28.0610    21.9160
 2817.0000     8.2780     2.4810   115.6620     0.0360   -71.4990    32.8860    28.1320    22.0180
 2817.5000     8.2750     2.4840   115.9580     0.0360   -71.4940    32.8000    28.2030    22.1200
 2818.0000     8.2730     2.4850   116.7020     0.0360   -71.4890    32.5600    28.2740    22.2230
 2818.5000     8.2710     2.4780   117.4350     0.0330   -71.4840    33.1970    28.3450    22.3020
 2819.0000     8.2680     2.4660   114.5180     0.0250   -71.4790    33.7160    28.4150    22.6110
 2819.5000     8.2660     2.4540   112.8970     0.0170   -71.4740    34.2350    28.4860    22.8650
 2820.0000     8.2640     2.4440   113.8020     0.0090   -71.4690    34.8790    28.5570    23.1130
 2820.5000     8.2610     2.4360   114.5900     0.0020   -71.4640    34.7840    28.7400    23.3610
 2821.0000     8.2590     2.4280   114.9440    -0.0010   -71.4580    35.6060    28.9480    23.6090
 2821.5000     8.2640     2.4220   115.3320    -0.0040   -71.4530    34.7630    29.1560    23.8570
 2822.0000     8.2730     2.4150   115.7380    -0.0030   -71.4480    34.2210    29.3640    24.1050
 2822.5000     8.2820     2.4090   114.6750    -0.0050   -71.4430    33.4680    29.5700    24.3530
 2823.0000     8.2900     2.4020   113.4030    -0.0150   -71.4380    34.3530    29.6210    24.6010
 2823.5000     8.2990     2.4040   114.1680    -0.0180   -71.4330    36.5160    29.6720    24.8490
 2824.0000     8.3070     2.4170   114.9040    -0.0200   -71.4280    38.6710    29.7230    24.8970
 2824.5000     8.3160     2.4290   115.6490    -0.0220   -71.4230    38.9380    29.7740    24.7020
 2825.0000     8.3250     2.4410   114.5990    -0.0180   -71.4180    37.3740    29.8250    24.3770
 2825.5000     8.3330     2.4540   113.2510    -0.0130   -71.4130    35.8120    29.8760    24.0530
 2826.0000     8.3420     2.4660   114.8830    -0.0080   -71.4080    34.2510    29.9270    23.7290
 2826.5000     8.3510     2.4760   116.4400    -0.0040   -71.4030    33.0110    29.9780    23.4020
 2827.0000     8.3590     2.4780   117.7920    -0.0010   -71.3980    33.7760    30.0290    23.2420
 2827.5000     8.3680     2.4730   117.3930    -0.0010   -71.3930    34.7390    30.0800    23.0820
 2828.0000     8.3770     2.4670   115.0970    -0.0020   -71.3880    35.7020    30.1310    23.1200
 2828.5000     8.3850     2.4670   112.7210    -0.0030   -71.3830    36.3490    30.1820    23.1580
 2829.0000     8.3940     2.4710   110.3460    -0.0050   -71.3780    36.3490    30.2330    23.1960
 2829.5000     8.4040     2.4750   107.9820    -0.0060   -71.3730    36.3490    30.2840    23.2330
 2830.0000     8.4130     2.4780   106.7260    -0.0080   -71.3680    36.3490    30.3350    23.4020
 2830.5000     8.4230     2.4800   107.8480    -0.0090   -71.3620    36.3490    30.3860    23.7080
 2831.0000     8.4330     2.4780   110.0230    -0.0120   -71.3570    36.3490    30.4370    24.1010
 2831.5000     8.4430     2.4770   112.1690    -0.0110   -71.3520    36.3490    30.4880    24.4940
 2832.0000     8.4530     2.4780   113.6770    -0.0110   -71.3470    36.3490    30.5390    24.8970
 2832.5000     8.4630     2.4760   110.6520    -0.0100   -71.3420    36.3500    30.5900    25.0690
 2833.0000     8.4730     2.4700   109.9670    -0.0110   -71.3370    36.3380    30.6410    25.2420
 2833.5000     8.4830     2.4610   113.0550    -0.0130   -71.3320    36.3750    30.6920    25.2420
 2834.0000     8.4930     2.4480   116.1840    -0.0150   -71.3270    36.0730    30.7430    25.2420
 2834.5000     8.5020     2.4350   117.7470    -0.0170   -71.3220    36.0010    30.7940    25.2420
 2835.0000     8.5120     2.4330   118.4090    -0.0180   -71.3170    35.9280    30.8160    25.2420
 2835.5000     8.5220     2.4370   119.0580    -0.0160   -71.3120    35.8520    30.6090    24.9650
 2836.0000     8.5320     2.4390   119.6960    -0.0140   -71.3070    35.8520    30.0320    24.1930
 2836.5000     8.5420     2.4350   119.2780    -0.0130   -71.3020    34.8040    29.4550    23.4200
 2837.0000     8.5520     2.4400   117.5260    -0.0110   -71.2970    33.7070    28.8440    22.6480
 2837.5000     8.5570     2.4470   121.5770    -0.0090   -71.2920    32.6100    28.0470    21.7660
 2838.0000     8.5610     2.4480   127.0450    -0.0080   -71.2870    31.4660    27.2490    20.8480
 2838.5000     8.5640     2.4450   130.6700    -0.0060   -71.2820    30.0480    26.4510    19.9300
 2839.0000     8.5680     2.4370   129.3830    -0.0040   -71.2770    28.6310    25.4650    19.0120
 2839.5000     8.5720     2.4290   128.8710    -0.0030   -71.2710    26.5810    23.3570    18.0940
 2840.0000     8.5750     2.4210   131.7270    -0.0010   -71.2660    20.7200    21.2500    17.1750
 2840.5000     8.5790     2.4130   136.4960     0.0000   -71.2610    17.7720    19.1690    16.8200
 2841.0000     8.5830     2.4050   140.1980     0.0020   -71.2560    18.3940    19.0380    17.0530
 2841.5000     8.5860     2.3980   138.3560     0.0040   -71.2510    24.2600    21.2730    17.8160
 2842.0000     8.5900     2.3980   130.5370     0.0030   -71.2460    33.4680    23.2400    18.6300
 2842.5000     8.5940     2.4040   122.9150     0.0020   -71.2410    33.3080    24.9240    19.4450
 2843.0000     8.5970     2.4340   115.2710     0.0020   -71.2360    33.2330    26.0340    20.2600
 2843.5000     8.6010     2.4650   107.9130     0.0040   -71.2310    33.0110    27.2270    21.0740
 2844.0000     8.6040     2.4840   105.4530     0.0060   -71.2260    33.3870    28.1800    21.8890
 2844.5000     8.6080     2.4990   103.1350     0.0080   -71.2210    34.5810    28.7670    22.7040
 2845.0000     8.6120     2.5010   102.7020     0.0110   -71.2160    36.3490    28.7670    23.5180
 2845.5000     8.6150     2.5030   104.7430     0.0120   -71.2110    35.9340    28.7220    24.3330
 2846.0000     8.6190     2.5030   107.2240     0.0130   -71.2060    34.5290    28.6360    25.0690
 2846.5000     8.6230     2.5030   107.7270     0.0160   -71.2010    33.1230    28.5500    24.9250
 2847.0000     8.6260     2.5040   106.5950     0.0170   -71.1960    31.7180    28.4640    24.7230
 2847.5000     8.6300     2.4950   109.9610     0.0140   -71.1900    30.1870    28.3770    24.5220
 2848.0000     8.6330     2.4840   114.0700     0.0070   -71.1690    30.2360    28.2910    24.3210
 2848.5000     8.6330     2.4720   113.1910    -0.0020   -71.1310    30.2910    28.1800    24.0550
 2849.0000     8.6330     2.4690   112.4350    -0.0030   -71.0940    30.3460    28.2180    23.4970
 2849.5000     8.6330     2.4690   114.3210    -0.0030   -71.0560    30.6850    28.2720    23.0620
 2850.0000     8.6330     2.4640   118.2830    -0.0040   -71.0190    33.3540    28.3260    22.6270
