~VERSION INFORMATION
 VERS.                2.0:   CWLS LOG ASCII STANDARD - VERSION 2.0
 WRAP.                 NO:   ONE LINE PER DEPTH STEP
~WELL INFORMATION
#MNEM.UNIT      DATA TYPE    INFORMATION
#----------   ------------   ------------------------------
 STRT.F          590.0000:   START DEPTH
 STOP.F         3123.0000:   STOP DEPTH
 STEP.F            0.5000:   STEP LENGTH
 NULL.          -999.2500:   NO VALUE
 COMP.         U. S. NAVY:   COMPANY
 WELL. U.S. NPR 3 "A" #402-33:   WELL
 FLD .             TEAPOT:   FIELD
 LOC .      S33 T39N R78W:   LOCATION
 CNTY.            NATRONA:   COUNTY
 STAT.            WYOMING:   STATE
 CTRY. UNITED STATES OF AMERICA:   COUNTRY
 SRVC.         MCCULLOUGH:   SERVICE COMPANY
 DATE.        23-OCT-1967:   LOGDATE
 API .     49025104460000:   API NUMBER
~CURVE INFORMATION
#MNEM.UNIT       API CODE    CURVE DESCRIPTION
#----------   ------------   ------------------------------
 DEPT.F                  :   
 GRN .GAPI   35 310 01 00:   GAMMA RAY FROM NEUTRON
 NEUT.NAPI   35 330 01 00:   NEUTRON
~PARAMETER INFORMATION
#MNEM.UNIT          VALUE    DESCRIPTION
#----------   ------------   ------------------------------
 EKB .F            0.0000:   Kelly bushing
 EGL .F         5160.5000:   Ground level
 EDF .F         5162.0000:   Drilling floor
 TD  .F         3123.5000:   Total depth
 CLNT.            A2DTECH:   Client Code
 PD  .                 GL:   Permanent Datum
 EPD .F            5160.5:   Elevation Permanent Datum
 LMF .                 DF:   Log Measured From
 DMF .                 DF:   Drilling Measured From
 DAPD.F               1.5:   Feet Above Permanent Datum
 DATE.        23-OCT-1967:   Date Logged [DD-MMM-YYYY]
 DL  .F            3123.5:   Depth logger
 BLI .F              3122:   Bottom log interval
 TLI .F               600:   Top log interval
 CS1 .IN           5.1875:   Casing size
 DFT .              WATER:   Type fluid in hole
 TCS .HRS             4.5:   Time Circ. stopped
 ENGI.         COWLTHORPE:   Recorded By
 WITN.           THOMASON:   Witnessed by
 ORIG.         2.5" PRINT:   Origin of data
 UWI .     49025104460000:   Unique Well ID
 DICO. A2D TECHNOLOGIES, INC.:   Digitizing Company
 LUN .               1498:   Logging unit number
~OTHER INFORMATION
~A   DEPT       GRN      NEUT   
# ...
  711.5000    36.3967   382.2243
  712.0000    31.2419   339.7689
  712.5000    28.7517   336.7263
  713.0000    31.0446   338.6902
  713.5000    29.4493   315.6393
  714.0000    28.8657   311.4101
  714.5000    29.6773   304.4576
  715.0000    31.7533   279.7666
  715.5000    31.3725   314.3634
  716.0000    32.7121   336.6086
  716.5000    32.9928   302.0362
  717.0000    31.8783   284.7545
  717.5000    28.7517   297.1200
  718.0000    28.7045   324.3058
  718.5000    24.5829   359.3911
  719.0000    25.4167   353.9742
  719.5000    27.1065   353.9864
  720.0000    28.1264   324.3547
  720.5000    31.0724   322.1568
  721.0000    29.7855   334.9273
  721.5000    29.8495   351.5649
  722.0000    31.0641   334.2849
  722.5000    30.2390   319.3506
  723.0000    27.9180   324.4280
  723.5000    28.1264   324.5775
  724.0000    28.3349   346.7844
  724.5000    25.1471   343.9229
  725.0000    25.6252   333.9465
  725.5000    27.1092   326.9594
  726.0000    28.3849   329.7555
  726.5000    29.4520   334.3957
  727.0000    29.7939   339.3488
  727.5000    27.5705   336.4172
  728.0000    28.0681   321.3882
  728.5000    29.1686   294.9185
  729.0000    30.0024   336.3596
  729.5000    30.6277   348.1969
  730.0000    31.8783   336.7013
  730.5000    32.4842   301.5857
  731.0000    29.5855   299.9202
  731.5000    26.8758   304.2084
  732.0000    29.7939   323.9266
  732.5000    30.2386   333.5352
  733.0000    29.5855   337.0266
  733.5000    29.5855   311.4590
  734.0000    29.5855   347.4435
  734.5000    29.3381   364.2373
  735.0000    28.6684   364.2496
  735.5000    26.4228   352.4840
  736.0000    26.5922   305.1846
  736.5000    27.9209   305.1763
  737.0000    29.1686   309.9116
  737.5000    28.8212   292.6742
  738.0000    28.0486   314.9194
  738.5000    28.6434   337.1645
  739.0000    30.6831   307.5328
  739.5000    29.3825   292.7231
  740.0000    30.2386   300.1463
  740.5000    31.8200   324.5820
  741.0000    28.9602   326.5278
  741.5000    27.8374   329.8269
  742.0000    30.2108   336.5584
  742.5000    31.0446   324.9097
  743.0000    31.4615   332.3339
  743.5000    32.5426   312.5834
  744.0000    31.4615   287.6614
  744.5000    29.7939   305.1969
  745.0000    27.5011   324.9717
  745.5000    26.8758   315.1027
  746.0000    27.9292   307.7039
  746.5000    29.3993   330.2095
  747.0000    29.8134   374.4272
  747.5000    28.7935   364.2706
  748.0000    26.9758   348.5603
  748.5000    25.9531   322.5869
  749.0000    25.1026   337.4211
  749.5000    24.5829   325.0817
  750.0000    29.3771   346.5034
  750.5000    27.7095   384.3940
  751.0000    29.1325   371.8083
  751.5000    28.9797   352.3042
  752.0000    29.0577   381.9619
  752.5000    31.0724   352.5138
  753.0000    32.0192   331.8473
  753.5000    31.2381   335.7382
  754.0000    29.5685   359.8277
  754.5000    31.8593   366.5188
  755.0000    31.0234   393.6058
  755.5000    28.3116   414.1626
  756.0000    30.6024   421.2238
  756.5000    31.9992   391.5281
  757.0000    30.3898   330.5048
  757.5000    28.6614   335.0390
  758.0000    30.1772   352.5320
  758.5000    28.0907   344.7226
  759.0000    29.1308   314.3142
  759.5000    29.9625   295.2985
  760.0000    30.0163   322.8741
  760.5000    27.4571   347.5896
  761.0000    27.1384   322.8985
  761.5000    27.2982   325.3811
  762.0000    26.4086   332.8043
  762.5000    26.1981   325.4055
  763.0000    25.7791   315.5348
  763.5000    25.5686   327.9003
  764.0000    26.1918   340.2642
  764.5000    27.6488   315.5731
  765.0000    27.2299   330.4073
  765.5000    28.0616   362.5338
  766.0000    30.1439   325.4911
  766.5000    29.7249   345.2659
  767.0000    28.4722   337.6276
  767.5000    28.0532   372.4639
  768.0000    27.8427   320.5993
  768.5000    27.4238   290.9676
  769.0000    27.2132   305.8018
  769.5000    28.4618   305.9000
  770.0000    27.0006   323.5302
  770.5000    23.6635   314.7684
  771.0000    25.5374   293.4990
  771.5000    27.6197   302.3790
  772.0000    25.5332   328.0088
  772.5000    26.3649   345.4125
  773.0000    26.3628   296.4716
  773.5000    25.9439   280.2953
  774.0000    23.0236   270.3191
  774.5000    24.4806   266.4109
  775.0000    23.4363   304.7148
  775.5000    22.9494   308.4309
  776.0000    24.8913   293.0650
  776.5000    26.3483   250.0840
  777.0000    27.3884   241.7465
  777.5000    23.8428   215.1241
  778.0000    24.2576   204.7383
  778.5000    27.7990   254.1595
  779.0000    31.3404   251.7016
  779.5000    33.2143   280.8151
  780.0000    32.1700   297.1804
  780.5000    31.3342   297.4683
  781.0000    29.8730   316.1770
  781.5000    30.4963   339.6940
  782.0000    31.5364   347.0152
  782.5000    32.3681   339.9784
  783.0000    33.6166   306.1500
  783.5000    36.7411   301.2192
  784.0000    41.3248   301.2338
  784.5000    41.7396   301.2460
  785.0000    40.6953   313.6099
  785.5000    38.6088   335.8550
  786.0000    35.0632   328.4563
  786.5000    29.8501   325.9982
  787.0000    30.6818   296.3651
  787.5000    30.9056   316.1413
  788.0000    30.2608   296.3909
  788.5000    29.2165   318.6361
  789.0000    29.1839   298.8857
  789.5000    31.2967   284.0759
  790.0000    33.3791   281.1234
  790.5000    31.5010   296.4520
  791.0000    28.3723   316.2268
  791.5000    26.7027   306.3577
  792.0000    29.6188   333.5436
  792.5000    31.2842   355.8290
  793.0000    29.6146   355.7274
  793.5000    30.2379   348.1465
  794.0000    32.9455   335.8821
  794.5000    33.7772   325.7249
  795.0000    32.7329   328.2247
  795.5000    30.8549   351.6062
  796.0000    28.5599   344.0182
  796.5000    27.3072   328.7129
  797.0000    26.8883   334.1694
  797.5000    26.8862   333.1238
  798.0000    27.7179   344.7597
  798.5000    32.3015   333.5218
  799.0000    34.3838   313.5587
  799.5000    34.5902   304.0829
  800.0000    34.1712   310.6863
  800.5000    32.7072   328.8128
  801.0000    30.8361   337.8078
  801.5000    32.0868   366.5585
  802.0000    32.9206   364.8190
  802.5000    32.0868   360.8537
  803.0000    32.0868   365.7822
  803.5000    33.7543   363.2996
  804.0000    33.3374   377.1197
  804.5000    35.8387   385.5081
  805.0000    36.8809   363.8795
  805.5000    35.0050   354.4799
  806.0000    34.3796   345.9464
  806.5000    35.0105   364.0269
  807.0000    36.0472   373.2167
  807.5000    35.6164   353.0101
  808.0000    34.9661   360.7158
  808.5000    33.7043   373.4276
  809.0000    33.8155   366.9919
  809.5000    33.6460   360.8028
  810.0000    31.7532   359.4328
  810.5000    31.2530   385.8545
  811.0000    31.2530   417.7078
  811.5000    30.7861   403.6116
  812.0000    29.3771   375.4377
  812.5000    29.6550   355.6630
  813.0000    29.7939   372.9431
  813.5000    29.4243   373.7357
  814.0000    31.5254   343.2747
  814.5000    34.3546   332.7038
  815.0000    34.3935   355.6020
  815.5000    33.2402   353.1194
  816.0000    29.8525   365.4589
  816.5000    27.5011   335.8028
  817.0000    26.9647   355.5532
  817.5000    27.0842   377.7739
  818.0000    27.9180   362.9397
  818.5000    27.9180   345.6353
  819.0000    28.9602   335.7418
  819.5000    32.0868   333.2592
  820.0000    36.0472   343.1283
  820.5000    32.0868   380.1711
  821.0000    29.5855   337.7929
  821.5000    28.8435   328.2698
  822.0000    29.5855   357.8978
  822.5000    27.9180   375.1816
  823.0000    27.0620   367.3869
  823.5000    31.0446   342.0540
  824.0000    37.0894   335.6198
  824.5000    37.5062   358.1469
  825.0000    34.7965   381.2946
  825.5000    36.2779   384.9897
  826.0000    36.6725   378.5534
  826.5000    34.5213   368.5364
  827.0000    33.2930   355.3092
  827.5000    32.6565   367.9554
  828.0000    33.6793   388.8802
  828.5000    34.5881   369.7818
  829.0000    34.5881   361.0634
  829.5000    34.4880   373.7114
  830.0000    31.6421   376.2304
  830.5000    31.0446   373.6860
  831.0000    31.2530   374.3540
  831.5000    30.1302   383.4193
  832.0000    30.0024   365.0624
  832.5000    30.4193   340.3469
