~VERSION INFORMATION
 VERS.                2.0:   CWLS LOG ASCII STANDARD - VERSION 2.0
 WRAP.                 NO:   ONE LINE PER DEPTH STEP
~WELL INFORMATION
#MNEM.UNIT      DATA TYPE    INFORMATION
#----------   ------------   ------------------------------
 STRT.F          170.5000:   START DEPTH
 STOP.F         3160.0000:   STOP DEPTH
 STEP.F            0.5000:   STEP LENGTH
 NULL.          -999.2500:   NO VALUE
 COMP.  FENIX AND SCISSON:   COMPANY
 WELL.    FENIX "A" #85-3:   WELL
 FLD .       TEA POT DOME:   FIELD
 LOC .       S3 T38N R78W:   LOCATION
 CNTY.            NATRONA:   COUNTY
 STAT.            WYOMING:   STATE
 CTRY. UNITED STATES OF AMERICA:   COUNTRY
 SRVC.           BIRDWELL:   SERVICE COMPANY
 DATE.        20-DEC-1977:   LOGDATE
 API .     49025104450000:   API NUMBER
~CURVE INFORMATION
#MNEM.UNIT       API CODE    CURVE DESCRIPTION
#----------   ------------   ------------------------------
 DEPT.F                  :   
 CALD.IN     45 280 60 00:   CALIPER FROM DENSITY LOG
 GRD .GAPI   45 310 01 00:   GAMMA RAY FROM DENSITY LOG
 RHOB.G/C3   45 350 01 00:   BULK DENSITY
 CORR.G/C3   45 356 01 00:   DENSITY CORRECTION
 SPR .MV     05 010 01 00:   SPONTANEOUS POTENTIAL
 SN  .OHMM   05 040 00 00:   SHORT NORMAL
 ILD .OHMM   05 120 46 00:   DEEP INDUCTION RESISTIVITY
~PARAMETER INFORMATION
#MNEM.UNIT          VALUE    DESCRIPTION
#----------   ------------   ------------------------------
 EKB .F         5165.0000:   Kelly bushing
 EGL .F         5155.0000:   Ground level
 TD  .F         3151.0000:   Total depth
 DATE.        20-DEC-1977:   Date logged
 CLNT.            A2DTECH:   Client Code
 SL  . 2000' FSL & 100'FEL:   Surface Location
 PD  .                 GL:   Permanent Datum
 EPD .F              5155:   Elevation Permanent Datum
 LMF .                 KB:   Log Measured From
 DMF .                 KB:   Drilling Measured From
 DAPD.F                10:   Feet Above Permanent Datum
 DD  .F              3150:   Depth driller
 DL  .F              3151:   Depth logger
 BLI .F              3146:   Bottom log interval
 TLI .F               200:   Top log interval
 CS1 .IN            8.625:   Casing size
 CBD1.      8.625" @ 223':   Casing driller 1
 BS1 .IN            7.875:   Bit size
 BSD1.F              3150:   Depth drilled with bit1
 DFT .                KCL:   Type fluid in hole
 DFD .                8.9:   Density
 DFV .                 40:   Viscosity
 DFPH.                 11:   pH
 DFL .                7.2:   Fluid loss
 MSS .           FLOWLINE:   Source of sample
 RMS .OHMM            0.4:   Rm
 MST .F                62:   Rm Meas. temp.
 RMF .OHMM           0.48:   Rmf
 MFST.F                63:   Rmf Meas. temp.
 RMC .OHMM           0.52:   Rmc
 MCST.F                63:   Rmc Meas. temp.
 MFSS.               MEAS:   Source Rmf.
 MCSS.               MEAS:   Source Rmc.
 TCS .HRS             3.5:   Time Circ. stopped
 MRT .F               118:   Maximum recorded temp.
 LUN .               2958:   Logging unit number
 LUL .             CASPER:   Logging unit location
 ENGI.             MILLER:   Recorded By
 WITN.         HERRINGTON:   Witnessed by
 ORIG.           5" PRINT:   Origin of data
 UWI .     49025104450000:   Unique Well ID
 DICO. A2D TECHNOLOGIES, INC.:   Digitizing Company
~OTHER INFORMATION
~A   DEPT     CALD        GRD       RHOB        CORR       SPR         SN        ILD   
# ...
 1171.5000    11.7370    76.2065     2.5524     0.0187   -55.3901     9.0329     7.3740
 1172.0000    11.7367    76.2028     2.5524     0.0207   -55.3847     9.1192     7.3760
 1172.5000    11.7364    75.6002     2.5534     0.0207   -55.3793     9.1218     7.4466
 1173.0000    11.7361    74.7978     2.5555     0.0218   -55.3739     9.0404     7.5178
 1173.5000    11.7359    75.3931     2.5595     0.0248   -55.3686     9.0429     7.5199
 1174.0000    11.7356    76.5883     2.5676     0.0268   -55.3632     8.9623     7.5220
 1174.5000    11.7552    77.9824     2.5676     0.0258   -55.3578     8.9648     7.4549
 1175.0000    11.7549    78.9773     2.5686     0.0268   -55.3524     8.9673     7.4569
 1175.5000    11.7546    78.7741     2.5646     0.0248   -55.3470     8.9698     7.4590
 1176.0000    11.7743    77.7720     2.5616     0.0238   -55.5407     8.8898     7.3245
 1176.5000    11.7740    74.1736     2.5626     0.0228   -55.3363     8.8105     7.1924
 1177.0000    11.7737    73.9716     2.5616     0.0208   -55.3309     8.8947     7.1944
 1177.5000    11.7934    73.3672     2.5597     0.0178   -55.3255     8.8972     7.1964
 1178.0000    11.7931    71.7657     2.5547     0.0178   -55.3201     8.8997     7.4007
 1178.5000    11.8128    71.7619     2.5557     0.0199   -55.5138     8.9022     7.2673
 1179.0000    11.8125    72.1576     2.5597     0.0189   -55.5084     8.9047     7.2693
 1179.5000    11.8122    72.3535     2.5527     0.0108   -55.5030     8.9071     7.2045
 1180.0000    11.8517    72.1500     2.5417     0.0078   -55.4976     8.9096     7.2065
 1180.5000    11.8116    72.5458     2.5457     0.0139   -55.4922     8.8302     7.2085
 1181.0000    11.8113    73.5408     2.5458     0.0119   -55.4869     8.8326     7.2774
 1181.5000    11.8110    73.9366     2.5348     0.0059   -55.4815     8.8351     7.2125
 1182.0000    11.7907    74.7320     2.5318     0.0049   -55.4761     8.8376     7.2145
 1182.5000    11.8104    75.7272     2.5368     0.0039   -55.4707     8.8400     7.0844
 1183.0000    11.8101    75.9241     2.5388     0.0039   -55.2663     8.8425     7.2185
 1183.5000    11.8098    76.9194     2.5449     0.0059   -55.2609     8.8449     7.2205
 1184.0000    11.8095    77.9147     2.5549     0.0150   -55.2555     8.7661     7.2226
 1184.5000    11.8092    79.3098     2.5640     0.0180   -55.2501     8.8499     7.2246
 1185.0000    11.8089    79.3062     2.5660     0.0190   -55.2458     8.7710     7.2266
 1185.5000    11.7887    80.9013     2.5620     0.0150   -55.2404     8.7734     7.2286
 1186.0000    11.7684    81.8969     2.5550     0.0140   -55.2351     8.7758     7.1641
 1186.5000    11.7881    80.8942     2.5520     0.0150   -55.2297     8.7783     7.1661
 1187.0000    11.7878    79.4918     2.5530     0.0160   -55.2243     8.7807     7.1681
 1187.5000    11.7675    77.6897     2.5530     0.0190   -55.4180     8.7832     7.1042
 1188.0000    11.7672    76.8867     2.5621     0.0241   -55.4126     8.7856     7.1062
 1188.5000    11.7869    77.2828     2.5651     0.0291   -55.2081     8.7876     7.0428
 1189.0000    11.8065    77.6789     2.5601     0.0221   -55.2027     8.7900     7.0447
 1189.5000    11.8262    79.2742     2.5541     0.0221   -55.1974     8.7925     6.9815
 1190.0000    11.8859    80.6697     2.5632     0.0261   -55.1920     8.8765     6.9835
 1190.5000    11.9256    81.6656     2.5662     0.0261   -55.1834     8.7165     6.9212
 1191.0000    11.9453    81.4629     2.5612     0.0221   -55.1812     8.7189     6.9231
 1191.5000    11.9250    80.8598     2.5482     0.0171   -55.1758     8.7214     6.9258
 1192.0000    11.9247    80.2566     2.5472     0.0151   -55.3695     8.7238     6.9270
 1192.5000    11.9245    79.6533     2.5412     0.0141   -55.3641     8.8072     6.9289
 1193.0000    11.9242    79.4498     2.5382     0.0141   -55.1597     8.8096     6.9308
 1193.5000    11.9439    78.8465     2.5443     0.0162   -55.1543     8.8121     6.9328
 1194.0000    11.9635    78.2432     2.5463     0.0142   -55.1489     8.8146     6.9347
 1194.5000    11.9633    78.6395     2.5423     0.0142   -55.1435     8.8170     6.9366
 1195.0000    11.9430    84.2326     2.5523     0.0192   -55.1381     8.8195     6.9386
 1195.5000    11.9427    82.6304     2.5624     0.0252   -54.9336     8.8219     6.9405
 1196.0000    11.9224    82.2277     2.5654     0.0242   -55.1273     8.8244     7.0069
 1196.5000    11.9221    79.6249     2.5574     0.0253   -55.1219     8.9087     7.1395
 1197.0000    11.9418    80.0212     2.5584     0.0253   -55.1166     8.9112     7.1415
 1197.5000    11.9615    81.0175     2.5545     0.0243   -55.3103     8.9137     7.1435
 1198.0000    12.0012    81.8139     2.5575     0.0243   -55.3049     8.9162     7.2118
 1198.5000    12.0209    81.0105     2.5625     0.0203   -55.2995     8.9187     7.2138
 1199.0000    12.0606    76.4074     2.5575     0.0143   -55.2941     9.0875     7.3504
 1199.5000    12.0803    73.6039     2.5525     0.0103   -55.2887     9.0900     7.4206
 1200.0000    12.0800    71.7995     2.5516     0.0103   -55.2833     9.0926     7.4227
 1200.5000    12.1305    70.6075     2.5455     0.0093   -55.1061     9.1696     7.4249
 1201.0000    12.1218    69.6154     2.5465     0.0083   -55.0722     9.1804     7.5640
 1201.5000    12.1227    68.4233     2.5514     0.0072   -55.0662     9.2677     7.5651
 1202.0000    12.1434    67.6311     2.5443     0.0062   -55.0602     9.3547     7.8516
 1202.5000    12.1243    69.4395     2.5523     0.0152   -55.0542     9.4422     7.9260
 1203.0000    12.0851    70.2477     2.5603     0.0233   -55.2473     9.4971     8.0010
 1203.5000    12.1062    72.2563     2.5652     0.0263   -55.2413     9.5523     8.0768
 1204.0000    12.1271    74.2668     2.5672     0.0233   -55.4356     9.6079     8.1533
 1204.5000    12.1480    74.2701     2.5631     0.0212   -55.4296     9.6637     8.0798
 1205.0000    12.1689    73.2795     2.5551     0.0152   -55.4236     9.7199     8.4633
 1205.5000    12.2098    72.2873     2.5530     0.0142   -55.4176     9.7764     8.4649
 1206.0000    12.2708    70.4962     2.5590     0.0182   -55.6107     9.8114     8.5447
 1206.5000    12.2717    70.5010     2.5609     0.0192   -55.6047     9.8129     8.5463
 1207.0000    12.2726    70.5107     2.5609     0.0182   -55.7978     9.8147     8.5473
 1207.5000    12.2936    70.1186     2.5528     0.0172   -55.7918     9.8165     8.8713
 1208.0000    12.3345    69.7263     2.5528     0.0202   -55.9849     9.8184     8.8730
 1208.5000    12.3554    69.1324     2.5527     0.0181   -55.7798     9.8206     8.8746
 1209.0000    12.3964    68.5416     2.5517     0.0181   -55.7738     9.8220     9.0418
 1209.5000    12.4173    68.3495     2.5506     0.0171   -55.7678     9.8239     9.0435
 1210.0000    12.4583    69.1581     2.5526     0.0211   -56.3591     9.8260     9.0451
 1210.5000    12.4792    69.3663     2.5525     0.0181   -55.7557     9.7372     9.0468
 1211.0000    12.5001    68.5737     2.5615     0.0211   -55.9488     9.7393     9.2176
 1211.5000    12.5011    67.1803     2.5655     0.0221   -55.9428     9.6516     9.2189
 1212.0000    12.5218    67.3885     2.5594     0.0191   -55.9368     9.6534     9.2207
 1212.5000    12.5428    67.3964     2.5523     0.0150   -55.9308     9.5664     9.2224
 1213.0000    12.5637    67.4044     2.5503     0.0140   -55.9248     9.6566     9.2237
 1213.5000    12.5446    67.2122     2.5502     0.0150   -55.9188     9.6588     9.2258
 1214.0000    12.5055    66.8197     2.5542     0.0190   -55.5146     9.6606     9.3132
 1214.5000    12.5264    67.4283     2.5632     0.0221   -55.7077     9.7520     9.4013
 1215.0000    12.5274    69.2382     2.5672     0.0271   -55.7017     9.7538     9.4904
 1215.5000    12.5283    70.0471     2.5631     0.0241   -55.6956     9.7556     9.4921
 1216.0000    12.5693    69.4544     2.5641     0.0261   -55.6896     9.7575     9.6709
 1216.5000    12.5902    67.0612     2.5660     0.0291   -55.6836     9.8495     9.7625
