~VERSION INFORMATION
 VERS.                2.0:   CWLS LOG ASCII STANDARD - VERSION 2.0
 WRAP.                 NO:   ONE LINE PER DEPTH STEP
~WELL INFORMATION
#MNEM.UNIT      DATA TYPE    INFORMATION
#----------   ------------   ------------------------------
 STRT.F          261.0000:   START DEPTH
 STOP.F         2875.0000:   STOP DEPTH
 STEP.F            0.5000:   STEP LENGTH
 NULL.          -999.2500:   NO VALUE
 COMP.   LAWRENCE ALLISON:   COMPANY
 WELL. LAWRENCE ALLISON "X" #85-20:   WELL
 FLD .          N.P.R. #3:   FIELD
 LOC .      S20 T39N R78W:   LOCATION
 CNTY.            NATRONA:   COUNTY
 STAT.            WYOMING:   STATE
 CTRY. UNITED STATES OF AMERICA:   COUNTRY
 SRVC.      DRESSER ATLAS:   SERVICE COMPANY
 DATE.        23-JUL-1986:   LOGDATE
 API .     49025111030000:   API NUMBER
~CURVE INFORMATION
#MNEM.UNIT       API CODE    CURVE DESCRIPTION
#----------   ------------   ------------------------------
 DEPT.F                  :   
 CORR.G/C3   45 356 01 00:   DENSITY CORRECTION
 RHOB.G/C3   45 350 01 00:   BULK DENSITY
 CNC .DEC    42 890 03 00:   NEUTRON POROSITY SANDSTONE
 GRR .GAPI   07 310 01 00:   GAMMA RAY FROM RESISTIVITY
 CALR.IN     07 280 01 00:   CALIPER FROM RESISTIVITY
 SPR .MV     07 010 01 00:   SPONTANEOUS POTENTIAL
 TENR.LBS    07 635 01 00:   TENSION FROM RESISTIVITY
 RILD.OHMM   07 120 46 00:   DEEP INDUCTION RESISTIVITY
 RILM.OHMM   07 120 44 00:   INDUCTION LOG MEDIUM RESISTIVITY
 RFOC.OHMM   07 220 04 00:   RESISTIVITY FOCUSED LOG RES.
~PARAMETER INFORMATION
#MNEM.UNIT          VALUE    DESCRIPTION
#----------   ------------   ------------------------------
 EKB .F         5007.0000:   Kelly bushing
 EGL .F         4995.0000:   Ground level
 EDF .F            0.0000:   Drilling floor
 EPD .F         4995.0000:   Permanent datum
 TD  .F         2874.0000:   Total depth
 CLNT.            A2DTECH:   Client Code
 SL  . 307' FEL & 2237' FSL:   Surface Location
 DATE.        23-JUL-1986:   Date Logged [DD-MMM-YYYY]
 DD  .F              2870:   Depth driller
 DL  .F              2874:   Depth logger
 BLI .F              2872:   Bottom log interval
 TLI .F              2205:   Top log interval
 CS1 .              8.625:   Casing size
 CBD1.      8.625" @ 261':   Casing driller 1
 CBL1.IN              261:   Casing logger 1
 BS1 .IN            7.875:   Bit size
 BSD1.F              2870:   Depth drilled with bit1
 DFT .            KCL-GEL:   Type fluid in hole
 DFD .                9.0:   Density
 DFV .                 37:   Viscosity
 MSS .           MUD TANK:   Source of sample
 RMS .OHMM          0.257:   Rm
 MST .F                89:   Rm Meas. temp.
 RMF .OHMM           0.19:   Rmf
 MFST.F                89:   Rmf Meas. temp.
 MFSS.               CALC:   Source Rmf.
 RMC .OHMM           0.32:   Rmc
 MCST.F                89:   Rmc Meas. temp.
 MCSS.               CALC:   Source Rmc.
 RMB .OHMM           0.20:   Rm. at BHT
 BHT .F               116:   BHT.
 TCS .HRS               4:   Time Circ. stopped
 MRT .F               116:   Maximum recorded temp.
 LUN .            HL 6264:   Logging unit number
 LUL .           GILLETTE:   Logging unit location
 ENGI.      P.M. FAHLSING:   Recorded By
 WITN.           JENNINGS:   Witnessed by
 ORIG.         2.5" PRINT:   Origin of data
 UWI .     49025111030000:   Unique Well ID
 DICO. A2D TECHNOLOGIES, INC.:   Digitizing Company
~OTHER INFORMATION
~A   DEPT     CORR       RHOB        CNC         GRR        CALR      SPR        TENR       RILD      RILM         RFOC 
# ...
 1098.5000  -999.2500  -999.2500  -999.2500    86.6718    10.3031   -91.1504  -122.7323     7.2443     6.0642     7.5236
 1099.0000  -999.2500  -999.2500  -999.2500    87.2565    10.2733   -90.8555  -122.9894     7.2417     6.0628     7.5215
 1099.5000  -999.2500  -999.2500  -999.2500    96.1498    10.2731   -90.8555  -123.2465     7.2393     6.1451     7.5195
 1100.0000  -999.2500  -999.2500  -999.2500   106.8235    10.2730   -90.5605  -123.5035     7.2368     6.1436     7.5174
 1100.5000  -999.2500  -999.2500  -999.2500   103.2538    10.2728   -90.5605  -123.7606     7.2344     6.2269     7.5153
 1101.0000  -999.2500  -999.2500  -999.2500    96.7168    10.2727   -90.6884  -124.0177     7.2319     6.2255     7.6172
 1101.5000  -999.2500  -999.2500  -999.2500    88.9926    10.2725   -90.7129  -124.2748     7.1314     6.2242     7.6147
 1102.0000  -999.2500  -999.2500  -999.2500    88.6050    10.3021   -89.9510  -124.5319     7.1290     6.3085     7.5092
 1102.5000  -999.2500  -999.2500  -999.2500    90.1618    10.3019   -89.6755  -124.7890     7.0300     6.2217     7.4637
 1103.0000  -999.2500  -999.2500  -999.2500    91.9333    10.3314   -90.8555  -125.0461     7.0277     6.2205     7.4031
 1103.5000  -999.2500  -999.2500  -999.2500    93.7049    10.3313   -91.7404  -125.3032     7.0252     6.2192     7.3004
 1104.0000  -999.2500  -999.2500  -999.2500    97.8503    10.3608   -92.0354  -125.5602     7.0228     6.2179     7.2984
 1104.5000  -999.2500  -999.2500  -999.2500   105.5565    10.3607   -92.6254  -125.8173     7.0204     6.2167     7.3465
 1105.0000  -999.2500  -999.2500  -999.2500   103.1737    10.3605   -92.9204  -126.0871     7.0181     6.1863     7.3950
 1105.5000  -999.2500  -999.2500  -999.2500    96.0432    10.3604   -92.9204  -125.5054     7.0154     6.1204     7.3930
 1106.0000  -999.2500  -999.2500  -999.2500    88.9126    10.3602   -92.9204  -124.8935     7.0122     6.0545     7.3896
 1106.5000  -999.2500  -999.2500  -999.2500    91.2776    10.3601   -92.6254  -124.2816     7.0090     6.0337     7.3820
 1107.0000  -999.2500  -999.2500  -999.2500    94.2361    10.3303   -92.3304  -123.6697     7.0059     6.0317     7.3794
 1107.5000  -999.2500  -999.2500  -999.2500    96.6011    10.3004   -92.0354  -123.0579     7.0027     6.0296     7.3769
 1108.0000  -999.2500  -999.2500  -999.2500    96.5922    10.2706   -92.0354  -122.4460     6.9995     6.0276     7.3744
 1108.5000  -999.2500  -999.2500  -999.2500    96.5833    10.2408   -91.9814  -121.8341     6.9963     6.0255     7.3719
 1109.0000  -999.2500  -999.2500  -999.2500   101.3222    10.2407   -91.6716  -121.2222     6.9931     6.0234     7.3694
 1109.5000  -999.2500  -999.2500  -999.2500   103.6884    10.2405   -91.3618  -120.6103     6.9899     6.0214     7.3669
 1110.0000  -999.2500  -999.2500  -999.2500   100.1175    10.2404   -91.0521  -119.9985     6.9867     6.0193     7.3644
 1110.5000  -999.2500  -999.2500  -999.2500    96.5478    10.2402   -90.8555  -119.3866     6.9835     6.0173     7.3618
 1111.0000  -999.2500  -999.2500  -999.2500    92.9781    10.2401   -90.7276  -118.7747     6.9803     6.0152     7.3593
 1111.5000  -999.2500  -999.2500  -999.2500    94.7496    10.2410   -90.7931  -118.1628     6.9771     6.0132     7.3568
 1112.0000  -999.2500  -999.2500  -999.2500   103.0493    10.2428   -91.0235  -117.5509     6.9739     6.0111     7.3543
 1112.5000  -999.2500  -999.2500  -999.2500   108.9752    10.2445   -91.0294  -116.9390     6.9707     6.0091     7.3518
 1113.0000  -999.2500  -999.2500  -999.2500   111.9336    10.2462   -91.0364  -116.3272     6.9676     6.0070     7.4506
 1113.5000  -999.2500  -999.2500  -999.2500   103.6161    10.2479   -91.3364  -115.7153     6.9646     6.0050     7.4480
 1114.0000  -999.2500  -999.2500  -999.2500    98.2660    10.2496   -91.6363  -115.1034     6.9617     6.0029     7.4455
 1114.5000  -999.2500  -999.2500  -999.2500    95.8832    10.2513   -92.0222  -114.4915     6.9589     6.0833     7.4429
 1115.0000  -999.2500  -999.2500  -999.2500    92.9070    10.2530   -92.3251  -113.8796     6.9560     6.0813     7.4404
 1115.5000  -999.2500  -999.2500  -999.2500    89.9307    10.2548   -92.3339  -113.2678     6.9532     6.0792     7.4379
 1116.0000  -999.2500  -999.2500  -999.2500    88.1414    10.2565   -92.3427  -112.6559     6.9504     6.1606     7.4353
 1116.5000  -999.2500  -999.2500  -999.2500    91.6934    10.2582   -92.3515  -112.0440     6.9475     6.2053     7.4328
 1117.0000  -999.2500  -999.2500  -999.2500    99.3996    10.2599   -92.3603  -111.4321     6.8506     6.2410     7.4302
 1117.5000  -999.2500  -999.2500  -999.2500   104.1385    10.2616   -92.3690  -110.8202     6.8478     6.3246     7.4277
 1118.0000  -999.2500  -999.2500  -999.2500   104.9771    10.2633   -92.3778  -110.2083     6.8450     6.3224     7.4252
 1118.5000  -999.2500  -999.2500  -999.2500   102.3403    10.2650   -92.3866  -109.5965     6.8909     6.3203     7.4226
 1119.0000  -999.2500  -999.2500  -999.2500   100.5510    10.2667   -92.3954  -108.9846     6.9333     6.3690     7.5226
 1119.5000  -999.2500  -999.2500  -999.2500    98.7617    10.2684   -92.1088  -108.3727     6.9305     6.4027     7.7285
 1120.0000  -999.2500  -999.2500  -999.2500    95.7855    10.2702   -92.1188  -107.7608     6.9784     6.4001     7.9402
 1120.5000  -999.2500  -999.2500  -999.2500    92.8092    10.2719   -91.8335  -107.1489     7.0199     6.4862     7.9375
 1121.0000  -999.2500  -999.2500  -999.2500    95.1742    10.2736   -91.5481  -106.5370     7.0170     6.5727     7.8269
 1121.5000  -999.2500  -999.2500  -999.2500    98.1327    10.2753   -91.2628  -105.9252     7.0142     6.5704     7.5095
 1122.0000  -999.2500  -999.2500  -999.2500    98.7181    10.2767   -91.2716  -105.3133     7.0113     6.5682     7.4049
 1122.5000  -999.2500  -999.2500  -999.2500    99.3027    10.2463   -90.6921  -104.7014     7.0085     6.5660     7.5044
 1123.0000  -999.2500  -999.2500  -999.2500    99.2930    10.2457   -90.7009  -104.0895     7.0056     6.4748     7.6053
 1123.5000  -999.2500  -999.2500  -999.2500    96.3167    10.2451   -90.7097  -103.4776     7.0027     6.3849     7.7075
 1124.0000  -999.2500  -999.2500  -999.2500    88.5927    10.2445   -91.0126  -102.8658     6.9998     6.2962     7.7048
 1124.5000  -999.2500  -999.2500  -999.2500    83.2426    10.2439   -91.6096  -102.2539     6.9970     6.2941     7.7021
 1125.0000  -999.2500  -999.2500  -999.2500    82.0467    10.2309   -91.9125  -101.6420     6.9941     6.2066     7.6995
 1125.5000  -999.2500  -999.2500  -999.2500    89.1595    10.2131   -92.2154  -101.2898     6.9913     6.2045     7.6969
 1126.0000  -999.2500  -999.2500  -999.2500    96.2723    10.1828   -92.5183  -101.2427     6.9884     6.2024     7.6942
 1126.5000  -999.2500  -999.2500  -999.2500    95.6699    10.1822   -92.5271  -101.1956     6.9856     6.1163     7.6916
 1127.0000  -999.2500  -999.2500  -999.2500    93.8806    10.1520   -92.5359  -101.1485     6.9821     6.0314     7.6890
 1127.5000  -999.2500  -999.2500  -999.2500    92.0913    10.1514   -92.5446  -101.1014     6.9793     6.0293     7.6864
 1128.0000  -999.2500  -999.2500  -999.2500    96.2367    10.1508   -92.5534  -101.0543     6.9764     6.0273     7.6837
 1128.5000  -999.2500  -999.2500  -999.2500    98.6017    10.1502   -92.2681  -101.0072     6.9736     6.0252     7.5767
 1129.0000  -999.2500  -999.2500  -999.2500    96.8124    10.1793   -92.2769  -100.9602     6.9707     6.1062     7.4712
 1129.5000  -999.2500  -999.2500  -999.2500    93.8362    10.1787   -91.9912  -100.9131     6.9679     6.1880     7.3671
 1130.0000  -999.2500  -999.2500  -999.2500    93.2338    10.1781   -91.7062  -100.8660     6.9650     6.2709     7.3646
 1130.5000  -999.2500  -999.2500  -999.2500    93.2249    10.1774   -91.4208  -100.8189     7.0583     6.3549     7.4635
 1131.0000  -999.2500  -999.2500  -999.2500    93.2161    10.1768   -91.4296  -100.7718     7.1524     6.4397     7.6680
 1131.5000  -999.2500  -999.2500  -999.2500    92.0202    10.1762   -90.8502  -100.7247     7.2472     6.4375     7.8781
