~VERSION INFORMATION
 VERS.                2.0:   CWLS LOG ASCII STANDARD - VERSION 2.0
 WRAP.                 NO:   ONE LINE PER DEPTH STEP
~WELL INFORMATION
#MNEM.UNIT      DATA TYPE    INFORMATION
#----------   ------------   ------------------------------
 STRT.F            0.0000:   START DEPTH
 STOP.F         4044.0000:   STOP DEPTH
 STEP.F            0.5000:   STEP LENGTH
 NULL.          -999.2500:   NO VALUE
 COMP. LAWRENCE-ALLISON & ASSOC.:   COMPANY
 WELL. LAWRENCE "X" #24-34:   WELL
 FLD .           N P R #3:   FIELD
 LOC .      S34 T39N R78W:   LOCATION
 CNTY.            NATRONA:   COUNTY
 STAT.            WYOMING:   STATE
 CTRY. UNITED STATES OF AMERICA:   COUNTRY
 SRVC.      DRESSER ATLAS:   SERVICE COMPANY
 DATE.        29-MAR-1984:   LOGDATE
 API .     49025109660000:   API NUMBER
~CURVE INFORMATION
#MNEM.UNIT       API CODE    CURVE DESCRIPTION
#----------   ------------   ------------------------------
 DEPT.F                  :   
 DT  .US/F   60 520 00 00:   DELTA TIME
 TENS.LBS    60 635 01 00:   TENSION FROM SONIC
 GRR .GAPI   07 310 01 00:   GAMMA RAY FROM RESISTIVITY
 SPR .MV     07 010 01 00:   SPONTANEOUS POTENTIAL
 CALR.IN     07 280 01 00:   CALIPER FROM RESISTIVITY
 TENR.LBS    07 635 01 00:   TENSION FROM RESISTIVITY
 RSFL.OHMM   07 221 01 00:   AMPPLIFIED SHALLOW FOCUSED LOG RESISTIVITY
 RILD.OHMM   07 120 46 00:   DEEP INDUCTION RESISTIVITY
 RILM.OHMM   07 120 44 00:   INDUCTION LOG MEDIUM RESISTIVITY
 RHOB.G/C3   45 350 01 00:   BULK DENSITY
 DRHO.G/C3   45 356 01 00:   DENSITY CORRECTION
 TEND.LBS    45 635 01 00:   TENSION FROM DENSITY LOG
 NPHI.DEC    42 890 03 00:   NEUTRON POROSITY SANDSTONE
~PARAMETER INFORMATION
#MNEM.UNIT          VALUE    DESCRIPTION
#----------   ------------   ------------------------------
 EKB .F         5101.0000:   Kelly bushing
 EGL .F         5089.0000:   Ground level
 EDF .F         5100.0000:   Drilling floor
 TD  .F         4050.0000:   Total depth
 DATE.        29-MAR-1984:   Date logged
 CLNT.            A2DTECH:   Client Code
 SL  . 2415' FNL & 839' FWL:   Surface Location
 PD  .                 GL:   Permanent Datum
 EPD .F              5089:   Elevation Permanent Datum
 LMF .                 KB:   Log Measured From
 DMF .                 KB:   Drilling Measured From
 DD  .F              4050:   Depth driller
 DL  .F              4043:   Depth logger
 BLI .F              4041:   Bottom log interval
 CS1 .IN            8.625:   Casing size
 CBD1.       8.625 @ 673':   Casing driller 1
 CBL1.F               671:   Casing logger 1
 BS1 .IN            7.875:   Bit size
 DFT .            GEL-KCL:   Type fluid in hole
 DFD .                8.9:   Density
 DFV .                 45:   Viscosity
 DFPH.                  8:   pH
 DFL .               12.8:   Fluid loss
 MSS .           MUD TANK:   Source of sample
 RMS .OHMM           0.46:   Rm
 MST .F                71:   Rm Meas. temp.
 RMF .OHMM           0.31:   Rmf
 MFST.F                71:   Rmf Meas. temp.
 RMC .OHMM           0.55:   Rmc
 MCST.F                71:   Rmc Meas. temp.
 MFSS.               MEAS:   Source Rmf.
 RMB .OHMM           0.25:   Rm. at BHT
 BHT .F               139:   BHT.
 TCS .HRS               4:   Time Circ. stopped
 MRT .F               139:   Maximum recorded temp.
 LUN .               6302:   Logging unit number
 LUL .               CODY:   Logging unit location
 ENGI.              GETTY:   Recorded By
 WITN.           JENNINGS:   Witnessed by
 ORIG.           5" PRINT:   Origin of data
 UWI .     49025109660000:   Unique Well ID
 DICO. A2D TECHNOLOGIES, INC.:   Digitizing Company
 DAPD.                 12:   Feet Above Permanent Datum
 BSD1.               4050:   Depth drilled with bit1
 MCSS.               MEAS:   Source Rmc.
~OTHER INFORMATION
~A  DEPTH       DT       TENS        GRR        SPR       CALR       TENR       RSFL       RILD       RILM       RHOB       DRHO       TEND       NPHI
# ...
 3354.0000    89.9360  -143.0850    96.3070   -28.6660     8.1970  -174.5820     4.3720     3.7220     3.7240     2.4710    -0.0090  -183.2210     0.2420
 3354.5000    89.7660  -136.4250    98.8150   -28.6480     8.1930  -177.7800     4.4190     3.7640     3.7640     2.4700     0.0150  -182.7380     0.2270
 3355.0000    89.5960  -133.8870   100.1070   -28.6310     8.1940  -180.9780     4.4660     3.7640     3.7640     2.4710     0.0350  -182.2550     0.2180
 3355.5000    89.1450  -134.3050   100.5470   -28.6140     8.2150  -184.1440     4.4940     3.7640     3.7640     2.4740     0.0390  -181.7720     0.2190
 3356.0000    88.6940  -134.7240    98.5020   -28.5960     8.2370  -180.5320     4.4480     3.7990     3.8180     2.4770     0.0300  -181.2890     0.2190
 3356.5000    88.2440  -135.1420    93.5870   -28.5790     8.2580  -176.0830     4.4110     3.9000     3.9050     2.4730     0.0220  -180.8050     0.2230
 3357.0000    88.0790  -135.5610    91.0980   -28.5610     8.2690  -171.6330     4.4700     3.9990     3.9930     2.4690     0.0290  -180.9430     0.2240
 3357.5000    88.2940  -135.9790    89.9260   -28.5440     8.2650  -167.1840     4.5640     4.0970     4.0800     2.4650     0.0370  -183.0750     0.2250
 3358.0000    88.5490  -136.3980    90.7100   -28.5260     8.2620  -163.8800     4.6580     4.1720     4.1670     2.4620     0.0150  -185.2060     0.2270
 3358.5000    88.8040  -136.8160    91.7980   -28.5100     8.2590  -163.8800     4.7080     4.2350     4.2550     2.4600    -0.0120  -187.3370     0.2330
 3359.0000    89.0600  -137.2350    92.9040   -28.5490     8.2560  -163.8800     4.6650     4.2970     4.3420     2.4570    -0.0140  -189.4680     0.2410
 3359.5000    88.9780  -137.6540    92.0200   -28.6520     8.2520  -163.8800     5.0930     4.3290     4.3700     2.4530    -0.0090  -191.5990     0.2460
 3360.0000    88.7950  -138.0720    90.6360   -28.7550     8.2450  -163.8800     5.7810     4.2750     4.3260     2.4540     0.0070  -193.7300     0.2450
 3360.5000    88.4830  -138.4910    87.7620   -28.8580     8.2250  -163.8800     5.5980     4.2390     4.2970     2.4570     0.0220  -195.8610     0.2370
 3361.0000    88.1710  -138.9090    88.4260   -28.9610     8.2050  -163.8800     5.2360     4.2020     4.2890     2.4580     0.0360  -197.9920     0.2290
 3361.5000    87.8590  -139.3280    91.5050   -29.0640     8.1850  -163.8800     4.8740     4.1700     4.3410     2.4510     0.0360  -200.1230     0.2210
 3362.0000    87.9630  -139.7460    96.7620   -29.1670     8.1660  -163.8800     4.5120     4.2350     4.4390     2.4450     0.0330  -195.8580     0.2180
 3362.5000    88.8440  -140.1650    96.1370   -29.2700     8.1460  -163.8800     4.1320     4.3550     4.5380     2.4390     0.0260  -189.2580     0.2330
 3363.0000    89.7670  -140.5830    92.3590   -29.3740     8.1260  -163.8800     4.6720     4.4760     4.6360     2.4420     0.0180  -182.6590     0.2420
 3363.5000    90.5330  -141.0020    87.7290   -29.4790     8.1110  -163.8800     5.3900     4.5960     4.7350     2.4510     0.0100  -176.0590     0.2330
 3364.0000    90.3980  -141.4200    86.8330   -29.5230     8.1210  -163.8800     6.1080     4.7160     4.8340     2.4610     0.0090  -169.4600     0.2250
 3364.5000    88.6620  -141.8390    88.5190   -29.5530     8.1300  -163.8800     6.4060     4.8370     4.9330     2.4710     0.0160  -162.8600     0.2160
 3365.0000    86.9260  -142.2570    90.2520   -29.5820     8.1390  -163.8800     6.1500     4.9330     4.9330     2.4750     0.0240  -160.4930     0.2110
 3365.5000    85.3920  -142.6760    91.9920   -29.6120     8.1480  -163.8800     5.7180     4.9170     4.9790     2.4790     0.0250  -161.2800     0.2180
 3366.0000    85.1110  -143.0950    93.7740   -29.6420     8.1530  -163.8800     5.4510     4.9040     4.9840     2.4810     0.0280  -162.0670     0.2280
 3366.5000    85.8770  -143.5130    95.6460   -29.6710     8.1580  -163.8800     5.3820     4.8910     4.9920     2.4830     0.0340  -162.8530     0.2390
 3367.0000    86.6430  -143.6030    97.3420   -29.7010     8.1630  -163.8800     5.3160     4.8780     5.0000     2.4850     0.0390  -163.6400     0.2400
 3367.5000    87.0380  -142.6400    96.2330   -29.7310     8.1680  -163.8800     5.1240     4.8650     5.0080     2.4890     0.0450  -164.4270     0.2410
 3368.0000    87.3630  -141.6760    92.5310   -29.7610     8.1740  -163.8800     4.9400     4.8510     5.0160     2.4870     0.0370  -165.2140     0.2410
 3368.5000    87.5290  -140.7130    90.3860   -29.7900     8.1790  -163.8800     4.8420     4.8420     5.0260     2.4830     0.0270  -166.0010     0.2370
 3369.0000    87.6140  -139.7500    89.3190   -29.8200     8.1840  -169.9590     5.1790     4.8740     4.9790     2.4800     0.0220  -166.7880     0.2330
 3369.5000    87.6990  -138.7860    87.4930   -29.8510     8.1890  -175.6440     5.4450     4.9040     5.0220     2.4830     0.0310  -167.5750     0.2240
 3370.0000    87.7760  -137.8230    86.6850   -29.8780     8.1940  -181.3300     5.7110     4.9350     5.0700     2.4880     0.0400  -168.3610     0.2150
 3370.5000    87.3850  -136.8590    88.8190   -29.7640     8.1990  -184.0190     6.0010     4.9650     5.1180     2.4940     0.0490  -169.1480     0.2060
 3371.0000    87.0300  -135.8960    90.9220   -29.2910     8.2040  -183.6130     6.0570     4.9840     5.1660     2.4970     0.0420  -169.9350     0.2060
 3371.5000    86.6750  -134.9320    91.2500   -28.8250     8.2090  -183.2070     5.8110     4.9930     5.2170     2.4950     0.0330  -170.7220     0.2100
 3372.0000    86.3200  -133.9690    91.0270   -28.3570     8.2140  -182.8010     5.4710     5.0020     5.1320     2.4920     0.0240  -171.5090     0.2140
 3372.5000    86.4490  -133.0060    92.2700   -27.8910     8.2190  -182.3950     5.1310     5.0110     5.0210     2.4890     0.0160  -172.2960     0.2240
 3373.0000    86.9840  -132.0420    93.1520   -27.5090     8.2250  -181.9890     4.9790     5.0200     4.9100     2.4870     0.0510  -173.0830     0.2340
 3373.5000    87.5190  -131.0790    92.3970   -27.6580     8.2300  -181.5830     5.4550     5.0290     4.8000     2.4920     0.0760  -173.8700     0.2400
 3374.0000    88.0540  -130.1150    92.0320   -27.7970     8.2350  -181.1770     5.6740     5.0380     4.7520     2.4970     0.0700  -174.6560     0.2400
 3374.5000    88.3030  -129.1520    93.5810   -27.9350     8.2400  -180.7710     5.5480     5.0470     4.8440     2.5090     0.0520  -175.4430     0.2330
 3375.0000    88.0990  -128.1880    95.5210   -28.0720     8.2450  -180.3650     5.4190     5.0560     4.9370     2.5140     0.0420  -176.2300     0.2250
 3375.5000    88.0520  -127.2250    97.6490   -28.2400     8.2500  -179.9590     5.2660     5.0650     5.0300     2.5140     0.0520  -177.0170     0.2180
 3376.0000    88.2340  -126.2620    96.1390   -28.4150     8.2540  -179.5520     5.5520     5.0740     5.1210     2.5070     0.0670  -177.8040     0.2090
 3376.5000    88.4170  -125.2980    89.4500   -28.5900     8.2590  -179.1460     5.9030     5.0830     5.1120     2.5000     0.0600  -178.5910     0.2120
 3377.0000    88.1110  -124.3350    87.7630   -28.7650     8.2630  -178.7400     6.2290     5.0920     5.0990     2.4900     0.0570  -179.3780     0.2200
 3377.5000    87.5240  -125.2580    89.8960   -28.9390     8.2670  -178.3340     6.1250     5.1010     5.0850     2.4780     0.0740  -180.1640     0.2270
 3378.0000    86.9370  -131.9180    90.6030   -29.1140     8.2610  -177.9280     6.0000     5.1100     5.0710     2.4650     0.0920  -178.2090     0.2240
 3378.5000    86.3500  -138.5790    90.9030   -29.2890     8.2410  -177.5220     5.8760     5.1190     5.0580     2.4610     0.1070  -174.7990     0.2200
 3379.0000    86.2440  -145.2390    88.7830   -29.4640     8.2220  -177.1160     5.7510     5.1280     5.0440     2.4610     0.1160  -171.3890     0.2200
 3379.5000    86.3710  -151.8990    86.6730   -29.6360     8.2020  -176.7100     5.6270     5.1370     5.0300     2.4660     0.1240  -167.9800     0.2200
