~VERSION INFORMATION
 VERS.                2.0:   CWLS LOG ASCII STANDARD - VERSION 2.0
 WRAP.                 NO:   ONE LINE PER DEPTH STEP
~WELL INFORMATION
#MNEM.UNIT      DATA TYPE    INFORMATION
#----------   ------------   ------------------------------
 STRT.F          176.0000:   START DEPTH
 STOP.F         3400.0000:   STOP DEPTH
 STEP.F            0.5000:   STEP LENGTH
 NULL.          -999.2500:   NO VALUE
 COMP.    PENIX & SCISSON:   COMPANY
 WELL. FENIX NPR 3 "AX" #64-4:   WELL
 FLD .                NPR:   FIELD
 LOC .       S4 T38N R78W:   LOCATION
 CNTY.            NATRONA:   COUNTY
 STAT.            WYOMING:   STATE
 CTRY. UNITED STATES OF AMERICA:   COUNTRY
 SRVC.       SCHLUMBERGER:   SERVICE COMPANY
 DATE.        25-JAN-1981:   LOGDATE
 API .     49025108640000:   API NUMBER
~CURVE INFORMATION
#MNEM.UNIT       API CODE    CURVE DESCRIPTION
#----------   ------------   ------------------------------
 DEPT.F                  :   
 SPR .MV     07 010 01 00:   SPONTANEOUS POTENTIAL
 RFOC.OHMM   07 220 01 00:   RESISTIVITY FOCUSED LOG RES.
 ILD .OHMM   07 120 46 00:   DEEP INDUCTION RESISTIVITY
 TENR.LBS    07 635 01 00:   TENSION
 ILM .OHMM   07 120 44 00:   INDUCTION LOG MEDIUM RESISTIVITY
 GRD .GAPI   45 310 01 00:   GAMMA RAY FROM DENSITY LOG
 CALD.IN     45 280 60 00:   CALIPER FROM DENSITY LOG
 RHOB.G/C3   45 350 01 00:   BULK DENSITY
 TEND.LBS    45 635 01 00:   TENSION FROM DENSITY LOG
 CORR.G/C3   45 356 01 00:   DENSITY CORRECTION
~PARAMETER INFORMATION
#MNEM.UNIT          VALUE    DESCRIPTION
#----------   ------------   ------------------------------
 EKB .F         5257.0000:   Kelly bushing
 EGL .F         5247.0000:   Ground level
 EDF .F            0.0000:   Drilling floor
 TD  .F         3388.0000:   Total depth
 DATE.        25-JAN-1981:   Date logged
 CLNT.            A2DTECH:   Client Code
 SL  . 2289' FNL & 1495' FEL:   Surface Location
 PD  .                 GL:   Permanent Datum
 EPD .F              5247:   Elevation Permanent Datum
 LMF .                 KB:   Log Measured From
 DMF .                 KB:   Drilling Measured From
 DAPD.F                10:   Feet Above Permanent Datum
 DD  .F              3388:   Depth driller
 DL  .F              3386:   Depth logger
 BLI .F              3380:   Bottom log interval
 TLI .F               192:   Top log interval
 CS1 .IN            8.625:   Casing size
 CBD1.      8.625" @ 191':   Casing driller 1
 CBL1.F               192:   Casing logger 1
 BS1 .IN            7.875:   Bit size
 BSD1.F              3388:   Depth drilled with bit1
 DFT .                FGM:   Type fluid in hole
 DFD .                8.7:   Density
 DFV .                 32:   Viscosity
 DFPH.                9.5:   pH
 DFL .                 18:   Fluid loss
 MSS .           FLOWLINE:   Source of sample
 RMS .OHMM           1.60:   Rm
 MST .F                60:   Rm Meas. temp.
 RMF .OHMM           1.33:   Rmf
 MFST.F                60:   Rmf Meas. temp.
 MFSS.               MEAS:   Source Rmf.
 RMB .OHMM            .83:   Rm. at BHT
 BHT .F               115:   BHT.
 TCS .HRS            1700:   Time Circ. stopped
 TLAB.HRS            2200:   Time logger at bottom
 MRT .F               115:   Maximum recorded temp.
 LUN .               8039:   Logging unit number
 LUL .               CSPR:   Logging unit location
 ENGI.           C. PFARR:   Recorded By
 WITN.           L. FIVAS:   Witnessed by
 ORIG.           5" PRINT:   Origin of data
 UWI .     49025108640000:   Unique Well ID
 DICO. A2D TECHNOLOGIES, INC.:   Digitizing Company
~OTHER INFORMATION
~A   DEPT      SPR       RFOC        ILD       TENR        ILM         GRD      CALD         RHOB      TEND      CORR   
# ...
 2923.0000   -10.5760    10.4000     7.9340  1255.3750     8.0970   115.2860     9.0960     2.5820  1278.5640     0.0240
 2923.5000   -10.5690    10.4000     7.9710  1257.4850     8.1340   115.5590     9.0950     2.5910  1278.6801     0.0310
 2924.0000   -10.5610    10.4000     8.0070  1256.9250     8.1710   116.5240     9.0940     2.5970  1278.7960     0.0340
 2924.5000   -10.5540    10.4000     8.0340  1256.2340     8.1850   117.8970     9.0930     2.5720  1278.9120     0.0230
 2925.0000   -10.5460    10.2400     7.9990  1255.5430     8.1110   119.4240     9.0920     2.5600  1279.0280     0.0110
 2925.5000   -10.5390    10.0410     7.9080  1254.8521     8.0180   121.2990     9.0900     2.5520  1279.1450     0.0150
 2926.0000   -10.5320     9.8410     7.8170  1254.1620     7.9250   123.0490     9.0890     2.5630  1279.2610     0.0210
 2926.5000   -10.5240     9.4130     7.7260  1253.4709     7.8330   123.4430     9.0880     2.5740  1279.3770     0.0280
 2927.0000   -10.5170     8.9750     7.6350  1252.7800     7.7400   122.6970     9.0870     2.5810  1279.4930     0.0300
 2927.5000   -10.5090     8.9180     7.5440  1252.0890     7.6470   121.9450     9.0860     2.5880  1279.6100     0.0300
 2928.0000   -10.5020     8.8590     7.4530  1251.3990     7.5540   121.6400     9.0850     2.5930  1279.7260     0.0300
 2928.5000   -10.4940     8.8110     7.3620  1250.7080     7.4620   122.7350     9.0830     2.5940  1279.8420     0.0310
 2929.0000   -10.4870     8.9750     7.2710  1250.0170     7.3690   124.2760     9.0820     2.5950  1279.9580     0.0350
 2929.5000   -10.4800     8.8820     7.1950  1249.3260     7.3210   124.9200     9.0810     2.5960  1280.0750     0.0390
 2930.0000   -10.4720     8.8110     7.1780  1248.6350     7.3060   125.5360     9.0800     2.5960  1280.1910     0.0410
 2930.5000   -10.4650     8.5620     7.1640  1247.9449     7.2920   126.1330     9.0790     2.5900  1280.3070     0.0370
 2931.0000   -10.4580     8.1850     7.1500  1247.2540     7.2770   125.0470     9.0770     2.5770  1280.4230     0.0340
 2931.5000   -10.4490     8.2370     7.1360  1246.5630     7.2630   122.5590     9.0760     2.5620  1280.5400     0.0300
 2932.0000   -10.4450     8.6500     7.1220  1245.8719     7.2480   120.0770     9.0750     2.5580  1280.6560     0.0270
 2932.5000   -10.4370     8.4920     7.1070  1245.1820     7.2340   117.9870     9.0740     2.5650  1280.7720     0.0240
 2933.0000   -10.6100     8.9750     7.0930  1244.4910     7.2190   116.7860     9.0730     2.5660  1280.8879     0.0190
 2933.5000   -10.8570     8.9750     7.0790  1243.8000     7.2050   116.4860     9.0720     2.5650  1281.0050     0.0120
 2934.0000   -11.1140     8.9750     7.0640  1243.1090     7.1410   116.8670     9.0710     2.5630  1281.1210     0.0160
 2934.5000   -11.2290     8.8490     6.9150  1242.4189     6.9770   118.7810     9.0700     2.5740  1281.2371     0.0300
 2935.0000   -11.2180     8.3970     6.7540  1241.7280     6.8140   120.8880     9.0690     2.5820  1281.3530     0.0320
 2935.5000   -11.2200     8.1010     6.5930  1241.0370     6.6500   122.9580     9.0680     2.5780  1281.4700     0.0280
 2936.0000   -11.2210     7.8040     6.4330  1240.3459     6.4860   124.4620     9.0670     2.5710  1281.5861     0.0240
 2936.5000   -11.2200     7.5080     6.2720  1239.6560     6.3230   125.4890     9.0650     2.5640  1281.7020     0.0210
 2937.0000   -11.2210     7.0640     6.0960  1238.9650     6.2090   125.7650     9.0640     2.5590  1281.8180     0.0180
 2937.5000   -11.2200     7.0760     6.0960  1238.2740     6.2090   125.3080     9.0630     2.5650  1281.9351     0.0210
 2938.0000   -11.2200     7.1010     6.0960  1237.5830     6.2090   121.6760     9.0620     2.5700  1282.0510     0.0240
 2938.5000   -11.2200     7.1270     5.9850  1236.8920     6.0960   116.3160     9.0610     2.5720  1282.1670     0.0260
 2939.0000   -11.2200     7.1520     5.9650  1236.2020     6.0480   114.0560     9.0600     2.5680  1282.2830     0.0240
 2939.5000   -11.2200     7.1770     5.8980  1235.5110     5.9800   113.5050     9.0590     2.5640  1282.4000     0.0220
 2940.0000   -11.2200     7.1950     5.8300  1234.8199     5.8750   114.5560     9.0580     2.5570  1282.5160     0.0200
 2940.5000   -11.2210     7.1950     5.7680  1234.1290     5.9850   116.2260     9.0570     2.5500  1282.6320     0.0180
 2941.0000   -11.2200     7.0990     5.8750  1233.4390     5.7400   117.9470     9.0560     2.5450  1282.7480     0.0180
 2941.5000   -11.2210     6.7490     5.5020  1232.7480     5.5130   120.2300     9.0550     2.5450  1282.8640     0.0200
 2942.0000   -11.2210     6.3980     5.2800  1232.0570     5.2870   122.9170     9.0540     2.5450  1282.9810     0.0220
 2942.5000   -11.2180     5.9360     5.0700  1231.3660     5.1650   125.6070     9.0530     2.5510  1283.0970     0.0250
 2943.0000   -11.2660     5.2610     5.1050  1230.6760     5.2210   127.2330     9.0520     2.5560  1283.2130     0.0270
 2943.5000   -11.4380     5.6800     5.1580  1229.9850     5.2750   126.1870     9.0510     2.5610  1283.3290     0.0290
 2944.0000   -11.6130     6.1700     5.2100  1229.2939     5.3290   124.2030     9.0500     2.5610  1283.4460     0.0330
 2944.5000   -11.7820     6.4610     5.2610  1228.6030     5.4580   122.4700     9.0480     2.5620  1283.5620     0.0380
 2945.0000   -11.9500     6.5040     5.6610  1227.9130     5.9590   119.1710     9.0470     2.5620  1283.6780     0.0430
 2945.5000   -12.1570     6.5460     6.1330  1227.2220     6.4400   115.3340     9.0460     2.5620  1283.7939     0.0480
 2946.0000   -12.2390     7.4500     6.6840  1226.5310     7.2760   109.1430     9.0450     2.5600  1283.9110     0.0530
 2946.5000   -13.0830     8.8110     8.6000  1225.8400     9.2850    97.3350     9.0440     2.5550  1284.0270     0.0570
 2947.0000   -13.9860    14.9680    10.9040  1225.1500    11.2940    84.8860     9.0430     2.5450  1284.1429     0.0590
 2947.5000   -14.5260    20.9570    13.2080  1224.4590    13.3040    73.9550     9.0420     2.5060  1284.2590     0.0520
 2948.0000   -14.7490    25.9090    15.5130  1223.7679    15.3130    62.9150     9.0410     2.4640  1284.3760     0.0440
 2948.5000   -15.0580    27.1040    17.8170  1223.0770    17.3220    58.3560     9.0400     2.4270  1284.4919     0.0400
 2949.0000   -15.1680    26.1230    20.1220  1222.3860    19.3310    55.4630     9.0390     2.4200  1284.6080     0.0430
 2949.5000   -15.1540    26.2760    22.4260  1221.6960    21.3320    55.4130     9.0380     2.4130  1284.7240     0.0410
 2950.0000   -15.1530    26.4650    24.2680  1221.0050    23.8250    55.5600     9.0370     2.4080  1284.8409     0.0340
 2950.5000   -15.1750    26.6530    23.4290  1220.3140    23.3030    55.8370     9.0360     2.3830  1284.9570     0.0280
 2951.0000   -14.9790    26.8420    22.7310  1219.6230    22.6500    55.8580     9.0370     2.3760  1285.0730     0.0210
 2951.5000   -14.6300    27.1040    22.0330  1218.9330    21.9980    57.2490     9.0380     2.3760  1285.1890     0.0150
 2952.0000   -14.3030    25.7480    21.3350  1218.2419    21.3450    62.3910     9.0390     2.3720  1285.3060     0.0110
 2952.5000   -13.9770    23.5390    20.6370  1217.5649    20.6920    71.1680     9.0400     2.4090  1285.4220     0.0160
 2953.0000   -13.6520    20.9430    19.8170  1216.4420    20.1850    81.1200     9.0410     2.4520  1285.5380     0.0210
 2953.5000   -13.3080    20.9430    19.7390  1215.3409    20.0330    84.3490     9.0420     2.4480  1285.6541     0.0160
 2954.0000   -13.2320    21.8110    19.5580  1214.2400    19.8170    85.7440     9.0430     2.4390  1285.7710     0.0120
 2954.5000   -13.3500    22.6570    19.4550  1213.1390    19.8170    86.6160     9.0440     2.4280  1285.8870     0.0070
 2955.0000   -13.4440    24.7690    19.8840  1212.0370    20.5270    87.6890     9.0460     2.4370  1286.0031     0.0020
 2955.5000   -13.5450    27.6010    20.5570  1210.9360    21.2120    87.0110     9.0470     2.4660  1286.1190     0.0040
 2956.0000   -13.5890    30.4340    21.3320  1209.8350    21.5950    81.6460     9.0480     2.4980  1286.2350     0.0160
