~VERSION INFORMATION
 VERS.                2.0:   CWLS LOG ASCII STANDARD - VERSION 2.0
 WRAP.                 NO:   ONE LINE PER DEPTH STEP
~WELL INFORMATION
#MNEM.UNIT      DATA TYPE    INFORMATION
#----------   ------------   ------------------------------
 STRT.F          172.0000:   START DEPTH
 STOP.F         3376.0000:   STOP DEPTH
 STEP.F            0.5000:   STEP LENGTH
 NULL.          -999.2500:   NO VALUE
 COMP.    FENIX & SCISSON:   COMPANY
 WELL. FENIX NPR 3 "AX" #23-2:   WELL
 FLD .                NPR:   FIELD
 LOC .       S2 T38N R78W:   LOCATION
 CNTY.            NATRONA:   COUNTY
 STAT.            WYOMING:   STATE
 CTRY. UNITED STATES OF AMERICA:   COUNTRY
 SRVC.              WELEX:   SERVICE COMPANY
 DATE.        02-DEC-1980:   LOGDATE
 API .     49025108740000:   API NUMBER
~CURVE INFORMATION
#MNEM.UNIT       API CODE    CURVE DESCRIPTION
#----------   ------------   ------------------------------
 DEPT.F                  :   
 CALD.IN     45 280 60 00:   CALIPER FROM DENSITY LOG
 CORR.G/C3   45 356 01 00:   DENSITY CORRECTION
 GRD .GAPI   45 310 01 00:   GAMMA RAY FROM DENSITY LOG
 RHOB.G/C3   45 350 01 00:   BULK DENSITY
 TENR.LBS    07 635 01 00:   TENSION
 SPR .MV     07 010 01 00:   SPONTANEOUS POTENTIAL
 SGRD.OHMM   07 220 05 00:   SHALLOW GUARD
 ILD .OHMM   07 120 46 00:   INDUCTION LOG DEEP RESISTIVITY
 ILM .OHMM   07 120 44 00:   INDUCTION LOG MEDIUM RESISTIVITY
~PARAMETER INFORMATION
#MNEM.UNIT          VALUE    DESCRIPTION
#----------   ------------   ------------------------------
 EKB .F         5133.0000:   Kelly bushing
 EGL .F         5123.0000:   Ground level
 EDF .F            0.0000:   Drilling floor
 TD  .F         3375.0000:   Total depth
 DATE.        02-DEC-1980:   Date logged
 CLNT.            A2DTECH:   Client Code
 SL  . 3800' FSL & 827' FWL:   Surface Location
 PD  .                 GL:   Permanent Datum
 EPD .F              5123:   Elevation Permanent Datum
 LMF .                 KB:   Log Measured From
 DMF .                 KB:   Drilling Measured From
 DAPD.F                10:   Feet Above Permanent Datum
 DD  .F              3375:   Depth driller
 DL  .F              3373:   Depth logger
 BLI .F              3371:   Bottom log interval
 TLI .F               181:   Top log interval
 CS1 .IN            8.625:   Casing size
 CBD1.      8.625" @ 181':   Casing driller 1
 CBL1.F               181:   Casing logger 1
 BS1 .IN            7.875:   Bit size
 BSD1.F              3375:   Depth drilled with bit1
 DFT .           CHEM/GEL:   Type fluid in hole
 DFD .                8.8:   Density
 DFV .                 45:   Viscosity
 DFPH.                  9:   pH
 DFL .                 16:   Fluid loss
 MSS .           FLOWLINE:   Source of sample
 RMS .OHMM           1.25:   Rm
 MST .F                64:   Rm Meas. temp.
 RMF .OHMM           1.17:   Rmf
 MFST.F                64:   Rmf Meas. temp.
 RMC .OHMM            1.1:   Rmc
 MCST.F                64:   Rmc Meas. temp.
 MFSS.               MEAS:   Source Rmf.
 MCSS.               MEAS:   Source Rmc.
 RMB .OHMM            .67:   Rm. at BHT
 BHT .F               120:   BHT.
 TCS .HRS               2:   Time Circ. stopped
 MRT .F               120:   Maximum recorded temp.
 LUN .               1892:   Logging unit number
 LUL .             CASPER:   Logging unit location
 ENGI.  PFRIMMER/MONNAHAN:   Recorded By
 WITN.              FIVAS:   Witnessed by
 ORIG.           5" PRINT:   Origin of data
 UWI .     49025108740000:   Unique Well ID
 DICO. A2D TECHNOLOGIES, INC.:   Digitizing Company
~OTHER INFORMATION
~A   DEPT     CALD       CORR         GRD      RHOB       TENR        SPR       SGRD        ILD        ILM   
# ...
  391.0000    10.0190     0.0240   103.5510     2.4660   689.3830   -20.4120     7.0860     6.2750     6.7550
  391.5000    10.0200     0.0250   104.2740     2.4790   688.1270   -20.8130     7.1430     6.2610     6.7400
  392.0000    10.0210     0.0260   104.9980     2.4880   686.8710   -21.2970     7.1990     6.2470     6.7250
  392.5000    10.0240     0.0260   105.5420     2.4930   685.6140   -21.0100     7.2550     6.2330     6.7090
  393.0000    10.0020     0.0250   106.1830     2.4890   684.3580   -20.2510     7.3110     6.2090     6.6840
  393.5000    10.0020     0.0250   106.8010     2.4860   683.1020   -19.5820     7.3680     6.2340     6.7100
  394.0000    10.0020     0.0250   108.6280     2.4860   681.8450   -18.8660     7.4240     6.3110     6.7930
  394.5000    10.0020     0.0250   111.0500     2.4870   680.5890   -18.6550     7.4650     6.3880     6.8760
  395.0000    10.0020     0.0250   113.4890     2.4870   679.3330   -18.8490     7.4840     6.4650     6.9590
  395.5000    10.0020     0.0250   113.7030     2.4840   678.0760   -18.9930     7.5260     6.5410     7.0420
  396.0000    10.0020     0.0240   112.1220     2.4760   676.8200   -19.1420     7.5690     6.6180     7.1240
  396.5000    10.0020     0.0230   110.4920     2.4670   675.5640   -19.2980     7.6040     6.6950     7.2070
  397.0000    10.0020     0.0230   110.9210     2.4620   674.3070   -19.4470     7.6330     6.7720     7.2900
  397.5000    10.0020     0.0240   111.8100     2.4700   673.0510   -19.5990     7.6720     6.8080     7.3290
  398.0000     9.9910     0.0260   112.7170     2.4780   672.6910   -19.7510     7.7110     6.8080     7.3290
  398.5000     9.9790     0.0270   113.6250     2.4860   673.8920   -19.9030     7.7500     6.8080     7.3290
  399.0000     9.9640     0.0280   114.5320     2.4900   676.3760   -20.0540     7.7890     6.8080     7.3290
  399.5000     9.9960     0.0290   115.9620     2.4890   678.8600   -20.2060     7.8280     6.8080     7.3290
  400.0000    10.0470     0.0310   117.9870     2.4900   681.3440   -20.3570     7.8670     6.8080     7.3290
  400.5000    10.0990     0.0320   118.9130     2.4970   683.8280   -20.5100     7.8900     6.8070     7.3280
  401.0000    10.1440     0.0330   118.7670     2.5030   686.3120   -20.6610     7.8910     6.7750     7.2930
  401.5000    10.1410     0.0350   118.5970     2.5090   688.7970   -20.8100     7.8590     6.7430     7.2590
  402.0000    10.1380     0.0360   117.5250     2.5190   691.2810   -20.9700     7.7800     6.7110     7.2240
  402.5000    10.1340     0.0370   116.3250     2.5300   692.0540   -20.9080     7.7010     6.6790     7.1890
  403.0000    10.1300     0.0370   115.2570     2.5270   690.2610   -20.6280     7.6050     6.6460     7.1540
  403.5000    10.1260     0.0360   113.3870     2.5220   688.4680   -20.3610     7.6260     6.6130     7.1190
  404.0000    10.1240     0.0360   111.5940     2.5160   686.6750   -20.0900     7.6520     6.5810     7.0840
  404.5000    10.1130     0.0360   109.7810     2.5110   684.8820   -19.8200     7.6780     6.5600     7.0620
  405.0000    10.1480     0.0350   109.4020     2.5120   683.0900   -19.5480     7.7040     6.5620     7.0640
  405.5000    10.1810     0.0350   108.9790     2.5160   681.2970   -19.2790     7.7310     6.5560     7.0570
  406.0000    10.2140     0.0350   106.6090     2.5210   679.5040   -19.0130     7.7570     6.5470     7.0480
  406.5000    10.2450     0.0340   104.2490     2.5250   677.7110   -18.7200     7.7830     6.5390     7.0390
  407.0000    10.2350     0.0340   103.2580     2.5290   675.9180   -18.6590     7.8090     6.5300     7.0300
  407.5000    10.2220     0.0340   102.5800     2.5260   674.1250   -18.8370     7.8360     6.5220     7.0210
  408.0000    10.2100     0.0330   101.9100     2.5250   672.6910   -18.9860     7.8630     6.5140     7.0120
  408.5000    10.1980     0.0330   101.7590     2.5300   678.4280   -19.1400     7.8890     6.5050     7.0030
  409.0000    10.1870     0.0330   104.3840     2.5340   683.2090   -19.2970     7.8490     6.4970     6.9940
  409.5000    10.1750     0.0330   108.4060     2.5190   687.9900   -19.4510     7.7830     6.4890     6.9850
  410.0000    10.1630     0.0320   112.5980     2.5000   692.7710   -19.6060     7.7170     6.4800     6.9760
  410.5000    10.1510     0.0320   114.2050     2.5060   697.5520   -19.7620     7.6510     6.4720     6.9670
  411.0000    10.1390     0.0310   113.7190     2.5110   702.3330   -19.9150     7.5840     6.4630     6.9570
  411.5000    10.1270     0.0310   111.6320     2.5120   707.1140   -20.0720     7.5180     6.4550     6.9490
  412.0000    10.1150     0.0310   109.5940     2.5050   712.8510   -20.2270     7.4650     6.4490     6.9420
  412.5000    10.1040     0.0300   107.4920     2.4980   718.5890   -20.3740     7.4030     6.3960     6.8850
  413.0000    10.1070     0.0300   107.8330     2.4920   725.7600   -20.5550     7.3510     6.2800     6.7600
  413.5000    10.1100     0.0290   108.7340     2.4870   732.9320   -20.4400     7.2990     6.1630     6.6350
  414.0000    10.1130     0.0280   109.5860     2.4850   743.5620   -20.1030     7.2470     6.0470     6.5100
  414.5000    10.1160     0.0290   109.4500     2.4840   761.2800   -19.7960     7.1950     5.9310     6.3850
  415.0000    10.1200     0.0310   106.7570     2.4950   778.9980   -19.4920     6.9620     5.8150     6.2600
  415.5000    10.1230     0.0330   104.1620     2.5050   796.7160   -19.1730     6.7290     5.6990     6.1350
  416.0000    10.1260     0.0350   103.7670     2.5090   814.4340   -18.8680     6.4970     5.5590     5.9850
  416.5000    10.1290     0.0370   105.1180     2.5090   832.1520   -18.6180     6.2640     5.5590     5.9850
  417.0000    10.1320     0.0390   105.2770     2.5090   853.4140   -18.7180     5.9850     5.4090     5.8230
  417.5000    10.1350     0.0410   105.1390     2.5080   853.4140   -18.8080     5.9850     5.3280     5.7350
  418.0000    10.1380     0.0400   104.9870     2.4960   864.0810   -18.9130     5.9850     5.2460     5.6470
  418.5000    10.1410     0.0340   104.8380     2.4780   848.3940   -19.0100     6.3890     5.1650     5.5590
  419.0000    10.1440     0.0290   104.6930     2.4600   832.7060   -19.1090     6.7260     5.2810     5.6850
  419.5000    10.1470     0.0260   104.8890     2.4480   817.0180   -19.2090     7.0640     5.3970     5.8100
  420.0000    10.1500     0.0280   105.6090     2.4880   801.3300   -19.3080     6.9990     5.5140     5.9350
  420.5000    10.1530     0.0290   106.3220     2.5060   785.6430   -19.4070     6.9350     5.6300     6.0610
  421.0000    10.1570     0.0310   107.0390     2.5070   773.0920   -19.5070     6.9350     5.7470     6.1860
  421.5000    10.1600     0.0320   107.7570     2.5030   757.0280   -19.6050     7.0640     5.8630     6.3110
  422.0000    10.1630     0.0330   108.4700     2.4990   736.9480   -19.7050     7.0910     5.9790     6.4370
  422.5000    10.1650     0.0340   109.0010     2.5030   716.8670   -19.8050     7.1180     6.0960     6.5620
  423.0000    10.1680     0.0350   108.6270     2.5070   692.7710   -19.9000     7.1460     6.2090     6.6840
  423.5000    10.1720     0.0360   108.2680     2.5100   698.5080   -20.0070     7.1730     6.3250     6.8080
  424.0000    10.1750     0.0370   107.8710     2.5160   705.6800   -20.0980     7.1950     6.3250     6.8080
  424.5000    10.1780     0.0380   109.0990     2.5220   712.8510   -20.1770     7.1760     6.3250     6.8080
  425.0000    10.1810     0.0400   110.9680     2.5240   726.5430   -19.8980     7.1530     6.3250     6.8080
  425.5000    10.1850     0.0440   112.9040     2.5220   749.3610   -19.6030     7.1290     6.2480     6.7260
  426.0000    10.1880     0.0440   113.5710     2.5220   772.1800   -19.3060     7.1060     6.1530     6.6230
  426.5000    10.1910     0.0440   113.7870     2.5250   794.9980   -19.0190     7.0820     6.0960     6.5620
  427.0000    10.1940     0.0440   113.6350     2.5260   813.2530   -19.0030     7.0640     5.9740     6.4310
