~VERSION INFORMATION
 VERS.                2.0:   CWLS LOG ASCII STANDARD - VERSION 2.0
 WRAP.                 NO:   ONE LINE PER DEPTH STEP
~WELL INFORMATION
#MNEM.UNIT      DATA TYPE    INFORMATION
#----------   ------------   ------------------------------
 STRT.F            7.5000:   START DEPTH
 STOP.F         5700.0000:   STOP DEPTH
 STEP.F            0.5000:   STEP LENGTH
 NULL.          -999.2500:   NO VALUE
 COMP. FLUOR DANIEL (NPOSR):   COMPANY
 WELL.   FLOUR "X" #52-10:   WELL
 FLD .             NPR #3:   FIELD
 LOC .      S10 T38N R78W:   LOCATION
 CNTY.            NATRONA:   COUNTY
 STAT.            WYOMING:   STATE
 CTRY. UNITED STATES OF AMERICA:   COUNTRY
 SRVC.      WESTERN ATLAS:   SERVICE COMPANY
 DATE.        12-JAN-1996:   LOGDATE
 API .     49025227600000:   API NUMBER
~CURVE INFORMATION
#MNEM.UNIT       API CODE    CURVE DESCRIPTION
#----------   ------------   ------------------------------
 DEPT.F                  :   
 TENR.LBS    11 635 01 00:   TENSION
 GRR .GAPI   11 310 01 00:   GAMMA RAY FROM RESISTIVITY
 LLD .OHMM   11 220 10 00:   LATEROLOG DEEP
 LLS .OHMM   11 220 09 00:   LATEROLOG SHALLOW
 SPR .MV     11 010 01 00:   SPONTANEOUS POTENTIAL
 CALD.IN     45 280 60 00:   CALIPER FROM DENSITY LOG
 TEND.LBS    45 635 01 00:   TENSION FROM DENSITY LOG
 ZCOR.G/C3   45 356 01 00:   DENSITY CORRECTION
 ZDEN.G/C3   45 350 01 00:   BULK DENSITY
 CNC .DEC    42 890 03 00:   NEUTRON POROSITY SANDSTONE
~PARAMETER INFORMATION
#MNEM.UNIT          VALUE    DESCRIPTION
#----------   ------------   ------------------------------
 EKB .F         5196.0000:   Kelly bushing
 EGL .F         5186.0000:   Ground level
 EDF .F         5195.0000:   Drilling floor
 TD  .F         5699.0000:   Total depth
 DATE.        12-JAN-1996:   Date logged
 CLNT.            A2DTECH:   Client Code
 SL  . 1032' FNL & 2536' FEL:   Surface Location
 PD  .                 GL:   Permanent Datum
 EPD .F              5186:   Elevation Permanent Datum
 LMF .                 KB:   Log Measured From
 DMF .                 KB:   Drilling Measured From
 DAPD.F                11:   Feet Above Permanent Datum
 DD  .F              5699:   Depth driller
 DL  .F              5699:   Depth logger
 BLI .F              5687:   Bottom log interval
 CS1 .IN            9.625:   Casing size
 CBD1.      9.625" @ 520':   Casing driller 1
 CBL1.F               522:   Casing logger 1
 BS1 .IN             8.75:   Bit size
 BSD1.F              5699:   Depth drilled with bit1
 DFT .               CHEM:   Type fluid in hole
 DFD .                9.8:   Density
 DFV .                 50:   Viscosity
 DFPH.                9.5:   pH
 DFL .                8.4:   Fluid loss
 MSS .           FLOWLINE:   Source of sample
 RMS .OHMM          0.515:   Rm
 MST .F                66:   Rm Meas. temp.
 RMF .OHMM          0.499:   Rmf
 MFST.F                66:   Rmf Meas. temp.
 RMC .OHMM          0.761:   Rmc
 MCST.F                66:   Rmc Meas. temp.
 MFSS.               MEAS:   Source Rmf.
 MCSS.               MEAS:   Source Rmc.
 RMB .OHMM          0.233:   Rm. at BHT
 BHT .F               174:   BHT.
 TCS .HRS               6:   Time Circ. stopped
 MRT .F               174:   Maximum recorded temp.
 LUN .            HL 6530:   Logging unit number
 LUL .             CASPER:   Logging unit location
 ENGI.        VERN RAUTIO:   Recorded By
 WITN. LAFRENIERE/OPSAL/HARDY:   Witnessed by
 ORIG.     2.5", 5" PRINT:   Origin of data
 UWI .     49025227600000:   Unique Well ID
 DICO. A2D TECHNOLOGIES, INC.:   Digitizing Company
~OTHER INFORMATION
~A    DEPT    TENR         GRR       LLD        LLS        SPR       CALD       TEND       ZCOR       ZDEN        CNC   
# ...
 1917.0000   -26.4080   119.5650     9.0710     7.8230   -92.1980  -999.2500  -999.2500  -999.2500  -999.2500  -999.2500
 1917.5000   -24.0960   120.0460     9.0710     7.8500   -92.2390  -999.2500  -999.2500  -999.2500  -999.2500  -999.2500
 1918.0000   -27.2310   120.8520     9.0710     7.8900   -92.2380  -999.2500  -999.2500  -999.2500  -999.2500  -999.2500
 1918.5000   -30.1150   122.5060     9.0710     7.9290   -92.2380  -999.2500  -999.2500  -999.2500  -999.2500  -999.2500
 1919.0000   -32.9990   122.1120     9.0710     7.9700   -92.2390  -999.2500  -999.2500  -999.2500  -999.2500  -999.2500
 1919.5000   -32.9730   120.4320     9.2400     7.9460   -92.2780  -999.2500  -999.2500  -999.2500  -999.2500  -999.2500
 1920.0000   -31.0500   120.2360     9.1520     7.9220   -92.3780  -999.2500  -999.2500  -999.2500  -999.2500  -999.2500
 1920.5000   -29.1280   124.1790     9.0790     7.8990   -92.4780  -999.2500  -999.2500  -999.2500  -999.2500  -999.2500
 1921.0000   -27.2050   124.1830     8.9880     7.7480   -92.5750  -999.2500  -999.2500  -999.2500  -999.2500  -999.2500
 1921.5000   -25.2830   123.0360     9.0140     7.6090   -92.5540  -999.2500  -999.2500  -999.2500  -999.2500  -999.2500
 1922.0000   -25.9040   124.2720     9.0500     7.7010   -92.2890  -999.2500  -999.2500  -999.2500  -999.2500  -999.2500
 1922.5000   -30.6220   128.2720     9.1420     7.7800   -92.0290  -999.2500  -999.2500  -999.2500  -999.2500  -999.2500
 1923.0000   -35.3410   128.5880     9.3110     7.9180   -91.7680  -999.2500  -999.2500  -999.2500  -999.2500  -999.2500
 1923.5000   -40.0600   122.7830     9.4810     8.1270   -91.4960  -999.2500  -999.2500  -999.2500  -999.2500  -999.2500
 1924.0000   -43.6540   120.2680     9.6500     8.2860   -91.4580  -999.2500  -999.2500  -999.2500  -999.2500  -999.2500
 1924.5000   -39.5560   122.2210     9.8580     8.3470   -91.4920  -999.2500  -999.2500  -999.2500  -999.2500  -999.2500
 1925.0000   -35.4580   129.3930     9.7000     8.3190   -91.5290  -999.2500  -999.2500  -999.2500  -999.2500  -999.2500
 1925.5000   -31.3600   135.1980     9.4950     8.2830   -91.5650  -999.2500  -999.2500  -999.2500  -999.2500  -999.2500
 1926.0000   -27.2620   135.4200     9.2910     8.1690   -91.6010  -999.2500  -999.2500  -999.2500  -999.2500  -999.2500
 1926.5000   -23.1640   129.0720     9.0860     7.8630   -91.6290  -999.2500  -999.2500  -999.2500  -999.2500  -999.2500
 1927.0000   -19.0660   125.2340     8.9730     7.5960   -91.5620  -999.2500  -999.2500  -999.2500  -999.2500  -999.2500
 1927.5000   -14.9680   123.6880     8.9440     7.5390   -91.4960  -999.2500  -999.2500  -999.2500  -999.2500  -999.2500
 1928.0000   -17.4200   125.5560     8.9050     7.5820   -91.4320  -999.2500  -999.2500  -999.2500  -999.2500  -999.2500
 1928.5000   -21.7450   128.5940     8.9840     7.7740   -91.3890  -999.2500  -999.2500  -999.2500  -999.2500  -999.2500
 1929.0000   -26.0710   131.8160     9.1120     7.9720   -91.3480  -999.2500  -999.2500  -999.2500  -999.2500  -999.2500
 1929.5000   -30.3970   135.1210     9.2400     7.9830   -91.3060  -999.2500  -999.2500  -999.2500  -999.2500  -999.2500
 1930.0000   -34.1370   136.2440     9.3350     7.9940   -91.2650  -999.2500  -999.2500  -999.2500  -999.2500  -999.2500
 1930.5000   -34.1370   137.3250     9.3620     8.0050   -91.2230  -999.2500  -999.2500  -999.2500  -999.2500  -999.2500
 1931.0000   -34.1370   139.8070     9.3900     8.0160   -91.1880  -999.2500  -999.2500  -999.2500  -999.2500  -999.2500
 1931.5000   -34.1370   142.3950     9.4170     8.0270   -91.1520  -999.2500  -999.2500  -999.2500  -999.2500  -999.2500
 1932.0000   -34.1370   145.0020     9.4440     8.0380   -91.1160  -999.2500  -999.2500  -999.2500  -999.2500  -999.2500
 1932.5000   -34.1370   147.6710     9.4720     8.0820   -91.0800  -999.2500  -999.2500  -999.2500  -999.2500  -999.2500
 1933.0000   -34.1370   148.1680     9.5000     8.1600   -91.0440  -999.2500  -999.2500  -999.2500  -999.2500  -999.2500
 1933.5000   -34.1370   145.4360     9.5970     8.2380   -90.9850  -999.2500  -999.2500  -999.2500  -999.2500  -999.2500
 1934.0000   -34.1370   142.5380     9.6780     8.3570   -90.9080  -999.2500  -999.2500  -999.2500  -999.2500  -999.2500
 1934.5000   -33.7250   141.5720     9.8940     8.5030   -90.8310  -999.2500  -999.2500  -999.2500  -999.2500  -999.2500
 1935.0000   -31.9950   140.8820    10.1070     8.7210   -90.7530  -999.2500  -999.2500  -999.2500  -999.2500  -999.2500
 1935.5000   -30.2640   139.2380    10.3200     8.9930   -90.6780  -999.2500  -999.2500  -999.2500  -999.2500  -999.2500
 1936.0000   -28.5340   136.1810    10.4880     9.0410   -90.6700  -999.2500  -999.2500  -999.2500  -999.2500  -999.2500
 1936.5000   -26.8040   134.3400    10.6150     9.0900   -90.8150  -999.2500  -999.2500  -999.2500  -999.2500  -999.2500
 1937.0000   -25.0740   132.6670    10.7420     9.1380   -90.9580  -999.2500  -999.2500  -999.2500  -999.2500  -999.2500
 1937.5000   -25.9040   131.1070    10.8130     9.1870   -91.1030  -999.2500  -999.2500  -999.2500  -999.2500  -999.2500
 1938.0000   -30.0560   129.5860    10.8130     9.2400   -91.1960  -999.2500  -999.2500  -999.2500  -999.2500  -999.2500
 1938.5000   -34.2090   129.6220    10.8130     9.1350   -90.6080  -999.2500  -999.2500  -999.2500  -999.2500  -999.2500
 1939.0000   -38.3610   129.7440    10.5390     9.0160   -90.5550  -999.2500  -999.2500  -999.2500  -999.2500  -999.2500
 1939.5000   -42.5140   129.4080    10.2300     8.6810   -90.4950  -999.2500  -999.2500  -999.2500  -999.2500  -999.2500
 1940.0000   -37.2600   127.2640    10.1350     8.2780   -90.4320  -999.2500  -999.2500  -999.2500  -999.2500  -999.2500
 1940.5000   -25.7250   123.6380    10.0400     7.8960   -90.4660  -999.2500  -999.2500  -999.2500  -999.2500  -999.2500
 1941.0000   -24.0960   124.6330     9.9440     7.8230   -90.5180  -999.2500  -999.2500  -999.2500  -999.2500  -999.2500
 1941.5000   -24.0960   126.0690     9.8490     7.9450   -90.5710  -999.2500  -999.2500  -999.2500  -999.2500  -999.2500
 1942.0000   -24.0960   124.3990     9.7680     8.0440   -90.6220  -999.2500  -999.2500  -999.2500  -999.2500  -999.2500
 1942.5000   -25.5130   124.9370     9.7680     8.0440   -90.5870  -999.2500  -999.2500  -999.2500  -999.2500  -999.2500
 1943.0000   -27.3670   126.9970     9.7680     8.0440   -90.5470  -999.2500  -999.2500  -999.2500  -999.2500  -999.2500
 1943.5000   -29.2200   129.2610     9.7680     8.0440   -90.5060  -999.2500  -999.2500  -999.2500  -999.2500  -999.2500
 1944.0000   -31.0740   130.2810     9.7670     8.0440   -90.4660  -999.2500  -999.2500  -999.2500  -999.2500  -999.2500
 1944.5000   -32.9280   127.5570     9.7830     8.0520   -90.4260  -999.2500  -999.2500  -999.2500  -999.2500  -999.2500
 1945.0000   -34.1370   121.4640     9.8060     8.0780   -90.4880  -999.2500  -999.2500  -999.2500  -999.2500  -999.2500
 1945.5000   -31.9280   116.4140     9.8280     8.1030   -90.5600  -999.2500  -999.2500  -999.2500  -999.2500  -999.2500
 1946.0000   -28.0830   116.8110     9.8580     8.1180   -90.6120  -999.2500  -999.2500  -999.2500  -999.2500  -999.2500
 1946.5000   -24.2380   121.8140     9.7720     8.0120   -90.3060  -999.2500  -999.2500  -999.2500  -999.2500  -999.2500
 1947.0000   -20.3930   122.6570     9.6370     7.9370   -90.0190  -999.2500  -999.2500  -999.2500  -999.2500  -999.2500
 1947.5000   -16.5480   120.5490     9.5030     7.8620   -89.9410  -999.2500  -999.2500  -999.2500  -999.2500  -999.2500
 1948.0000   -16.0870   119.8120     9.3680     7.7860   -89.8700  -999.2500  -999.2500  -999.2500  -999.2500  -999.2500
 1948.5000   -21.8540   122.1700     9.2340     7.7110   -89.7980  -999.2500  -999.2500  -999.2500  -999.2500  -999.2500
 1949.0000   -27.6220   127.7440     9.1550     7.6090   -89.7260  -999.2500  -999.2500  -999.2500  -999.2500  -999.2500
 1949.5000   -33.3890   132.9010     9.2160     7.6950   -89.6510  -999.2500  -999.2500  -999.2500  -999.2500  -999.2500
 1950.0000   -32.4100   131.6500     9.2650     7.8290   -89.4330  -999.2500  -999.2500  -999.2500  -999.2500  -999.2500
