~VERSION INFORMATION
 VERS.                2.0:   CWLS LOG ASCII STANDARD - VERSION 2.0
 WRAP.                 NO:   ONE LINE PER DEPTH STEP
~WELL INFORMATION
#MNEM.UNIT      DATA TYPE    INFORMATION
#----------   ------------   ------------------------------
 STRT.F           10.0000:   START DEPTH
 STOP.F         2950.0000:   STOP DEPTH
 STEP.F            0.5000:   STEP LENGTH
 NULL.          -999.2500:   NO VALUE
 COMP.    FENIX & SCISSON:   COMPANY
 WELL.   PENIX SHX #11-23:   WELL
 FLD .  TEAPOT DOME NPR-3:   FIELD
 LOC .      S23 T38N R78W:   LOCATION
 CNTY.            NATRONA:   COUNTY
 STAT.            WYOMING:   STATE
 CTRY. UNITED STATES OF AMERICA:   COUNTRY
 SRVC.           BIRDWELL:   SERVICE COMPANY
 DATE.        19-MAY-1979:   LOGDATE
 API .     49025107790000:   API NUMBER
~CURVE INFORMATION
#MNEM.UNIT       API CODE    CURVE DESCRIPTION
#----------   ------------   ------------------------------
 DEPT.F                  :   
 ILD .OHMM   05 120 46 00:   INDUCTION LOG DEEP
 SN  .OHMM   05 040 16 00:   SHORT NORMAL 16"
 CALD.IN     45 280 60 00:   CALIPER FROM DENSITY LOG
 GRD .GAPI   45 310 01 00:   GAMMA RAY FROM DENSITY LOG
 RHOB.G/C3   45 350 01 00:   BULK DENSITY
 CORR.G/C3   45 356 01 00:   DENSITY CORRECTION
~PARAMETER INFORMATION
#MNEM.UNIT          VALUE    DESCRIPTION
#----------   ------------   ------------------------------
 EKB .F         5275.0000:   Kelly bushing
 EGL .F         5265.0000:   Ground level
 EDF .F            0.0000:   Drilling floor
 TD  .F         2995.0000:   Total depth
 DATE.        19-MAY-1979:   Date logged
 CLNT.            A2DTECH:   Client Code
 SL  . 337' FNL & 237' FWL:   Surface Location
 PD  .                 GL:   Permanent Datum
 EPD .F              5265:   Elevation Permanent Datum
 LMF .                 KB:   Log Measured From
 DMF .                 KB:   Drilling Measured From
 DAPD.F                10:   Feet Above Permanent Datum
 DD  .F              2995:   Depth driller
 DL  .F              2950:   Depth logger
 BLI .F              2944:   Bottom log interval
 TLI .F              1050:   Top log interval
 CS1 .IN            9.625:   Casing size
 CBD1.     9.625" @ 2050':   Casing driller 1
 CBL1.F              1050:   Casing logger 1
 BS1 .IN             8.75:   Bit size
 BSD1.F              2995:   Depth drilled with bit1
 DFT . AIR/FORRATION FLUIDS:   Type fluid in hole
 TCS .HRS              12:   Time Circ. stopped
 LUN .               3029:   Logging unit number
 LUL .             CASPER:   Logging unit location
 ENGI.         B. ROLLINS:   Recorded By
 ORIG.         2.5" PRINT:   Origin of data
 UWI .     49025107790000:   Unique Well ID
 DICO. A2D TECHNOLOGIES, INC.:   Digitizing Company
~OTHER INFORMATION
~A   DEPT      ILD         SN       CALD        GRD       RHOB         CORR 
# ...
  790.0000  -999.2500  -999.2500    12.1790   103.5660     2.4970     0.0090
  790.5000  -999.2500  -999.2500    12.1800   102.2070     2.5100     0.0130
  791.0000  -999.2500  -999.2500    12.1800   100.0700     2.5030     0.0120
  791.5000  -999.2500  -999.2500    12.1810    99.2060     2.4920     0.0050
  792.0000  -999.2500  -999.2500    12.1820    96.5380     2.4860     0.0000
  792.5000  -999.2500  -999.2500    12.1830   100.7010     2.4840    -0.0050
  793.0000  -999.2500  -999.2500    12.1830   104.4190     2.4810    -0.0020
  793.5000  -999.2500  -999.2500    12.1840   106.4210     2.4780    -0.0010
  794.0000  -999.2500  -999.2500    12.1850   106.7760     2.4770     0.0000
  794.5000  -999.2500  -999.2500    12.1860   107.2330     2.4830     0.0000
  795.0000  -999.2500  -999.2500    12.1860   107.4920     2.4880     0.0010
  795.5000  -999.2500  -999.2500    12.1870   109.3190     2.4930     0.0020
  796.0000  -999.2500  -999.2500    12.1830   113.0060     2.4990     0.0030
  796.5000  -999.2500  -999.2500    12.1780   111.5390     2.4960     0.0030
  797.0000  -999.2500  -999.2500    12.1740   108.9480     2.4850     0.0040
  797.5000  -999.2500  -999.2500    12.1700   106.4070     2.4870     0.0050
  798.0000  -999.2500  -999.2500    12.1650   103.8410     2.4940     0.0060
  798.5000  -999.2500  -999.2500    12.1610   104.9600     2.5000     0.0060
  799.0000  -999.2500  -999.2500    12.1570   107.1620     2.5070     0.0070
  799.5000  -999.2500  -999.2500    12.1530   107.1700     2.5130     0.0080
  800.0000  -999.2500  -999.2500    12.1480   106.5100     2.5190     0.0090
  800.5000  -999.2500  -999.2500    12.1490   105.8680     2.5150     0.0100
  801.0000  -999.2500  -999.2500    12.1520   105.4880     2.5080     0.0090
  801.5000  -999.2500  -999.2500    12.1550   106.3820     2.4980     0.0140
  802.0000  -999.2500  -999.2500    12.1570   106.8260     2.5030     0.0260
  802.5000  -999.2500  -999.2500    12.1600   107.9880     2.5130     0.0670
  803.0000  -999.2500  -999.2500    12.1620   108.1240     2.5030     0.1310
  803.5000  -999.2500  -999.2500    12.1650   116.0900     2.4060     0.1050
  804.0000  -999.2500  -999.2500    12.1670   115.1900     2.2330     0.0010
  804.5000  -999.2500  -999.2500    12.1700   112.2280     2.2720    -0.0600
  805.0000  -999.2500  -999.2500    12.1720   109.4180     2.3820    -0.0180
  805.5000  -999.2500  -999.2500    12.1750   106.7470     2.4740     0.0430
  806.0000  -999.2500  -999.2500    12.1780   105.0960     2.5320     0.0960
  806.5000  -999.2500  -999.2500    12.1800   108.0130     2.6030     0.2540
  807.0000  -999.2500  -999.2500    12.1830   111.7340     2.5150     0.3160
  807.5000  -999.2500  -999.2500    12.1850   114.0110     2.3070     0.1440
  808.0000  -999.2500  -999.2500    12.1880   111.4090     2.0920    -0.0770
  808.5000  -999.2500  -999.2500    12.1900   108.1440     2.2250    -0.0670
  809.0000  -999.2500  -999.2500    12.1930   106.4060     2.3430    -0.0460
  809.5000  -999.2500  -999.2500    12.1950   106.7360     2.4680    -0.0180
  810.0000  -999.2500  -999.2500    12.1980   107.4180     2.4750     0.0010
  810.5000  -999.2500  -999.2500    12.2010   108.3880     2.4800     0.0020
  811.0000  -999.2500  -999.2500    12.2030   109.2150     2.4870     0.0030
  811.5000  -999.2500  -999.2500    12.2060   107.4260     2.4820     0.0020
  812.0000  -999.2500  -999.2500    12.2080   105.6940     2.4770     0.0020
  812.5000  -999.2500  -999.2500    12.2110   103.6400     2.4790     0.0020
  813.0000  -999.2500  -999.2500    12.2130   104.8240     2.4830     0.0080
  813.5000  -999.2500  -999.2500    12.2160   105.9200     2.4880     0.0170
  814.0000  -999.2500  -999.2500    12.2180   112.0550     2.4910     0.0220
  814.5000  -999.2500  -999.2500    12.2210   117.4570     2.4900     0.0460
  815.0000  -999.2500  -999.2500    12.2240   115.3020     2.4620     0.0540
  815.5000  -999.2500  -999.2500    12.2260   113.8720     2.4180     0.0320
  816.0000  -999.2500  -999.2500    12.2290   107.0170     2.3820    -0.0050
  816.5000  -999.2500  -999.2500    12.2310   103.0130     2.4240    -0.0080
  817.0000  -999.2500  -999.2500    12.2340   103.6050     2.4640     0.0150
  817.5000  -999.2500  -999.2500    12.2360   103.8260     2.5180     0.0380
  818.0000  -999.2500  -999.2500    12.2390   104.6340     2.5070     0.0690
  818.5000  -999.2500  -999.2500    12.2410   106.2600     2.4470     0.0610
  819.0000  -999.2500  -999.2500    12.2440   106.5770     2.3880     0.0300
  819.5000  -999.2500  -999.2500    12.2470   105.0160     2.3710    -0.0100
  820.0000  -999.2500  -999.2500    12.2490   103.7710     2.4250    -0.0180
  820.5000  -999.2500  -999.2500    12.2520   106.7370     2.4920     0.0100
  821.0000  -999.2500  -999.2500    12.2540   110.6460     2.5260     0.0260
  821.5000  -999.2500  -999.2500    12.2570   109.2860     2.5240     0.0190
  822.0000  -999.2500  -999.2500    12.2590   106.6690     2.5270     0.0140
  822.5000  -999.2500  -999.2500    12.2620   105.1630     2.5010     0.0070
  823.0000  -999.2500  -999.2500    12.2640   106.2300     2.4970     0.0060
  823.5000  -999.2500  -999.2500    12.2670   110.5460     2.4990     0.0060
  824.0000  -999.2500  -999.2500    12.2680   109.5720     2.5030     0.0060
  824.5000  -999.2500  -999.2500    12.2720   105.2710     2.5060     0.0070
  825.0000  -999.2500  -999.2500    12.2760   105.7330     2.5170     0.0110
  825.5000  -999.2500  -999.2500    12.2810   106.3490     2.5280     0.0160
  826.0000  -999.2500  -999.2500    12.2850   107.3060     2.5310     0.0190
  826.5000  -999.2500  -999.2500    12.2890   110.0090     2.5210     0.0190
  827.0000  -999.2500  -999.2500    12.2930   112.0390     2.5190     0.0200
  827.5000  -999.2500  -999.2500    12.2970   113.8380     2.5250     0.0210
  828.0000  -999.2500  -999.2500    12.3020   112.6990     2.5320     0.0220
  828.5000  -999.2500  -999.2500    12.3060   110.9770     2.5270     0.0200
  829.0000  -999.2500  -999.2500    12.3100   109.0450     2.5130     0.0160
  829.5000  -999.2500  -999.2500    12.3140   109.4370     2.5040     0.0120
  830.0000  -999.2500  -999.2500    12.3190   111.0060     2.5040     0.0100
  830.5000  -999.2500  -999.2500    12.3230   111.1220     2.5050     0.0090
  831.0000  -999.2500  -999.2500    12.3270   108.6580     2.5050     0.0070
  831.5000  -999.2500  -999.2500    12.3310   106.4630     2.5030     0.0060
  832.0000  -999.2500  -999.2500    12.3360   104.1720     2.5020     0.0050
  832.5000  -999.2500  -999.2500    12.3400   102.9640     2.5000     0.0030
  833.0000  -999.2500  -999.2500    12.3440   102.5040     2.5000     0.0030
  833.5000  -999.2500  -999.2500    12.3480   101.9600     2.5040     0.0070
  834.0000  -999.2500  -999.2500    12.3530   104.8840     2.5070     0.0140
  834.5000  -999.2500  -999.2500    12.3570   108.4890     2.5100     0.0230
  835.0000  -999.2500  -999.2500    12.3610   111.9940     2.5200     0.0890
  835.5000  -999.2500  -999.2500    12.3650   115.9530     2.5420     0.1560
  836.0000  -999.2500  -999.2500    12.3690   116.7330     2.5370     0.2300
  836.5000  -999.2500  -999.2500    12.3740   113.5080     2.3260     0.1360
  837.0000  -999.2500  -999.2500    12.3780   110.8250     2.2110     0.0120
  837.5000  -999.2500  -999.2500    12.3820   107.7390     2.3190    -0.0520
  838.0000  -999.2500  -999.2500    12.3860   105.9050     2.4220    -0.0540
  838.5000  -999.2500  -999.2500    12.3850   105.8630     2.5200     0.0100
  839.0000  -999.2500  -999.2500    12.3820   104.4110     2.5540     0.0360
  839.5000  -999.2500  -999.2500    12.3790   102.4250     2.5540     0.0360
  840.0000  -999.2500  -999.2500    12.3770   101.2760     2.5500     0.0360
  840.5000  -999.2500  -999.2500    12.3740   100.6280     2.5500     0.0370
  841.0000  -999.2500  -999.2500    12.3720   101.4240     2.5530     0.0370
  841.5000  -999.2500  -999.2500    12.3690   103.7870     2.5470     0.0380
