~VERSION INFORMATION
 VERS.                2.0:   CWLS LOG ASCII STANDARD - VERSION 2.0
 WRAP.                 NO:   ONE LINE PER DEPTH STEP
~WELL INFORMATION
#MNEM.UNIT      DATA TYPE    INFORMATION
#----------   ------------   ------------------------------
 STRT.F          407.0000:   START DEPTH
 STOP.F         3228.0000:   STOP DEPTH
 STEP.F            0.5000:   STEP LENGTH
 NULL.          -999.2500:   NO VALUE
 COMP.    FENIX & SCISSON:   COMPANY
 WELL.   FENIX "A" #21-34:   WELL
 FLD .             N.P.R.:   FIELD
 LOC .      S34 T39N R78W:   LOCATION
 CNTY.            NATRONA:   COUNTY
 STAT.            WYOMING:   STATE
 CTRY. UNITED STATES OF AMERICA:   COUNTRY
 SRVC.       SCHLUMBERGER:   SERVICE COMPANY
 DATE.        05-MAY-1977:   LOGDATE
 API .     49025103710000:   API NUMBER
~CURVE INFORMATION
#MNEM.UNIT       API CODE    CURVE DESCRIPTION
#----------   ------------   ------------------------------
 DEPT.F                  :   
 SPR .MV     11 010 01 00:   SPONTANEOUS POTENTIAL FROM RES.
 LLS .OHMM   11 220 09 00:   LATEROLOG LOG SHALLOW
 LLD .OHMM   11 220 10 00:   LATEROLOG DEEP
 MSFL.OHMM   11 270 04 00:   MICRO SPHERICALLY FOCUSED
 CALD.IN     45 280 60 00:   CALIPER FROM DENSITY LOG
 NPHI.DEC    42 890 03 00:   NEUTRON POROSITY SANDSTONE
 GRD .GAPI   45 310 01 00:   GAMMA RAY FROM DENSITY LOG
 CORR.G/C3   45 356 01 00:   DENSITY CORRECTION
 RHOB.G/C3   45 350 01 00:   BULK DENSITY
~PARAMETER INFORMATION
#MNEM.UNIT          VALUE    DESCRIPTION
#----------   ------------   ------------------------------
 EKB .F         5086.0000:   Kelly bushing
 EGL .F         5074.0000:   Ground level
 TD  .F         3226.0000:   Total depth
 CLNT.            A2DTECH:   Client Code
 SL  . 990' FWL & 330' FNL:   Surface Location
 PD  .                 GL:   Permanent Datum
 EPD .F              5074:   Elevation Permanent Datum
 LMF .                 KB:   Log Measured From
 DMF .                 KB:   Drilling Measured From
 DAPD.F                12:   Feet Above Permanent Datum
 DATE.        05-MAY-1977:   Date Logged [DD-MMM-YYYY]
 DD  .F              3226:   Depth driller
 DL  .F              3229:   Depth logger
 BLI .F              3227:   Bottom log interval
 TLI .F               430:   Top log interval
 CS1 .IN            8.625:   Casing size
 CBD1.      8.625" @ 424':   Casing driller 1
 CBL1.F               430:   Casing logger 1
 BS1 .IN            7.875:   Bit size
 BSD1.F              3226:   Depth drilled with bit1
 DFT .                KCL:   Type fluid in hole
 DFD .                9.4:   Density
 DFV .                 31:   Viscosity
 DFPH.                  8:   pH
 DFL .                9.6:   Fluid loss
 MSS .           MUD TANK:   Source of sample
 RMS .OHMM          0.202:   Rm
 MST .F                78:   Rm Meas. temp.
 RMF .OHMM          0.191:   Rmf
 MFST.F                76:   Rmf Meas. temp.
 MFSS.               MEAS:   Source Rmf.
 RMC .OHMM           0.30:   Rmc
 MCST.F                78:   Rmc Meas. temp.
 MCSS.               CALC:   Source Rmc.
 RMB .OHMM          0.123:   Rm. at BHT
 BHT .F               128:   BHT.
 TCS .HRS            1400:   Time Circ. stopped
 TLAB.HRS            0300:   Time logger at bottom
 MRT .F               128:   Maximum recorded temp.
 LUN .               5642:   Logging unit number
 LUL .               CSPR:   Logging unit location
 ENGI.                FIX:   Recorded By
 WITN.         HARRINGTON:   Witnessed by
 ORIG.           5" PRINT:   Origin of data
 UWI .     49025103710000:   Unique Well ID
 DICO. A2D TECHNOLOGIES, INC.:   Digitizing Company
~OTHER INFORMATION
~A   DEPT      SPR        LLS        LLD       MSFL       CALD       NPHI         GRD      CORR       RHOB   
# ...
 2451.0000   -77.6572     7.6033     6.1478     8.5645     9.1052     0.3292   153.2224     0.0112     2.5205
 2451.5000   -77.1425     7.6138     6.1965     8.3954     9.1052     0.3353   149.8633     0.0165     2.5485
 2452.0000   -77.1936     7.4637     6.1962     8.0623     9.1052     0.3407   144.0275     0.0257     2.5554
 2452.5000   -80.2436     7.4208     6.1938     8.0146     9.1052     0.3448   139.9801     0.0273     2.5420
 2453.0000   -79.5782     7.4315     6.1915     8.0786     9.1052     0.3454   139.7994     0.0032     2.5044
 2453.5000   -77.4172     7.4349     6.1891     8.0870     9.1052     0.3402   144.9689     0.0017     2.5158
 2454.0000   -75.8904     7.6458     6.1466     8.0970     9.1052     0.3422   148.6612     0.0116     2.5378
 2454.5000   -74.8885     7.5478     6.1107     7.9938     9.1052     0.3446   147.3294     0.0178     2.5266
 2455.0000   -74.7022     7.4492     6.0589     8.0019     9.1052     0.3406   150.0722     0.0186     2.5229
 2455.5000   -74.2301     7.3554     5.9580     8.0656     9.1052     0.3432   151.0451     0.0157     2.5275
 2456.0000   -73.9167     7.2611     5.8392     8.1297     9.1052     0.3408   152.3855     0.0089     2.5239
 2456.5000   -74.1761     7.2161     5.7676     8.1380     9.1052     0.3472   151.2865     0.0105     2.5240
 2457.0000   -75.1506     7.1746     5.7339     8.1462     9.1052     0.3503   147.4735     0.0136     2.5241
 2457.5000   -75.8817     7.1815     5.6611     8.2110     9.1052     0.3381   149.9908     0.0004     2.5069
 2458.0000   -75.6231     7.2458     5.6687     8.2195     9.1052     0.3318   154.9844    -0.0043     2.5017
 2458.5000   -75.1311     7.3989     5.6748     8.2868     9.1074     0.3293   156.8105     0.0033     2.5131
 2459.0000   -75.5411     7.5613     5.8812     8.6465     9.1126     0.3283   155.4859     0.0079     2.5155
 2459.5000   -76.7825     7.8351     6.1803     9.0219     9.1178     0.3394   151.9129     0.0148     2.5186
 2460.0000   -77.5724     8.2320     6.5396     9.4789     9.1230     0.3523   140.4404     0.0126     2.5247
 2460.5000   -78.4674     8.7092     6.9795     9.9590     9.1282     0.3474   131.2211     0.0188     2.5323
 2461.0000   -79.1010     9.2140     7.4781    10.4635     9.1334     0.3395   125.8364     0.0393     2.5520
 2461.5000   -80.4626     9.5476     7.9680    10.8425     9.1386     0.3274   125.1813     0.0411     2.5469
 2462.0000   -79.2884     9.6230     8.4313    10.7787     9.1438     0.3159   127.0219     0.0249     2.5598
 2462.5000   -78.4937     9.2833     8.6776    10.5680     9.1490     0.2935   128.1785     0.0168     2.5493
 2463.0000   -78.2848     8.8744     8.5674    10.2927     9.1542     0.2892   129.5607     0.0260     2.5568
 2463.5000   -78.0048     8.7586     8.1141    10.3031     9.1594     0.2976   132.0707     0.0458     2.5771
 2464.0000   -77.7011     8.7063     7.6847    10.3851     9.1646     0.3036   135.7086     0.0526     2.5406
 2464.5000   -77.6159     8.8382     7.3772    10.4677     9.1698     0.3059   135.2863     0.0300     2.5596
 2465.0000   -77.3507     8.9080     7.2356    10.6242     9.1750     0.2989   140.1199     0.0301     2.5672
 2465.5000   -76.8479     8.8545     7.2958    10.7087     9.1802     0.2949   142.1890     0.0294     2.5522
 2466.0000   -73.5711     8.7412     7.3544    10.7939     9.1847     0.2933   140.1167     0.0257     2.5252
 2466.5000   -74.7637     8.8717     7.3095    10.8048     9.1862     0.2997   141.2734     0.0198     2.5321
 2467.0000   -77.2850     8.9437     7.2167    10.8159     9.1907     0.3071   144.0090     0.0055     2.5201
 2467.5000   -76.4840     9.0144     7.1250    10.8294     9.1952     0.3151   147.4212     0.0230     2.5383
 2468.0000   -76.0882     9.1487     7.0851    10.7656     9.1997     0.3238   136.3974     0.0324     2.5204
 2468.5000   -77.4215     9.2210     7.1423    10.7765     9.2041     0.3250   134.6145     0.0019     2.5173
 2469.0000   -77.9834     9.2297     7.2551    10.7874     9.2086     0.3201   136.0040    -0.0034     2.5266
 2469.5000   -79.8818     9.1725     7.4636    10.6499     9.2131     0.3113   137.3862    -0.0017     2.5244
 2470.0000   -78.7149     9.0570     7.4717    10.4418     9.2176     0.3004   138.3172     0.0151     2.5366
 2470.5000   -78.7235     9.0029     7.3768    10.0972     9.2221     0.3030   139.9250     0.0363     2.5555
 2471.0000   -78.3085     8.8262     7.2328     9.8999     9.2242     0.3075   142.6606     0.0515     2.5662
 2471.5000   -77.8877     8.5952     7.0426     9.6395     9.2242     0.3021   144.9450     0.0365     2.5520
 2472.0000   -77.4654     8.3663     6.9033     9.5167     9.2242     0.2989   140.2370     0.0245     2.5295
 2472.5000   -76.2118     8.3761     6.7236     9.3955     9.2242     0.3169   144.0464     0.0140     2.5454
 2473.0000   -75.3852     8.4423     6.6844     9.3402     9.2242     0.3171   148.8733     0.0148     2.5425
 2473.5000   -74.0114     8.6276     6.7923     9.4822     9.2242     0.3119   148.6693     0.0187     2.5298
 2474.0000   -72.6973     8.6958     7.0336     9.6908     9.2242     0.3061   151.4121     0.0218     2.5329
 2474.5000   -71.6601     8.5250     7.2391     9.5673     9.2242     0.3052   152.3360     0.0249     2.5391
 2475.0000   -69.2711     8.4157     7.3481     9.1874     9.2242     0.3277   145.8283     0.0265     2.5490
 2475.5000   -68.6211     8.3078     7.3560     8.9462     9.2242     0.3261   140.8947     0.0220     2.5551
 2476.0000   -68.3216     8.3176     7.3640     9.2099     9.2242     0.3252   146.5626     0.0123     2.5273
 2476.5000   -65.2871     8.4415     7.3719     9.5510     9.2242     0.3368   146.8170     0.0063     2.5342
 2477.0000   -64.0219     8.6868     7.3798     9.7521     9.2241     0.3461   142.4331     0.0033     2.5223
 2477.5000   -62.7744     8.9392     7.3328     9.6279     9.2249     0.3482   140.3333     0.0163     2.5316
 2478.0000   -62.8065     9.0724     7.1955     9.5028     9.2393     0.3411   143.9783     0.0134     2.5345
 2478.5000   -62.8030     9.0810     7.2032     9.2553     9.2536     0.3290   138.8192    -0.0055     2.5196
 2479.0000   -62.7881     8.9645     7.1593     9.0744     9.2677     0.3230   135.2318    -0.0050     2.5136
 2479.5000   -62.4268     8.7255     7.2188     8.8971     9.2818     0.3142   136.1628     0.0091     2.5236
 2480.0000   -61.8539     8.3153     7.2768     8.8445     9.2959     0.3186   132.5898     0.0220     2.5259
 2480.5000   -61.4109     8.0470     7.2847     8.9152     9.3100     0.3255   128.5585     0.0289     2.5320
 2481.0000   -61.5156     8.2257     7.2925     9.1212     9.3242     0.3206   127.9034     0.0313     2.5593
 2481.5000   -64.1814     8.4647     7.2500     9.5750     9.3384     0.3145   136.2853     0.0336     2.5481
 2482.0000   -63.7096     8.7712     7.2647     9.9907     9.3431     0.3108   139.9160     0.0307     2.5376
 2482.5000   -63.2578     9.0888     7.4202    10.2104     9.3407     0.3147   132.9595     0.0141     2.5294
 2483.0000   -63.5634     9.2883     7.5843    10.2208     9.3382     0.3131   135.4695     0.0112     2.5295
 2483.5000   -63.0455     9.4267     7.5925    10.0906     9.3357     0.3070   140.9465     0.0287     2.5388
 2484.0000   -61.0518     9.3033     7.4960     9.6903     9.3333     0.2997   152.8152     0.0386     2.5512
 2484.5000   -60.3821     9.0414     7.0994     9.3704     9.3308     0.2840   158.1148     0.0462     2.5600
 2485.0000   -60.2370     8.5227     6.7237     8.9347     9.3283     0.2829   161.9782     0.0304     2.5338
 2485.5000   -59.8252     7.9051     6.2803     8.6417     9.3259     0.2971   158.1724     0.0199     2.5113
 2486.0000   -58.7466     7.5381     5.9894     9.1448     9.3234     0.3083   148.7124     0.0117     2.4971
 2486.5000   -56.7059     7.4414     6.3834     9.6080     9.3209     0.3130   145.6009     0.0110     2.5024
 2487.0000   -58.4675     7.5002     6.5228     9.8193     9.3184     0.3032   148.3364     0.0181     2.5304
