~VERSION INFORMATION
 VERS.                2.0:   CWLS LOG ASCII STANDARD - VERSION 2.0
 WRAP.                 NO:   ONE LINE PER DEPTH STEP
~WELL INFORMATION
#MNEM.UNIT      DATA TYPE    INFORMATION
#----------   ------------   ------------------------------
 STRT.F            5.5000:   START DEPTH
 STOP.F         3261.0000:   STOP DEPTH
 STEP.F            0.5000:   STEP LENGTH
 NULL.          -999.2500:   NO VALUE
 COMP. LAWRENCE ALLISON & ASSOCIATES:   COMPANY
 WELL. LAWRENCE "X" #12-14:   WELL
 FLD .              NPR 3:   FIELD
 LOC .      S14 T38N R78W:   LOCATION
 CNTY.            NATRONA:   COUNTY
 STAT.            WYOMING:   STATE
 CTRY. UNITED STATES OF AMERICA:   COUNTRY
 SRVC.      DRESSER ATLAS:   SERVICE COMPANY
 DATE.        18-AUG-1986:   LOGDATE
 API .     49025111080000:   API NUMBER
~CURVE INFORMATION
#MNEM.UNIT       API CODE    CURVE DESCRIPTION
#----------   ------------   ------------------------------
 DEPT.F                  :   
 RILM.OHMM   07 120 44 00:   INDUCTION LOG MEDIUM RESISTIVITY
 GRR .GAPI   07 310 01 00:   GAMMA RAY FROM RESISTIVITY
 SPR .MV     07 010 01 00:   SPONTANEOUS POTENTIAL
 NPHI.DEC    42 890 03 00:   NEUTRON POROSITY SANDSTONE
 CALD.IN     45 280 60 00:   CALIPER FROM DENSITY LOG
 TEND.LBS    45 635 01 00:   TENSION FORM DENSITY LOG
 DRHO.G/C3   45 356 01 00:   DENSITY CORRECTION
 DEN .G/C3   45 350 01 00:   BULK DENSITY
 RILD.OHMM   07 120 46 00:   DEEP INDUCTION RESISTIVITY
 RFOC.OHMM   07 220 04 00:   RESISTIVITY FOCUSED LOG RES.
~PARAMETER INFORMATION
#MNEM.UNIT          VALUE    DESCRIPTION
#----------   ------------   ------------------------------
 EKB .F         5245.0000:   Kelly bushing
 EGL .F         5234.0000:   Ground level
 TD  .F         3250.0000:   Total depth
 CLNT.            A2DTECH:   Client Code
 SL  . 901' FNL & 485' FWL:   Surface Location
 PD  .                 GL:   Permanent Datum
 EPD .F              5234:   Elevation Permanent Datum
 LMF .                 KB:   Log Measured From
 DMF .                 KB:   Drilling Measured From
 DAPD.F                11:   Feet Above Permanent Datum
 DATE.        18-AUG-1986:   Date Logged [DD-MMM-YYYY]
 DD  .F              3250:   Depth driller
 DL  .F              3246:   Depth logger
 BLI .F              3244:   Bottom log interval
 TLI .F                 0:   Top log interval
 CS1 .IN            8.625:   Casing size
 CBD1.      8.625" @ 733':   Casing driller 1
 CBL1.F               735:   Casing logger 1
 BS1 .IN            7.875:   Bit size
 BSD1.F              3250:   Depth drilled with bit1
 DFT .            KCL-GEL:   Type fluid in hole
 DFD .                8.8:   Density
 DFV .                 36:   Viscosity
 DFPH.                8.5:   pH
 DFL .               12.8:   Fluid loss
 MSS .           FLOWLINE:   Source of sample
 RMS .OHMM          0.292:   Rm
 MST .F                73:   Rm Meas. temp.
 RMF .OHMM          0.224:   Rmf
 MFST.F                73:   Rmf Meas. temp.
 MFSS.               MEAS:   Source Rmf.
 RMC .OHMM          0.365:   Rmc
 MCST.F                73:   Rmc Meas. temp.
 MCSS.               CALC:   Source Rmc.
 RMB .OHMM          0.154:   Rm. at BHT
 BHT .F               138:   BHT.
 TCS .HRS               5:   Time Circ. stopped
 MRT .F               138:   Maximum recorded temp.
 LUN .            HL-6214:   Logging unit number
 LUL .           GILLETTE:   Logging unit location
 ENGI.             RAUTIO:   Recorded By
 WITN.             STRONG:   Witnessed by
 ORIG.        2" 5" PRINT:   Origin of data
 UWI .     49025111080000:   Unique Well ID
 DICO. A2D TECHNOLOGIES, INC.:   Digitizing Company
~OTHER INFORMATION
~A    DEPT    RILM         GRR       SPR       NPHI       CALD       TEND       DRHO        DEN       RILD       RFOC   
# ...
 3121.0000    16.3462    70.6678   -36.2559     0.2352     7.9266   -24.4361     0.0739     2.3598    17.5831    15.8109
 3121.5000    16.6909    67.3582   -35.7890     0.2216     7.9264   -31.9549     0.0814     2.3385    19.5186    15.4869
 3122.0000    16.6909    66.4619   -35.6437     0.2137     7.9261   -31.9549     0.0859     2.3453    20.2209    14.7528
 3122.5000    16.4603    61.0408   -35.4888     0.2107     7.9258   -31.9549     0.0889     2.3748    21.3674    15.0674
 3123.0000    16.1203    58.6362   -35.6361     0.2110     7.9255   -31.9549     0.0889     2.4050    22.1243    15.9372
 3123.5000    16.4603    60.1553   -35.4801     0.2321     7.9251   -24.4361     0.0828     2.3936    22.5912    15.3926
 3124.0000    16.6909    62.5773   -35.6263     0.2518     7.9248   -15.3635     0.0691     2.3460    23.0680    14.1609
 3124.5000    16.8074    64.0942   -35.4714     0.2663     7.9245    -9.3985     0.0585     2.3067    23.2292    13.8700
 3125.0000    16.8074    64.1029   -35.4920     0.2669     7.9242    -9.3985     0.0540     2.2915    23.0680    14.1666
 3125.5000    16.8074    63.2054   -35.6133     0.2684     7.9239    -9.3985     0.0464     2.2792    23.2292    14.3682
 3126.0000    16.6909    59.2959   -35.7585     0.2735     7.9085    -9.3985     0.0465     2.2733    23.0680    14.3711
 3126.5000    16.1203    56.8913   -36.0553     0.2720     7.8930    -9.3985     0.0599     2.2786    22.5912    14.2598
 3127.0000    15.2477    56.2967   -36.3533     0.2692     7.8927    -9.3985     0.0659     2.2869    21.8184    13.7890
 3127.5000    14.3224    56.3054   -36.9503     0.2668     7.8924    -9.3985     0.0341     2.2929    20.6365    13.5065
 3128.0000    12.8138    56.6157   -37.5644     0.2665     7.8921    -9.3985     0.0175     2.3004    19.1151    12.7769
 3128.5000    11.7740    58.1395   -38.4465     0.2635     7.8918    -7.3217     0.0250     2.3079    17.9091    11.8366
 3129.0000    11.7058    63.5734   -39.6470     0.2523     7.8915    -1.8797     0.0430     2.3293    16.2869    10.9656
 3129.5000    11.7875    69.6153   -40.2450     0.2505     7.8912    -1.8797     0.0460     2.3441    15.6206    10.8160
 3130.0000    12.0361    76.2604   -40.2407     0.2535     7.8909    -1.8797     0.0218     2.3335    15.0862    10.8944
 3130.5000    12.2899    73.8559   -39.9351     0.2573     7.8906    -1.8797     0.0157     2.3078    14.8776    11.0495
 3131.0000    12.6367    69.3396   -39.3213     0.2674     7.8903     5.6391     0.0096     2.2927    14.8776    11.5235
 3131.5000    12.9933    63.8646   -38.2687     0.2758     7.8900    20.6767    -0.0025     2.2851    15.1916    11.8515
 3132.0000    13.1753    60.6111   -37.8126     0.2792     7.8897    20.6767    -0.0237     2.2813    15.5122    11.9368
 3132.5000    13.1753    62.1280   -37.6576     0.2801     7.8894    35.7143    -0.0267     2.2775    15.7297    11.6922
 3133.0000    13.0840    63.6450   -37.6533     0.2722     7.8890    50.7519    -0.0236     2.2759    16.0617    11.5333
 3133.5000    12.9032    63.3520   -37.4983     0.2655     7.8887    50.7519    -0.0087     2.2759    15.9503    11.5356
 3134.0000    12.6367    62.7574   -37.3434     0.2557     7.8885    50.7519     0.0033     2.2774    15.6206    11.4573
 3134.5000    12.4621    61.5405   -37.3389     0.2537     7.8882    35.1686     0.0139     2.2774    15.4005    11.3016
 3135.0000    12.2899    60.3637   -37.3336     0.2607     7.8879     5.6391     0.0274     2.2773    14.8776    11.0700
 3135.5000    12.2047    59.4652   -37.3292     0.2631     7.8876    -9.3985     0.0243     2.2788    14.4691    10.6913
 3136.0000    12.2047    58.8727   -37.3249     0.2631     7.8873   -16.9173     0.0092     2.2833    14.3687    10.3297
 3136.5000    12.7249    60.0880   -37.6217     0.2540     7.9021    -9.3985     0.0095     2.2947    14.3687    10.2596
 3137.0000    13.5471    62.8117   -38.3704     0.2352     7.9170     5.6391     0.0151     2.3482    14.4691    10.1904
 3137.5000    14.5230    68.7787   -38.9809     0.1959     7.9166     5.6391     0.0151     2.4086    14.6719    10.7772
 3138.0000    14.6244    73.3893   -39.7160     0.1732     7.9467     5.6391     0.0166     2.4864    14.8776    12.9199
 3138.5000    13.6416    71.5880   -40.1635     0.1626     7.9464    -9.3985     0.0210     2.5218    14.8776    17.5582
 3139.0000    12.9032    70.0884   -40.4614     0.1602     7.9461    -9.3985     0.0285     2.5324    14.2690    24.6631
 3139.5000    12.1201    69.1921   -40.7583     0.1735     7.9457    -9.3985     0.0391     2.5067    12.6764    25.5897
 3140.0000    10.8435    70.4074   -41.0541     0.1892     7.9454    -9.3985     0.0625     2.4598    11.5795    21.3542
 3140.5000     9.7013    73.1619   -41.0497     0.2255     7.9451    -9.3985     0.0812     2.3697    10.6515    11.0186
 3141.0000     9.1126    74.9518   -41.1949     0.2476     7.9448    -9.3985     0.0827     2.3200     9.7057     9.2592
 3141.5000     8.6193    74.9605   -41.1905     0.2593     7.9445    -9.3985     0.0268     2.3064     9.0755     8.6378
 3142.0000     8.3246    76.4775   -41.3379     0.2581     7.9442    -9.3985     0.0056     2.3222     8.5839     8.2737
 3142.5000     8.1527    81.9160   -41.3325     0.2569     7.9439    -9.3985    -0.0035     2.3358     8.2327     8.0037
 3143.0000     7.9843    87.9579   -41.3281     0.2620     7.9436    -9.3985    -0.0080     2.3494     8.0625     7.9498
 3143.5000     7.9290    88.2682   -41.1732     0.2684     7.9433    -9.3985    -0.0062     2.3418     8.0066     7.9518
 3144.0000     7.9843    85.5641   -41.1687     0.2672     7.9430    -9.3985     0.0236     2.3280     8.0625     8.0650
 3144.5000     8.0962    80.1429   -41.1634     0.2628     7.9427   -16.9173     0.0371     2.3221     8.0625     8.1230
 3145.0000     8.2096    79.5461   -41.1590     0.2593     7.9424   -24.4361     0.0401     2.3251     8.0625     8.3001
 3145.5000     8.4413    79.5570   -41.1547     0.2611     7.9421    -9.3985     0.0355     2.3333     8.2327     8.5328
 3146.0000     8.5002    78.6607   -41.3020     0.2629     7.9570    -1.8797     0.0337     2.3379     8.2902     8.5345
 3146.5000     8.5002    75.8677   -41.2966     0.2641     7.9718    -1.8797     0.0475     2.3340     8.4065     8.5959
 3147.0000     8.4904    69.9321   -40.9865     0.2641     7.9715    -9.3985     0.0675     2.3310     8.4652     8.5977
 3147.5000     8.4413    68.1308   -40.5338     0.2610     7.9712   -24.4361     0.0655     2.3279     8.5243     8.4804
 3148.0000     8.3246    68.1395   -40.3788     0.2580     7.9709   -24.4361     0.0519     2.3264     8.4065     8.3631
 3148.5000     8.1527    68.1482   -40.3745     0.2683     7.9706    -9.3985     0.0428     2.3264     8.2902     8.1938
 3149.0000     7.9843    67.8552   -40.3701     0.2770     7.9855    -1.8797     0.0503     2.3279     8.2327     8.1954
 3149.5000     7.9843    67.5622   -40.3658     0.2704     7.9851     5.6391     0.0729     2.3301     8.1189     8.1397
 3150.0000     7.9843    67.2711   -40.3614     0.2525     7.9848     5.6391     0.0653     2.3331     8.0625     8.1418
 3150.5000     7.9843    66.3390   -40.5077     0.2450     7.9845     5.3210     0.0312     2.3376     8.0625     8.1434
 3151.0000     8.1539    65.4774   -40.5023     0.2498     7.9691    -9.3985     0.0229     2.3413     8.1756     8.0872
 3151.5000     8.2114    68.2033   -40.4979     0.2603     7.9688    -9.3985     0.0229     2.3474     8.2902     8.2594
 3152.0000     8.3270    69.7203   -40.6386     0.2706     7.9685    -9.3985     0.0228     2.3503     8.4065     8.3183
 3152.5000     8.5625    70.3323   -40.4819     0.2727     7.9682    -9.3985     0.0092     2.3473     8.5243     8.4951
 3153.0000     8.8048    71.8493   -40.1737     0.2709     7.9821    -1.8797    -0.0105     2.3457     8.7650     8.7366
 3153.5000     9.1807    75.5358   -39.2643     0.2627     8.0120     5.6391    -0.0105     2.3472     9.0831     9.2386
 3154.0000     9.7745    76.6933   -38.2043     0.2558     8.0115     5.6391     0.0024     2.3547     9.5287     9.9066
