~VERSION INFORMATION
 VERS.                2.0:   CWLS LOG ASCII STANDARD - VERSION 2.0
 WRAP.                 NO:   ONE LINE PER DEPTH STEP
~WELL INFORMATION
#MNEM.UNIT      DATA TYPE    INFORMATION
#----------   ------------   ------------------------------
 STRT.F          444.0000:   START DEPTH
 STOP.F         3018.0000:   STOP DEPTH
 STEP.F            0.5000:   STEP LENGTH
 NULL.          -999.2500:   NO VALUE
 COMP.    FENIX & SCISSON:   COMPANY
 WELL.  FENIX "AX" #25-28:   WELL
 FLD .             TEAPOT:   FIELD
 LOC .      S28 T39N R78W:   LOCATION
 CNTY.            NATRONA:   COUNTY
 STAT.            WYOMING:   STATE
 CTRY. UNITED STATES OF AMERICA:   COUNTRY
 SRVC.              WELEX:   SERVICE COMPANY
 DATE.        01-DEC-1979:   LOGDATE
 API .     49025107940000:   API NUMBER
~CURVE INFORMATION
#MNEM.UNIT       API CODE    CURVE DESCRIPTION
#----------   ------------   ------------------------------
 DEPT.F                  :   
 SPR .MV     07 010 01 00:   SPONTANEOUS POTENTIAL
 RILM.OHMM   07 120 44 00:   INDUCTION LOG MEDIUM RESISTIVITY
 RILD.OHMM   07 120 46 00:   DEEP INDUCTION RESISTIVITY
 SGRD.OHMM   07 220 05 00:   SHALLOW GUARD LOG RESISTIVITY
 TENR.LBS    07 635 01 00:   TENSION FROM RESISTIVITY
 NPHI.DEC    42 890 03 00:   NEUTRON POROSITY SANDSTONE
 GRD .GAPI   45 310 01 00:   GAMMA RAY FROM DENSITY LOG
 CALD.IN     45 280 60 00:   CALIPER FROM DENSITY LOG
 RHOB.G/C3   45 350 01 00:   BULK DENSITY
 DCOR.G/C3   45 356 01 00:   DENSITY CORRECTION
 TEND.LBS    45 635 01 00:   TENSION FROM DENSITY LOG
~PARAMETER INFORMATION
#MNEM.UNIT          VALUE    DESCRIPTION
#----------   ------------   ------------------------------
 EKB .F         5092.0000:   Kelly bushing
 EGL .F         5082.0000:   Ground level
 EDF .F            0.0000:   Drilling floor
 TD  .F         3013.5000:   Total depth
 DATE.        01-DEC-1979:   Date logged
 CLNT.            A2DTECH:   Client Code
 SL  . 2267' FSL & 1070' FWL:   Surface Location
 PD  .                 GL:   Permanent Datum
 EPD .F              5082:   Elevation Permanent Datum
 LMF .                 KB:   Log Measured From
 DMF .                 KB:   Drilling Measured From
 DAPD.F                10:   Feet Above Permanent Datum
 DD  .F              3000:   Depth driller
 DL  .F            3013.5:   Depth logger
 BLI .F              3013:   Bottom log interval
 TLI .F               350:   Top log interval
 CS1 .IN            8.625:   Casing size
 CBD1.      8.625" @ 465':   Casing driller 1
 CBL1.F               462:   Casing logger 1
 BS1 .IN            7.875:   Bit size
 BSD1.F              3000:   Depth drilled with bit1
 DFT .           CHEM GEL:   Type fluid in hole
 DFD .                8.8:   Density
 DFV .                 55:   Viscosity
 DFPH.                  9:   pH
 DFL .                6.4:   Fluid loss
 MSS .           FLOWLINE:   Source of sample
 RMS .OHMM           1.53:   Rm
 MST .F                75:   Rm Meas. temp.
 RMF .OHMM           1.24:   Rmf
 MFST.F                75:   Rmf Meas. temp.
 RMC .OHMM           1.83:   Rmc
 MCST.F                75:   Rmc Meas. temp.
 MFSS.               MEAS:   Source Rmf.
 MCSS.               MEAS:   Source Rmc.
 RMB .OHMM           1.09:   Rm. at BHT
 BHT .F               105:   BHT.
 TCS .HRS             2.5:   Time Circ. stopped
 MRT .F               105:   Maximum recorded temp.
 LUN .                965:   Logging unit number
 LUL .             CASPER:   Logging unit location
 ENGI.            BENTSEN:   Recorded By
 WITN.           P. AMEND:   Witnessed by
 ORIG.           5" PRINT:   Origin of data
 UWI .     49025107940000:   Unique Well ID
 DICO. A2D TECHNOLOGIES, INC.:   Digitizing Company
~OTHER INFORMATION
~A   DEPT      SPR       RILM       RILD       SGRD       TENR       NPHI         GRD      CALD       RHOB       DCOR       TEND   
# ...
  962.5000   -54.7130     9.4780     8.4890     9.9810   720.0810     0.2670    67.4570     8.7530     2.4890     0.0250  1175.8890
  963.0000   -54.7180     9.4450     8.6290     9.9750   720.0810     0.2650    68.6210     8.7710     2.4950     0.0270  1175.8890
  963.5000   -54.6760     9.4130     8.8320     9.9490   720.0810     0.2660    70.1190     8.7910     2.4930     0.0230  1178.4640
  964.0000   -54.6350     9.3800     8.8140     9.9020   720.0810     0.2680    69.5230     8.8100     2.4860     0.0190  1181.1920
  964.5000   -54.5930     9.3470     8.7810     9.8550   720.0810     0.2690    72.2660     8.8290     2.4780     0.0030  1183.9210
  965.0000   -54.5510     9.2650     8.7470     9.8080   720.0810     0.2660    74.7010     8.8480     2.4830     0.0030  1186.6490
  965.5000   -54.5090     9.1700     8.7140     9.7610   707.3600     0.2650    72.8840     8.8680     2.4900     0.0080  1189.3770
  966.0000   -54.4670     9.0760     8.6810     9.7150   692.3210     0.2640    71.5650     8.8880     2.4980     0.0130  1192.1060
  966.5000   -54.4250     8.9820     8.6470     9.6680   681.2490     0.2600    72.2680     8.9080     2.5060     0.0210  1194.8340
  967.0000   -54.3830     8.8870     8.6140     9.6210   692.9460     0.2570    73.6180     8.9290     2.5100     0.0220  1190.2230
  967.5000   -54.3400     8.8320     8.5810     9.5740   704.6430     0.2560    72.1270     8.9490     2.5110     0.0250  1182.4680
  968.0000   -54.3810     8.8320     8.5470     9.5270   716.3400     0.2550    71.1340     8.9700     2.5200     0.0320  1174.7140
  968.5000   -54.4360     8.8320     8.5140     9.4810   713.5720     0.2550    74.9310     8.9800     2.5250     0.0350  1166.9600
  969.0000   -54.4900     8.8320     8.4810     9.4340   704.0010     0.2570    72.8300     8.9870     2.5270     0.0390  1159.2050
  969.5000   -54.5380     8.8320     8.4470     9.3870   694.4310     0.2610    72.2160     8.9950     2.5370     0.0480  1151.4510
  970.0000   -54.5520     8.8320     8.4140     9.3410   684.8610     0.2650    71.0280     9.0020     2.5460     0.0570  1143.6970
  970.5000   -54.5670     8.8310     8.3810     9.4050   685.8470     0.2680    71.6600     9.0090     2.5540     0.0560  1136.3640
  971.0000   -54.5830     8.8650     8.3510     9.4670   700.2030     0.2690    70.6920     9.0170     2.5480     0.0460  1150.3580
  971.5000   -54.5980     8.9340     8.4020     9.5300   714.5580     0.2640    69.4340     9.0240     2.5370     0.0340  1163.6310
  972.0000   -54.6140     9.0040     8.4750     9.5920   728.9140     0.2630    69.2890     9.0320     2.5270     0.0210  1176.9041
  972.5000   -54.6300     9.0730     8.5490     9.6550   738.3040     0.2590    70.7520     9.0190     2.5220     0.0220  1190.1770
  973.0000   -54.6450     9.1420     8.6220     9.7180   728.1160     0.2560    70.1110     8.9990     2.5250     0.0290  1203.4500
  973.5000   -54.6610     9.2120     8.6950     9.7800   717.9280     0.2570    71.5050     8.9810     2.5330     0.0360  1216.7240
  974.0000   -54.6770     9.2810     8.7680     9.8430   707.7410     0.2590    74.0840     8.9630     2.5290     0.0310  1229.9969
  974.5000   -54.6920     9.3500     8.8410     9.9050   697.5530     0.2610    74.8610     8.9500     2.5300     0.0330  1228.0490
  975.0000   -54.7080     9.4200     8.9140     9.9680   687.3650     0.2630    73.6360     8.9350     2.5300     0.0250  1216.3560
  975.5000   -54.7250     9.4890     8.9990    10.0300   682.7320     0.2660    73.0560     8.9190     2.5210     0.0170  1204.6630
  976.0000   -54.7310     9.5580     8.9470    10.0930   696.7680     0.2680    74.2850     8.9040     2.5160     0.0120  1192.9700
  976.5000   -54.5620     9.6070     8.8860    10.1600   710.8050     0.2660    74.0150     8.8890     2.5160     0.0180  1181.2770
  977.0000   -54.3960     9.4720     8.8250    10.1420   720.0810     0.2650    74.6760     8.8730     2.5170     0.0200  1169.5840
  977.5000   -54.2320     9.3690     8.7630    10.1220   720.0810     0.2630    74.6300     8.8580     2.5220     0.0290  1157.8910
  978.0000   -54.1340     9.2650     8.6690    10.1020   720.0810     0.2630    75.2090     8.8430     2.5270     0.0320  1146.1980
  978.5000   -54.1340     9.1680     8.6720    10.0820   720.0810     0.2640    73.9100     8.8270     2.5250     0.0240  1138.8950
  979.0000   -54.1330     9.2010     8.6790    10.0620   720.0810     0.2690    73.1180     8.8140     2.5090     0.0120  1154.8230
  979.5000   -54.1330     9.2330     8.6860    10.0420   720.0810     0.2720    72.0320     8.8080     2.5020     0.0000  1170.7510
  980.0000   -54.1330     9.2640     8.6930    10.0220   720.0810     0.2760    70.4820     8.8010     2.4940    -0.0060  1186.6790
  980.5000   -54.1480     9.2950     8.7000    10.0020   720.0810     0.2790    68.8580     8.7940     2.4920    -0.0040  1202.6071
  981.0000   -54.1680     9.3260     8.7070     9.9820   720.9050     0.2780    68.1100     8.7870     2.4980     0.0070  1218.5341
  981.5000   -54.1870     9.3570     8.7140     9.9620   721.7150     0.2760    68.1040     8.7810     2.5050     0.0180  1234.4620
  982.0000   -54.2060     9.3880     8.7210     9.9420   722.5250     0.2730    70.1260     8.7780     2.5170     0.0440  1250.3900
  982.5000   -54.2260     9.4200     8.7280     9.9230   723.3340     0.2720    71.8540     8.7840     2.5380     0.0660  1244.1470
  983.0000   -54.2450     9.4510     8.7350     9.9020   724.1440     0.2730    73.1960     8.7900     2.5600     0.0850  1229.0360
  983.5000   -54.2650     9.4820     8.7420     9.8820   724.9540     0.2720    72.9420     8.7960     2.5660     0.0860  1213.9250
  984.0000   -54.2840     9.5130     8.7490     9.9110   725.7640     0.2730    74.7030     8.7920     2.5530     0.0750  1198.8140
  984.5000   -54.3030     9.5440     8.8160     9.9490   726.5740     0.2720    75.2740     8.7860     2.5500     0.0760  1183.7030
  985.0000   -54.3230     9.5750     8.8910     9.9860   727.3830     0.2730    73.0790     8.7810     2.5520     0.0780  1168.5920
  985.5000   -54.3640     9.6070     8.9660    10.0240   728.1930     0.2740    71.7700     8.7790     2.5560     0.0780  1153.4810
  986.0000   -54.4410     9.6380     9.0410    10.0610   729.0030     0.2720    73.3100     8.7890     2.5510     0.0570  1138.3700
  986.5000   -54.5170     9.6690     9.1160    10.0980   729.8130     0.2710    72.5810     8.7990     2.5540     0.0590  1145.8280
  987.0000   -54.5940     9.6940     9.1900    10.1360   730.6230     0.2720    72.7710     8.8090     2.5570     0.0510  1156.7410
  987.5000   -54.6700     9.6700     9.2540    10.1600   731.4320     0.2720    71.1980     8.8200     2.5490     0.0450  1167.6550
  988.0000   -54.7470     9.6450     9.2340    10.1330   732.2420     0.2750    71.3880     8.8300     2.5600     0.0550  1178.5680
  988.5000   -54.8230     9.6200     9.2130    10.1120   733.0520     0.2750    72.6850     8.8400     2.5640     0.0500  1189.4821
  989.0000   -54.8980     9.5960     9.1920    10.0910   733.8620     0.2760    72.8430     8.8490     2.5560     0.0420  1200.3950
  989.5000   -54.8260     9.5710     9.1710    10.0700   734.6720     0.2770    73.4650     8.8580     2.5450     0.0360  1211.3090
  990.0000   -54.5940     9.5460     9.1500    10.0490   735.4810     0.2800    72.1290     8.8680     2.5500     0.0400  1212.4260
  990.5000   -54.3610     9.5220     9.1290    10.0290   736.2910     0.2800    71.8160     8.8770     2.5610     0.0460  1207.6350
  991.0000   -54.1370     9.4970     9.1080    10.0080   737.1010     0.2800    73.7750     8.8870     2.5540     0.0390  1202.8440
  991.5000   -54.0810     9.4730     9.0870     9.9870   737.9110     0.2810    75.1780     8.8960     2.5360     0.0240  1198.0530
  992.0000   -54.0320     9.4480     9.0660     9.9660   738.7210     0.2810    76.5540     8.9050     2.5260     0.0140  1193.2610
  992.5000   -53.9820     9.4230     9.0450     9.9450   739.5300     0.2810    76.3030     8.9140     2.5200     0.0150  1188.4700
