~VERSION INFORMATION
 VERS.                2.0:   CWLS LOG ASCII STANDARD - VERSION 2.0
 WRAP.                 NO:   ONE LINE PER DEPTH STEP
~WELL INFORMATION
#MNEM.UNIT      DATA TYPE    INFORMATION
#----------   ------------   ------------------------------
 STRT.F          190.0000:   START DEPTH
 STOP.F         3215.0000:   STOP DEPTH
 STEP.F            0.5000:   STEP LENGTH
 NULL.          -999.2500:   NO VALUE
 COMP.    FENIX & SCISSON:   COMPANY
 WELL.  FENIX "AX" #78-34:   WELL
 FLD . NAVAL PET. RES. NO. 3:   FIELD
 LOC .      S34 T39N R78W:   LOCATION
 CNTY.            NATRONA:   COUNTY
 STAT.            WYOMING:   STATE
 CTRY. UNITED STATES OF AMERICA:   COUNTRY
 SRVC.       SCHLUMBERGER:   SERVICE COMPANY
 DATE.        16-DEC-1980:   LOGDATE
 API .     49025108670000:   API NUMBER
~CURVE INFORMATION
#MNEM.UNIT       API CODE    CURVE DESCRIPTION
#----------   ------------   ------------------------------
 DEPT.F                  :   
 TEND.LBS    45 635 01 00:   TENSION FORM DENSITY LOG
 GRD .GAPI   45 310 01 00:   GAMMA RAY FROM DENSITY LOG
 CALD.IN     45 280 60 00:   CALIPER FROM DENSITY LOG
 CORR.G/C3   45 356 01 00:   DENSITY CORRECTION
 RHOB.G/C3   45 350 01 00:   BULK DENSITY
 SPR .MV     07 010 01 00:   SPONTANEOUS POTENTIAL
 TENR.LBS    07 635 01 00:   TENSION FROM RESISTIVITY
 ILD .OHMM   07 120 46 00:   DEEP INDUCTION RESISTIVITY
 ILM .OHMM   07 120 44 00:   INDUCTION LOG MEDIUM RESISTIVITY
 SFL .OHMM   07 220 01 00:   SHALLOW FOCUSED LOG RESISTIVITY
~PARAMETER INFORMATION
#MNEM.UNIT          VALUE    DESCRIPTION
#----------   ------------   ------------------------------
 EKB .F         5068.0000:   Kelly bushing
 EGL .F         5058.0000:   Ground level
 EDF .F            0.0000:   Drilling floor
 EPD .F            0.0000:   Permanent datum
 TD  .F         3202.0000:   Total depth
 CLNT.            A2DTECH:   Client Code
 SL  . 542' FSL & 693' FEL:   Surface Location
 PD  .                 GL:   Permanent Datum
 DAPD.F                10:   Feet Above Permanent Datum
 DATE.        16-DEC-1980:   Date Logged [DD-MMM-YYYY]
 DD  .F              3200:   Depth driller
 DL  .F              3202:   Depth logger
 BLI .F              3199:   Bottom log interval
 TLI .F               193:   Top log interval
 CS1 .IN            8.625:   Casing size
 CBD1.      8.625" @ 215':   Casing driller 1
 CBL1.F               193:   Casing logger 1
 BS1 .IN            7.875:   Bit size
 BSD1.F              3200:   Depth drilled with bit1
 DFT .               LSND:   Type fluid in hole
 DFD .                9.1:   Density
 DFV .                 35:   Viscosity
 DFPH.                  8:   pH
 DFL .                 16:   Fluid loss
 MSS .            MUD PIT:   Source of sample
 RMS .OHMM            2.9:   Rm
 MST .F                56:   Rm Meas. temp.
 RMF .OHMM            2.4:   Rmf
 MFST.F                56:   Rmf Meas. temp.
 MFSS.               MEAS:   Source Rmf.
 RMC .OHMM            2.7:   Rmc
 MCST.F                56:   Rmc Meas. temp.
 MCSS.               CALC:   Source Rmc.
 RMB .OHMM           1.35:   Rm. at BHT
 BHT .F               120:   BHT.
 TCS .HRS            2100:   Time Circ. stopped
 MRT .F               120:   Maximum recorded temp.
 LUN .               8161:   Logging unit number
 ENGI.             SITTON:   Recorded By
 WITN.              FIVAS:   Witnessed by
 ORIG.           5" PRINT:   Origin of data
 UWI .     49025108670000:   Unique Well ID
 DICO. A2D TECHNOLOGIES, INC.:   Digitizing Company
~OTHER INFORMATION
~A   DEPT     TEND         GRD      CALD       CORR       RHOB        SPR       TENR        ILD        ILM        SFL   
# ...
  391.0000   271.0844    89.9948     9.8423     0.0271     2.4844   -55.2417   176.2228     7.7080     7.0729     7.3998
  391.5000   271.0844    91.5105     9.8285     0.0334     2.4897   -55.5214   179.2562     7.7641     7.1259     7.4542
  392.0000   271.0844    92.7230     9.8002     0.0303     2.4980   -55.7915   182.2895     7.8206     7.1305     7.4567
  392.5000   271.0844    92.4562     9.7861     0.0319     2.5146   -55.6292   185.3228     7.8775     7.1344     7.5109
  393.0000   271.0844    92.4852     9.7724     0.0374     2.5229   -55.4513   188.3561     7.8801     7.1877     7.6180
  393.5000   271.0844    92.5143     9.7586     0.0476     2.5237   -55.1818   189.4317     7.9375     7.2916     7.7266
  394.0000   271.0844    91.8698     9.7448     0.0390     2.5064   -55.1513   189.4317     7.9402     7.3971     7.8911
  394.5000   271.0844    89.9170     9.7609     0.0133     2.4816   -55.0203   189.4317     7.9429     7.5041     8.0036
  395.0000   271.0844    86.9875     9.7619    -0.0008     2.4689   -54.8122   189.4317     8.0008     7.5081     8.0618
  395.5000   271.0844    85.5372     9.8073     0.0000     2.4757   -54.7546   189.4317     8.0040     7.4604     8.0646
  396.0000   271.0844    84.3756     9.8527     0.0126     2.4825   -54.6282   189.4317     8.0067     7.4130     8.0674
  396.5000   271.0844    83.2285     9.8981     0.0166     2.4817   -54.4041   189.4317     8.0094     7.3669     8.0706
  397.0000   271.0844    83.8493     9.9287     0.0188     2.4803   -54.3449   189.4317     7.9562     7.3709     8.0171
  397.5000   285.6039    86.8369     9.9596     0.0228     2.4818   -54.2874   189.4317     7.9595     7.3749     7.9097
  398.0000   300.9268    91.5997     9.9751     0.0244     2.4841   -54.2234   185.9466     7.8528     7.3280     7.8038
  398.5000   303.7380    95.7708     9.9762     0.0159     2.4849   -54.0274   182.7188     7.9100     7.3320     7.6469
  399.0000   280.7538    96.9833     9.9774     0.0104     2.4827   -53.9729   179.4909     7.9677     7.2844     7.4919
  399.5000   257.7695    96.4201     9.9784     0.0191     2.4834   -53.8296   176.2630     8.0262     7.2893     7.3413
  400.0000   258.4506    95.8573     9.9943     0.0247     2.4880   -53.8927   173.0351     8.0283     7.1931     7.2932
  400.5000   269.0035    94.9783    10.0101     0.0247     2.4925   -53.7983   169.4915     7.9761     7.0930     7.1699
  401.0000   279.5565    93.8057    10.0111     0.0240     2.4862   -54.0038   169.4915     7.9237     6.8618     7.0437
  401.5000   291.1647    92.9246    10.0121     0.0241     2.4723   -53.8075   169.4915     7.8176     6.6784     6.8626
  402.0000   285.5171    93.5271    10.0279     0.0249     2.4708   -53.8142   169.4915     7.6062     6.4551     6.5412
  402.5000   279.2420    94.4234    10.0373     0.0297     2.4769   -53.6144   169.4915     7.3918     6.2392     6.3217
  403.0000   272.9669    95.0237    10.0372     0.0305     2.4800   -53.6253   189.4317     6.7685     5.9891     5.9429
  403.5000   269.5565    95.3521    10.0418     0.0259     2.4661   -53.6371   189.4317     6.1887     5.5922     5.4723
  404.0000   267.3738    96.2266    10.0483     0.0212     2.4500   -53.8531   189.4317     5.7373     5.1704     5.1801
  404.5000   265.1912    96.8270    10.0539     0.0401     2.4448   -53.6548   189.4317     5.2097     4.6601     4.8362
  405.0000   263.0085    97.4273    10.0953     0.1231     2.4561   -53.4466   189.4317     4.5607     4.1498     4.3318
  405.5000   260.8259    97.7318    10.1654     0.1991     2.4629   -53.1057   189.4317     3.8100     3.6395     3.6714
  406.0000   258.6433    97.7405    10.2996     0.2492     2.3870   -52.6275   189.4317     3.2363     3.1292     3.1518
  406.5000   256.4606    94.4947    11.1351     0.2516     2.2698   -52.1935   189.4317     2.7235     2.6168     2.6406
  407.0000   254.2780    88.2903    12.0670     0.2446     2.1706   -51.8644   189.4317     2.4222     2.0984     2.1391
  407.5000   252.0953    86.5237    12.4918     0.2376     2.1232   -51.6654   189.4317     2.2456     1.9177     1.7438
  408.0000   252.6774    85.3255    12.0013     0.2424     2.1134   -51.4714   189.4317     2.2002     1.9596     1.6279
  408.5000   256.0241    81.8867    11.2755     0.2037     2.0955   -51.2560   189.4317     2.2010     2.0176     1.7452
  409.0000   259.3708    74.7176    10.9577     0.1275     1.9913   -51.1236   189.4317     2.2637     2.2157     2.1186
  409.5000   262.7175    73.5406    10.7336     0.0204     1.9220   -51.3713   189.4317     2.3932     2.4813     2.4336
  410.0000   266.0643    74.1432    10.6228     0.0024     1.9814   -51.7006   189.4317     2.5832     2.7723     2.7570
  410.5000   269.4110    84.2110    10.4970     0.0330     2.1107   -52.0176   189.4317     2.9064     3.0339     3.1944
  411.0000   271.0844    88.0658    10.3698     0.0464     2.2446   -52.3352   189.4317     2.9890     3.4568     3.7266
  411.5000   271.0844    88.9620    10.3237     0.0402     2.3447   -52.6534   189.4317     3.6037     4.1432     4.2365
  412.0000   271.0844    89.2665    10.2911     0.0301     2.4267   -52.9721   189.4317     4.4977     4.9261     4.9001
  412.5000   271.0844    92.2337    10.2732     0.0411     2.4816   -53.2719   189.4333     5.4983     5.2803     5.7862
  413.0000   271.0844    95.5918    10.2732     0.0490     2.4831   -53.6221   189.4328     6.1012     5.5438     5.8724
  413.5000   271.0844    98.7621    10.2730     0.0498     2.4847   -53.8728   189.4317     6.3621     5.7011     5.9122
  414.0000   271.0844   100.2500    10.2731     0.0483     2.4885   -54.2655   187.5933     6.5510     5.7030     5.8340
  414.5000   271.0844   100.5545    10.2731     0.0437     2.4923   -54.4145   185.1567     6.7367     5.7050     5.7962
  415.0000   271.0844    98.4921    10.2731     0.0366     2.4908   -54.6486   182.7201     6.7772     5.7069     5.7986
  415.5000   271.0844    95.2463    10.2731     0.0327     2.4901   -54.6343   180.2835     6.6864     5.7088     5.8412
  416.0000   271.0844    94.0708    10.2731     0.0290     2.4902   -54.7680   177.8470     6.6426     5.7108     5.9659
  416.5000   271.0844    95.5609    10.2748     0.0322     2.4962   -54.5989   175.4104     6.5996     5.8358     6.1356
  417.0000   274.0373    97.3447    10.2787     0.0330     2.5045   -54.2065   172.9738     6.5106     5.9156     6.3101
  417.5000   279.9433    96.7617    10.2826     0.0222     2.4993   -53.9694   170.5372     6.2920     5.9180     6.3564
  418.0000   285.8493    94.4034    10.2866     0.0206     2.4873   -53.2571   169.4915     5.8331     5.6405     6.4475
  418.5000   291.1647    93.2265    10.2905     0.0223     2.4806   -52.5226   169.4915     5.3705     5.1577     6.3616
  419.0000   287.8179    95.6042    10.3054     0.0466     2.4798   -51.7820   169.4915     5.0134     4.6515     5.7298
  419.5000   284.7755    98.5714    10.3357     0.1077     2.4692   -51.3140   169.4915     4.9446     4.2828     4.9210
  420.0000   281.7330    99.1717    10.3660     0.1250     2.3522   -51.1997   171.2861     4.7055     3.8094     3.9983
  420.5000   278.6900    97.3697    10.3965     0.0812     2.2395   -51.2909   181.2762     4.4315     3.5315     3.5637
  421.0000   275.6518    94.4122    10.4258     0.0453     2.1711   -51.4237   189.4317     4.1945     3.7081     3.7453
  421.5000   272.6147    93.2805    10.4225     0.0344     2.1433   -51.6522   189.4317     4.0533     3.9202     3.9105
  422.0000   271.0935    92.1079    10.2793     0.0814     2.2742   -51.9505   189.4317     4.1111     4.1158     4.1862
  422.5000   271.0844    90.0455    10.2336     0.1190     2.3554   -52.2519   189.4317     4.2572     4.3891     4.4875
  423.0000   271.0844    89.7562    10.2091     0.1128     2.4105   -52.5563   189.4317     4.4390     4.6750     4.7688
  423.5000   271.0844    93.3173    10.1854     0.0628     2.4066   -52.8470   189.4317     4.6608     4.9999     5.0430
  424.0000   271.0844    96.2845    10.1627     0.0277     2.4070   -53.1413   189.4317     4.9802     5.2494     5.3171
