~VERSION INFORMATION
 VERS.                2.0:   CWLS LOG ASCII STANDARD - VERSION 2.0
 WRAP.                 NO:   ONE LINE PER DEPTH STEP
~WELL INFORMATION
#MNEM.UNIT      DATA TYPE    INFORMATION
#----------   ------------   ------------------------------
 STRT.F          450.0000:   START DEPTH
 STOP.F         3098.0000:   STOP DEPTH
 STEP.F            0.5000:   STEP LENGTH
 NULL.          -999.2500:   NO VALUE
 COMP. FENIX & SCISSON - U.S NAVY:   COMPANY
 WELL. FENIX NPR 3 "AX" #11-33:   WELL
 FLD .              N P R:   FIELD
 LOC .      S33 T39N R78W:   LOCATION
 CNTY.            NATRONA:   COUNTY
 STAT.            WYOMING:   STATE
 CTRY. UNITED STATES OF AMERICA:   COUNTRY
 SRVC.              WELEX:   SERVICE COMPANY
 DATE.        12-MAR-1977:   LOGDATE
 API .     49025103210000:   API NUMBER
~CURVE INFORMATION
#MNEM.UNIT       API CODE    CURVE DESCRIPTION
#----------   ------------   ------------------------------
 DEPT.F                  :   
 CALD.IN     45 280 60 00:   CALIPER FROM DENSITY LOG
 GRD .GAPI   45 310 01 00:   GAMMA RAY FROM DENSITY LOG
 RHOB.G/C3   45 350 01 00:   BULK DENSITY
 CORR.G/C3   45 356 01 00:   DENSITY CORRECTION
 SPR .MV     07 010 01 00:   SPONTANEOUS POTENTIAL
 SGRD.MV     07 010 01 00:   SHALLOW GUARD RESISTIVITY
 ILD .OHMM   07 120 46 00:   DEEP INDUCTION RESISTIVITY
 ILM .OHMM   07 120 44 00:   INDUCTION LOG MEDIUM RESISTIVITY
~PARAMETER INFORMATION
#MNEM.UNIT          VALUE    DESCRIPTION
#----------   ------------   ------------------------------
 EKB .F         5133.0000:   Kelly bushing
 EGL .F         5122.0000:   Ground level
 TD  .F         3130.0000:   Total depth
 DATE.        12-MAR-1977:   Date logged
 CLNT.            A2DTECH:   Client Code
 SL  . 331' FNL & 430' FWL:   Surface Location
 PD  .                 GL:   Permanent Datum
 DD  .F              3130:   Depth driller
 DL  .F              3102:   Depth logger
 BLI .F              3100:   Bottom log interval
 CS1 .IN            8.625:   Casing size
 CBD1.      8.625" @ 459':   Casing driller 1
 CBL1.F               455:   Casing logger 1
 BS1 .IN            7.875:   Bit size
 DFT .                KCL:   Type fluid in hole
 DFD .                9.3:   Density
 DFV .                 36:   Viscosity
 DFL .               16.2:   Fluid loss
 MSS .           FLOWLINE:   Source of sample
 RMS .OHMM           0.37:   Rm
 MST .F                50:   Rm Meas. temp.
 RMF .OHMM           0.32:   Rmf
 MFST.F                55:   Rmf Meas. temp.
 RMC .OHMM           0.58:   Rmc
 MCST.F                55:   Rmc Meas. temp.
 MFSS.               MEAS:   Source Rmf.
 RMB .OHMM           .168:   Rm. at BHT
 BHT .F               110:   BHT.
 TCS .HRS               4:   Time Circ. stopped
 MRT .F               110:   Maximum recorded temp.
 LUN .               0716:   Logging unit number
 LUL .             VERNAT:   Logging unit location
 ENGI.        E. CALLAHAN:   Recorded By
 WITN.            K. JAPP:   Witnessed by
 ORIG.           5" PRINT:   Origin of data
 UWI .     49025103210000:   Unique Well ID
 DICO. A2D TECHNOLOGIES, INC.:   Digitizing Company
 DAPD.F                11:   Feet Above Permanent Datum
 BSD1.               3950:   Depth drilled with bit1
 MCSS.               CALC:   Source Rmc.
 EPD .F              5122:   Elevation Permanent Datum
 LMF .                 KB:   Log Measured From
 DMF .                 KB:   Drilling Measured From
 TLI .F               455:   Top log interval
~OTHER INFORMATION
~A   DEPT       CALD       GRD        RHOB      CORR       SPR       SGRD        ILD        ILM   
# ...
 1827.0000     9.1457   133.7887     2.4008     0.0429   -51.0375     9.6752     6.6966     8.7465
 1827.5000     9.1460   132.9970     2.3882     0.0429   -51.0365     9.5904     6.2787     8.1255
 1828.0000     9.1462   130.6180     2.3415     0.0409   -50.6381     9.2439     5.8330     7.6184
 1828.5000     9.2059   129.8263     2.2949     0.0449   -50.2399     8.5876     5.2229     6.6971
 1829.0000     9.2259   129.4314     2.2351     0.0430   -50.0403     5.4692     4.8970     4.9880
 1829.5000     9.2459   129.8302     2.1866     0.0490   -50.0393     3.1476     4.7200     4.5914
 1830.0000     9.2263   134.9911     2.1530     0.1031   -50.2371     3.0619     4.5495     4.5916
 1830.5000     9.3214   139.1598     2.1770     0.0551   -50.6333     6.5154     4.4665     6.2222
 1831.0000     9.4164   140.1539     2.3412     0.0341   -50.6323     9.4173     4.3852     7.2101
 1831.5000     9.5840   141.1479     2.4403     0.0511   -50.6310     9.1609     4.4669     6.6983
 1832.0000     9.2866   144.5226     2.4007     0.0411   -50.6317     8.2027     4.4670     6.2803
 1832.5000     9.1480   145.1199     2.3777     0.0412   -51.0276     5.9979     4.6347     5.7810
 1833.0000     9.1085   145.7171     2.3402     0.0625   -51.2253     5.0354     4.7647     5.5721
 1833.5000     9.1087   147.7032     2.3562     0.0792   -51.8200     5.3708     5.0355     7.6913
 1834.0000     9.1088   149.9369     2.3982     0.0472   -51.8189     9.8625     5.2729     8.7498
 1834.5000     9.1091   152.5183     2.4808     0.0473   -51.8177     9.9540     5.5726     8.3563
 1835.0000     9.1092   153.5116     2.5013     0.0593   -51.4196     9.1626     5.8353     8.1288
 1835.5000     9.1292   158.2768     2.4852     0.0613   -51.2201     8.6670     5.9439     7.9807
 1836.0000     9.1692   156.6902     2.4743     0.0734   -51.2191     8.5091     6.0546     7.9810
 1836.5000     9.2289   155.1048     2.5194     0.1014   -51.0196     8.5093     6.0547     7.9811
 1837.0000     9.2489   156.6942     2.5014     0.1055   -51.0188     8.5882     6.1110     8.0552
 1837.5000     9.3086   157.6890     2.5264     0.1275   -51.0177     8.7481     6.1111     8.0555
 1838.0000     9.3684   155.9044     2.4643     0.0575   -51.0167     8.9933     6.1113     8.1302
 1838.5000     9.4281   153.5254     2.4557     0.0555   -50.8170     8.9936     6.1115     8.1304
 1839.0000     9.4283   154.1230     2.4453     0.0355   -50.8162     8.9938     6.0556     8.2818
 1839.5000     9.4087   154.9194     2.4343     0.0375   -50.8150     8.5140     6.0003     8.2820
 1840.0000     9.2700   152.9364     2.4613     0.0576   -50.8140     8.5142     5.8370     7.9827
 1840.5000     9.2106   146.1389     2.4623     0.0356   -50.8128     8.2065     5.7306     7.6942
 1841.0000     9.1116   143.9534     2.4163     0.0356   -50.8120     7.6240     5.5236     7.4163
 1841.5000     9.0722   139.9972     2.4213     0.0436   -50.8110     7.0179     5.3241     7.0828
 1842.0000     9.0922   139.0071     2.3950     0.0577   -50.6113     7.2146     5.1317     6.6409
 1842.5000     9.1122   137.4217     2.3686     0.0457   -50.4119    11.1216     4.9921     6.2265
 1843.0000     9.1124   136.0347     2.3423     0.0517   -50.2126     6.9541     4.8117     5.8381
 1843.5000     9.1324   134.4494     2.3161     0.0557   -50.2099     5.9468     4.8118     5.8382
 1844.0000     9.1525   130.8798     2.3001     0.0858   -50.2089     5.9469     4.7242     5.8384
 1844.5000     9.1726   130.2865     2.3161     0.0308   -50.0094     7.6932     4.6810     5.8386
 1845.0000     9.1926   128.9000     2.4313     0.0859   -50.2069     6.4019     4.6382     5.8387
 1845.5000     9.2325   127.1162     2.4116     0.0839   -50.2059     6.0025     4.5537     5.8929
 1846.0000     9.2525   129.8964     2.3918     0.0439   -50.8012     6.6424     4.3892     6.0026
 1846.5000     9.2725   128.1122     2.3712     0.0089   -50.8007     7.6969     4.2307     6.1709
 1847.0000     9.2727   127.3205     2.3457     0.0319   -50.6014     7.6265     4.0404     5.6803
 1847.5000     9.2730   127.5209     2.3258     0.0439   -50.2019     6.8922     4.0035     5.1334
 1848.0000     9.2731   131.4912     2.2875     0.0600   -50.2008     6.1149     3.9669     4.6820
 1848.5000     9.2733   136.0564     2.2350     0.0660   -50.0015     4.2703     3.9670     4.1540
 1849.0000     9.2735   139.4319     2.1944     0.0681   -50.0005     3.1807     3.9672     4.0409
 1849.5000     9.2737   144.3939     2.1874     0.0000   -49.9996     5.6812     4.0410     7.2177
 1850.0000     9.3930   146.3807     2.1959     0.0000   -49.9986     9.0028     4.2707     7.1517
 1850.5000     9.6794   143.7990     2.4419     0.0275   -50.1960     9.0862     4.3502     7.0214
 1851.0000     9.2338   141.4161     2.4479     0.0390   -49.9966     9.1705     4.5553     7.0216
 1851.5000     9.1345   137.0967     2.4244     0.0400   -49.9968     9.0034     4.7263     7.2184
 1852.0000     9.0946   138.2860     2.4244     0.0561   -49.9962     8.4417     5.0411     6.9577
 1852.5000     9.0746   140.7805     2.3993     0.0821   -50.1942     6.2878     5.1348     6.7683
 1853.0000     9.0744   141.8057     2.4143     0.1041   -50.2354     5.3770     5.4267     7.6291
 1853.5000     9.0940   145.9765     2.4314     0.0951   -50.2765     6.7067     5.5277     9.2565
 1854.0000     9.0938   149.7376     2.4404     0.0380   -50.3177     9.5160     5.7882     9.3424
 1854.5000     9.0936   150.7761     2.5536     0.0740   -50.3588     9.8733     5.9505     8.6793
 1855.0000     9.1330   152.0494     2.5636     0.0941   -50.4000     9.6008     6.1174     8.4430
 1855.5000     9.1329   153.3227     2.5646     0.0700   -50.4411     9.3395     6.2312     8.2892
 1856.0000     9.1328   154.5961     2.5185     0.0520   -50.4823     8.9196     6.2889     8.2894
 1856.5000     9.1326   155.8694     2.5275     0.0540   -50.5234     8.9198     6.3474     8.2897
 1857.0000     9.1323   157.1427     2.5166     0.0580   -50.5646     9.6055     6.3475     8.2899
 1857.5000     9.1520   157.9075     2.5056     0.0640   -50.6057     9.3440     6.3477     8.2901
 1858.0000     9.1518   160.2810     2.4935     0.0700   -50.6469     9.0899     6.3479     8.5225
 1858.5000     9.1516   162.0697     2.4855     0.0780   -50.6881     8.7615     6.3481     8.2906
 1859.0000     9.1712   160.2812     2.4855     0.0960   -50.7292     9.1709     6.3483     8.2148
 1859.5000     9.2108   159.2880     2.4524     0.0439   -50.7744     8.7586     6.2903     8.2151
 1860.0000     9.2303   154.9990     2.4574     0.0759   -50.7734     8.4422     6.2904     8.2152
 1860.5000     9.2500   150.1565     2.4694     0.0599   -50.7724     9.0042     6.1759     8.5237
 1861.0000     9.2697   152.5350     2.4479     0.0559   -50.7714     9.6038     6.0634     8.6028
 1861.5000     9.2893   152.7326     2.4369     0.0538   -50.7704     9.7864     5.9530     8.5241
 1862.0000     9.3089   151.2570     2.4033     0.0538   -50.7694     9.1759     5.8445     7.9192
 1862.5000     9.3286   148.9584     2.3643     0.0558   -50.7684     8.2165     5.7911     7.4939
 1863.0000     9.3284   150.5437     2.3368     0.0758   -50.7674     7.1570     5.6335     7.2231
 1863.5000     9.3282   153.5182     2.3252     0.0818   -50.7664     7.9199     5.5309     6.9623
 1864.0000     9.3280   155.6991     2.2817     0.0298   -50.7654     8.5254     5.3311     7.7043
 1864.5000     9.3278   158.0776     2.2772     0.0277   -50.7644     8.9271     5.2340     7.9203
 1865.0000     9.3474   159.6621     2.2261     0.0317   -50.7634     6.2923     5.2826     7.9205
 1865.5000     9.3671   170.7712     2.2131     0.0598   -50.7624     4.1584     5.4809     8.2938
 1866.0000     9.4461   179.6988     2.2121     0.0858   -50.7614     5.7923     5.6345     9.2627
 1866.5000     9.8551   187.4338     2.2482    -0.0023   -50.7604    11.5531     5.9001    10.2500
 1867.0000    10.1204   191.4016     2.3858     0.0397   -50.7594    11.3426     6.1216     9.1783
