~VERSION INFORMATION
 VERS.                2.0:   CWLS LOG ASCII STANDARD - VERSION 2.0
 WRAP.                 NO:   ONE LINE PER DEPTH STEP
~WELL INFORMATION
#MNEM.UNIT      DATA TYPE    INFORMATION
#----------   ------------   ------------------------------
 STRT.F          190.0000:   START DEPTH
 STOP.F         3215.0000:   STOP DEPTH
 STEP.F            0.5000:   STEP LENGTH
 NULL.          -999.2500:   NO VALUE
 COMP.    FENIX & SCISSON:   COMPANY
 WELL.  FENIX "AX" #78-34:   WELL
 FLD . NAVAL PET. RES. NO. 3:   FIELD
 LOC .      S34 T39N R78W:   LOCATION
 CNTY.            NATRONA:   COUNTY
 STAT.            WYOMING:   STATE
 CTRY. UNITED STATES OF AMERICA:   COUNTRY
 SRVC.       SCHLUMBERGER:   SERVICE COMPANY
 DATE.        16-DEC-1980:   LOGDATE
 API .     49025108670000:   API NUMBER
~CURVE INFORMATION
#MNEM.UNIT       API CODE    CURVE DESCRIPTION
#----------   ------------   ------------------------------
 DEPT.F                  :   
 TEND.LBS    45 635 01 00:   TENSION FORM DENSITY LOG
 GRD .GAPI   45 310 01 00:   GAMMA RAY FROM DENSITY LOG
 CALD.IN     45 280 60 00:   CALIPER FROM DENSITY LOG
 CORR.G/C3   45 356 01 00:   DENSITY CORRECTION
 RHOB.G/C3   45 350 01 00:   BULK DENSITY
 SPR .MV     07 010 01 00:   SPONTANEOUS POTENTIAL
 TENR.LBS    07 635 01 00:   TENSION FROM RESISTIVITY
 ILD .OHMM   07 120 46 00:   DEEP INDUCTION RESISTIVITY
 ILM .OHMM   07 120 44 00:   INDUCTION LOG MEDIUM RESISTIVITY
 SFL .OHMM   07 220 01 00:   SHALLOW FOCUSED LOG RESISTIVITY
~PARAMETER INFORMATION
#MNEM.UNIT          VALUE    DESCRIPTION
#----------   ------------   ------------------------------
 EKB .F         5068.0000:   Kelly bushing
 EGL .F         5058.0000:   Ground level
 EDF .F            0.0000:   Drilling floor
 EPD .F            0.0000:   Permanent datum
 TD  .F         3202.0000:   Total depth
 CLNT.            A2DTECH:   Client Code
 SL  . 542' FSL & 693' FEL:   Surface Location
 PD  .                 GL:   Permanent Datum
 DAPD.F                10:   Feet Above Permanent Datum
 DATE.        16-DEC-1980:   Date Logged [DD-MMM-YYYY]
 DD  .F              3200:   Depth driller
 DL  .F              3202:   Depth logger
 BLI .F              3199:   Bottom log interval
 TLI .F               193:   Top log interval
 CS1 .IN            8.625:   Casing size
 CBD1.      8.625" @ 215':   Casing driller 1
 CBL1.F               193:   Casing logger 1
 BS1 .IN            7.875:   Bit size
 BSD1.F              3200:   Depth drilled with bit1
 DFT .               LSND:   Type fluid in hole
 DFD .                9.1:   Density
 DFV .                 35:   Viscosity
 DFPH.                  8:   pH
 DFL .                 16:   Fluid loss
 MSS .            MUD PIT:   Source of sample
 RMS .OHMM            2.9:   Rm
 MST .F                56:   Rm Meas. temp.
 RMF .OHMM            2.4:   Rmf
 MFST.F                56:   Rmf Meas. temp.
 MFSS.               MEAS:   Source Rmf.
 RMC .OHMM            2.7:   Rmc
 MCST.F                56:   Rmc Meas. temp.
 MCSS.               CALC:   Source Rmc.
 RMB .OHMM           1.35:   Rm. at BHT
 BHT .F               120:   BHT.
 TCS .HRS            2100:   Time Circ. stopped
 MRT .F               120:   Maximum recorded temp.
 LUN .               8161:   Logging unit number
 ENGI.             SITTON:   Recorded By
 WITN.              FIVAS:   Witnessed by
 ORIG.           5" PRINT:   Origin of data
 UWI .     49025108670000:   Unique Well ID
 DICO. A2D TECHNOLOGIES, INC.:   Digitizing Company
~OTHER INFORMATION
~A   DEPT     TEND         GRD      CALD       CORR       RHOB        SPR       TENR        ILD        ILM        SFL   
# ...
  994.0000   371.4859    94.0001     9.5658     0.0065     2.5555   -49.9605   329.0130    11.3567    11.3031    11.5104
  994.5000   371.4859    93.1805     9.5657     0.0300     2.5849   -49.8077   329.0130    11.4396    11.2281    11.4361
  995.0000   371.4859    95.2860     9.5661     0.0425     2.5999   -49.8028   329.0130    11.4435    11.1545    11.4413
  995.5000   371.4859    97.6805     9.5768     0.0441     2.6015   -49.6489   329.0130    11.3682    11.0061    11.4338
  996.0000   371.4859    98.8846     9.5858     0.0348     2.5880   -49.4962   329.0130    11.3730    10.8578    11.3722
  996.5000   374.8524    93.5937     9.6102     0.0294     2.5662   -49.1955   329.0130    11.1426    10.4935    11.2999
  997.0000   380.6993    86.8166     9.6269     0.0544     2.5610   -48.8948   329.0130    10.7665    10.0708    11.1482
  997.5000   386.5462    83.5898     9.6451     0.1209     2.5813   -48.7420   329.0144    10.4755    10.0047    10.8496
  998.0000   392.3931    82.4270     9.6635     0.2037     2.6340   -48.5892   329.0130    10.1923    10.0082    10.4126
  998.5000   398.2400    83.3491     9.6840     0.2499     2.6182   -48.4365   329.0130     9.9168     9.8062    10.2019
  999.0000   404.0869    83.6726     9.7870     0.2491     2.5499   -48.7275   326.2452     9.8508     9.3829    10.0660
  999.5000   409.9338    83.7002     9.9014     0.2320     2.4275   -48.8718   320.7096     9.7191     8.3140    10.0715
 1000.0000   406.5282    84.3198    10.0824     0.0539     2.3779   -49.3095   315.1741     9.6553     8.5499    10.1460
 1000.5000   421.1463    85.8019    10.5677     0.0219     2.3827   -49.6006   309.6385     9.5918     8.8534    10.1505
 1001.0000   420.4092    87.5800    10.2449     0.0126     2.4434   -49.8981   299.9307     9.5959     9.0579    10.0848
 1001.5000   419.8195    89.6539     9.7632     0.0197     2.5222   -50.2005   313.6364     9.5991     9.2344    10.0904
 1002.0000   434.4376    92.6311     9.5090     0.0323     2.5298   -50.7683   312.1064     9.6692     9.3016    10.1652
 1002.5000   433.7005    93.5059     9.4916     0.0402     2.5433   -51.2072   310.6060     9.6725     9.3047     9.9621
 1003.0000   433.1109    92.6219     9.4797     0.0417     2.5411   -51.3515   309.0909     9.6758     9.3724    10.0361
 1003.5000   432.5213    90.5538     9.4742     0.0324     2.5261   -51.1975   307.5758     9.7464     9.4406    10.1106
 1004.0000   431.9277    87.5981     9.4684     0.0246     2.5118   -51.0448   320.9344     9.8859     9.4438    10.1857
 1004.5000   416.2650    87.3044     9.4623     0.0168     2.5080   -50.7441   319.4465     9.9581     9.4198    10.3326
 1005.0000   415.5447    88.7873     9.4562     0.0177     2.5051   -50.4434   317.9587     9.9614     9.3716    10.4093
 1005.5000   414.9551    90.8612     9.4498     0.0185     2.5021   -50.1427   316.4708    10.0342     9.3272    10.4867
 1006.0000   414.3654    92.9351     9.4469     0.0138     2.4984   -49.8420   314.9829     9.9330     9.3315    10.4192
 1006.5000   413.7758    94.4173     9.4451     0.0069     2.4992   -49.5413   313.4950     9.8007     9.3345    10.3522
 1007.0000   398.1259    94.4202     9.4435     0.0030     2.5014   -49.3885   312.0070     9.7389     9.4032    10.2856
 1007.5000   397.5363    92.9389     9.4418     0.0062     2.5052   -49.3836   310.5193     9.7464     9.4067    10.2195
 1008.0000   396.9467    91.4674     9.4401     0.0102     2.5105   -49.3787   309.0314     9.6848     9.3445    10.1550
 1008.5000   396.3571    91.1744     9.4384     0.0126     2.5195   -49.3728   307.5435     9.6239     9.3488    10.0897
 1009.0000   395.7674    90.8822     9.4367     0.0173     2.5391   -49.2200   290.9041     9.5632     9.2879    10.0236
 1009.5000   395.1778    90.8851     9.4350     0.0243     2.5466   -49.2152   289.3940     9.5030     9.2914     9.9603
 1010.0000   394.5783    91.1831     9.4333     0.0353     2.5512   -49.2104   287.8788     9.4445     9.2949     9.9650
 1010.5000   409.0587    90.8901     9.4316     0.0479     2.5542   -49.2055   286.0685     9.3850     9.2985     9.9009
 1011.0000   393.2615    91.1896     9.4300     0.0385     2.5527   -49.3498   284.5806     9.3244     9.3026     9.8373
 1011.5000   407.7321    91.7842     9.4283     0.0292     2.5452   -49.4921   298.2444     9.3315     9.2420     9.7077
 1012.0000   392.0822    92.6747     9.4283     0.0214     2.5325   -49.6360   296.7564     9.2713     9.2454     9.6453
 1012.5000   391.4926    93.5652     9.4283     0.0176     2.5325   -49.7781   295.2685     9.2129     9.1843     9.5821
 1013.0000   390.9030    94.4556     9.4283     0.0145     2.5288   -49.7731   309.3041     9.0915     9.1600     9.4548
 1013.5000   390.3133    94.7544     9.4283     0.0106     2.5205   -49.7682   322.9679     9.0342     9.0657     9.4604
 1014.0000   389.7236    93.5746     9.4286     0.0083     2.5175   -49.9113   321.1080     8.9787     8.9683     9.3984
 1014.5000   389.1340    91.5064     9.4283     0.0284     2.5311   -49.9063   319.6201     8.9842     8.9480     9.4040
 1015.0000   373.4841    90.9169     9.4500     0.0483     2.5612   -49.9004   318.1321     8.9275     8.8286     9.4085
 1015.5000   387.9547    90.9205     9.4481     0.0507     2.5770   -49.8956   316.6444     8.9331     8.8319     9.4129
 1016.0000   387.3494    91.5151     9.4479     0.0374     2.5627   -49.8908   315.1515     8.9386     8.8359     9.4174
 1016.5000   386.6281    90.9263     9.4480     0.0195     2.5297   -49.8859   298.4849     8.9453     8.7776     9.4220
 1017.0000   401.2461    86.1955     9.4471     0.0172     2.5335   -49.7332   296.9698     8.8876     8.8425     9.4274
 1017.5000   400.5090    84.4225     9.4323     0.0282     2.5530   -49.7283   280.0179     8.9563     8.8458     9.3657
 1018.0000   399.9194    86.4971     9.4172     0.0314     2.5590   -49.5756   278.5300     8.9618     8.8371     9.3712
 1018.5000   399.3297    88.8669     9.4084     0.0220     2.5418   -49.4228   261.8906     8.9673     8.7906     9.3757
 1019.0000   383.6799    88.2525     9.4088     0.0158     2.5230   -49.2700   260.4026     8.9107     8.7333     9.3797
 1019.5000   383.0902    87.0975     9.4088     0.0112     2.5148   -48.9693   243.7634     8.9157     8.7374     9.3690
 1020.0000   397.7083    86.5087     9.4079     0.0188     2.5171   -48.6686   257.4270     8.9217     8.7406     9.3231
 1020.5000   375.2501    86.8082     9.3924     0.0394     2.5494   -48.5042   255.9391     8.8641     8.6837     9.3286
 1021.0000   366.2611    87.9945     9.3773     0.0309     2.5539   -48.3629   269.9747     8.8708     8.6870     9.2686
 1021.5000   365.6626    89.1808     9.3711     0.0255     2.5470   -48.3571   298.4179     8.8149     8.7512     9.2731
 1022.0000   365.0602    90.0713     9.3484     0.0263     2.5396   -48.3522   296.9300     8.8204     8.6934     9.2776
 1022.5000   364.3448    90.6659     9.3379     0.0302     2.5360   -48.4965   288.1312     8.8259     8.6974     9.2821
 1023.0000   378.9628    90.3722     9.3299     0.0311     2.5352   -48.6384   278.7879     8.7701     8.7006     9.2873
 1023.5000   393.4334    89.4882     9.3299     0.0303     2.5413   -48.9294   262.1213     8.7768     8.7035     9.2917
 1024.0000   392.6964    89.1953     9.3298     0.0319     2.5503   -49.0737   260.3036     8.7822     8.7071     9.2309
 1024.5000   392.1068    92.8622     9.3104     0.0429     2.5653   -49.3635   258.8156     8.7876     8.7103     9.2363
 1025.0000   391.5171    96.7457     9.3068     0.0523     2.5714   -49.5066   285.9858     8.8542     8.7136     9.1769
 1025.5000   390.9274    98.3763     9.2938     0.0482     2.5654   -49.7977   301.5423     8.9212     8.7773     9.1813
 1026.0000   390.3615    97.4916     9.2908     0.0314     2.5511   -49.9408   300.0000     9.1144     8.7814     9.2494
 1026.5000   389.7482    94.2401     9.2690     0.0119     2.5444   -49.9359   313.7184     9.5737     8.9061     9.3182
 1027.0000   389.1566    88.6216     9.2710     0.0057     2.5474   -49.9310   311.8585     9.9175     8.9719     9.8897
