~VERSION INFORMATION
 VERS.                2.0:   CWLS LOG ASCII STANDARD - VERSION 2.0
 WRAP.                 NO:   ONE LINE PER DEPTH STEP
~WELL INFORMATION
#MNEM.UNIT      DATA TYPE    INFORMATION
#----------   ------------   ------------------------------
 STRT.F            8.0000:   START DEPTH
 STOP.F         3021.0000:   STOP DEPTH
 STEP.F            0.5000:   STEP LENGTH
 NULL.          -999.2500:   NO VALUE
 COMP. LAWRENCE ALLISON & ASSOCIATES W:   COMPANY
 WELL. LAWRENCE ALLISON #68-28:   WELL
 FLD .              NPR 3:   FIELD
 LOC .      S28 T39N R78W:   LOCATION
 CNTY.            NATRONA:   COUNTY
 STAT.            WYOMING:   STATE
 CTRY. UNITED STATES OF AMERICA:   COUNTRY
 SRVC.      DRESSER ATLAS:   SERVICE COMPANY
 DATE.        19-DEC-1986:   LOGDATE
 API .     49025111580000:   API NUMBER
~CURVE INFORMATION
#MNEM.UNIT       API CODE    CURVE DESCRIPTION
#----------   ------------   ------------------------------
 DEPT.F                  :   
 SPR .MV     07 010 01 00:   SPONTANEOUS POTENTIAL
 TENR.LBS    07 635 01 00:   TENSION FROM RESISTIVITY
 RILD.OHMM   07 120 46 00:   DEEP INDUCTION RESISTIVITY
 RILM.OHMM   07 120 44 00:   INDUCTION LOG MEDIUM RESISTIVITY
 RFOC.OHMM   07 220 04 00:   RESISTIVITY FOCUSED LOG RES.
 CALD.IN     45 280 60 00:   CALIPER FROM DENSITY LOG
 CORR.G/C3   45 356 01 00:   DENSITY CORRECTION
 RHOB.G/C3   45 350 01 00:   BULK DENSITY
 CNC .DEC    42 890 03 00:   NEUTRON POROSITY SANDSTONE
 GRR .GAPI   07 310 01 00:   GAMMA RAY FROM RESISTIVITY
~PARAMETER INFORMATION
#MNEM.UNIT          VALUE    DESCRIPTION
#----------   ------------   ------------------------------
 EKB .F         5106.0000:   Kelly bushing
 EGL .F         5094.0000:   Ground level
 EDF .F            0.0000:   Drilling floor
 EPD .F         5094.0000:   Permanent datum
 TD  .F         3010.0000:   Total depth
 CLNT.            A2DTECH:   Client Code
 SL  . 1559'EL & 533' FSL:   Surface Location
 DATE.        19-DEC-1986:   Date Logged [DD-MMM-YYYY]
 DD  .F              3003:   Depth driller
 DL  .F              3010:   Depth logger
 BLI .F              3007:   Bottom log interval
 TLI .F                 0:   Top log interval
 CS1 .              8.625:   Casing size
 CBD1.      8.625" @ 389':   Casing driller 1
 CBL1.IN              405:   Casing logger 1
 BS1 .IN            7.875:   Bit size
 BSD1.F              3003:   Depth drilled with bit1
 DFT .        KCL POLYMER:   Type fluid in hole
 DFD .                9.0:   Density
 DFV .                 42:   Viscosity
 DFPH.                9.3:   pH
 DFL .                8.8:   Fluid loss
 MSS .           FLOWLINE:   Source of sample
 RMS .OHMM          0.484:   Rm
 MST .F                68:   Rm Meas. temp.
 RMF .OHMM          0.392:   Rmf
 MFST.F                68:   Rmf Meas. temp.
 MFSS.               MEAS:   Source Rmf.
 RMC .OHMM          0.605:   Rmc
 MCST.F                68:   Rmc Meas. temp.
 MCSS.               CALC:   Source Rmc.
 RMB .OHMM          0.269:   Rm. at BHT
 BHT .F               122:   BHT.
 TCS .HRS             3.5:   Time Circ. stopped
 MRT .F               122:   Maximum recorded temp.
 LUN .            HL-6274:   Logging unit number
 LUL .           GILLETTE:   Logging unit location
 ENGI.             RAUTIO:   Recorded By
 WITN.             STRONG:   Witnessed by
 ORIG.        2" 5" PRINT:   Origin of data
 UWI .     49025111580000:   Unique Well ID
 DICO. A2D TECHNOLOGIES, INC.:   Digitizing Company
~OTHER INFORMATION
~A    DEPT     SPR       TENR       RILD       RILM       RFOC       CALD       CORR       RHOB        CNC        GRR   
# ...
 1582.5000   -39.6884   -92.1614     6.3909     6.4360     7.0168  -999.2500  -999.2500  -999.2500  -999.2500   124.4794
 1583.0000   -39.9928   -91.9714     6.3900     6.3863     7.0154  -999.2500  -999.2500  -999.2500  -999.2500   120.0412
 1583.5000   -40.1443   -91.8195     6.3891     6.2505     7.0138  -999.2500  -999.2500  -999.2500  -999.2500   120.3694
 1584.0000   -40.2942   -91.6548     6.3418     6.1154     6.9617  -999.2500  -999.2500  -999.2500  -999.2500   116.4810
 1584.5000   -40.4441   -91.5155     6.2459     5.9834     6.9103  -999.2500  -999.2500  -999.2500  -999.2500   115.5959
 1585.0000   -40.4365   -91.3635     6.1159     5.8966     6.8101  -999.2500  -999.2500  -999.2500  -999.2500   118.0423
 1585.5000   -40.4304   -83.4355     6.0712     5.8954     6.6631  -999.2500  -999.2500  -999.2500  -999.2500   119.5771
 1586.0000   -40.2662   -83.2815     6.0267     5.8941     6.6139  -999.2500  -999.2500  -999.2500  -999.2500   122.0169
 1586.5000   -40.1061   -83.1259     6.0259     5.8929     6.6125  -999.2500  -999.2500  -999.2500  -999.2500   124.1551
 1587.0000   -39.9427   -82.9416     6.0250     5.8916     6.6111  -999.2500  -999.2500  -999.2500  -999.2500   125.0866
 1587.5000   -39.9366   -82.7896     5.9809     5.9330     6.6098  -999.2500  -999.2500  -999.2500  -999.2500   119.0799
 1588.0000   -40.0880   -82.6376     6.0233     5.9746     6.6135  -999.2500  -999.2500  -999.2500  -999.2500   119.1071
 1588.5000   -40.2380   -90.2617     6.0660     5.9733     6.6547  -999.2500  -999.2500  -999.2500  -999.2500   120.9496
 1589.0000   -40.2304   -90.1097     6.0652     6.0152     6.7011  -999.2500  -999.2500  -999.2500  -999.2500   122.1828
 1589.5000   -40.2243   -89.9577     6.0643     6.0136     6.6996  -999.2500  -999.2500  -999.2500  -999.2500   123.1143
 1590.0000   -40.2182   -89.8058     6.1073     6.0561     6.7470  -999.2500  -999.2500  -999.2500  -999.2500   123.1408
 1590.5000   -40.2121   -89.6538     6.1506     6.0986     6.7943  -999.2500  -999.2500  -999.2500  -999.2500   121.9607
 1591.0000   -40.2060   -89.5018     6.1943     6.0970     6.7925  -999.2500  -999.2500  -999.2500  -999.2500   121.6789
 1591.5000   -40.1985   -89.3469     6.2382     6.1401     6.8403  -999.2500  -999.2500  -999.2500  -999.2500   122.3154
 1592.0000   -40.1924   -89.1913     6.2371     6.1385     6.8388  -999.2500  -999.2500  -999.2500  -999.2500   123.8502
 1592.5000   -40.3438   -89.0079     6.2815     6.1816     6.8373  -999.2500  -999.2500  -999.2500  -999.2500   125.3851
 1593.0000   -40.3362   -88.8559     6.3261     6.1803     6.8358  -999.2500  -999.2500  -999.2500  -999.2500   124.4905
 1593.5000   -40.3301   -88.7039     6.3250     6.1789     6.8838  -999.2500  -999.2500  -999.2500  -999.2500   121.7467
 1594.0000   -40.3241   -88.5520     6.3698     6.2301     6.8820  -999.2500  -999.2500  -999.2500  -999.2500   120.9398
 1594.5000   -40.1615   -88.4000     6.4150     6.3112     6.8806  -999.2500  -999.2500  -999.2500  -999.2500   120.6713
 1595.0000   -40.1559   -88.2480     6.4605     6.4014     6.8791  -999.2500  -999.2500  -999.2500  -999.2500   121.3011
 1595.5000   -39.9937   -88.0960     6.5608     6.5395     6.8777  -999.2500  -999.2500  -999.2500  -999.2500   124.9475
 1596.0000   -39.8086   -87.9441     6.7438     6.6809     6.9263  -999.2500  -999.2500  -999.2500  -999.2500   126.4757
 1596.5000   -39.5121   -87.7916     6.7919     6.7281     6.9745  -999.2500  -999.2500  -999.2500  -999.2500   123.1907
 1597.0000   -39.3500   -87.6360     6.6935     6.6781     7.0235  -999.2500  -999.2500  -999.2500  -999.2500   122.6072
 1597.5000   -39.3440   -95.2642     6.5968     6.5340     7.1753  -999.2500  -999.2500  -999.2500  -999.2500   125.0537
 1598.0000   -39.1819   -95.0742     6.5485     6.4392     7.4364  -999.2500  -999.2500  -999.2500  -999.2500   131.1134
 1598.5000   -39.1758   -94.9223     6.5949     6.4378     7.5976  -999.2500  -999.2500  -999.2500  -999.2500   132.0449
 1599.0000   -39.3273   -94.7703     6.7381     6.4895     7.6509  -999.2500  -999.2500  -999.2500  -999.2500   123.0142
 1599.5000   -39.4759   -94.6183     6.7859     6.6232     7.5940  -999.2500  -999.2500  -999.2500  -999.2500   115.5133
 1600.0000   -39.9376   -94.4663     6.7849     6.7178     6.9639  -999.2500  -999.2500  -999.2500  -999.2500   111.9200
 1600.5000   -40.2435   -94.3144     6.5867     6.6679     6.8635  -999.2500  -999.2500  -999.2500  -999.2500   116.4714
 1601.0000   -40.3935   -94.1624     6.3112     6.4772     6.9121  -999.2500  -999.2500  -999.2500  -999.2500   123.9902
 1601.5000   -40.5434   -94.0104     6.1310     6.2020     6.9109  -999.2500  -999.2500  -999.2500  -999.2500   132.5197
 1602.0000   -40.5358   -93.8569     6.1301     6.1120     6.9099  -999.2500  -999.2500  -999.2500  -999.2500   135.8793
 1602.5000   -40.3737   -93.7014     6.1738     6.1552     6.9089  -999.2500  -999.2500  -999.2500  -999.2500   131.3230
 1603.0000   -40.5156   -93.5165     6.2176     6.1981     6.9079  -999.2500  -999.2500  -999.2500  -999.2500   125.5106
 1603.5000   -40.5060   -93.3645     6.2617     6.2415     6.9571  -999.2500  -999.2500  -999.2500  -999.2500   119.2035
 1604.0000   -40.4983  -101.0003     6.3517     6.3307     7.0064  -999.2500  -999.2500  -999.2500  -999.2500   118.4898
 1604.5000   -40.4906  -100.8481     6.4894     6.4294     7.1068  -999.2500  -999.2500  -999.2500  -999.2500   121.5434
 1605.0000   -40.4829  -100.6961     6.6302     6.6168     7.1574  -999.2500  -999.2500  -999.2500  -999.2500   126.3996
 1605.5000   -40.4752  -100.5439     6.7742     6.7125     7.2599  -999.2500  -999.2500  -999.2500  -999.2500   129.4458
 1606.0000   -40.4676  -108.1679     6.9213     6.8585     7.3642  -999.2500  -999.2500  -999.2500  -999.2500   124.9506
 1606.5000   -40.4599  -108.0093     6.7975     6.9576     7.5240  -999.2500  -999.2500  -999.2500  -999.2500   123.1628
 1607.0000   -40.4522  -100.0496     6.8974     7.0580     7.6335  -999.2500  -999.2500  -999.2500  -999.2500   124.7082
 1607.5000   -40.4445   -99.8975     6.9483     7.1084     7.7976  -999.2500  -999.2500  -999.2500  -999.2500   125.6428
 1608.0000   -40.4368   -99.7454     6.9493     7.1593     7.8529  -999.2500  -999.2500  -999.2500  -999.2500   123.2591
 1608.5000   -40.4290   -99.5933     6.9502     7.1074     7.8515  -999.2500  -999.2500  -999.2500  -999.2500   117.8589
 1609.0000   -40.3993  -107.2553     6.9013     7.1014     7.8504  -999.2500  -999.2500  -999.2500  -999.2500   112.4586
 1609.5000   -40.2559  -107.0652     6.8035     6.9544     7.7370  -999.2500  -999.2500  -999.2500  -999.2500   113.1281
 1610.0000   -40.0922   -99.1370     6.7073     6.8545     7.5706  -999.2500  -999.2500  -999.2500  -999.2500   120.9449
 1610.5000   -39.9285   -98.9849     6.5648     6.7075     7.4613  -999.2500  -999.2500  -999.2500  -999.2500   130.9561
 1611.0000   -39.9208  -106.6097     6.3333     6.5166     7.2484  -999.2500  -999.2500  -999.2500  -999.2500   133.7007
 1611.5000   -39.7571  -106.4541     6.1543     6.3311     7.0925  -999.2500  -999.2500  -999.2500  -999.2500   131.9203
 1612.0000   -39.7495  -106.2986     6.0668     6.2401     7.0406  -999.2500  -999.2500  -999.2500  -999.2500   127.4251
 1612.5000   -39.7418  -106.1145     6.0679     6.1505     7.0396  -999.2500  -999.2500  -999.2500  -999.2500   123.5331
 1613.0000   -39.7341  -105.9625     6.0688     6.1500     7.0386  -999.2500  -999.2500  -999.2500  -999.2500   121.4511
 1613.5000   -39.7264  -105.8103     6.1135     6.1496     7.0376  -999.2500  -999.2500  -999.2500  -999.2500   120.8700
 1614.0000   -39.7188  -113.4343     6.1586     6.1936     7.0366  -999.2500  -999.2500  -999.2500  -999.2500   125.7336
 1614.5000   -39.7111  -113.2822     6.2040     6.2379     7.0292  -999.2500  -999.2500  -999.2500  -999.2500   135.4163
 1615.0000   -39.8594  -113.1301     6.2049     6.2375     6.8840  -999.2500  -999.2500  -999.2500  -999.2500   141.1775
 1615.5000   -40.1637  -112.9780     6.1612     6.2437     6.7846  -999.2500  -999.2500  -999.2500  -999.2500   137.5872
