~VERSION INFORMATION
 VERS.                2.0:   CWLS LOG ASCII STANDARD - VERSION 2.0
 WRAP.                 NO:   ONE LINE PER DEPTH STEP
~WELL INFORMATION
#MNEM.UNIT      DATA TYPE    INFORMATION
#----------   ------------   ------------------------------
 STRT.F           10.0000:   START DEPTH
 STOP.F         5812.0000:   STOP DEPTH
 STEP.F            0.5000:   STEP LENGTH
 NULL.          -999.2500:   NO VALUE
 COMP. LAWRENCE - ALLSISON:   COMPANY
 WELL. LAWRENCE "X" #11-11:   WELL
 FLD .              NPR 3:   FIELD
 LOC .      S11 T38N R78W:   LOCATION
 CNTY.            NATRONA:   COUNTY
 STAT.            WYOMING:   STATE
 CTRY. UNITED STATES OF AMERICA:   COUNTRY
 SRVC.      DRESSER ATLAS:   SERVICE COMPANY
 DATE.        12-NOV-1982:   LOGDATE
 API .     49025109160000:   API NUMBER
~CURVE INFORMATION
#MNEM.UNIT       API CODE    CURVE DESCRIPTION
#----------   ------------   ------------------------------
 DEPT.F                  :   
 TEND.LBS    45 635 01 00:   TENSION FROM DENSITY LOG
 CALD.IN     45 280 60 00:   CALIPER FROM DENSITY LOG
 CORR.G/C3   45 356 01 00:   DENSITY CORRECTION
 RHOB.G/C3   45 350 01 00:   BULK DENSITY
 CN  .DEC    42 890 03 00:   COMPENSATED NEUTRON POROSITY SANDSTONE
 AC  .US/F   60 520 00 00:   ACOUSTIC
 TENS.LBS    60 635 01 00:   TENSION FROM SONIC
 GRR .GAPI   11 310 01 00:   GAMMA RAY FROM RESISTIVITY
 RD  .OHMM   11 220 10 00:   RESISTIVITY DEEP
 RMLL.OHMM   11 270 04 00:   RESISTIVITY MICROLATEROLOG
 RS  .OHMM   11 220 09 00:   RESISTIVITY SHALLOW
 SPR .MV     11 010 01 00:   SPONTANEOUS POTENTIAL FROM RESISTIVITY
 TENR.LBS    11 635 01 00:   TENSION FROM RESISTIVITY
~PARAMETER INFORMATION
#MNEM.UNIT          VALUE    DESCRIPTION
#----------   ------------   ------------------------------
 EKB .F         5160.0000:   Kelly bushing
 EGL .F         5150.0000:   Ground level
 EDF .F            0.0000:   Drilling floor
 TD  .F         5800.0000:   Total depth
 CLNT.            A2DTECH:   Client Code
 SL  . 660' FNL & 660' FWL:   Surface Location
 PD  .                 GL:   Permanent Datum
 EPD .F              5150:   Elevation Permanent Datum
 LMF .                 KB:   Log Measured From
 DMF .                 KB:   Drilling Measured From
 DAPD.F                10:   Feet Above Permanent Datum
 DATE.        12-NOV-1982:   Date Logged [DD-MMM-YYYY]
 DD  .F              5800:   Depth driller
 DL  .F              5795:   Depth logger
 BLI .F              5702:   Bottom log interval
 TLI .F                 0:   Top log interval
 CS1 .IN            9.625:   Casing size
 CBD1.      9.625" @ 664':   Casing driller 1
 CBL1.F               660:   Casing logger 1
 BS1 .IN             8.75:   Bit size
 BSD1.F              5800:   Depth drilled with bit1
 DFT .                KCL:   Type fluid in hole
 DFD .                8.6:   Density
 DFV .                 45:   Viscosity
 DFPH.                8.5:   pH
 DFL .                7.8:   Fluid loss
 MSS .           FLOWLINE:   Source of sample
 RMS .OHMM           0.32:   Rm
 MST .F                92:   Rm Meas. temp.
 RMF .OHMM           0.26:   Rmf
 MFST.F                90:   Rmf Meas. temp.
 MFSS.               MEAS:   Source Rmf.
 RMB .OHMM           0.19:   Rm. at BHT
 BHT .F               160:   BHT.
 TCS .HRS               3:   Time Circ. stopped
 MRT .F               160:   Maximum recorded temp.
 LUN .               6270:   Logging unit number
 LUL .              WLSTN:   Logging unit location
 ENGI.            QUICKEL:   Recorded By
 WITN.             STRONG:   Witnessed by
 ORIG.        2" 5" PRINT:   Origin of data
 UWI .     49025109160000:   Unique Well ID
 DICO. A2D TECHNIOLOGIES,INC.:   Digitizing Company
 RMC .OHMM           0.40:   Rmc
 MCST.F                92:   Rmc Meas. temp.
 MCSS.               CALC:   Source Rmc.
~OTHER INFORMATION
~A  DEPTH     TEND       CALD       CORR       RHOB         CN         AC       TENS        GRR         RD       RMLL         RS        SPR       TENR
# ...
 2012.0000  -115.2047    14.7299     0.0888     2.5075     0.4233    91.0706   -74.7756    98.6557    10.4979    11.4060     9.3434   -56.2240   -73.3940
 2012.5000  -115.0583    14.7293     0.1051     2.5331     0.4119    91.0753   -74.4744    98.6987    10.4173    11.2412     9.2071   -56.2327   -77.4956
 2013.0000  -114.9119    14.7288     0.1345     2.5576     0.3803    91.1544   -74.2161    98.3423    10.2658    10.8504     9.0728   -56.0891   -77.9036
 2013.5000  -114.7655    14.7134     0.1715     2.5631     0.3684    91.5352   -73.9865    98.0360    10.0463    10.2574     9.0661   -56.1000   -78.1674
 2014.0000  -114.6177    14.5631     0.2313     2.5390     0.3556    92.2177   -73.6996    98.6828     9.9001     9.8324     9.0593   -55.9564   -82.3415
 2014.5000  -114.4678    14.3719     0.2644     2.4578     0.3587    92.8247   -73.4610    99.8262     9.4883     9.8941     9.1798   -55.8168   -82.6723
 2015.0000  -110.5416    14.1812     0.2824     2.3658     0.3751    93.3563   -73.1982    99.8189     8.8359    10.1727     9.2412   -55.6757   -83.0031
 2015.5000  -106.6472    13.9906     0.2974     2.3169     0.3895    93.4345   -72.9249    99.8131     8.4159    10.4431     9.3597   -55.5342   -83.3340
 2016.0000  -102.7526    13.8165     0.3019     2.2710     0.4094    91.9309   -72.6727   100.4079     8.3514    10.2210     9.4182   -55.3950   -79.8114
 2016.5000  -102.6062    13.5874     0.3064     2.2514     0.4094    90.3509   -72.4084   101.6032     8.4050    10.1435     9.4094   -55.2536   -76.3714
 2017.0000  -102.4598    13.4821     0.2943     2.2590     0.4012    89.2988   -72.1472   103.3992     8.5743    10.1366     9.4024   -55.1121   -76.7850
 2017.5000  -102.3135    13.2720     0.2431     2.2904     0.3539    88.7745   -71.8844   106.6966     8.6879    10.2020     9.3954   -54.9685   -80.8865
 2018.0000  -102.1671    13.0619     0.0264     2.3535     0.3293    88.9292   -75.3229   108.8166     9.1147    10.4079     9.3884   -54.8271   -84.9925
 2018.5000  -102.0207    12.8967    -0.0218     2.4512     0.3283    89.2346   -78.8829   110.5874     9.6291    10.4008     9.3814   -54.6878   -85.3318
 2019.0000  -101.8741    12.8064    -0.0218     2.4677     0.3340    89.6174   -71.0527   112.0831     9.7568    10.3938     9.3744   -54.8468   -85.7324
 2019.5000  -102.1102    12.7310    -0.0128     2.4737     0.3443    89.6946   -70.7944   114.4796     9.7493    10.3868     9.3673   -55.1579   -86.0632
 2020.0000  -109.0412    12.6707     0.0060     2.4759     0.3418    89.7838   -70.5361   118.6780     9.7404    10.5981     9.4919   -55.3168   -86.3940
 2020.5000  -112.6795    12.5644     0.0292     2.4752     0.3250    89.8670   -70.2779   119.2742     9.7332    10.6647     9.6180   -55.6258   -82.8714
 2021.0000  -116.2812    12.4431     0.0458     2.4781     0.3039    90.0082   -70.0196   115.0627     9.7938    10.6557     9.6090   -55.7847   -79.4315
 2021.5000  -112.3501    12.3097     0.0563     2.4803     0.3021    89.8611   -69.7614   108.4493     9.8567    10.6485     9.6019   -55.7934   -79.8450
 2022.0000  -112.2038    12.1894     0.0532     2.4773     0.3024    89.7894   -69.5032   107.5425     9.9181    10.6413     9.5947   -55.8021   -76.4051
 2022.5000  -112.0574    12.0991     0.0472     2.4735     0.3049    89.7932   -69.2449   108.1373    10.0477    10.5606     9.5875   -55.8108   -76.7359
 2023.0000  -111.9110    12.0387     0.0349     2.4704     0.3213    89.8723   -68.9940   109.6330    10.0403    10.4804     9.6476   -55.9700   -77.0739
 2023.5000  -111.7646    11.9633     0.0170     2.4704     0.3508    90.0268   -74.2808   109.9289    10.0328    10.4009     9.6402   -56.2809   -77.4803
 2024.0000  -111.6182    11.9030    -0.0011     2.4736     0.3775    90.0306   -75.9777   108.4201    10.0953    10.3939     9.6329   -56.2896   -73.9577
 2024.5000  -111.4693    11.8276     0.0200     2.4794     0.3586    90.0343   -75.7132   108.7146    10.1582    10.3867     9.6241   -56.2983   -74.3712
 2025.0000  -111.3193    11.7672     0.0515     2.4831     0.3348    89.8863   -79.2149   112.0120    10.2910    10.3795     9.6860   -56.3070   -74.7020
 2025.5000  -111.1425    11.7216     0.0560     2.4838     0.3299    89.5138   -75.1384   114.7428    10.3570    10.3710     9.8129   -56.3158   -75.0328
 2026.0000  -114.7808    11.6597     0.0485     2.4853     0.3173    89.3667   -74.8802   115.9042    10.4924    10.5089     9.8741   -56.3245   -79.1344
 2026.5000  -114.5978    11.6009     0.0375     2.4882     0.3158    89.2949   -74.6622   116.1987    10.5578    10.6486     9.9377   -56.4835   -79.4652
 2027.0000  -110.7033    11.5704     0.0288     2.4927     0.3175    89.4496   -74.3637   113.7890    10.5499    10.7155     9.9284   -56.6444   -79.7960
 2027.5000  -106.8088    11.5400     0.0303     2.4918     0.3223    89.6796   -74.1367   108.6780    10.5421    10.6342     9.9906   -56.6531   -80.1282
 2028.0000  -102.9143    11.5095     0.0363     2.4836     0.3235    89.6833   -77.6655   105.6692    10.5332    10.5535     9.9136   -56.5117   -76.6869
 2028.5000   -99.0197    11.4791     0.0288     2.4730     0.3244    89.5362   -77.3427   105.0628    10.4440    10.3290     9.8372   -56.2201   -73.2470
 2029.0000   -95.1253    11.4786    -0.0014     2.4670     0.3280    89.7661   -77.0844   108.3602    10.2280    10.1797     9.6921   -55.9285   -73.6605
 2029.5000   -94.9775    11.4631    -0.0318     2.4639     0.3432    90.1461   -76.8262   115.2854     9.9399     9.9564     9.4844   -55.7868   -73.9913
 2030.0000   -91.0794    11.4626    -0.0466     2.4617     0.3512    90.9804   -74.9505   120.1002     9.7953     9.7497     9.3461   -55.6456   -74.3222
 2030.5000   -91.3606    11.4621    -0.0195     2.4577     0.3478    91.9053   -72.5560   121.2556     9.5194     9.4107     9.3391   -55.5042   -78.4237
 2031.0000   -94.5397    11.4615     0.0196     2.4503     0.3298    92.4993   -72.2973   122.7498     9.2513     8.2425     9.3322   -55.3628   -78.7545
 2031.5000   -90.6086    11.4609     0.0557     2.4435     0.3279    93.0320   -72.0345   126.6479     9.4393     7.7394     9.3252   -55.5238   -79.0854
 2032.0000   -94.2469    11.4454     0.0918     2.4292     0.3336    93.5646   -71.7718   128.4453     9.6312     8.5814     9.3183   -55.5326   -79.4162
 2032.5000   -86.5677    11.4449     0.0797     2.4209     0.3770    94.0218   -69.4289   126.3359     9.7589     9.4507     9.3113   -55.8416   -79.7512
 2033.0000   -86.4213    11.4444     0.0455     2.4216     0.3923    94.4790   -67.4464   125.7309     9.8883     9.9145     9.3041   -56.0004   -76.3071
 2033.5000   -82.5634    11.4439     0.0164     2.4261     0.3703    94.9363   -63.4344   129.0269    10.0175    10.1867     9.3625   -56.3095   -80.4913
 2034.0000   -86.1319    11.4585     0.0028     2.4338     0.3522    94.7147   -66.9945   132.0476    10.1503    10.1797     9.4210   -56.4685   -80.8222
 2034.5000   -85.9820    11.4578     0.0449     2.4455     0.3574    93.9653   -70.4900   133.2654    10.2154    10.1727     9.4122   -56.6294   -81.1530
 2035.0000   -85.8321    11.4573     0.0464     2.4538     0.3883    93.5930   -70.1952   132.3112    10.2791    10.3064     9.5372   -56.4858   -77.6304
 2035.5000   -85.6527    11.4568     0.0359     2.4612     0.3884    93.1378   -69.9090   128.7018    10.2695    10.4434     9.5986   -56.4967   -78.0439
 2036.0000   -84.9831    11.4563     0.0313     2.4672     0.3669    92.7729   -73.4691   125.9937    10.3335    10.5822     9.7243   -56.5054   -74.5213
 2036.5000   -85.3966    11.4558     0.0373     2.4694     0.3317    92.4759   -73.1463   125.9879    10.3980    10.6505     9.8535   -56.3618   -74.9348
 2037.0000   -85.2136    11.4551     0.0433     2.4679     0.3218    92.2556   -72.8880   127.4998    10.5396    10.7174     9.9844   -56.2222   -75.2656
 2037.5000   -85.0672    11.4546     0.0342     2.4632     0.3208    92.1837   -70.8366   128.0783    10.6875    10.7084    10.0468   -55.9309   -71.8257
