~VERSION INFORMATION
 VERS.                2.0:   CWLS LOG ASCII STANDARD - VERSION 2.0
 WRAP.                 NO:   ONE LINE PER DEPTH STEP
~WELL INFORMATION
#MNEM.UNIT      DATA TYPE    INFORMATION
#----------   ------------   ------------------------------
 STRT.F            0.0000:   START DEPTH
 STOP.F         1077.0000:   STOP DEPTH
 STEP.F            0.5000:   STEP LENGTH
 NULL.          -999.2500:   NO VALUE
 COMP.         JOHN BROWN:   COMPANY
 WELL.       JOHN X #66-2:   WELL
 FLD .                NPR:   FIELD
 LOC .       S2 T38N R78W:   LOCATION
 CNTY.            NATRONA:   COUNTY
 STAT.            WYOMING:   STATE
 CTRY. UNITED STATES OF AMERICA:   COUNTRY
 SRVC.     ATLAS WIRELINE:   SERVICE COMPANY
 DATE.        04-DEC-1991:   LOGDATE
 API .     49025224820000:   API NUMBER
~CURVE INFORMATION
#MNEM.UNIT       API CODE    CURVE DESCRIPTION
#----------   ------------   ------------------------------
 DEPT.F                  :   
 TENR.LBS    07 635 01 00:   TENSION
 RILD.OHMM   07 120 46 00:   INDUCTION LOG DEEP RESISTIVITY
 RILM.OHMM   07 120 44 00:   INDUCTION LOG MEDIUM RESISTIVITY
 GRR .GAPI   07 310 01 00:   GAMMA RAY FROM RESISTIVITY
~PARAMETER INFORMATION
#MNEM.UNIT          VALUE    DESCRIPTION
#----------   ------------   ------------------------------
 EKB .F         5189.0000:   Kelly bushing
 EGL .F         5179.0000:   Ground level
 EDF .F         5188.0000:   Drilling floor
 EPD .F         5179.0000:   Permanent datum
 TD  .F         1072.0000:   Total depth
 DATE.        04-DEC-1991:   Date logged
 CLNT.            A2DTECH:   Client Code
 SL  . 1893' FSL & 1937' FEL:   Surface Location
 PD  .                 GL:   Permanent Datum
 LMF .                 KB:   Log Measured From
 DMF .                 KB:   Drilling Measured From
 DAPD.F                10:   Feet Above Permanent Datum
 DD  .F              1072:   Depth driller
 DL  .F              1073:   Depth logger
 BLI .F              1071:   Bottom log interval
 CS1 .IN            9.625:   Casing size
 CBD1.       9.625" @ 40':   Casing driller 1
 CBL1.F                50:   Casing logger 1
 BS1 .IN            7.875:   Bit size
 BSD1.F              1072:   Depth drilled with bit1
 DFT .                AIR:   Type fluid in hole
 LUN .            HL 6387:   Logging unit number
 LUL .             CASPER:   Logging unit location
 WITN.        GARY STRONG:   Witnessed by
 ORIG.         2.5" PRINT:   Origin of data
 UWI .     49025224820000:   Unique Well ID
 DICO. A2D TECHNOLOGIES, INC.:   Digitizing Company
~OTHER INFORMATION
~A    DEPT    TENR       RILD       RILM         GRR  
# ...
  803.0000   -26.3510     5.5300     5.9120   151.8790
  803.5000   -26.3050     5.7610     6.0130   148.2490
  804.0000   -26.2600     5.9920     6.1140   147.5170
  804.5000   -26.2140     6.5580     6.2150   148.0250
  805.0000   -26.1680     6.6780     6.3170   148.4600
  805.5000   -26.1230     6.5900     6.4180   149.0080
  806.0000   -26.0770     6.4980     6.3680   150.7930
  806.5000   -26.0320     6.4060     6.2750   152.4470
  807.0000   -25.9860     6.3140     6.1820   152.4170
  807.5000   -25.9410     6.2220     6.0890   149.9440
  808.0000   -25.8950     6.1300     5.9970   145.7280
  808.5000   -25.8500     5.9810     5.9040   145.1130
  809.0000   -25.8040     5.8010     5.8110   150.8960
  809.5000   -25.7590     5.6220     5.7180   156.8170
  810.0000   -25.7130     5.4420     5.5360   155.7400
  810.5000   -25.6680     5.2630     5.2680   153.9810
  811.0000   -25.6220     4.9600     5.0010   152.0070
  811.5000   -25.5770     4.5530     4.7330   150.2940
  812.0000   -25.5310     4.1460     4.4660   148.1970
  812.5000   -25.4860     3.7380     4.1980   147.9170
  813.0000   -25.4400     3.8170     3.9840   150.0780
  813.5000   -25.3950     3.9460     4.1540   152.0180
  814.0000   -25.3490     4.0760     4.3240   152.9550
  814.5000   -25.3040     4.2050     4.4940   153.1990
  815.0000   -25.2580     4.3350     4.6640   153.4140
  815.5000   -25.2130     4.5760     4.8190   151.6590
  816.0000   -25.1670     4.9350     5.3110   150.4160
  816.5000   -25.1220     5.2940     5.7620   153.9210
  817.0000   -25.0760     5.6730     6.0860   157.4900
  817.5000   -25.0310     5.8050     6.2190   161.1660
  818.0000   -24.9850     5.9460     6.2320   162.2960
  818.5000   -24.9400     6.0870     6.2460   160.8580
  819.0000   -24.8940     6.2270     6.2600   158.5480
  819.5000   -24.8480     6.3680     6.2740   156.1400
  820.0000   -24.8030     6.5580     6.2880   158.1320
  820.5000   -24.7570     6.5470     6.3020   160.6770
  821.0000   -24.7120     6.5290     6.3160   164.0110
  821.5000   -24.6660     6.5120     6.3300   162.1170
  822.0000   -24.6210     6.4940     6.3430   157.7330
  822.5000   -24.5750     6.4770     6.3570   153.8280
  823.0000   -24.5300     6.4600     6.3710   149.8750
  823.5000   -24.4840     6.4420     6.3850   145.9100
  824.0000   -24.4390     6.4250     6.3990   143.5410
  824.5000   -24.3930     6.4070     6.4130   147.9870
  825.0000   -24.3480     6.3900     6.4270   153.8630
  825.5000   -24.3020     6.3720     6.4400   158.5030
  826.0000   -24.2570     6.3550     6.3250   156.5880
  826.5000   -24.2110     6.3370     6.3250   153.4890
  827.0000   -24.1660     6.2110     6.0990   156.0690
  827.5000   -24.1200     6.0200     5.9900   159.2900
  828.0000   -24.0750     5.8000     5.8820   161.2770
  828.5000   -24.0290     5.5790     5.7760   160.6730
  829.0000   -23.9840     5.3590     5.5710   160.7870
  829.5000   -23.9380     5.1390     5.4710   161.3890
  830.0000   -23.8930     4.9970     5.3720   163.1000
  830.5000   -23.8470     5.0170     5.1810   166.6180
  831.0000   -23.8020     5.0380     5.2760   170.2150
  831.5000   -23.7560     5.0590     5.2760   166.7300
  832.0000   -23.7110     5.0880     5.3720   162.8700
  832.5000   -23.6650     4.9840     5.3720   160.6100
  833.0000   -23.6220     4.8190     5.1810   159.7110
  833.5000   -23.3380     4.6540     4.8190   159.2360
  834.0000   -23.0700     4.4900     4.5630   160.1350
  834.5000   -22.8010     4.3250     4.4010   161.0360
  835.0000   -22.5320     4.2440     4.2880   161.9200
  835.5000   -22.2630     4.1580     4.2440   162.8000
  836.0000   -21.9940     4.1260     4.2440   162.3720
  836.5000   -21.7260     4.0930     4.4410   161.8590
  837.0000   -21.4570     4.2470     4.7010   159.7260
  837.5000   -21.1880     4.5150     4.9610   156.7110
  838.0000   -20.9190     4.7820     5.2210   154.6210
  838.5000   -20.6500     5.0500     5.4810   152.5480
  839.0000   -20.3810     5.3170     5.8820   146.8680
  839.5000   -20.1130     5.5850     5.8120   143.7540
  840.0000   -19.8440     5.9900     5.6580   146.2980
  840.5000   -19.5750     5.8460     5.5040   150.0960
  841.0000   -19.3060     5.5510     5.3510   153.5820
  841.5000   -19.0370     5.2570     5.1970   156.5760
  842.0000   -18.7690     4.9620     5.0430   157.8120
  842.5000   -18.5000     4.4820     4.8890   158.7210
  843.0000   -18.2310     4.5300     4.7320   162.2680
  843.5000   -17.9620     4.6610     4.5630   166.3950
  844.0000   -17.6930     4.7920     4.6760   170.0740
  844.5000   -17.4240     4.9220     4.9540   164.6130
  845.0000   -17.1560     5.0130     5.2330   159.1310
  845.5000   -16.8870     5.0520     5.5120   156.5890
  846.0000   -16.6180     5.0880     5.7910   156.1470
  846.5000   -16.3490     5.5880     6.0700   151.8470
  847.0000   -16.0800     6.0550     6.4550   146.6020
  847.5000   -15.8120     6.5580     6.9480   140.9880
  848.0000   -15.5430     6.7730     7.2690   142.5590
  848.5000   -15.2740     6.9440     7.4460   145.9980
  849.0000   -15.0050     6.9980     7.4160   146.6360
  849.5000   -14.7360     7.0520     7.3850   144.7410
  850.0000   -14.4670     7.1070     7.3540   143.6420
  850.5000   -14.1990     7.1610     7.3230   144.3700
  851.0000   -13.9300     7.2150     7.2920   147.1900
  851.5000   -13.6610     7.2700     7.2600   149.9100
  852.0000   -13.3920     7.2990     7.2290   151.5780
  852.5000   -13.1230     7.2410     7.1980   150.0420
  853.0000   -12.8550     7.1840     7.1670   149.7830
  853.5000   -12.5860     7.1260     7.1360   150.0240
  854.0000   -12.3170     7.0690     7.1050   150.2930
  854.5000   -12.0480     7.0120     7.0580   147.6950
  855.0000   -11.7790     6.9250     7.1800   144.6350
  855.5000   -11.5100     7.0880     7.4370   141.9480
  856.0000   -11.2420     7.4250     7.7290   141.7160
  856.5000   -10.9730     7.8620     8.0200   143.1400
  857.0000   -10.7040     7.6660     8.4530   146.2800
  857.5000   -10.4350     7.3890     8.1440   148.8330
  858.0000   -10.1660     6.8820     7.5440   147.2620
  858.5000    -9.8980     6.2880     6.9450   142.3510
  859.0000    -9.6290     5.6930     6.3450   141.9100
  859.5000    -9.3600     5.0980     5.7460   147.4630
  860.0000    -9.0910     4.2440     5.1470   155.2330
  860.5000    -8.8220     4.3530     4.6470   163.7910
  861.0000    -8.5530     4.5460     4.8180   166.2320
  861.5000    -8.2850     4.7400     4.9650   163.3380
  862.0000    -8.0160     4.9330     5.5710   161.0590
  862.5000    -7.7470     5.0880     6.3010   146.8400
  863.0000    -7.4780     5.9050     7.0320   143.1230
  863.5000    -7.2090     6.6410     7.7620   139.9030
  864.0000    -6.9410     7.5790     8.4930   139.7030
  864.5000    -6.6720     8.3910     8.8670   139.9740
  865.0000    -6.4030     8.7650     9.0310   140.6290
  865.5000    -6.1340     8.7650     9.0890   140.8180
  866.0000    -5.8650     8.7650     9.0890   139.9360
  866.5000    -5.5960     8.7650     8.9260   139.1630
  867.0000    -5.3280     8.7650     8.9260   137.7660
  867.5000    -5.0590     8.7650     8.9260   135.6680
  868.0000    -4.7900     8.7650     8.9260   135.0620
  868.5000    -4.5210     9.0570     9.5970   139.2890
  869.0000    -4.2520     9.4800    10.1330   140.6910
  869.5000    -3.9840    10.0540    11.7420   139.6120
  870.0000    -3.7150    10.9640    13.2010   132.3070
  870.5000    -3.4460    11.8750    14.6590   120.1370
  871.0000    -3.1770    12.7850    16.1180   108.8180
  871.5000    -2.9080    13.6950    17.5760    96.9570
  872.0000    -2.6390    14.6050    19.0350    89.8000
  872.5000    -2.3710    16.2820    20.5510    82.2870
  873.0000    -2.1020    18.2090    21.2600    78.3290
  873.5000    -1.8330    20.1820    21.8490    77.9820
  874.0000    -1.5640    20.5510    22.3920    78.6670
  874.5000    -1.2950    20.3020    20.9270    79.2230
  875.0000    -1.0270    20.0910    20.9270    78.4720
  875.5000    -0.7580    19.8800    20.5510    77.5920
