~VERSION INFORMATION
 VERS.                2.0:   CWLS LOG ASCII STANDARD - VERSION 2.0
 WRAP.                 NO:   ONE LINE PER DEPTH STEP
~WELL INFORMATION
#MNEM.UNIT      DATA TYPE    INFORMATION
#----------   ------------   ------------------------------
 STRT.F            0.0000:   START DEPTH
 STOP.F         1077.0000:   STOP DEPTH
 STEP.F            0.5000:   STEP LENGTH
 NULL.          -999.2500:   NO VALUE
 COMP.         JOHN BROWN:   COMPANY
 WELL.       JOHN X #66-2:   WELL
 FLD .                NPR:   FIELD
 LOC .       S2 T38N R78W:   LOCATION
 CNTY.            NATRONA:   COUNTY
 STAT.            WYOMING:   STATE
 CTRY. UNITED STATES OF AMERICA:   COUNTRY
 SRVC.     ATLAS WIRELINE:   SERVICE COMPANY
 DATE.        04-DEC-1991:   LOGDATE
 API .     49025224820000:   API NUMBER
~CURVE INFORMATION
#MNEM.UNIT       API CODE    CURVE DESCRIPTION
#----------   ------------   ------------------------------
 DEPT.F                  :   
 TENR.LBS    07 635 01 00:   TENSION
 RILD.OHMM   07 120 46 00:   INDUCTION LOG DEEP RESISTIVITY
 RILM.OHMM   07 120 44 00:   INDUCTION LOG MEDIUM RESISTIVITY
 GRR .GAPI   07 310 01 00:   GAMMA RAY FROM RESISTIVITY
~PARAMETER INFORMATION
#MNEM.UNIT          VALUE    DESCRIPTION
#----------   ------------   ------------------------------
 EKB .F         5189.0000:   Kelly bushing
 EGL .F         5179.0000:   Ground level
 EDF .F         5188.0000:   Drilling floor
 EPD .F         5179.0000:   Permanent datum
 TD  .F         1072.0000:   Total depth
 DATE.        04-DEC-1991:   Date logged
 CLNT.            A2DTECH:   Client Code
 SL  . 1893' FSL & 1937' FEL:   Surface Location
 PD  .                 GL:   Permanent Datum
 LMF .                 KB:   Log Measured From
 DMF .                 KB:   Drilling Measured From
 DAPD.F                10:   Feet Above Permanent Datum
 DD  .F              1072:   Depth driller
 DL  .F              1073:   Depth logger
 BLI .F              1071:   Bottom log interval
 CS1 .IN            9.625:   Casing size
 CBD1.       9.625" @ 40':   Casing driller 1
 CBL1.F                50:   Casing logger 1
 BS1 .IN            7.875:   Bit size
 BSD1.F              1072:   Depth drilled with bit1
 DFT .                AIR:   Type fluid in hole
 LUN .            HL 6387:   Logging unit number
 LUL .             CASPER:   Logging unit location
 WITN.        GARY STRONG:   Witnessed by
 ORIG.         2.5" PRINT:   Origin of data
 UWI .     49025224820000:   Unique Well ID
 DICO. A2D TECHNOLOGIES, INC.:   Digitizing Company
~OTHER INFORMATION
~A    DEPT    TENR       RILD       RILM         GRR  
# ...
   73.0000   -62.9920     5.3550     5.5020   126.1400
   73.5000   -62.9920     5.2970     5.4830   127.2440
   74.0000   -62.9920     5.2390     5.4640   126.5460
   74.5000   -62.9920     5.1810     5.4460   122.6000
   75.0000   -62.9920     5.0880     5.4270   121.6270
   75.5000   -62.9920     5.0880     5.4090   123.5640
   76.0000   -62.9920     5.0880     5.3900   121.6560
   76.5000   -62.9920     5.1410     5.3720   119.0570
   77.0000   -62.9920     5.2670     5.4880   116.1470
   77.5000   -62.9920     5.3940     5.6010   115.6350
   78.0000   -62.9920     5.5200     5.7140   116.6010
   78.5000   -62.9920     5.6460     5.8820   117.3620
   79.0000   -62.9920     5.7720     6.0990   118.1970
   79.5000   -62.9920     5.8990     6.2110   119.2040
   80.0000   -62.9920     6.0280     6.5580   122.5200
   80.5000   -62.9920     6.1640     6.6780   126.7700
   81.0000   -62.9920     6.3000     6.9250   130.9390
   81.5000   -62.9920     6.4360     7.0510   133.6200
   82.0000   -62.9920     6.5720     7.0510   128.1130
   82.5000   -62.9920     6.8000     7.0510   120.5470
   83.0000   -62.9920     6.7610     7.0510   119.1930
   83.5000   -62.9920     6.6410     7.0510   119.1430
   84.0000   -62.9920     6.5210     6.7910   119.0350
   84.5000   -62.9920     6.4010     6.6100   120.6320
   85.0000   -62.9920     6.2810     6.4280   123.4380
   85.5000   -62.9920     6.1600     6.2470   126.0260
   86.0000   -62.9920     6.0400     6.0660   130.3340
   86.5000   -62.9920     5.9900     5.9900   130.1210
   87.0000   -62.9920     6.1040     6.1980   126.8790
   87.5000   -62.9920     6.2000     6.3750   126.6960
   88.0000   -62.9920     6.2960     6.5510   127.8390
   88.5000   -62.9920     6.3930     6.7280   128.9570
   89.0000   -62.9920     6.4890     6.9040   127.5520
   89.5000   -62.9920     6.5860     7.0810   123.2270
   90.0000   -62.9920     6.6780     7.1800   121.7260
   90.5000   -62.9920     6.7440     7.1800   120.2350
   91.0000   -62.9920     6.8070     7.1800   118.7420
   91.5000   -62.9920     6.8700     7.1800   117.2980
   92.0000   -62.9920     6.9340     7.1800   116.2580
   92.5000   -62.9920     6.9970     7.1800   118.5240
   93.0000   -62.9920     7.0600     7.1800   120.5850
   93.5000   -62.9920     7.1240     7.1800   122.8090
   94.0000   -62.9920     7.1800     7.1800   124.5430
   94.5000   -62.9920     7.1800     7.1800   124.5960
   95.0000   -62.9920     7.1800     7.1800   124.5720
   95.5000   -62.9920     7.1800     7.3120   124.7440
   96.0000   -62.9920     7.1800     7.4460   123.2500
   96.5000   -62.9920     7.1950     7.7200   120.4640
   97.0000   -62.9920     7.2140     7.8620   118.4940
   97.5000   -62.9920     7.2340     8.0060   118.8590
   98.0000   -62.9920     7.2530     8.0060   121.1310
   98.5000   -62.9920     7.2710     7.5820   125.1670
   99.0000   -62.9920     7.2890     7.4460   124.3710
   99.5000   -62.9920     7.3080     7.1800   123.4780
  100.0000   -62.9920     7.1990     7.0510   122.4350
  100.5000   -62.9920     7.0890     6.9250   121.4570
  101.0000   -62.9920     6.9790     6.8000   121.2150
  101.5000   -62.9920     6.8670     6.8000   123.8680
  102.0000   -62.9920     6.7560     6.6780   123.5790
  102.5000   -62.9920     6.6450     6.6780   121.3070
  103.0000   -62.9920     6.5780     6.8000   119.9670
  103.5000   -62.9920     6.6660     6.8400   120.1250
  104.0000   -62.9920     6.7550     6.8890   122.5940
  104.5000   -62.9920     6.8430     6.9370   125.1890
  105.0000   -62.9920     6.9320     6.9860   126.5100
  105.5000   -62.9920     7.0510     7.0510   124.8800
  106.0000   -62.9920     6.9830     6.9830   123.4510
  106.5000   -62.9920     6.8760     6.8760   121.5750
  107.0000   -62.9920     6.7690     6.7690   121.6220
  107.5000   -62.9920     6.6630     6.6630   125.7420
  108.0000   -62.9920     6.5560     6.5560   127.4470
  108.5000   -62.9920     6.4500     6.4500   125.9410
  109.0000   -62.9920     6.3430     6.3430   124.9000
  109.5000   -62.9920     6.2360     6.2360   127.6500
  110.0000   -62.9920     6.1300     6.1300   128.2620
  110.5000   -62.9920     6.0230     6.0230   123.3700
  111.0000   -62.9920     5.8850     5.8820   118.0900
  111.5000   -62.9920     5.8950     5.8820   113.8790
  112.0000   -62.9920     5.9060     5.8820   116.1640
  112.5000   -62.9920     5.9160     5.8820   123.3190
  113.0000   -62.9920     5.9270     5.8820   128.3040
  113.5000   -62.9920     5.9370     5.8820   130.5500
  114.0000   -62.9920     5.9470     5.9900   133.0310
  114.5000   -62.9920     5.9580     5.9900   132.7390
  115.0000   -62.9920     5.9680     5.9900   132.8240
  115.5000   -62.9920     5.9790     6.2110   137.0960
  116.0000   -62.9920     5.9900     6.4400   139.5850
  116.5000   -62.9920     6.0040     6.5580   127.6120
  117.0000   -62.9920     6.0190     6.5580   120.5300
  117.5000   -62.9920     6.0340     6.5580   117.2050
  118.0000   -62.9920     6.0500     6.5580   119.2390
  118.5000   -62.9920     6.0650     6.5580   121.7960
  119.0000   -62.9920     6.0800     6.4400   124.6310
  119.5000   -62.9920     6.0950     6.4400   125.6270
  120.0000   -62.9920     6.1000     6.3250   125.7300
  120.5000   -62.9920     6.0990     6.3250   126.1660
  121.0000   -62.9920     6.0990     6.3250   125.8740
  121.5000   -62.9920     6.0850     6.2110   129.9690
  122.0000   -62.9920     6.0710     6.2110   132.1670
  122.5000   -62.9920     6.0560     6.2110   130.8670
  123.0000   -62.9920     6.0420     6.2110   128.6160
  123.5000   -62.9920     6.0270     6.0990   126.5770
  124.0000   -62.9920     6.0130     6.0990   124.1860
  124.5000   -62.9920     5.9980     6.0310   122.8850
  125.0000   -62.9920     5.9700     5.9700   122.5740
  125.5000   -62.9920     5.9200     5.9200   125.5150
  126.0000   -62.9920     5.8690     5.8700   127.9330
  126.5000   -62.9920     5.8190     5.8200   130.7290
  127.0000   -62.9920     5.7690     5.7690   131.8520
  127.5000   -62.9920     5.7190     5.7190   131.9640
  128.0000   -62.9920     5.6690     5.6690   132.4350
  128.5000   -62.9920     5.6190     5.6190   130.8300
  129.0000   -62.9920     5.5710     5.5710   126.4510
  129.5000   -62.9920     5.5440     5.5440   124.5750
  130.0000   -62.9920     5.5010     5.5010   125.0830
  130.5000   -62.9920     5.4590     5.4590   125.3100
  131.0000   -62.9920     5.4170     5.4170   125.5590
  131.5000   -62.9920     5.3740     5.3740   125.8800
  132.0000   -62.9920     5.3320     5.3320   126.3920
  132.5000   -62.9920     5.2900     5.2900   130.4340
  133.0000   -62.9920     5.2470     5.2470   135.0450
  133.5000   -62.9920     5.2050     5.2050   133.6520
  134.0000   -62.9920     5.1620     5.1620   129.0410
  134.5000   -62.9920     5.1200     5.1200   125.3830
  135.0000   -62.9920     5.0780     5.0780   125.0930
  135.5000   -62.9920     5.0350     5.0350   122.6260
  136.0000   -62.9920     4.9970     4.9970   123.2100
  136.5000   -62.9920     5.0890     5.0890   125.6380
  137.0000   -62.9920     5.1740     5.1740   127.5820
  137.5000   -62.9920     5.2590     5.2590   126.6350
  138.0000   -62.9920     5.3430     5.3430   125.5490
  138.5000   -62.9920     5.4280     5.4280   124.4480
  139.0000   -62.9920     5.5130     5.5130   123.9350
  139.5000   -62.9920     5.5980     5.5980   127.4860
  140.0000   -62.9920     5.6730     5.6730   129.3840
  140.5000   -62.9920     5.6920     5.6920   129.4490
  141.0000   -62.9920     5.7090     5.7090   127.5700
  141.5000   -62.9920     5.7260     5.7260   125.6510
  142.0000   -62.9920     5.7430     5.7430   122.7910
  142.5000   -62.9920     5.7590     5.7590   117.6800
  143.0000   -62.9920     5.7760     5.7760   120.0100
  143.5000   -62.9920     5.7930     5.7930   125.3940
  144.0000   -62.9920     5.8100     5.8100   129.8030
  144.5000   -62.9920     5.8270     5.8270   128.9380
  145.0000   -62.9920     5.8440     5.8440   128.0880
  145.5000   -62.9920     5.8610     5.8610   128.5600
