~VERSION INFORMATION
 VERS.                2.0:   CWLS LOG ASCII STANDARD - VERSION 2.0
 WRAP.                 NO:   ONE LINE PER DEPTH STEP
~WELL INFORMATION
#MNEM.UNIT      DATA TYPE    INFORMATION
#----------   ------------   ------------------------------
 STRT.F          176.0000:   START DEPTH
 STOP.F         3400.0000:   STOP DEPTH
 STEP.F            0.5000:   STEP LENGTH
 NULL.          -999.2500:   NO VALUE
 COMP.    PENIX & SCISSON:   COMPANY
 WELL. FENIX NPR 3 "AX" #64-4:   WELL
 FLD .                NPR:   FIELD
 LOC .       S4 T38N R78W:   LOCATION
 CNTY.            NATRONA:   COUNTY
 STAT.            WYOMING:   STATE
 CTRY. UNITED STATES OF AMERICA:   COUNTRY
 SRVC.       SCHLUMBERGER:   SERVICE COMPANY
 DATE.        25-JAN-1981:   LOGDATE
 API .     49025108640000:   API NUMBER
~CURVE INFORMATION
#MNEM.UNIT       API CODE    CURVE DESCRIPTION
#----------   ------------   ------------------------------
 DEPT.F                  :   
 SPR .MV     07 010 01 00:   SPONTANEOUS POTENTIAL
 RFOC.OHMM   07 220 01 00:   RESISTIVITY FOCUSED LOG RES.
 ILD .OHMM   07 120 46 00:   DEEP INDUCTION RESISTIVITY
 TENR.LBS    07 635 01 00:   TENSION
 ILM .OHMM   07 120 44 00:   INDUCTION LOG MEDIUM RESISTIVITY
 GRD .GAPI   45 310 01 00:   GAMMA RAY FROM DENSITY LOG
 CALD.IN     45 280 60 00:   CALIPER FROM DENSITY LOG
 RHOB.G/C3   45 350 01 00:   BULK DENSITY
 TEND.LBS    45 635 01 00:   TENSION FROM DENSITY LOG
 CORR.G/C3   45 356 01 00:   DENSITY CORRECTION
~PARAMETER INFORMATION
#MNEM.UNIT          VALUE    DESCRIPTION
#----------   ------------   ------------------------------
 EKB .F         5257.0000:   Kelly bushing
 EGL .F         5247.0000:   Ground level
 EDF .F            0.0000:   Drilling floor
 TD  .F         3388.0000:   Total depth
 DATE.        25-JAN-1981:   Date logged
 CLNT.            A2DTECH:   Client Code
 SL  . 2289' FNL & 1495' FEL:   Surface Location
 PD  .                 GL:   Permanent Datum
 EPD .F              5247:   Elevation Permanent Datum
 LMF .                 KB:   Log Measured From
 DMF .                 KB:   Drilling Measured From
 DAPD.F                10:   Feet Above Permanent Datum
 DD  .F              3388:   Depth driller
 DL  .F              3386:   Depth logger
 BLI .F              3380:   Bottom log interval
 TLI .F               192:   Top log interval
 CS1 .IN            8.625:   Casing size
 CBD1.      8.625" @ 191':   Casing driller 1
 CBL1.F               192:   Casing logger 1
 BS1 .IN            7.875:   Bit size
 BSD1.F              3388:   Depth drilled with bit1
 DFT .                FGM:   Type fluid in hole
 DFD .                8.7:   Density
 DFV .                 32:   Viscosity
 DFPH.                9.5:   pH
 DFL .                 18:   Fluid loss
 MSS .           FLOWLINE:   Source of sample
 RMS .OHMM           1.60:   Rm
 MST .F                60:   Rm Meas. temp.
 RMF .OHMM           1.33:   Rmf
 MFST.F                60:   Rmf Meas. temp.
 MFSS.               MEAS:   Source Rmf.
 RMB .OHMM            .83:   Rm. at BHT
 BHT .F               115:   BHT.
 TCS .HRS            1700:   Time Circ. stopped
 TLAB.HRS            2200:   Time logger at bottom
 MRT .F               115:   Maximum recorded temp.
 LUN .               8039:   Logging unit number
 LUL .               CSPR:   Logging unit location
 ENGI.           C. PFARR:   Recorded By
 WITN.           L. FIVAS:   Witnessed by
 ORIG.           5" PRINT:   Origin of data
 UWI .     49025108640000:   Unique Well ID
 DICO. A2D TECHNOLOGIES, INC.:   Digitizing Company
~OTHER INFORMATION
~A   DEPT      SPR       RFOC        ILD       TENR        ILM         GRD      CALD         RHOB      TEND      CORR   
  176.0000  -999.2500  -999.2500  -999.2500  -999.2500  -999.2500    65.5950  -999.2500     2.1760   458.1670  -999.2500
  176.5000  -999.2500  -999.2500  -999.2500  -999.2500  -999.2500    65.5950  -999.2500     2.1300   458.1670  -999.2500
  177.0000  -999.2500  -999.2500  -999.2500  -999.2500  -999.2500    65.9140  -999.2500     2.1270   418.3270  -999.2500
  177.5000  -999.2500  -999.2500  -999.2500  -999.2500  -999.2500    66.9140  -999.2500     2.1150   418.3270  -999.2500
  178.0000  -999.2500  -999.2500  -999.2500  -999.2500  -999.2500    67.9140  -999.2500     2.1030   418.3270  -999.2500
  178.5000  -999.2500  -999.2500  -999.2500  -999.2500  -999.2500    68.9150  -999.2500     2.1040   418.3270  -999.2500
  179.0000  -999.2500  -999.2500  -999.2500  -999.2500  -999.2500    69.1670  -999.2500     2.1090   418.3270  -999.2500
  179.5000  -999.2500  -999.2500  -999.2500  -999.2500  -999.2500    69.2430  -999.2500     2.1150   418.9670  -999.2500
  180.0000  -999.2500  -999.2500  -999.2500  -999.2500  -999.2500    68.9640  -999.2500     2.1190   418.3270  -999.2500
  180.5000  -999.2500  -999.2500  -999.2500  -999.2500  -999.2500    68.1740  -999.2500     2.1230   418.3270  -999.2500
  181.0000  -999.2500  -999.2500  -999.2500  -999.2500  -999.2500    67.4090  -999.2500     2.1130   418.3270  -999.2500
  181.5000  -999.2500  -999.2500  -999.2500  -999.2500  -999.2500    66.6230  -999.2500     2.0950   418.3270  -999.2500
  182.0000  -999.2500  -999.2500  -999.2500  -999.2500  -999.2500    65.8530  -999.2500     2.0480   418.3270  -999.2500
  182.5000  -999.2500  -999.2500  -999.2500  -999.2500  -999.2500    65.0640  -999.2500     1.9960   418.3270  -999.2500
  183.0000  -999.2500  -999.2500  -999.2500  -999.2500  -999.2500    64.2820  -999.2500     2.0070   418.3270  -999.2500
  183.5000  -999.2500  -999.2500  -999.2500   259.4810  -999.2500    63.6640  -999.2500     2.0830   418.3270  -999.2500
  184.0000  -999.2500  -999.2500  -999.2500   258.7000  -999.2500    63.5570  -999.2500     2.1660   418.3270  -999.2500
  184.5000  -999.2500  -999.2500  -999.2500   258.1790  -999.2500    63.8770  -999.2500     2.2520   418.3270  -999.2500
  185.0000  -999.2500  -999.2500  -999.2500   257.6580  -999.2500    64.6130  -999.2500     2.2660   418.3270  -999.2500
  185.5000  -999.2500  -999.2500  -999.2500   257.1370  -999.2500    67.6390  -999.2500     2.2780   418.3270  -999.2500
  186.0000  -999.2500  -999.2500  -999.2500   256.6160  -999.2500    70.3160  -999.2500     2.2850   418.3270  -999.2500
  186.5000  -999.2500  -999.2500  -999.2500   256.0950  -999.2500    70.3380  -999.2500     2.2680   418.3270  -999.2500
  187.0000  -999.2500  -999.2500  -999.2500   255.8340  -999.2500    68.4140  -999.2500     2.2580   418.3270  -999.2500
  187.5000  -999.2500  -999.2500  -999.2500   255.3130  -999.2500    66.6910  -999.2500     2.2650   418.3270  -999.2500
  188.0000  -999.2500  -999.2500  -999.2500   254.7920  -999.2500    64.9740  -999.2500     2.2970   418.3270  -999.2500
  188.5000   -53.7010  -999.2500  -999.2500   254.2710  -999.2500    63.6680  -999.2500     2.3170   418.3270  -999.2500
  189.0000   -53.7800  -999.2500  -999.2500   253.7500  -999.2500    63.5100  -999.2500     2.2980   418.3270  -999.2500
  189.5000   -54.9030  -999.2500  -999.2500   253.2290  -999.2500    64.9880  -999.2500     2.2680   418.3270  -999.2500
  190.0000   -56.1020  -999.2500  -999.2500   252.7080  -999.2500    67.8290  -999.2500     2.2450   418.3270  -999.2500
  190.5000   -55.7090  -999.2500  -999.2500   252.1870  -999.2500    70.2930  -999.2500     2.2330   418.3270  -999.2500
  191.0000   -53.8330  -999.2500  -999.2500   251.6660  -999.2500    72.4410     9.1600     2.2240   418.3270  -999.2500
  191.5000   -53.3460  -999.2500  -999.2500   251.1450  -999.2500    72.6430     9.1690     2.2220   418.3270  -999.2500
  192.0000   -57.6290  -999.2500  -999.2500   250.6240  -999.2500    74.1120     9.1780     2.2170   418.3270  -999.2500
  192.5000   -66.4260  -999.2500  -999.2500   250.1030  -999.2500    69.8860     9.1870     2.3400   418.3270     0.0370
  193.0000   -74.4120     2.0450  -999.2500   249.5820  -999.2500    68.1340     9.1940     2.4650   418.3270     0.2390
  193.5000   -82.9850     3.7170  1550.0430   249.0610  -999.2500    70.8810     9.6390     2.4350   418.3270     0.2150
  194.0000   -87.0270     4.8870   984.0790   248.5410  -999.2500    76.4400    10.0140     2.3470   418.3270     0.1670
  194.5000   -85.6870     4.8870     1.8750   248.0200  -999.2500    82.0190    10.2240     2.2720   418.3270     0.1470
  195.0000   -77.8320     4.8870     2.4950   247.4990    73.8400    80.9720    10.4410     2.3010   418.3270     0.1540
  195.5000   -65.9030     4.8870     3.3810   246.9780     3.2590    81.8390    10.5410     2.3310   418.3270     0.1610
  196.0000   -54.2020     4.9780     4.2670   246.4570     3.6750    83.3680    10.6380     2.3590   418.3270     0.1650
  196.5000   -42.3470     6.2630     5.1070   245.9360     4.0150    84.9090    11.2250     2.3500   418.3270     0.1330
  197.0000   -30.4150    11.4030     4.8650   245.4150     4.3550    84.6510    12.0030     2.3380   418.3270     0.0940
  197.5000   -22.7390    10.2760     5.6630   244.8940     4.7980    79.4240    12.7930     2.3270   418.3270     0.0540
  198.0000   -20.0390     7.4590     5.4550   244.3730     4.6000    76.5140    13.3010     2.3180   418.3270     0.0260
  198.5000   -19.7480     5.6670     5.1090   243.8520     4.6330    74.7000    13.4610     2.3730   418.3270     0.0040
  199.0000   -19.0700     5.4150     4.7630   243.3310     4.4360    72.9430    13.4690     2.3880   418.3270     0.0070
  199.5000   -18.0630     5.1620     4.4170   242.8100     4.2720    71.2650    13.4980     2.4060   418.3270     0.0140
  200.0000   -17.8110     4.9100     4.1400   242.2890     4.1400    70.8550    13.5210     2.4180   418.3270     0.0280
  200.5000   -17.4290     4.6570     4.2290   241.7680     4.2290    72.7480    13.5440     2.4070   418.3270     0.0280
  201.0000   -17.0750     4.3890     4.3030   241.2470     4.3030    75.3390    13.5680     2.3970   418.3270     0.0270
  201.5000   -16.7450     4.0650     4.3760   240.7260     4.3760    75.8840    13.5930     2.3910   418.3270     0.0320
  202.0000   -16.6000     3.8700     4.2760   240.2050     3.9470    75.2670    13.6130     2.3920   418.3270     0.0450
  202.5000   -16.4710     3.6790     4.1780   239.6840     3.5240    73.9640    13.6450     2.3750   418.3270     0.1290
  203.0000   -16.3460     3.4870     4.0510   239.1630     3.0270    72.5030    13.7890     2.1950   418.3270     0.2350
  203.5000   -16.2170     3.2950     3.6510   238.6420     3.0730    71.5200    14.2270     2.0050   418.3270     0.2270
  204.0000   -16.0890     3.1030     3.2500   238.1210     3.1280    71.5530    14.8190     1.7540   418.3270     0.1750
  204.5000   -15.9620     2.9180     2.8640   237.6000     3.1840    75.0170    13.6550     1.7440   415.6100     0.0640
  205.0000   -15.8340     3.2430     2.9070   237.0790     3.2390    80.8010    11.8200     1.9590   413.3470     0.0050
  205.5000   -15.7060     3.5560     2.9480   236.5580     3.2950    84.7230    10.7510     2.0560   411.0830     0.0100
  206.0000   -15.5780     3.9180     2.9880   236.0370     3.3810    86.0980    10.1090     2.1400   408.8190     0.0470
  206.5000   -15.4500     3.6860     3.0270   235.5160     3.3150    85.9150    10.0030     2.3500   406.5560     0.0910
  207.0000   -15.3240     3.4130     2.9050   234.9950     3.1680    85.0060    10.0310     2.4090   404.2920     0.1350
  207.5000   -15.1940     3.1400     2.7890   234.4740     3.0220    83.5350    10.0620     2.3750   402.0280     0.1930
  208.0000   -15.0670     2.8670     2.6730   233.9530     2.8750    82.4800    10.0920     2.3310   399.7650     0.1750
  208.5000   -14.9450     2.6120     2.5570   233.4320     2.7290    81.2760    10.1230     2.2870   397.5010     0.1390
  209.0000   -14.7970     2.5570     2.4270   232.9110     2.5820    84.4920    10.1610     2.2560   395.2370     0.1110
