~VERSION INFORMATION
 VERS.                2.0:   CWLS LOG ASCII STANDARD - VERSION 2.0
 WRAP.                 NO:   ONE LINE PER DEPTH STEP
~WELL INFORMATION
#MNEM.UNIT      DATA TYPE    INFORMATION
#----------   ------------   ------------------------------
 STRT.F          220.0000:   START DEPTH
 STOP.F         3284.5000:   STOP DEPTH
 STEP.F            0.5000:   STEP LENGTH
 NULL.          -999.2500:   NO VALUE
 COMP.    FENIX & SCISSON:   COMPANY
 WELL. FENIX HARPEL "A" #85-28:   WELL
 FLD .              NPR-3:   FIELD
 LOC .      S28 T39N R78W:   LOCATION
 CNTY.            NATRONA:   COUNTY
 STAT.            WYOMING:   STATE
 CTRY. UNITED STATES OF AMERICA:   COUNTRY
 SRVC.      DRESSER ATLAS:   SERVICE COMPANY
 DATE.        07-AUG-1977:   LOGDATE
 API .     49025104040000:   API NUMBER
~CURVE INFORMATION
#MNEM.UNIT       API CODE    CURVE DESCRIPTION
#----------   ------------   ------------------------------
 DEPT.F                  :   
 GRD .GAPI   45 310 01 00:   GAMMA RAY FROM DENSITY LOG
 CALD.IN     45 280 60 00:   CALIPER FROM DENSITY LOG
 CORR.G/C3   45 356 01 00:   DENSITY CORRECTION
 RHOB.G/C3   45 350 01 00:   BULK DENSITY
 TEND.LBS    45 635 01 00:   TENSION FORM DENSITY LOG
 NPHI.DEC    42 890 03 00:   NEUTRON POROSITY SANDSTONE
 SPR .MV     11 010 01 00:   SPONTANEOUS POTENTIAL FROM RES.
 TENR.LBS    11 635 01 00:   TENSION FROM RES.
 LLD .OHMM   11 220 10 00:   LATEROLOG LOG DEEP
 LLS .OHMM   11 220 09 00:   LATEROLOG SHALLOW
 RXO .OHMM   11 270 04 00:   FLUSHED ZONE RESISTIVITY
~PARAMETER INFORMATION
#MNEM.UNIT          VALUE    DESCRIPTION
#----------   ------------   ------------------------------
 EKB .F         5059.0000:   Kelly bushing
 EGL .F         5049.0000:   Ground level
 EDF .F            0.0000:   Drilling floor
 EPD .F            0.0000:   Permanent datum
 TD  .F         3240.0000:   Total depth
 CLNT.            A2DTECH:   Client Code
 SL  . 2310' FSL & 330' FEL:   Surface Location
 PD  .                 GL:   Permanent Datum
 DAPD.F                10:   Feet Above Permanent Datum
 DATE.        07-AUG-1977:   Date Logged [DD-MMM-YYYY]
 DD  .F              3240:   Depth driller
 DL  .F              3267:   Depth logger
 BLI .F              3265:   Bottom log interval
 TLI .F               224:   Top log interval
 CS1 .IN            8.625:   Casing size
 CBD1.      8.625" @ 254':   Casing driller 1
 CBL1.F               224:   Casing logger 1
 BS1 .IN            7.875:   Bit size
 BSD1.F              3240:   Depth drilled with bit1
 DFT .                KCL:   Type fluid in hole
 DFD .                8.8:   Density
 DFV .                 36:   Viscosity
 DFPH.               10.5:   pH
 DFL .                9.6:   Fluid loss
 MSS .         CIRCULATED:   Source of sample
 RMS .OHMM           0.22:   Rm
 MST .F                78:   Rm Meas. temp.
 RMF .OHMM           0.16:   Rmf
 MFST.F                78:   Rmf Meas. temp.
 MFSS.               MEAS:   Source Rmf.
 RMC .OHMM           0.28:   Rmc
 MCST.F                78:   Rmc Meas. temp.
 MCSS.               MEAS:   Source Rmc.
 RMB .OHMM           0.14:   Rm. at BHT
 BHT .F               125:   BHT.
 TCS .HRS               7:   Time Circ. stopped
 MRT .F               125:   Maximum recorded temp.
 LUN .               6134:   Logging unit number
 LUL .              GLTTE:   Logging unit location
 ENGI.              GOULD:   Recorded By
 WITN.         HARRINGTON:   Witnessed by
 ORIG.      2.5" 5" PRINT:   Origin of data
 UWI .     49025104040000:   Unique Well ID
 DICO. A2D TECHNOLOGIES, INC.:   Digitizing Company
~OTHER INFORMATION
~A   DEPT      GRD       CALD       CORR       RHOB       TEND         NPHI      SPR       TENR        LLD        LLS        RXO   
# ...
 3239.5000    59.2599     8.0105     0.0319     2.4809   884.6273     0.2628   -80.1015   220.6586     9.4083     6.7191     4.6259
 3240.0000    60.3293     8.0121     0.0306     2.4795   870.2896     0.2684   -80.1201   221.5569     8.8956     6.0798     4.6249
 3240.5000    60.6521     8.0085     0.0309     2.4736   864.3273     0.2783   -80.1381   222.6002     7.7947     5.8589     4.3757
 3241.0000    63.2186     8.0000     0.0326     2.4692   861.0626     0.2884   -80.1562   193.4132     7.1844     5.6665     4.1122
 3241.5000    65.0419     7.9869     0.0358     2.4663   843.8189     0.2947   -80.1742   194.3523     7.0841     5.5091     3.7978
 3242.0000    69.7042     7.9730     0.0375     2.4709   839.0224     0.3117   -80.1948   165.2583     6.7949     5.3494     3.5430
 3242.5000    67.1808     7.9747     0.0393     2.4665   824.0179     0.3195   -80.2118   166.1676     5.6472     4.8352     3.2300
 3243.0000    65.7000     7.9763     0.0379     2.4591   821.2344     0.3165   -80.2287   137.0099     4.4236     3.6380     3.1336
 3243.5000    66.6252     7.9627     0.0351     2.4704   811.6282     0.3054   -80.2462   138.0239     3.8545     3.9393     3.1961
 3244.0000    67.5449     7.9642     0.0308     2.4511   801.1417     0.2989   -80.2643   138.9222     5.5714     4.7835     3.1961
 3244.5000    64.5778     7.9657     0.0263     2.4444   798.2332     0.2997   -80.2823   139.9713     6.0882     4.9143     3.1524
 3245.0000    62.1988     7.9672     0.0222     2.4416   780.9668     0.3000   -80.3437   110.7785     6.2443     4.9107     3.1597
 3245.5000    71.8012     7.9687     0.0208     2.4461   777.9332     0.2880   -80.5743   111.6767     5.2167     4.7090     3.2999
 3246.0000    66.7329     7.9702     0.0195     2.4522   775.8312     0.2736   -80.9397   112.5748     5.2878     4.5154     3.4943
 3246.5000    69.2994     7.9719     0.0197     2.4650   772.9474     0.2625   -80.9566    83.4750     5.7576     4.4506     3.5688
 3247.0000    67.3802     7.9733     0.0245     2.4763   764.6007     0.2561   -80.9730    84.4310     6.1520     4.5602     3.4718
 3247.5000    65.6054     7.9897     0.0293     2.4923   753.0214     0.2495   -81.1486    85.3294     6.2360     5.2341     3.5200
 3248.0000    65.3275     7.9911     0.0295     2.5034   735.2560     0.2237   -81.6096    86.2275     6.0242     6.2654     3.6826
 3248.5000    66.2527     7.9925     0.0282     2.5112   717.6574     0.1996   -81.6276    87.2825     6.0622     7.1855     4.1467
 3249.0000    66.8677     7.9791     0.0267     2.5207   715.1057     0.1894   -81.6456    58.0837     6.7685     8.1281     4.8099
 3249.5000    65.6970     7.9806     0.0225     2.5545   712.0475     0.1837   -81.6637    88.9742    13.6844    10.1119     6.0096
 3250.0000    65.5689     7.9824     0.0212     2.5919   709.9695     0.1759   -81.6845    89.8203    21.8781    12.1753     6.7023
 3250.5000    64.9800     7.9852     0.0245     2.6080   707.4022     0.1723   -81.7015    90.7186    16.4780    12.4309     5.8627
 3251.0000    64.4292     8.0000     0.0323     2.6310   689.2546     0.1614   -81.7185    91.6169    15.4832    11.5976     6.1103
 3251.5000    64.1588     8.0016     0.0400     2.5907   686.9905     0.1463   -81.4300    92.5149    16.3091    12.4109     7.3098
 3252.0000    63.8956     8.0181     0.0433     2.5646   661.2729     0.1367   -81.1518    93.4132    16.9323    13.1051     6.0229
 3252.5000    63.9246     8.0194     0.0450     2.5475   636.4575     0.1556   -81.1712    94.4734    17.0398    13.0966     5.8627
 3253.0000    64.7020     8.0359     0.0422     2.5377   619.0332     0.1654   -81.0671    95.3195    16.5706    13.0743     5.8627
 3253.5000    65.7789     8.0375     0.0392     2.5208   601.3597     0.1684   -80.6066    96.1656    15.6761    12.4902     5.4721
 3254.0000    65.5085     8.0472     0.0365     2.5224   577.1758     0.1675   -80.6276    97.0117    15.2451    12.0350     5.3233
 3254.5000    67.0417     8.0551     0.0368     2.5359   565.8546     0.1629   -80.6445    97.9043    16.9080    13.2241     5.1076
 3255.0000    67.3628     8.0625     0.0392     2.5390   548.0475     0.1604   -80.6615   105.7903    17.9833    13.4164     5.5239
 3255.5000    64.4051     8.0731     0.0433     2.5242   545.5546     0.1628   -80.3782   129.6407    17.4219    13.2227     5.3344
 3256.0000    64.8831     8.0797     0.0450     2.5362   528.0963     0.1727   -80.3964   130.5388    15.8474    12.6795     4.7422
 3256.5000    65.6606     8.0909     0.0452     2.5311   521.0308     0.1763   -80.4144   131.6050    16.3116    11.9924     4.3888
 3257.0000    67.4860     8.1026     0.0491     2.5200   507.8544     0.1729   -80.4324   132.4511    17.7160    12.6852     4.1533
 3257.5000    66.9162     8.1091     0.0517     2.5078   505.2867     0.1693   -80.1501   103.2934    17.7114    13.0083     3.9850
 3258.0000    64.8493     8.1103     0.0534     2.4922   487.1475     0.1699   -80.1712   104.2027    16.4035    12.8571     3.7643
 3258.5000    67.5802     8.1118     0.0491     2.4856   485.0454     0.1777   -80.1882    72.2611    14.7934    12.4526     3.5688
 3259.0000    65.9624     8.1135     0.0402     2.4692   479.9952     0.1836   -80.2052    46.0147    16.5386    11.6254     3.7385
 3259.5000    67.0393     8.1148     0.0328     2.4581   464.5631     0.1860   -80.2222    36.7363    18.4403    11.5584     3.6164
 3260.0000    69.1641     8.1162     0.0255     2.4424   462.2357     0.1896   -80.2402    17.9640    17.4436    12.2678     3.1961
 3260.5000    69.6349     8.1178     0.0211     2.4508   459.5761     0.1913   -80.2583    19.0359    17.0739    12.6021     3.0666
 3261.0000    69.0723     8.1195     0.0229     2.4635   457.0832     0.1862   -80.2763    19.8816    17.9228    12.1789     3.1092
 3261.5000    65.8982     8.1356     0.0291     2.4486   439.4257     0.1810   -80.2943    20.7277    18.1673    11.6907     3.1042
 3262.0000    65.3878     8.1371     0.0384     2.4398   421.2618     0.1777   -80.3155    21.5738    17.8836    11.8989     3.0554
 3262.5000    67.2132     8.1386     0.0447     2.4324   403.6631     0.1840   -80.6328    22.4550    17.3606    12.5671     3.0074
 3263.0000    65.6027     8.1552     0.0434     2.4309   386.0645     0.1875   -81.5506    23.3532    16.4514    12.2165     2.9832
 3263.5000    63.9849     8.1566     0.0558     2.4325   368.4647     0.1857   -82.7688    24.2515    14.4485    11.8770     3.2855
 3264.0000    56.8283     8.1581     0.0711     2.4401   350.8661     0.1793   -84.4690    25.1497    13.7636    12.2007     3.4718
 3264.5000    35.0010     8.1595     0.0880     2.4491   318.1617     0.1748   -89.3959    26.2269    13.7600    12.1922     3.1066
 3265.0000    24.2563     8.1610     0.1034     2.4402   330.7746     0.1708   -92.6528   146.8335    13.7564    11.8529     2.8167
 3265.5000     0.0266     8.1475     0.1081     2.4343   451.4644     0.1687  -999.2500   297.3802  -999.2500  -999.2500  -999.2500
 3266.0000     0.5988     8.1490     0.1068     2.4294   625.7581     0.1699  -999.2500   388.0466  -999.2500  -999.2500  -999.2500
 3266.5000  -999.2500  -999.2500  -999.2500  -999.2500   987.3243     0.1752  -999.2500   480.8234  -999.2500  -999.2500  -999.2500
 3267.0000  -999.2500  -999.2500  -999.2500  -999.2500  1090.5703     0.1794  -999.2500   509.5808  -999.2500  -999.2500  -999.2500
 3267.5000  -999.2500  -999.2500  -999.2500  -999.2500  1088.0774  -999.2500  -999.2500   540.4193  -999.2500  -999.2500  -999.2500
 3268.0000  -999.2500  -999.2500  -999.2500  -999.2500  1085.5846  -999.2500  -999.2500   554.4860  -999.2500  -999.2500  -999.2500
 3268.5000  -999.2500  -999.2500  -999.2500  -999.2500  1098.8203  -999.2500  -999.2500   602.0958  -999.2500  -999.2500  -999.2500
 3269.0000  -999.2500  -999.2500  -999.2500  -999.2500  1110.8091  -999.2500  -999.2500   633.0668  -999.2500  -999.2500  -999.2500
 3269.5000  -999.2500  -999.2500  -999.2500  -999.2500  1123.4219  -999.2500  -999.2500   633.9129  -999.2500  -999.2500  -999.2500
