~VERSION INFORMATION
 VERS.                2.0:   CWLS LOG ASCII STANDARD - VERSION 2.0
 WRAP.                 NO:   ONE LINE PER DEPTH STEP
~WELL INFORMATION
#MNEM.UNIT      DATA TYPE    INFORMATION
#----------   ------------   ------------------------------
 STRT.F            0.0000:   START DEPTH
 STOP.F         4134.5000:   STOP DEPTH
 STEP.F            0.5000:   STEP LENGTH
 NULL.          -999.2500:   NO VALUE
 COMP. LAWRENCE ALLISON & ASSOCIATES:   COMPANY
 WELL. LAWRENCE NPR 3 "X" #72-10:   WELL
 FLD .            WILDCAT:   FIELD
 LOC .      S10 T38N R78W:   LOCATION
 CNTY.            NATRONA:   COUNTY
 STAT.            WYOMING:   STATE
 CTRY. UNITED STATES OF AMERICA:   COUNTRY
 SRVC.      DRESSER ATLAS:   SERVICE COMPANY
 DATE.        29-JUL-1983:   LOGDATE
 API .     49025109390000:   API NUMBER
~CURVE INFORMATION
#MNEM.UNIT       API CODE    CURVE DESCRIPTION
#----------   ------------   ------------------------------
 DEPT.F                  :   
 CALD.IN     45 280 60 00:   CALIPER FROM DENSITY LOG
 DEN .G/C3   45 350 01 00:   BULK DENSITY
 CORR.G/C3   45 356 01 00:   DENSITY CORRECTION
 TEND.LBS    45 635 01 00:   TENSION FROM DENSITY LOG
 NPHI.DEC    42 890 03 00:   NEUTRON POROSITY SANDSTONE
 GRD .GAPI   45 310 01 00:   GAMMA RAY FROM DENSITY LOG
 SPR .MV     07 010 01 00:   SPONTANEOUS POTENTIAL
 RILD.OHMM   07 120 46 00:   DEEP INDUCTION RESISTIVITY
 RILM.OHMM   07 120 44 00:   INDUCTION LOG MEDIUM RESISTIVITY
 RFOC.OHMM   07 220 04 00:   RESISTIVITY FOCUSED LOG RES.
 TENR.LBS    07 635 01 00:   TENSION FROM RESISTIVITY
 AC  .US/F   60 250 00 00:   ACCOUSTIC
 TENS.LBS    60 635 01 00:   TENSION FROM SONIC
 GRR .GAPI   07 310 01 00:   GAMMA RAY FROM RESISTIVITY
~PARAMETER INFORMATION
#MNEM.UNIT          VALUE    DESCRIPTION
#----------   ------------   ------------------------------
 EKB .F         5182.0000:   Kelly bushing
 EGL .F         5172.0000:   Ground level
 EDF .F            0.0000:   Drilling floor
 TD  .F         4139.0000:   Total depth
 DATE.        29-JUL-1983:   Date logged
 CLNT.            A2DTECH:   Client Code
 SL  . 900' FNL & 900' FEL:   Surface Location
 PD  .                 GL:   Permanent Datum
 EPD .F              5172:   Elevation Permanent Datum
 LMF .                 KB:   Log Measured From
 DMF .                 KB:   Drilling Measured From
 DAPD.F                10:   Feet Above Permanent Datum
 DD  .F              4139:   Depth driller
 DL  .F              4134:   Depth logger
 BLI .F              4132:   Bottom log interval
 CS1 .IN            9.625:   Casing size
 CBD1.      9.625" @ 476':   Casing driller 1
 BS1 .IN            7.875:   Bit size
 BSD1.F              4139:   Depth drilled with bit1
 DFT .               LSND:   Type fluid in hole
 DFD .                6.6:   Density
 DFV .                 41:   Viscosity
 DFPH.                8.5:   pH
 DFL .                 10:   Fluid loss
 MSS .           FLOWLINE:   Source of sample
 RMS .OHMM            .27:   Rm
 MST .F                91:   Rm Meas. temp.
 RMF .OHMM            .19:   Rmf
 MFST.F                87:   Rmf Meas. temp.
 RMC .OHMM            .34:   Rmc
 MCST.F                87:   Rmc Meas. temp.
 MFSS.               MEAS:   Source Rmf.
 MCSS.               CALC:   Source Rmc.
 RMB .OHMM            .19:   Rm. at BHT
 BHT .F               130:   BHT.
 TCS .HRS               3:   Time Circ. stopped
 MRT .F               130:   Maximum recorded temp.
 LUN .               6274:   Logging unit number
 LUL .               GLTF:   Logging unit location
 ENGI.             RAUTIC:   Recorded By
 WITN.             STRONG:   Witnessed by
 ORIG.           5" PRINT:   Origin of data
 UWI .     49025109390000:   Unique Well ID
 DICO. A2D TECHNOLOGIES, INC.:   Digitizing Company
~OTHER INFORMATION
~A    DEPT    CALD        DEN       CORR       TEND       NPHI        GRD        SPR       RILD       RILM       RFOC       TENR         AC       TENS         GRR  
# ...
  955.5000     9.2950     2.5210     0.0270   -48.8180     0.2610    94.7190   -53.9040    10.1710     9.7200    10.1740   -72.8540  -999.2500  -999.2500    92.8340
  956.0000     9.2960     2.5180     0.0370   -48.8890     0.2610    97.4190   -53.7130    10.6660     9.7100    10.1600   -72.8540  -999.2500  -999.2500    93.2140
  956.5000     9.2980     2.5100     0.0330   -48.9590     0.2560    98.1910   -53.5920    10.7540     9.6860    10.1450   -72.8540  -999.2500  -999.2500    89.3710
  957.0000     9.2990     2.5050     0.0180   -49.0300     0.2510    97.9030   -53.4670    10.7540     9.6630    10.1310   -72.8540  -999.2500  -999.2500    85.7910
  957.5000     9.3000     2.5030     0.0200   -49.1000     0.2480    95.7060   -53.3420    10.7850     9.6390    10.1170   -72.8540  -999.2500  -999.2500    85.4450
  958.0000     9.3020     2.5060     0.0260   -49.1710     0.2480    92.2740   -53.2170    10.8140     9.6310    10.1030   -72.8540  -999.2500  -999.2500    86.5950
  958.5000     9.3030     2.5140     0.0370   -49.2420     0.2520    89.5500   -53.0920    10.8440     9.7770    10.0840   -72.8540  -999.2500  -999.2500    87.7590
  959.0000     9.3150     2.5210     0.0490   -49.3120     0.2570    91.0620   -52.9660    10.8530     9.8940    10.1190   -72.8540  -999.2500  -999.2500    87.0030
  959.5000     9.3320     2.5280     0.0600   -49.3830     0.2620    95.1250   -52.8410    10.9540    10.0100    10.1940   -72.8540  -999.2500  -999.2500    85.2470
  960.0000     9.3410     2.5260     0.0720   -49.4530     0.2610    96.6390   -52.7160    11.0390    10.1270    10.2690   -72.8540  -999.2500  -999.2500    83.4880
  960.5000     9.3360     2.5210     0.0730   -49.5240     0.2570    95.8050   -52.5870    11.1180    10.2430    10.3660   -72.8540  -999.2500  -999.2500    82.2090
  961.0000     9.3310     2.5150     0.0690   -49.5940     0.2560    94.8190   -52.5980    11.1570    10.3600    10.3290   -72.8540  -999.2500  -999.2500    82.6640
  961.5000     9.3250     2.5120     0.0710   -49.6650     0.2560    93.7860   -52.6970    11.1570    10.4610    10.2780   -72.8540  -999.2500  -999.2500    85.0430
  962.0000     9.3200     2.5090     0.0750   -49.7360     0.2510    94.4730   -52.7980    11.1570    10.3590    10.2270   -72.8540  -999.2500  -999.2500    88.5600
  962.5000     9.3150     2.5060     0.0620   -49.8060     0.2430    96.0420   -52.8950    11.1570    10.2200    10.1760   -72.8540  -999.2500  -999.2500    92.7290
  963.0000     9.3100     2.5030     0.0430   -49.8770     0.2440    97.6240   -52.9260    11.0550    10.0800    10.1250   -72.8540  -999.2500  -999.2500    91.8370
  963.5000     9.3040     2.4990     0.0380   -49.9470     0.2420    99.2180   -53.1450    11.0550     9.9880    10.0740   -72.8540  -999.2500  -999.2500    90.5990
  964.0000     9.3040     2.4980     0.0500   -50.0180     0.2410   100.7800   -53.1900    11.0550     9.9670    10.0230   -72.8540  -999.2500  -999.2500    90.4350
  964.5000     9.3040     2.4970     0.0440   -50.0880     0.2490   100.4790   -53.2470    10.9250     9.9460     9.9720   -72.8540  -999.2500  -999.2500    91.7370
  965.0000     9.3040     2.4970     0.0360   -50.1590     0.2650    97.5820   -53.3000    10.8890     9.9250     9.9210   -72.8540  -999.2500  -999.2500    91.6600
  965.5000     9.3040     2.4970     0.0280   -50.2290     0.2770    92.1490   -53.3520    10.8530     9.9040     9.8700   -72.8540  -999.2500  -999.2500    87.7470
  966.0000     9.3040     2.5000     0.0240   -50.3000     0.2730    86.7300   -53.4050    10.7540     9.8100     9.8190   -72.8540  -999.2500  -999.2500    84.2390
  966.5000     9.3040     2.5030     0.0440   -50.3710     0.2690    84.7780   -53.4580    10.6560     9.9030     9.7610   -72.8540  -999.2500  -999.2500    82.2600
  967.0000     9.3040     2.5070     0.0640   -50.4410     0.2670    90.4130   -53.5090    10.5580    10.0160     9.7030   -72.5220  -999.2500  -999.2500    80.9740
  967.5000     9.3040     2.5120     0.0640   -50.5120     0.2620    94.7580   -53.5380    10.4610    10.1300     9.6440   -71.1220  -999.2500  -999.2500    81.3680
  968.0000     9.3040     2.5170     0.0600   -50.5820     0.2500    99.2150   -53.5810    10.4610    10.2430     9.5860   -69.7220  -999.2500  -999.2500    83.5770
  968.5000     9.3040     2.5200     0.0560   -50.6530     0.2520    98.5420   -53.7350    10.4610    10.3570     9.5430   -68.3220  -999.2500  -999.2500    85.7010
  969.0000     9.3040     2.5200     0.0590   -50.7230     0.2570    97.5090   -53.8190    10.5580    10.4610     9.6310   -67.8640  -999.2500  -999.2500    85.7580
  969.5000     9.3040     2.5200     0.0630   -50.7940     0.2610    97.5870   -53.9170    10.5590    10.3540     9.8090   -67.8640  -999.2500  -999.2500    85.9080
  970.0000     9.3040     2.5190     0.0600   -50.8650     0.2580    97.8440   -54.1420    10.5580    10.3380     9.9920   -67.8640  -999.2500  -999.2500    90.3000
  970.5000     9.3040     2.5180     0.0570   -50.9350     0.2540    97.7410   -54.1480    10.5200    10.3210     9.9920   -67.8640  -999.2500  -999.2500    89.9000
  971.0000     9.3040     2.5160     0.0530   -51.0060     0.2500    94.4830   -53.7800    10.4620    10.3050     9.9320   -65.3140  -999.2500  -999.2500    86.8570
  971.5000     9.3040     2.5100     0.0500   -51.0760     0.2480    91.3750   -53.8030    10.4480    10.2880     9.8780   -62.5140  -999.2500  -999.2500    84.5330
  972.0000     9.3040     2.5050     0.0500   -51.1470     0.2500    92.6520   -53.9460    10.4340    10.2720     9.8230   -59.7140  -999.2500  -999.2500    84.7440
  972.5000     9.3040     2.5080     0.0510   -51.2170     0.2580    96.0800   -54.0910    10.4200    10.2550     9.8100   -58.0190  -999.2500  -999.2500    84.8940
  973.0000     9.3040     2.5100     0.0520   -51.2880     0.2630    99.4980   -54.2340    10.4060    10.2390     9.7860   -58.4060  -999.2500  -999.2500    85.1440
  973.5000     9.3040     2.5120     0.0530   -51.3590     0.2620   100.9080   -54.3770    10.3920    10.2220     9.6380   -58.7940  -999.2500  -999.2500    85.9020
  974.0000     9.3040     2.5140     0.0530   -51.4290     0.2570    98.9060   -54.5200    10.3770    10.2050     9.4910   -59.1820  -999.2500  -999.2500    86.5030
  974.5000     9.3040     2.5130     0.0490   -51.5000     0.2550    96.7560   -54.6630    10.3360    10.1890     9.3430   -59.5690  -999.2500  -999.2500    85.2820
  975.0000     9.3040     2.5110     0.0440   -51.5700     0.2570    96.2040   -54.8060    10.1770    10.1720     9.1980   -59.9570  -999.2500  -999.2500    84.9930
  975.5000     9.3040     2.5080     0.0400   -51.6410     0.2600    98.1600   -54.9480    10.0840    10.1560     9.1980   -60.3450  -999.2500  -999.2500    88.0380
  976.0000     9.3040     2.5060     0.0360   -51.7110     0.2600   101.2540   -55.0980     9.9660    10.1390     9.1980   -60.7320  -999.2500  -999.2500    89.9730
  976.5000     9.3040     2.5050     0.0330   -51.7820     0.2540   104.5190   -55.1520     9.9050    10.1230     9.2170   -61.1200  -999.2500  -999.2500    90.4850
  977.0000     9.3040     2.5040     0.0300   -51.8520     0.2470   106.7420   -54.9030     9.8440    10.1060     9.2360   -61.5080  -999.2500  -999.2500    90.9380
  977.5000     9.3040     2.5090     0.0350   -51.9230     0.2500   108.3920   -54.8470     9.8100    10.0900     9.2550   -61.8950  -999.2500  -999.2500    91.7220
  978.0000     9.3040     2.5160     0.0400   -51.9940     0.2570   108.4100   -54.7850     9.8380    10.0840     9.2830   -62.2830  -999.2500  -999.2500    91.8130
  978.5000     9.3040     2.5240     0.0450   -52.0640     0.2650   104.4170   -54.7600     9.8610     9.9920     9.2310   -62.6710  -999.2500  -999.2500    91.2970
  979.0000     9.3040     2.5320     0.0630   -52.1350     0.2630   100.4040   -54.9420     9.8840     9.8450     9.1180   -63.4730  -999.2500  -999.2500    91.7340
  979.5000     9.3040     2.5330     0.0750   -52.2050     0.2590    99.6160   -55.1220     9.9000     9.7200     8.9480   -64.7330  -999.2500  -999.2500    93.6450
