~VERSION INFORMATION
 VERS.                2.0:   CWLS LOG ASCII STANDARD - VERSION 2.0
 WRAP.                 NO:   ONE LINE PER DEPTH STEP
~WELL INFORMATION
#MNEM.UNIT      DATA TYPE    INFORMATION
#----------   ------------   ------------------------------
 STRT.F           54.0000:   START DEPTH
 STOP.F         5201.0000:   STOP DEPTH
 STEP.F            0.5000:   STEP LENGTH
 NULL.          -999.2500:   NO VALUE
 COMP.   TESORO PETROLEUM:   COMPANY
 WELL. TESORO DX NPR-3 #51-26:   WELL
 FLD .        TEAPOT DOME:   FIELD
 LOC .      S26 T38N R78W:   LOCATION
 CNTY.            NATRONA:   COUNTY
 STAT.            WYOMING:   STATE
 CTRY. UNITED STATES OF AMERICA:   COUNTRY
 SRVC.      DRESSER ATLAS:   SERVICE COMPANY
 DATE.        27-AUG-1976:   LOGDATE
 API .     49025102680000:   API NUMBER
~CURVE INFORMATION
#MNEM.UNIT       API CODE    CURVE DESCRIPTION
#----------   ------------   ------------------------------
 DEPT.F                  :   
 GRD .GAPI   45 310 01 00:   GAMMA RAY FROM DENSITY LOG
 CALD.IN     45 280 60 00:   CALIPER FROM DENSITY LOG
 CORR.G/C3   45 356 01 00:   DENSITY CORRECTION
 RHOB.G/C3   45 350 01 00:   BULK DENSITY
 SPR .MV     07 010 01 00:   SPONTANEOUS POTENTIAL
 ILD .OHMM   07 120 46 00:   DEEP INDUCTION RESISTIVITY
 ILM .OHMM   07 120 44 00:   INDUCTION LOG MEDIUM RESISTIVITY
 RFOC.OHMM   07 220 04 00:   RESISTIVITY FOCUSED LOG RES.
 TEND.LBS    45 635 01 00:   TENSION FORM DENSITY LOG
 NPHI.DEC    42 890 03 00:   NEUTRON POROSITY SANDSTONE
~PARAMETER INFORMATION
#MNEM.UNIT          VALUE    DESCRIPTION
#----------   ------------   ------------------------------
 EKB .F         5453.5000:   Kelly bushing
 EGL .F         5442.0000:   Ground level
 EDF .F         5452.0000:   Drilling floor
 EPD .F            0.0000:   Permanent datum
 TD  .F         5193.0000:   Total depth
 CLNT.            A2DTECH:   Client Code
 SL  . 2000' FEL & 600' FNL:   Surface Location
 PD  .                 GL:   Permanent Datum
 DAPD.F              11.5:   Feet Above Permanent Datum
 DATE.        27-AUG-1976:   Date Logged [DD-MMM-YYYY]
 DD  .F              5193:   Depth driller
 DL  .F              5193:   Depth logger
 BLI .F              5191:   Bottom log interval
 TLI .F              1726:   Top log interval
 CS1 .IN            8.625:   Casing size
 CBD1.     8.625" @ 1724':   Casing driller 1
 CBL1.F              1726:   Casing logger 1
 BS1 .IN            7.875:   Bit size
 BSD1.F              5193:   Depth drilled with bit1
 DFT .           CHEM GEL:   Type fluid in hole
 DFD .                9.2:   Density
 DFV .                 65:   Viscosity
 DFPH.                 10:   pH
 DFL .                5.8:   Fluid loss
 MSS .           FLOWLINE:   Source of sample
 RMS .OHMM           1.70:   Rm
 MST .F                71:   Rm Meas. temp.
 RMF .OHMM              1:   Rmf
 MFST.F                68:   Rmf Meas. temp.
 MFSS.               MEAS:   Source Rmf.
 RMC .OHMM           1.30:   Rmc
 MCST.F                66:   Rmc Meas. temp.
 MCSS.               MEAS:   Source Rmc.
 RMB .OHMM           0.85:   Rm. at BHT
 BHT .F               142:   BHT.
 TCS .HRS               6:   Time Circ. stopped
 MRT .F               142:   Maximum recorded temp.
 LUN .               6145:   Logging unit number
 LUL .              GLTTE:   Logging unit location
 ENGI.        GOULD-HOYER:   Recorded By
 WITN.        WOLF-CARTER:   Witnessed by
 ORIG.           5" PRINT:   Origin of data
 UWI .     49025102680000:   Unique Well ID
 DICO. A2D TECHNOLOGIES, INC.:   Digitizing Company
~OTHER INFORMATION
~A   DEPT      GRD       CALD       CORR       RHOB        SPR         ILD        ILM      RFOC       TEND       NPHI   
# ...
 2868.0000   106.7716     8.4329     0.0246     2.5490   -34.4141     5.0313     5.4708     6.6538   102.3739     0.2464
 2868.5000   104.6721     8.4353     0.0308     2.5596   -34.3849     5.0360     5.4367     6.7979   101.4998     0.2557
 2869.0000   104.4631     8.4526     0.0232     2.5665   -34.2128     5.0758     5.4031     6.8488   100.6258     0.2536
 2869.5000   107.1397     8.4550     0.0131     2.5726   -34.0408     5.0806     5.3685     6.4870    92.2554     0.2529
 2870.0000   105.9854     8.4425     0.0057     2.5749   -33.8687     5.0491     5.2537     6.3577    83.8851     0.2557
 2870.5000   104.8212     8.4452     0.0150     2.5833   -33.5476     5.0551     5.1233     6.2332    83.0110     0.2628
 2871.0000   106.7813     8.4326     0.0196     2.5747   -33.3694     4.9902     5.0915     6.0680    82.1370     0.2652
 2871.5000   108.9704     8.4349     0.0228     2.5662   -33.0489     4.9867     5.1311     6.0725    81.2594     0.2712
 2872.0000   111.3982     8.4373     0.0137     2.5595   -32.8768     4.9654     5.1701     6.2070    80.3598     0.2754
 2872.5000   108.0555     8.4396     0.0051     2.5476   -32.7047     4.9889     5.2094     6.3461    79.2964     0.2699
 2873.0000   106.1861     8.4419     0.0174     2.5462   -32.6815     5.0104     5.2490     6.4326    78.4224     0.2783
 2873.5000   105.0797     8.4443     0.0265     2.5786   -32.8070     5.0875     5.2889     6.3919    77.5483     0.2834
 2874.0000   105.1195     8.4167     0.0057     2.5915   -32.9383     5.1245     5.3236     6.4421    76.6742     0.2783
 2874.5000   107.5374     8.4191     0.0013     2.5848   -33.2127     5.1657     5.3927     6.5364    75.8001     0.2689
 2875.0000   106.6318     8.4066     0.0000     2.5841   -33.2465     5.2064     5.4618     6.5866    74.9261     0.2604
 2875.5000   106.9104     8.4094     0.0017     2.5775   -33.3095     5.2476     5.5279     6.6371    74.0520     0.2540
 2876.0000   109.0994     8.4118     0.0049     2.5633   -33.7322     5.2888     5.5316     6.6880    73.1634     0.2510
 2876.5000   111.0496     8.3986     0.0066     2.5815   -34.1554     5.2940     5.6122     6.7393    72.0855     0.2552
 2877.0000   113.2387     8.4015     0.0098     2.5726   -34.4430     5.3359     5.6940     6.7443    71.2115     0.2615
 2877.5000   114.7504     8.4188     0.0160     2.5328   -34.5552     5.3411     5.6985     6.7495    70.3374     0.2614
 2878.0000   112.1242     8.4211     0.0222     2.5126   -34.3773     5.3843     5.8210     6.8494    69.4633     0.2527
 2878.5000   110.2152     8.4235     0.0284     2.5074   -34.0564     5.4268     5.9068     6.9497    68.5892     0.2541
 2879.0000   108.5434     8.4257     0.0376     2.5158   -33.8869     5.4696     5.9516     7.0515    82.7077     0.2601
 2879.5000   107.7062     8.4212     0.0529     2.5430   -33.6824     5.5511     5.9969     7.1547   104.3224     0.2631
 2880.0000   108.2335     8.4155     0.0139     2.5694   -33.3913     5.5949     6.0009     7.2096   110.9445     0.2582
 2880.5000   109.7061     8.4179    -0.0041     2.5770   -33.2192     5.5999     5.9637     7.2149   110.0450     0.2507
 2881.0000   109.9747     8.4203    -0.0069     2.5756   -33.0471     5.6055     5.8052     7.1705   101.4818     0.2473
 2881.5000   109.7757     8.4227    -0.0067     2.5659   -32.7256     5.5721     5.7294     7.0289    93.1115     0.2497
 2882.0000   112.2035     8.4255    -0.0035     2.5540   -32.2560     5.5775     5.6160     6.8397    92.2374     0.2490
 2882.5000   106.7607     8.4278    -0.0033     2.5546   -32.0786     5.5829     5.6198     6.7463    91.3633     0.2418
 2883.0000   105.6048     8.4299    -0.0076     2.5724   -32.2099     5.5112     5.6237     6.7125    90.4893     0.2376
 2883.5000   105.8850     8.4323    -0.0150     2.5633   -32.1808     5.4043     5.6282     6.7187    89.6152     0.2333
 2884.0000   107.5964     8.4199    -0.0179     2.5559   -32.3122     5.3351     5.6320     6.7236    88.7411     0.2297
 2884.5000   106.4422     8.3997    -0.0192     2.5552   -32.5807     5.3020     5.5961     6.7286    87.8561     0.2435
 2885.0000   106.7623     8.3797    -0.0145     2.5636   -33.0038     5.2713     5.6008     6.7336    86.9565     0.2609
 2885.5000   109.6361     8.3821    -0.0082     2.5749   -33.1352     5.2029     5.6046     6.7386    85.9002     0.2663
 2886.0000   111.5863     8.3845    -0.0005     2.5886   -33.2607     5.2091     5.6472     6.7436    85.0265     0.2606
 2886.5000   110.8997     8.3868     0.0012     2.5969   -33.5292     5.2140     5.6901     6.7953    84.1525     0.2518
 2887.0000   110.7057     8.3892     0.0013     2.6023   -33.5059     5.2553     5.7334     6.8506    83.2784     0.2524
 2887.5000   110.9892     8.3921     0.0060     2.6076   -33.4821     5.3030     5.7373     6.9479    74.9081     0.2535
 2888.0000   112.2230     8.3899     0.0107     2.6175   -33.4583     5.3768     5.7420     7.0023    74.0340     0.2487
 2888.5000   112.7305     8.3815    -0.0012     2.6136   -33.2814     5.3819     5.7459     7.0075    73.1599     0.2511
 2889.0000   111.8249     8.3839    -0.0070     2.5855   -33.1131     5.3870     5.7498     7.0126    72.2639     0.2540
 2889.5000   109.9543     8.3715    -0.0173     2.5592   -32.9372     5.3921     5.7536     6.9217    63.8426     0.2621
 2890.0000   108.8000     8.3589    -0.0187     2.5548   -32.6163     5.3587     5.7575     6.8306    77.9610     0.2486
 2890.5000   109.3174     8.3613    -0.0125     2.5631   -32.4442     5.3268     5.7614     6.6969    85.4325     0.2446
 2891.0000   107.8864     8.3486    -0.0093     2.5708   -32.2721     5.3331     5.7653     6.6098    98.7016     0.2501
 2891.5000   108.4516     8.3510    -0.0061     2.5731   -32.2489     5.3752     5.7691     6.6149    37.8575     0.2569
 2892.0000   112.3123     8.3534    -0.0119     2.5679   -32.0768     5.3804     5.7329     6.7614   149.4272     0.2529
 2892.5000   112.8197     8.3558    -0.0177     2.5650   -32.0535     5.3856     5.5767     6.8654    80.8686     0.2451
 2893.0000   109.2874     8.3581    -0.0236     2.5599   -31.8810     5.3546     5.4337     7.0071    57.7241     0.2399
 2893.5000   107.1779     8.3610    -0.0250     2.5585   -31.8581     5.3420     5.4373     7.0608   176.5717     0.2408
 2894.0000   104.1132     8.3484    -0.0142     2.5608   -31.9836     5.3264     5.4027     6.9213   123.2239     0.2441
 2894.5000   102.9490     8.3352    -0.0050     2.5677   -31.9545     5.3327     5.4447     6.5545   107.3463     0.2483
 2895.0000   102.9987     8.3232    -0.0016     2.5646   -32.2288     5.3378     5.4483     6.2501   106.4468     0.2533
 2895.5000   103.0384     8.3255     0.0044     2.5604   -32.3961     5.3425     5.4520     6.2980   105.3904     0.2500
 2896.0000   100.6901     8.3278     0.0106     2.5589   -32.6345     5.3584     5.5092     6.7065    97.0205     0.2461
 2896.5000    98.3036     8.3302     0.0078     2.5574   -32.7600     5.3901     5.5352     6.8992    96.1465     0.2505
 2897.0000    96.9109     8.3325     0.0019     2.5544   -32.8856     5.4353     5.6177     6.9044    80.2799     0.2442
 2897.5000   104.4015     8.3349    -0.0009     2.5390   -33.0053     5.4758     5.7770     6.9097    79.4058     0.2396
 2898.0000   109.9338     8.3372     0.0023     2.5173   -32.8332     5.5584     5.9435     6.9637    78.5317     0.2366
 2898.5000   113.3069     8.3396     0.0055     2.4978   -32.8095     5.6412     6.0719     7.2135    77.6577     0.2471
 2899.0000   109.7798     8.3420     0.0147     2.4867   -32.7857     5.7252     6.1604     7.5760    76.7616     0.2540
 2899.5000   107.4287     8.3448     0.0300     2.4965   -32.6087     5.7307     6.2935     7.7402    75.6908     0.2488
 2900.0000   104.1225     8.3472     0.0211     2.5560   -32.2878     5.6965     6.2104     7.1037    74.9625     0.2355
 2900.5000   101.5327     8.3495     0.0032     2.5688   -31.9669     5.6612     6.0048     6.9897    73.9426     0.2340
 2901.0000   100.3365     8.3368     0.0019     2.5750   -31.6460     5.6679     5.8051     7.0440    73.0685     0.2412
