~VERSION INFORMATION
 VERS.                2.0:   CWLS LOG ASCII STANDARD - VERSION 2.0
 WRAP.                 NO:   ONE LINE PER DEPTH STEP
~WELL INFORMATION
#MNEM.UNIT      DATA TYPE    INFORMATION
#----------   ------------   ------------------------------
 STRT.F          176.0000:   START DEPTH
 STOP.F         3400.0000:   STOP DEPTH
 STEP.F            0.5000:   STEP LENGTH
 NULL.          -999.2500:   NO VALUE
 COMP.    PENIX & SCISSON:   COMPANY
 WELL. FENIX NPR 3 "AX" #64-4:   WELL
 FLD .                NPR:   FIELD
 LOC .       S4 T38N R78W:   LOCATION
 CNTY.            NATRONA:   COUNTY
 STAT.            WYOMING:   STATE
 CTRY. UNITED STATES OF AMERICA:   COUNTRY
 SRVC.       SCHLUMBERGER:   SERVICE COMPANY
 DATE.        25-JAN-1981:   LOGDATE
 API .     49025108640000:   API NUMBER
~CURVE INFORMATION
#MNEM.UNIT       API CODE    CURVE DESCRIPTION
#----------   ------------   ------------------------------
 DEPT.F                  :   
 SPR .MV     07 010 01 00:   SPONTANEOUS POTENTIAL
 RFOC.OHMM   07 220 01 00:   RESISTIVITY FOCUSED LOG RES.
 ILD .OHMM   07 120 46 00:   DEEP INDUCTION RESISTIVITY
 TENR.LBS    07 635 01 00:   TENSION
 ILM .OHMM   07 120 44 00:   INDUCTION LOG MEDIUM RESISTIVITY
 GRD .GAPI   45 310 01 00:   GAMMA RAY FROM DENSITY LOG
 CALD.IN     45 280 60 00:   CALIPER FROM DENSITY LOG
 RHOB.G/C3   45 350 01 00:   BULK DENSITY
 TEND.LBS    45 635 01 00:   TENSION FROM DENSITY LOG
 CORR.G/C3   45 356 01 00:   DENSITY CORRECTION
~PARAMETER INFORMATION
#MNEM.UNIT          VALUE    DESCRIPTION
#----------   ------------   ------------------------------
 EKB .F         5257.0000:   Kelly bushing
 EGL .F         5247.0000:   Ground level
 EDF .F            0.0000:   Drilling floor
 TD  .F         3388.0000:   Total depth
 DATE.        25-JAN-1981:   Date logged
 CLNT.            A2DTECH:   Client Code
 SL  . 2289' FNL & 1495' FEL:   Surface Location
 PD  .                 GL:   Permanent Datum
 EPD .F              5247:   Elevation Permanent Datum
 LMF .                 KB:   Log Measured From
 DMF .                 KB:   Drilling Measured From
 DAPD.F                10:   Feet Above Permanent Datum
 DD  .F              3388:   Depth driller
 DL  .F              3386:   Depth logger
 BLI .F              3380:   Bottom log interval
 TLI .F               192:   Top log interval
 CS1 .IN            8.625:   Casing size
 CBD1.      8.625" @ 191':   Casing driller 1
 CBL1.F               192:   Casing logger 1
 BS1 .IN            7.875:   Bit size
 BSD1.F              3388:   Depth drilled with bit1
 DFT .                FGM:   Type fluid in hole
 DFD .                8.7:   Density
 DFV .                 32:   Viscosity
 DFPH.                9.5:   pH
 DFL .                 18:   Fluid loss
 MSS .           FLOWLINE:   Source of sample
 RMS .OHMM           1.60:   Rm
 MST .F                60:   Rm Meas. temp.
 RMF .OHMM           1.33:   Rmf
 MFST.F                60:   Rmf Meas. temp.
 MFSS.               MEAS:   Source Rmf.
 RMB .OHMM            .83:   Rm. at BHT
 BHT .F               115:   BHT.
 TCS .HRS            1700:   Time Circ. stopped
 TLAB.HRS            2200:   Time logger at bottom
 MRT .F               115:   Maximum recorded temp.
 LUN .               8039:   Logging unit number
 LUL .               CSPR:   Logging unit location
 ENGI.           C. PFARR:   Recorded By
 WITN.           L. FIVAS:   Witnessed by
 ORIG.           5" PRINT:   Origin of data
 UWI .     49025108640000:   Unique Well ID
 DICO. A2D TECHNOLOGIES, INC.:   Digitizing Company
~OTHER INFORMATION
~A   DEPT      SPR       RFOC        ILD       TENR        ILM         GRD      CALD         RHOB      TEND      CORR   
# ...
 1884.5000   -14.5310     9.1360     7.5810   749.8350     7.6070   106.0620     8.9820     2.5700   976.0960     0.0840
 1885.0000   -14.4770     8.7120     7.5480   749.4520     7.5030   106.2620     8.9840     2.5710   976.0960     0.0730
 1885.5000   -14.4230     8.3370     7.5160   749.0700     7.4000   106.8160     8.9860     2.5530   976.0960     0.0550
 1886.0000   -14.3690     8.1850     7.4640   748.6880     7.3290   108.1820     8.9890     2.5440   976.0960     0.0350
 1886.5000   -14.3150     8.2810     7.4680   748.3060     7.4130   109.7310     8.9910     2.5450   976.0960     0.0330
 1887.0000   -14.2600     8.4680     7.5700   747.9240     7.5060   109.9900     8.9930     2.5360   976.0960     0.0390
 1887.5000   -14.2060     8.6550     7.6640   747.5410     7.5990   108.3760     8.9950     2.5270   976.0960     0.0440
 1888.0000   -14.1520     8.8420     7.7580   747.1590     7.6910   107.7230     8.9970     2.5350   976.0960     0.0580
 1888.5000   -14.0970     9.0290     7.8530   746.7770     7.7840   108.8960     9.0010     2.5560   976.0960     0.0830
 1889.0000   -14.0440     9.3120     7.9470   746.3950     7.8770   110.6490     9.0040     2.5750   976.0960     0.0910
 1889.5000   -13.9900     9.2860     8.0420   746.0120     7.9690   110.6740     9.0070     2.5690   976.0960     0.0790
 1890.0000   -14.0190     9.2340     8.1850   745.6300     8.0190   108.5780     9.0100     2.5630   976.0960     0.0620
 1890.5000   -14.0780     9.1810     8.1560   745.2480     7.9590   106.2160     9.0130     2.5790   976.0960     0.0690
 1891.0000   -14.1360     9.1290     8.0950   744.8660     7.8990   103.6670     9.0170     2.6020   976.0960     0.0910
 1891.5000   -14.1920     9.0770     8.0340   744.4840     7.8400   105.2770     9.0200     2.5980   976.0960     0.1030
 1892.0000   -14.2500     9.0240     7.9730   744.1010     7.7800   109.1220     9.0230     2.5870   976.0960     0.0950
 1892.5000   -14.3080     8.9750     7.9130   743.7190     7.7200   112.7090     9.0260     2.5770   976.0960     0.0830
 1893.0000   -14.3650     8.8330     7.8520   743.3370     7.6600   115.0320     9.0300     2.5820   976.0960     0.0900
 1893.5000   -14.4220     8.7000     7.7910   742.9550     7.6040   111.9590     9.0330     2.5990   976.0960     0.1050
 1894.0000   -14.4800     8.5660     7.7630   742.5720     7.6740   106.7640     9.0360     2.6190   976.0960     0.1250
 1894.5000   -14.5370     8.4920     7.8330   742.1900     7.7410   101.6930     9.0390     2.6060   976.0960     0.1160
 1895.0000   -14.5940     8.7410     7.9040   741.8080     7.8080   100.4510     9.0420     2.5880   976.0960     0.0880
 1895.5000   -14.6530     8.9800     7.9740   741.4260     7.8750   103.5110     9.0460     2.5840   976.0960     0.0650
 1896.0000   -14.7090     9.2180     8.0440   741.0430     7.9430   107.0980     9.0490     2.5810   976.0960     0.0660
 1896.5000   -14.7590     9.4560     8.1150   740.6610     8.0100   109.2000     9.0520     2.5750   976.0960     0.0630
 1897.0000   -14.7350     9.6950     8.1850   740.2790     8.0770   106.7410     9.0550     2.5710   976.0960     0.0580
 1897.5000   -14.7100    10.0240     8.2560   739.8970     8.1440   102.9980     9.0590     2.5730   976.0960     0.0520
 1898.0000   -14.6820     9.9050     8.3260   739.5150     8.2110   100.6690     9.0620     2.5780   976.0960     0.0500
 1898.5000   -14.6570     9.7130     8.3970   739.1320     8.2780   100.6750     9.0650     2.5820   976.0960     0.0500
 1899.0000   -14.6300     9.4850     8.4670   738.7500     8.3450   103.0070     9.0680     2.5820   976.0960     0.0490
 1899.5000   -14.6040     9.8410     8.5370   738.6050     8.4120   105.2690     9.0710     2.5820   976.0960     0.0450
 1900.0000   -14.5770    10.2100     8.6080   738.8060     8.4920   107.3860     9.0750     2.5810   976.0960     0.0410
 1900.5000   -14.5510    10.2100     8.6500   739.0070     8.4240   102.5250     9.0770     2.5840   976.0960     0.0370
 1901.0000   -14.5240    10.2100     8.5640   739.2080     8.3390   100.0080     9.0800     2.5830   976.0960     0.0330
 1901.5000   -14.4980    10.1600     8.4770   739.4090     8.2540   101.2250     9.0820     2.5780   976.0960     0.0290
 1902.0000   -14.4710    10.1180     8.3900   739.6110     8.1680   102.8060     9.0840     2.5780   976.0960     0.0280
 1902.5000   -14.4450    10.0750     8.3030   739.8120     8.0830   103.1320     9.0870     2.5830   976.0960     0.0310
 1903.0000   -14.4180    10.0330     8.2160   740.0130     7.9980   103.5450     9.0890     2.5880   976.0960     0.0330
 1903.5000   -14.3920     9.8680     8.1290   740.2140     7.9130   104.1670     9.0910     2.5880   976.0960     0.0360
 1904.0000   -14.3750     9.6660     8.0430   740.4160     7.8270   105.5520     9.0940     2.5810   976.0960     0.0400
 1904.5000   -14.4260     9.4650     7.9560   740.6170     7.7420   104.6840     9.0960     2.5740   976.0960     0.0450
 1905.0000   -14.4700     9.2640     7.8690   740.8180     7.6570   103.4160     9.0980     2.5730   976.0960     0.0570
 1905.5000   -14.5190     9.0630     7.7820   741.0190     7.5720   103.3630     9.1010     2.5760   976.0960     0.0690
 1906.0000   -14.5650     8.8610     7.6950   741.2210     7.4860   104.6580     9.1030     2.5980   976.0960     0.0820
 1906.5000   -14.6110     8.7880     7.6040   741.4220     7.3390   105.6230     9.1050     2.6170   976.0960     0.0880
 1907.0000   -14.6590     8.7570     7.3290   741.6230     7.1950   105.5340     9.1070     2.6170   976.0960     0.0780
 1907.5000   -14.7040     8.7260     7.3640   741.8240     7.3110   105.4500     9.1100     2.6020   976.0960     0.0700
 1908.0000   -14.7510     8.6960     7.4680   742.0250     7.4130   105.3260     9.1120     2.5890   976.0960     0.0620
 1908.5000   -14.7440     8.6500     7.5710   742.2270     7.5150   105.5200     9.1140     2.5740   976.0960     0.0540
 1909.0000   -14.7140     8.7190     7.6750   742.4280     7.6160   107.0960     9.1170     2.5710   976.0960     0.0530
 1909.5000   -14.6850     8.8490     7.7780   742.6290     7.7180   109.3310     9.1190     2.5820   976.0960     0.0550
 1910.0000   -14.6560     8.9790     7.8820   742.8300     7.8200   110.2990     9.1210     2.5910   976.0960     0.0490
 1910.5000   -14.6270     9.1090     7.9850   743.0320     7.8890   109.4690     9.1240     2.5980   976.0960     0.0430
 1911.0000   -14.5980     9.2390     8.0360   743.2330     7.7990   107.7190     9.1260     2.5950   976.0960     0.0430
 1911.5000   -14.5700     9.3690     7.9080   743.4340     7.6230   106.0930     9.1280     2.5910   976.0960     0.0450
 1912.0000   -14.5410     9.4850     7.7290   743.6350     7.4650   104.4920     9.1310     2.5770   976.0960     0.0470
 1912.5000   -14.5120     9.2040     7.6040   743.8370     7.4650   102.6740     9.1330     2.5560   976.0960     0.0480
 1913.0000   -14.4830     8.9750     7.6040   744.0380     7.4650   102.4530     9.1350     2.5600   976.0960     0.0570
 1913.5000   -14.4550     8.4700     7.6040   744.2390     7.4650   103.2040     9.1380     2.5680   976.0960     0.0600
 1914.0000   -14.4250     8.3370     7.6040   744.4400     7.4650   105.1060     9.1400     2.5630   976.0960     0.0550
 1914.5000   -14.3970     8.5670     7.6040   744.6410     7.4650   107.5930     9.1420     2.5600   976.0960     0.0490
 1915.0000   -14.3720     8.9000     7.6040   744.8430     7.4650   109.2290     9.1450     2.5650   976.0960     0.0500
 1915.5000   -14.3900     9.1320     7.6040   745.0440     7.4650   108.6040     9.1470     2.6140   976.0960     0.0610
 1916.0000   -14.4060     9.0980     7.6040   745.2450     7.4650   108.1820     9.1490     2.6360   976.0960     0.0720
 1916.5000   -14.4250     9.0630     7.6040   745.4460     7.4650   108.6700     9.1520     2.6210   976.0960     0.0770
 1917.0000   -14.4420     9.0280     7.6040   745.6480     7.4650   109.1880     9.1540     2.6040   976.0960     0.0680
 1917.5000   -14.4600     8.9750     7.6040   745.8490     7.4650   108.5310     9.1550     2.5880   976.0960     0.0590
