~VERSION INFORMATION
 VERS.                2.0:   CWLS LOG ASCII STANDARD - VERSION 2.0
 WRAP.                 NO:   ONE LINE PER DEPTH STEP
~WELL INFORMATION
#MNEM.UNIT      DATA TYPE    INFORMATION
#----------   ------------   ------------------------------
 STRT.F          204.0000:   START DEPTH
 STOP.F         3040.0000:   STOP DEPTH
 STEP.F            0.5000:   STEP LENGTH
 NULL.          -999.2500:   NO VALUE
 COMP.    FENIX & SCISSON:   COMPANY
 WELL.   FENIX "A" #47-21:   WELL
 FLD .            N P R 3:   FIELD
 LOC .      S21 T39N R78W:   LOCATION
 CNTY.            NATRONA:   COUNTY
 STAT.            WYOMING:   STATE
 CTRY. UNITED STATES OF AMERICA:   COUNTRY
 SRVC.              WELEX:   SERVICE COMPANY
 DATE.        20-JUN-1977:   LOGDATE
 API .     49025103820000:   API NUMBER
~CURVE INFORMATION
#MNEM.UNIT       API CODE    CURVE DESCRIPTION
#----------   ------------   ------------------------------
 DEPT.F                  :   
 SPR .MV     07 010 01 00:   SPONTANEOUS POTENTIAL
 ILM .OHMM   07 120 44 00:   INDUCTION LOG MEDIUM RESISTIVITY
 ILD .OHMM   07 120 46 00:   DEEP INDUCTION RESISTIVITY
 SGRD.OHMM   07 220 05 00:   SHALLOW GUARD LOG RESISTIVITY
 GRD .GAPI   45 310 01 00:   GAMMA RAY FROM DENSITY LOG
 CALD.IN     45 280 60 00:   CALIPER FROM DENSITY LOG
 RHOB.G/C3   45 350 01 00:   BULK DENSITY
 CORR.G/C3   45 356 01 00:   DENSITY CORRECTION
~PARAMETER INFORMATION
#MNEM.UNIT          VALUE    DESCRIPTION
#----------   ------------   ------------------------------
 EKB .F         5010.0000:   Kelly bushing
 EGL .F         5000.0000:   Ground level
 EDF .F            0.0000:   Drilling floor
 TD  .F         3050.0000:   Total depth
 DATE.        20-JUN-1977:   Date logged
 CLNT.            A2DTECH:   Client Code
 SL  . 990' FSL & 2310' FWL:   Surface Location
 PD  .                 GL:   Permanent Datum
 DD  .F              3050:   Depth driller
 DL  .F              3039:   Depth logger
 BLI .F              3037:   Bottom log interval
 CS1 .IN            8.625:   Casing size
 CBD1.      8.625" @ 210':   Casing driller 1
 CBL1.F               215:   Casing logger 1
 BS1 .IN            7.875:   Bit size
 DFT .                KCL:   Type fluid in hole
 DFD .                9.3:   Density
 DFV .                 35:   Viscosity
 DFPH.                7.5:   pH
 DFL .                7.2:   Fluid loss
 MSS .             MUDPIT:   Source of sample
 RMS .OHMM            .22:   Rm
 MST .F                80:   Rm Meas. temp.
 RMF .OHMM            .19:   Rmf
 MFST.F                80:   Rmf Meas. temp.
 RMC .OHMM            .35:   Rmc
 MCST.F                80:   Rmc Meas. temp.
 MFSS.               MEAS:   Source Rmf.
 RMB .OHMM            .15:   Rm. at BHT
 BHT .F               111:   BHT.
 TCS .HRS               4:   Time Circ. stopped
 MRT .F               111:   Maximum recorded temp.
 LUN .               8766:   Logging unit number
 LUL .             CAPSER:   Logging unit location
 ENGI.          T. JOYNER:   Recorded By
 WITN.         PETTINGILL:   Witnessed by
 ORIG.           5" PRINT:   Origin of data
 UWI .     49025103820000:   Unique Well ID
 DICO. A2D TECHNOLOGIES, INC.:   Digitizing Company
 DAPD.                 10:   Feet Above Permanent Datum
 BSD1.               3050:   Depth drilled with bit1
 MCSS.               MEAS:   Source Rmc.
 EPD .               5000:   Elevation Permanent Datum
 LMF .                 KB:   Log Measured From
 DMF .                 KB:   Drilling Measured From
 TLI .                215:   Top log interval
~OTHER INFORMATION
~A   DEPT      SPR        ILM        ILD       SGRD         GRD        CALD       RHOB      CORR  
# ...
 2067.0000   -65.0510     5.6810     5.3780     8.5810    89.7880    10.1370     2.4190     0.0070
 2067.5000   -64.5330     5.4380     5.2120     7.7970    88.6760    10.1410     2.4190     0.0070
 2068.0000   -64.5060     5.3160     5.0450     7.2580    87.5220    10.1460     2.4180     0.0070
 2068.5000   -64.6580     5.2480     4.8920     6.7920    87.0150    10.1510     2.4180     0.0070
 2069.0000   -64.8250     5.1810     4.8320     6.5190    87.8200    10.1540     2.4180     0.0070
 2069.5000   -64.3840     5.1130     4.7640     6.1530    88.4930    10.1550     2.4170     0.0070
 2070.0000   -63.8210     5.0460     4.6730     6.4220    89.2060    10.1720     2.4170     0.0070
 2070.5000   -63.2510     4.9820     4.6840     7.2210    89.9330    10.1870     2.4160     0.0070
 2071.0000   -62.6820     4.9950     4.7000     8.4870    90.1600    10.2040     2.4160     0.0070
 2071.5000   -62.1130     5.0080     4.7170     8.2370    89.9410    10.2200     2.4160     0.0070
 2072.0000   -61.5450     5.0200     4.7340     7.5150    89.7350    10.2320     2.4180     0.0070
 2072.5000   -61.0430     5.0320     4.7500     6.7300    89.3630    10.2360     2.4210     0.0070
 2073.0000   -60.9470     5.0450     4.7670     6.6820    90.2910    10.2440     2.4230     0.0080
 2073.5000   -60.8550     5.0570     4.7840     7.0080    92.0650    10.2530     2.4260     0.0080
 2074.0000   -60.7610     5.0700     4.8000     7.3240    93.4540    10.2590     2.4290     0.0080
 2074.5000   -60.6520     5.0820     4.8170     7.1780    94.1540    10.2690     2.4320     0.0080
 2075.0000   -60.1850     5.0940     4.8340     6.9370    94.8870    10.2800     2.4340     0.0080
 2075.5000   -59.2750     5.1070     4.8470     6.7440    95.5990    10.3150     2.4370     0.0080
 2076.0000   -58.4950     5.1210     4.7770     7.5290    96.3080    10.3090     2.4380     0.0080
 2076.5000   -57.7150     5.0900     4.7180     9.1280    97.5930    10.3120     2.4390     0.0080
 2077.0000   -56.9110     5.0490     4.6590     8.6720    99.0830    10.3110     2.4390     0.0080
 2077.5000   -56.3970     5.0090     4.6010     7.9520   100.4690    10.3110     2.4400     0.0080
 2078.0000   -55.9670     4.9690     4.5420     7.2320   102.4260    10.3110     2.4410     0.0080
 2078.5000   -55.5460     4.9280     4.5040     6.8460   104.9290    10.3110     2.4420     0.0080
 2079.0000   -55.1250     4.8880     4.5040     6.5650   107.2600    10.3110     2.4420     0.0080
 2079.5000   -54.8210     4.8480     4.5040     6.3250   109.7370    10.3110     2.4430     0.0090
 2080.0000   -54.6910     4.8070     4.5040     7.1910   111.2660    10.3110     2.4440     0.0110
 2080.5000   -54.8140     4.7670     4.4880     7.0830   112.8910    10.3110     2.4430     0.0110
 2081.0000   -54.9470     4.7270     4.4720     6.8810   114.3790    10.3110     2.4420     0.0110
 2081.5000   -55.0790     4.6950     4.4550     6.7440   116.0430    10.3110     2.4400     0.0120
 2082.0000   -55.2110     4.6660     4.4380     7.0610   116.5290    10.3110     2.4390     0.0120
 2082.5000   -55.3430     4.6370     4.4210     6.9290   117.0150    10.3110     2.4380     0.0130
 2083.0000   -55.4740     4.6070     4.4040     6.7450   117.4390    10.3120     2.4360     0.0130
 2083.5000   -55.6060     4.5780     4.3880     6.5610   117.8890    10.2980     2.4350     0.0140
 2084.0000   -55.7390     4.5490     4.3710     6.3780   118.3740    10.2480     2.4340     0.0140
 2084.5000   -55.8720     4.5200     4.3540     6.2100   118.3220    10.2010     2.4340     0.0150
 2085.0000   -55.9290     4.4910     4.3320     6.5130   117.9610    10.1530     2.4350     0.0150
 2085.5000   -55.9840     4.4620     4.2960     6.7920   117.7290    10.0980     2.4360     0.0160
 2086.0000   -56.0380     4.4330     4.2600     6.9960   118.0770    10.0770     2.4370     0.0160
 2086.5000   -56.0930     4.4040     4.2230     5.7170   118.5110    10.0440     2.4390     0.0160
 2087.0000   -56.1480     4.3750     4.1870     6.2160   118.9460    10.0390     2.4390     0.0160
 2087.5000   -56.2030     4.3460     4.1510     6.7350   119.2720    10.0420     2.4390     0.0160
 2088.0000   -56.2610     4.3340     4.1150     7.1260   118.7740    10.0490     2.4400     0.0160
 2088.5000   -56.1950     4.3240     4.1000     6.3530   118.1260    10.0520     2.4380     0.0160
 2089.0000   -56.0820     4.3140     4.0890     5.8770   117.4650    10.0570     2.4350     0.0160
 2089.5000   -55.9680     4.3040     4.0780     6.2670   116.8230    10.0610     2.4320     0.0160
 2090.0000   -55.8530     4.2940     4.0670     6.1830   116.1480    10.0660     2.4290     0.0160
 2090.5000   -55.7380     4.2850     4.0570     5.9860   115.4380    10.0700     2.4260     0.0160
 2091.0000   -55.4400     4.2750     4.0460     6.4420   114.7110    10.0750     2.4240     0.0150
 2091.5000   -54.9060     4.2630     4.0350     6.2670   113.9750    10.0790     2.4230     0.0150
 2092.0000   -54.3750     4.3260     4.1330     6.0500   113.5320    10.0830     2.4220     0.0150
 2092.5000   -53.8420     4.4040     4.2300     5.8340   113.2250    10.0880     2.4210     0.0150
 2093.0000   -53.3060     4.4820     4.3280     5.6140   112.8710    10.0920     2.4180     0.0150
 2093.5000   -52.7230     4.5790     4.4260     6.5010   112.5880    10.0970     2.4150     0.0140
 2094.0000   -52.5530     4.7620     4.5230     6.0970   112.2760    10.1010     2.4120     0.0140
 2094.5000   -52.7660     4.9460     4.7050     6.9730   113.3570    10.1060     2.4090     0.0140
 2095.0000   -53.2140     5.1300     4.9120     7.9380   114.7190    10.1100     2.4060     0.0140
 2095.5000   -53.6640     5.3140     5.1190     7.7390   115.4190    10.1140     2.4060     0.0140
 2096.0000   -54.1170     5.4980     5.3260     8.1300   115.3350    10.1190     2.4060     0.0130
 2096.5000   -54.5730     5.6810     5.4840     8.4470   115.3570    10.1230     2.4070     0.0130
 2097.0000   -54.8660     5.8770     5.5520     8.1980   115.3530    10.1280     2.4070     0.0130
 2097.5000   -55.1140     5.9190     5.6200     7.8820   115.4480    10.1320     2.4070     0.0130
 2098.0000   -55.3610     5.9860     5.6650     8.5270   115.7120    10.1370     2.4070     0.0130
 2098.5000   -55.5220     5.9620     5.4440     9.1280   115.9600    10.1410     2.4080     0.0130
 2099.0000   -55.6040     5.8890     5.2780     8.5920   115.9900    10.1460     2.4080     0.0120
 2099.5000   -55.6070     5.7530     5.1110     8.1130   115.3300    10.1500     2.4080     0.0120
 2100.0000   -55.3550     5.6170     5.0170     7.3920   114.6960    10.1540     2.4100     0.0130
 2100.5000   -55.1700     5.4110     4.9820     7.5200   114.0450    10.1530     2.4120     0.0130
 2101.0000   -54.8370     5.4470     5.0130     7.7790   113.3180    10.1510     2.4140     0.0130
 2101.5000   -54.3440     5.5210     5.0750     8.1770   113.1930    10.1500     2.4160     0.0140
 2102.0000   -53.8510     5.5960     5.1620     8.0100   113.8430    10.1480     2.4180     0.0140
 2102.5000   -53.3560     5.6700     5.3180     7.5980   114.4090    10.1460     2.4200     0.0140
 2103.0000   -52.8480     5.7440     5.5620     8.2350   115.0600    10.1440     2.4210     0.0150
 2103.5000   -52.3860     5.8180     5.5500     8.9620   115.1900    10.1430     2.4230     0.0150
 2104.0000   -51.8440     5.8930     5.5150     8.8630   114.6330    10.1410     2.4250     0.0150
 2104.5000   -51.3200     5.9670     5.5820     8.7420   114.1550    10.1390     2.4270     0.0160
 2105.0000   -50.7870     6.0410     5.6960     8.4590   113.6720    10.1380     2.4280     0.0160
 2105.5000   -50.7880     6.0730     5.8100     8.1380   113.1490    10.1360     2.4270     0.0160
 2106.0000   -50.9090     6.1130     5.9240     7.8100   113.1040    10.1340     2.4230     0.0160
 2106.5000   -51.3930     6.1530     6.0410     8.7610   113.3580    10.1330     2.4190     0.0150
 2107.0000   -52.0770     6.1930     6.0210     9.0900   113.5870    10.1310     2.4160     0.0150
