~VERSION INFORMATION
 VERS.                2.0:   CWLS LOG ASCII STANDARD - VERSION 2.0
 WRAP.                 NO:   ONE LINE PER DEPTH STEP
~WELL INFORMATION
#MNEM.UNIT      DATA TYPE    INFORMATION
#----------   ------------   ------------------------------
 STRT.F          197.0000:   START DEPTH
 STOP.F         3238.5000:   STOP DEPTH
 STEP.F            0.5000:   STEP LENGTH
 NULL.          -999.2500:   NO VALUE
 COMP.    FENIX & SCISSON:   COMPANY
 WELL. FENIX 28 "A" #28-11:   WELL
 FLD .              NPR-3:   FIELD
 LOC .      S11 T38N R78W:   LOCATION
 CNTY.            NATRONA:   COUNTY
 STAT.            WYOMING:   STATE
 CTRY. UNITED STATES OF AMERICA:   COUNTRY
 SRVC.              WELEX:   SERVICE COMPANY
 DATE.        25-OCT-1977:   LOGDATE
 API .     49025104350000:   API NUMBER
~CURVE INFORMATION
#MNEM.UNIT       API CODE    CURVE DESCRIPTION
#----------   ------------   ------------------------------
 DEPT.F                  :   
 SPR .MV     07 010 01 00:   SPONTANEOUS POTENTIAL
 TENR.LBS    07 635 01 00:   TENSION FROM RESISTIVITY
 ILM .OHMM   07 120 44 00:   INDUCTION LOG MEDIUM RESISTIVITY
 SGRD.OHMM   07 220 05 00:   SHALLOW SHORT GUARD RESISTIVITY
 ILD .OHMM   07 120 46 00:   INDUCTION LOG DEEP RESISTIVITY
 GRD .GAPI   45 310 01 00:   GAMMA RAY FROM DENSITY LOG
 CALD.IN     45 280 60 00:   CALIPER FROM DENSITY LOG
 CORR.G/C3   45 356 01 00:   DENSITY CORRECTION
 RHOB.G/C3   45 350 01 00:   BULK DENSITY
~PARAMETER INFORMATION
#MNEM.UNIT          VALUE    DESCRIPTION
#----------   ------------   ------------------------------
 EKB .F         5211.0000:   Kelly bushing
 EGL .F         5201.0000:   Ground level
 EDF .F            0.0000:   Drilling floor
 EPD .F         5201.0000:   Permanent datum
 TD  .F         3235.0000:   Total depth
 CLNT.            A2DTECH:   Client Code
 SL  . 330' FSL & 990' FWL:   Surface Location
 PD  .                 GL:   Permanent Datum
 DAPD.F                10:   Feet Above Permanent Datum
 DATE.        25-OCT-1977:   Date Logged [DD-MMM-YYYY]
 DD  .F              3235:   Depth driller
 DL  .F              3231:   Depth logger
 BLI .F              3229:   Bottom log interval
 TLI .F               200:   Top log interval
 CS1 .IN            8.625:   Casing size
 CBD1.      8.625" @ 217':   Casing driller 1
 CBL1.F               217:   Casing logger 1
 BS1 .              7.875:   Bit size
 BSD1.IN             3235:   Depth drilled with bit1
 DFT .            KCL MUD:   Type fluid in hole
 DFD .                8.9:   Density
 DFV .                 35:   Viscosity
 DFPH.               11.5:   pH
 DFL .               16.4:   Fluid loss
 MSS .           FLOWLINE:   Source of sample
 RMS .OHMM           1.18:   Rm
 MST .F                74:   Rm Meas. temp.
 RMF .OHMM           1.74:   Rmf
 MFST.F                74:   Rmf Meas. temp.
 MFSS.               MEAS:   Source Rmf.
 MCSS.               MEAS:   Source Rmc.
 RMB .OHMM           1.15:   Rm. at BHT
 BHT .F               116:   BHT.
 TCS .HRS               3:   Time Circ. stopped
 MRT .F               116:   Maximum recorded temp.
 LUN .               8611:   Logging unit number
 LUL .             CASPER:   Logging unit location
 ENGI.            C. DOAK:   Recorded By
 WITN.      W. PETTINGILL:   Witnessed by
 ORIG.           5" PRINT:   Origin of data
 UWI .     49025104350000:   Unique Well ID
 DICO. A2D TECHNOLOGIES, INC.:   Digitizing Company
~OTHER INFORMATION
~A   DEPT      SPR       TENR        ILM       SGRD        ILD         GRD      CALD       CORR       RHOB   
# ...
 1985.5000   -81.7779  1483.3882     4.9459     6.5335     4.3604   152.7116     9.3488    -0.0180     2.4830
 1986.0000   -81.1800  1486.3647     4.9456     6.5313     4.2657   150.8245     9.3475    -0.0150     2.4907
 1986.5000   -81.0361  1489.3412     5.0141     6.7131     4.0931   149.8734     9.3462    -0.0088     2.4957
 1987.0000   -81.0452  1490.0000     4.8101     6.5269     4.0073   148.9223     9.3450    -0.0058     2.4927
 1987.5000   -81.0525  1490.0000     4.5511     6.3906     4.0338   149.2200     9.3438    -0.0012     2.4897
 1988.0000   -81.2093  1490.0000     4.3359     6.5745     4.1448   148.2683     9.3425     0.0003     2.4837
 1988.5000   -80.7627  1490.0000     4.3356     6.2545     4.2888   145.0890     9.3410    -0.0044     2.4709
 1989.0000   -80.4690  1490.0000     4.4261     5.2222     4.4379   142.6183     9.3398    -0.0060     2.4551
 1989.5000   -80.4766  1490.0000     4.5499     4.6729     4.4322   140.4191     9.3386    -0.0091     2.4454
 1990.0000   -80.6354  1490.0000     4.6448     5.9939     4.3726   138.8440     9.3531    -0.0091     2.4499
 1990.5000   -80.7956  1490.0000     4.7746     7.2239     4.3707   137.5810     9.3519    -0.0061     2.4889
 1991.0000   -81.1054  1490.0000     4.8408     7.4757     4.3991   136.3179     9.3594    -0.0015     2.4941
 1991.5000   -81.2640  1490.0000     4.7740     7.0216     4.3972   135.0546     9.3807     0.0000     2.4866
 1992.0000   -81.2713  1490.0000     4.6435     6.6871     4.4259   135.3481     9.3795     0.0000     2.4851
 1992.5000   -81.2786  1490.0000     4.4856     6.5022     4.3327   135.9608     9.3938     0.0030     2.5018
 1993.0000   -81.2859  1490.0000     4.4237     6.3220     4.1547   134.6940     9.3925     0.0123     2.5181
 1993.5000   -81.5961  1486.3964     4.6426     5.9793     3.9565   132.4949     9.3912     0.0215     2.5256
 1994.0000   -81.6049  1479.6350     4.4230     5.6944     3.9276   132.4798     9.3900     0.0261     2.5248
 1994.5000   -81.4591  1472.8829     4.5467     6.0586     3.9258   133.0889     9.3888     0.0276     2.5166
 1995.0000   -81.3152  1466.1333     4.4225     6.2759     3.8812   135.0289     9.3873     0.0245     2.5001
 1995.5000   -80.7191  1459.3867     4.1556     5.6877     3.8262   138.3593     9.3863     0.0213     2.4821
 1996.0000   -80.2726  1452.6400     5.2238     5.7725     3.7459   140.8403     9.3849     0.0198     2.4536
 1996.5000   -79.9773  1445.8933     4.9720     5.0531     3.7180   142.3891     9.3837     0.0181     2.4266
 1997.0000   -79.6610  1439.1466     4.8368     3.4515     3.7211   144.2424     9.3825     0.0166     2.4123
 1997.5000   -79.8425  1432.4000     5.0761     3.2646     3.7674   146.0982     9.3810     0.0088     2.4048
 1998.0000   -80.2159  1425.6533     5.0408     5.8788     3.8451   147.6609     9.3798    -0.0037     2.4558
 1998.5000   -80.6135  1418.9066     4.8024     6.8440     3.8703   149.1134     9.3786     0.0009     2.4888
 1999.0000   -80.6208  1412.1600     4.5126     6.9391     3.9224   151.3548     9.3775     0.0055     2.5061
 1999.5000   -80.6281  1410.0000     4.2992     6.8864     3.9756   153.2119     9.3762     0.0101     2.5142
 2000.0000   -80.7867  1410.0000     4.2694     6.0354     4.1142   154.8685     9.3791     0.0118     2.5037
 2000.5000   -80.7943  1410.8918     4.3929     5.4381     4.3255   158.7962     9.3863     0.0131     2.4842
 2001.0000   -80.6500  1419.0811     4.6377     6.2872     4.5611   156.9016     9.3883     0.0115     2.4790
 2001.5000   -80.5060  1427.2703     4.7810     5.9464     4.6880   155.0114     9.3868     0.0083     2.4760
 2002.0000   -80.3620  1435.4595     4.9993     5.6179     4.9187   153.4332     9.3856     0.0067     2.4887
 2002.5000   -80.5225  1443.6487     5.0671     7.2207     5.0903   152.4791     9.3762     0.0019     2.4955
 2003.0000   -80.8323  1451.8429     5.1722     7.5911     5.2314   152.7730     9.3673     0.0065     2.5060
 2003.5000   -80.8396  1460.0227     5.2791     7.6621     5.2292   154.3149     9.3348     0.0142     2.5172
 2004.0000   -80.6956  1468.2828     5.1691     7.7195     5.0057   156.2271     9.3300     0.0143     2.5148
 2004.5000   -80.6883  1470.0000     5.1677     7.6095     4.7741   161.1385     9.3169     0.0063     2.5017
 2005.0000   -80.4786  1470.0000     5.1652     7.6065     4.6095   168.6087     9.2999    -0.0003     2.4840
 2005.5000   -80.2688  1470.0000     5.0182     7.8170     4.4816   183.5672     9.2987    -0.0016     2.4983
 2006.0000   -80.2178  1470.0000     4.7524     7.1900     4.3271   190.4134     9.2920     0.0014     2.5035
 2006.5000   -80.5240  1470.0000     4.5582     6.7998     4.1779   197.3620     9.2806     0.0060     2.4885
 2007.0000   -80.5269  1470.0000     4.4328     6.3864     4.0620   205.3522     9.2636     0.0075     2.4802
 2007.5000   -80.3778  1470.0000     4.4011     6.0398     3.9465   213.4465     9.2467     0.0105     2.4734
 2008.0000   -80.2295  1470.0000     4.4304     4.9389     3.7864   222.7887     9.2455     0.0104     2.4558
 2008.5000   -80.2331  1470.0000     4.6167     4.8354     3.7327   233.0670     9.2443     0.0056     2.4389
 2009.0000   -80.2360  1470.0000     4.8442     4.8670     3.8362   238.7836     9.2431    -0.0006     2.4231
 2009.5000   -80.2390  1470.0000     4.8426     4.6349     4.1386   240.8311     9.2343    -0.0069     2.4134
 2010.0000   -80.0906  1470.0000     5.1164     8.8210     4.4034   232.6962     9.2407    -0.0116     2.4126
 2010.5000   -80.0942  1461.8857     5.8730    10.0574     4.7506   227.3739     9.2392    -0.0086     2.4148
 2011.0000   -80.0971  1450.3429     5.9945    10.6999     5.0630   222.3636     9.2380    -0.0040     2.4194
 2011.5000   -79.9481  1438.8000     6.4216    11.1495     5.4905   220.4734     9.2527     0.0040     2.4350
 2012.0000   -79.6490  1427.2572     6.5998    10.6175     5.8014   217.9592     9.2671     0.0191     2.4410
 2012.5000   -79.1982  1415.7142     6.6437    10.8611     6.1299   215.7043     9.2812     0.0252     2.4365
 2013.0000   -78.8764  1404.1714     6.7806    11.3686     6.3004   212.3022     9.2800     0.0298     2.4267
 2013.5000   -78.2970  1392.6285     7.1641    12.5210     6.4751   211.0406     9.2785     0.0374     2.4169
 2014.0000   -77.8454  1430.0000     7.7813    12.4296     6.6079   214.7621     9.2461     0.0467     2.4064
 2014.5000   -77.5464  1470.0000     7.6196    11.5933     6.6512   218.4882     9.2136     0.0590     2.3917
 2015.0000   -77.5494  1470.0000     7.5652    10.8133     6.6941   221.5902     9.1968     0.0654     2.3689
 2015.5000   -77.5523  1470.0000     7.7215    11.7484     6.7849   224.6922     9.1487     0.0681     2.3591
 2016.0000   -77.7065  1470.0000     7.7752    11.9873     6.8301   227.2193     9.1475     0.0650     2.3434
 2016.5000   -77.7101  1468.6857     7.8791    12.4034     6.9220   233.3878     9.1619     0.0478     2.3171
 2017.0000   -77.8643  1462.9143     7.8222    13.1047     6.9681   234.6223     9.1604     0.0307     2.3036
 2017.5000   -77.8673  1457.1428     7.9294    13.4687     7.0131   233.9757     9.1592     0.0120     2.2983
 2018.0000   -77.8702  1451.3715     7.7642    13.0038     7.0609   230.8374     9.1423     0.0025     2.3095
 2018.5000   -77.7211  1445.6000     7.5505    12.3835     7.2038   227.3872     9.1411    -0.0068     2.3282
 2019.0000   -77.5734  1439.8286     7.5413    12.5512     7.2510   223.9370     9.1087    -0.0006     2.3552
 2019.5000   -77.4251  1434.0571     7.7580    13.7522     7.2993   222.0482     9.0919     0.0101     2.4017
 2020.0000   -77.7313  1428.2858     7.9879    14.6035     7.3975   219.8416     9.0708     0.0147     2.4211
 2020.5000   -77.8855  1422.5143     8.4819    15.4292     7.4978   217.0154     9.0579     0.0178     2.4264
 2021.0000   -77.8884  1416.7428     8.8386    15.6381     7.6524   212.9411     9.0569     0.0161     2.4264
 2021.5000   -77.8913  1410.9714     8.8981    15.6318     7.8111   206.6828     9.0555     0.0160     2.4323
