~VERSION INFORMATION
 VERS.                2.0:   CWLS LOG ASCII STANDARD - VERSION 2.0
 WRAP.                 NO:   ONE LINE PER DEPTH STEP
~WELL INFORMATION
#MNEM.UNIT      DATA TYPE    INFORMATION
#----------   ------------   ------------------------------
 STRT.F          196.5000:   START DEPTH
 STOP.F         2376.0000:   STOP DEPTH
 STEP.F            0.5000:   STEP LENGTH
 NULL.          -999.2500:   NO VALUE
 COMP.    FENIX & SCISSON:   COMPANY
 WELL. FENIX & SCISSON NPR-3 #55-10:   WELL
 FLD .  TEAPOT DOME NPR-3:   FIELD
 LOC .      S10 T38N R78W:   LOCATION
 CNTY.            NATRONA:   COUNTY
 STAT.            WYOMING:   STATE
 CTRY. UNITED STATES OF AMERICA:   COUNTRY
 SRVC.           BIRDWELL:   SERVICE COMPANY
 DATE.        09-MAY-1979:   LOGDATE
 API .     49025107780000:   API NUMBER
~CURVE INFORMATION
#MNEM.UNIT       API CODE    CURVE DESCRIPTION
#----------   ------------   ------------------------------
 DEPT.F                  :   
 CALD.IN     45 280 60 00:   CALIPER FROM DENSITY LOG
 GRD .GAPI   45 310 01 00:   GAMMA RAY FROM DENSITY LOG
 RHOB.G/C3   45 350 01 00:   BULK DENSITY
 CORR.G/C3   45 356 01 00:   DENSITY CORRECTION
~PARAMETER INFORMATION
#MNEM.UNIT          VALUE    DESCRIPTION
#----------   ------------   ------------------------------
 EKB .F         5203.0000:   Kelly bushing
 EGL .F         5193.0000:   Ground level
 EDF .F            0.0000:   Drilling floor
 TD  .F         2376.0000:   Total depth
 CLNT.            A2DTECH:   Client Code
 SL  . 2283' FSL & 2107' FEL:   Surface Location
 PD  .                 GL:   Permanent Datum
 EPD .F              5193:   Elevation Permanent Datum
 LMF .                 KB:   Log Measured From
 DMF .                 KB:   Drilling Measured From
 DAPD.F                10:   Feet Above Permanent Datum
 DATE.        09-MAY-1979:   Date Logged [DD-MMM-YYYY]
 DD  .F              2360:   Depth driller
 DL  .F              2376:   Depth logger
 BLI .F              2376:   Bottom log interval
 TLI .F               196:   Top log interval
 CS1 .IN            9.625:   Casing size
 CBD1.             9.625":   Casing driller 1
 CBL1.F               545:   Casing logger 1
 BS1 .IN             8.75:   Bit size
 BSD1.F              2360:   Depth drilled with bit1
 DFT .                AIR:   Type fluid in hole
 TCS .HRS               3:   Time Circ. stopped
 LUN .               2959:   Logging unit number
 LUL .             CASPER:   Logging unit location
 ENGI.         B. ROLLINS:   Recorded By
 WITN.             RHODES:   Witnessed by
 ORIG.           5" PRINT:   Origin of data
 UWI .     49025107780000:   Unique Well ID
 DICO. A2D TECHNIOLOGIES,INC.:   Digitizing Company
~OTHER INFORMATION
~A  DEPTH     CALD        GRD       RHOB       CORR
# ...
 1583.5000     8.9955   151.4388     2.5296     0.0492
 1584.0000     8.9958   146.1483     2.5364     0.0567
 1584.5000     8.9960   141.7377     2.5409     0.0672
 1585.0000     8.9947   139.8032     2.5394     0.0732
 1585.5000     8.9813   142.2503     2.5349     0.0611
 1586.0000     8.9816   147.3776     2.5266     0.0490
 1586.5000     8.9818   148.5912     2.5168     0.0354
 1587.0000     8.9821   142.9992     2.5055     0.0203
 1587.5000     8.9823   139.5241     2.4972     0.0340
 1588.0000     8.9825   135.2926     2.5333     0.0368
 1588.5000     8.9827   135.4483     2.5343     0.0246
 1589.0000     8.9830   137.4195     2.5265     0.0156
 1589.5000     8.9832   141.8113     2.5227     0.0110
 1590.0000     8.9834   147.1107     2.5351     0.0200
 1590.5000     8.9836   151.5025     2.5468     0.0290
 1591.0000     8.9838   156.4994     2.5423     0.0350
 1591.5000     8.9841   151.6627     2.5506     0.0380
 1592.0000     8.9843   151.2055     2.5589     0.0470
 1592.5000     8.9845   153.1921     2.5619     0.0544
 1593.0000     8.9998   153.6430     2.5566     0.0469
 1593.5000     9.0001   153.4695     2.5498     0.0408
 1594.0000     9.0003   151.9887     2.5505     0.0346
 1594.5000     9.0006   148.8162     2.5370     0.0284
 1595.0000     9.0159   147.9118     2.5302     0.0241
 1595.5000     9.0161   150.3380     2.5324     0.0240
 1596.0000     9.0163   151.4003     2.5264     0.0285
 1596.5000     9.0317   148.0777     2.5166     0.0375
 1597.0000     9.0319   145.5103     2.5302     0.0480
 1597.5000     9.0321   146.2711     2.5354     0.0555
 1598.0000     9.0323   146.5782     2.5384     0.0524
 1598.5000     9.0326   144.9185     2.5351     0.0479
 1599.0000     9.0328   142.0486     2.5271     0.0569
 1599.5000     9.0330   139.7837     2.5294     0.0734
 1600.0000     9.0332   143.1165     2.5587     0.0854
 1600.5000     9.0335   148.0294     2.5504     0.0697
 1601.0000     9.0337   151.2013     2.5181     0.0435
 1601.5000     9.0340   151.6019     2.4962     0.0235
 1602.0000     9.0342   150.3972     2.5060     0.0204
 1602.5000     9.0344   149.0401     2.5534     0.0882
 1603.0000     9.0346   148.1357     2.5805     0.0761
 1603.5000     9.0348   148.2085     2.5737     0.0504
 1604.0000     9.0351   152.3109     2.5496     0.0308
 1604.5000     9.0353   151.2102     2.5195     0.0172
 1605.0000     9.0355   148.7766     2.5346     0.0518
 1605.5000     9.0206   147.3141     2.5497     0.0643
 1606.0000     9.0209   147.4683     2.5554     0.0719
 1606.5000     9.0060   147.6222     2.5290     0.0523
 1607.0000     8.9911   145.3601     2.5207     0.0327
 1607.5000     8.9913   144.0035     2.5391     0.0402
 1608.0000     8.9915   144.0065     2.5539     0.0492
 1608.5000     8.9767   145.0669     2.5552     0.0432
 1609.0000     8.9769   146.5805     2.5190     0.0236
 1609.5000     8.9772   147.7919     2.4942     0.0024
 1610.0000     8.9774   146.2843     2.4919    -0.0081
 1610.5000     8.9776   140.5464     2.5122    -0.0141
 1611.0000     8.9778   141.7586     2.5287    -0.0046
 1611.5000     8.9748   141.1573     2.5460     0.0046
 1612.0000     8.9713   139.8008     2.5520     0.0161
 1612.5000     8.9678   137.5379     2.5550     0.0221
 1613.0000     8.9643   136.9360     2.5572     0.0221
 1613.5000     8.9607   139.3566     2.5496     0.0085
 1614.0000     8.9572   142.5318     2.5214    -0.0020
 1614.5000     8.9537   143.5922     2.5315     0.0221
 1615.0000     8.9501   144.5015     2.5383     0.0402
 1615.5000     8.9466   148.4380     2.5397     0.0447
 1616.0000     8.9431   149.9456     2.5374     0.0492
 1616.5000     8.9396   144.5593     2.5321     0.0508
 1617.0000     8.9526   143.6071     2.5268     0.0447
 1617.5000     8.9676   143.7612     2.5316     0.0492
 1618.0000     8.9674   141.1970     2.5457     0.0628
 1618.5000     8.9823   140.7460     2.5501     0.0688
 1619.0000     8.9822   143.6198     2.5335     0.0598
 1619.5000     8.9820   146.1908     2.5259     0.0523
 1620.0000     8.9819   147.4015     2.5252     0.0462
 1620.5000     8.9817   144.8373     2.5274     0.0411
 1621.0000     8.9816   141.9702     2.5258     0.0402
 1621.5000     8.9663   138.8010     2.5296     0.0492
 1622.0000     8.9813   137.1416     2.5499     0.0643
 1622.5000     8.9811   140.4686     2.5566     0.0704
 1623.0000     8.9810   142.8885     2.5483     0.0658
 1623.5000     8.9808   145.3084     2.5423     0.0583
 1624.0000     8.9806   145.4617     2.5437     0.0589
 1624.5000     8.9805   143.9548     2.5648     0.0873
 1625.0000     8.9803   143.0514     2.5669     0.0832
 1625.5000     8.9802   143.5076     2.5504     0.0643
 1626.0000     8.9800   143.3596     2.5218     0.0508
 1626.5000     8.9799   141.0967     2.5300     0.0387
 1627.0000     8.9797   140.1933     2.5277     0.0281
 1627.5000     8.9796   143.2936     2.5184     0.0221
 1628.0000     8.9794   148.2755     2.5086     0.0206
 1628.5000     8.9793   150.0210     2.5090     0.0221
 1629.0000     8.9791   145.7819     2.5126     0.0221
 1629.5000     8.9790   141.8707     2.5095     0.0161
 1630.0000     8.9789   139.4567     2.5004     0.0010
 1630.5000     8.9794   140.6682     2.4914    -0.0126
 1631.0000     8.9937   143.0881     2.4823    -0.0246
 1631.5000     8.9935   146.1122     2.4853    -0.0322
 1632.0000     8.9933   149.8917     2.5214    -0.0020
 1632.5000     9.0083   150.9513     2.5493     0.0146
 1633.0000     9.0081   149.1423     2.5364     0.0221
 1633.5000     9.0080   147.1816     2.5281     0.0266
 1634.0000     8.9927   145.0698     2.5356     0.0342
 1634.5000     9.0077   143.5622     2.5454     0.0508
 1635.0000     9.0227   141.7525     2.5386     0.0734
 1635.5000     9.0225   140.2449     2.5362     0.0915
 1636.0000     9.0375   139.4919     2.5453     0.0884
 1636.5000     9.0373   141.9125     2.4963     0.0703
 1637.0000     9.0523   143.7282     2.4661     0.0566
 1637.5000     9.0370   145.8460     2.4790     0.0398
 1638.0000     9.0218   146.7553     2.4797     0.0278
 1638.5000     9.0216   146.3038     2.5144     0.0174
 1639.0000     9.0214   143.2520     2.5074     0.0040
 1639.5000     9.0062   140.8730     2.4916    -0.0005
 1640.0000     8.9909   141.4804     2.4886     0.0146
 1640.5000     8.9908   140.8258     2.5201     0.0387
 1641.0000     8.9755   139.0701     2.5397     0.0538
 1641.5000     8.9451   137.7135     2.5623     0.0643
 1642.0000     8.8544   136.3570     2.5660     0.0704
 1642.5000     8.8089   135.4537     2.5449     0.0719
 1643.0000     8.8087   135.3048     2.5433     0.0764
 1643.5000     8.8237   136.0639     2.5501     0.0899
 1644.0000     8.8387   140.7496     2.5523     0.0990
 1644.5000     8.8385   143.7738     2.5402     0.1020
 1645.0000     8.8384   144.5313     2.4995     0.0643
 1645.5000     8.8533   142.5713     2.4604     0.0221
 1646.0000     8.8532   140.1573     2.4724    -0.0035
 1646.5000     8.8681   137.8945     2.5160     0.0161
 1647.0000     8.8982   135.7827     2.5295     0.0221
 1647.5000     8.9131   137.1452     2.5203     0.0161
 1648.0000     8.9281   139.5651     2.5159     0.0101
 1648.5000     8.9431   143.9487     2.5490     0.0099
 1649.0000     8.9580   145.6134     2.5882     0.0719
 1649.5000     8.9730   145.6229     2.6152     0.1849
 1650.0000     8.9728   142.2961     2.5467     0.1352
 1650.5000     8.9878   140.1646     2.4721     0.0523
 1651.0000     9.0027   138.9395     2.4600     0.0085
 1651.5000     9.0025   137.9048     2.4615    -0.0126
 1652.0000     9.0175   137.1721     2.4713    -0.0307
 1652.5000     9.0174   145.9364     2.4863    -0.0095
 1653.0000     9.0172   145.3359     2.4968     0.0085
 1653.5000     9.0171   144.7346     2.5073     0.0202
 1654.0000     9.0169   147.4567     2.5178     0.0337
 1654.5000     9.0114   153.1584     2.5187     0.0366
 1655.0000     8.9713   152.4016     2.5125     0.0411
 1655.5000     8.9560   150.4364     2.5389     0.0622
 1656.0000     8.9408   147.4138     2.5487     0.0542
