~VERSION INFORMATION
 VERS.                2.0:   CWLS LOG ASCII STANDARD - VERSION 2.0
 WRAP.                 NO:   ONE LINE PER DEPTH STEP
~WELL INFORMATION
#MNEM.UNIT      DATA TYPE    INFORMATION
#----------   ------------   ------------------------------
 STRT.F          740.0000:   START DEPTH
 STOP.F         2749.0000:   STOP DEPTH
 STEP.F            0.5000:   STEP LENGTH
 NULL.          -999.2500:   NO VALUE
 COMP.    FENIX & SCISSON:   COMPANY
 WELL.   FENIX SHX #11-10:   WELL
 FLD .                NPR:   FIELD
 LOC .      S10 T38N R78W:   LOCATION
 CNTY.            NATRONA:   COUNTY
 STAT.            WYOMING:   STATE
 CTRY. UNITED STATES OF AMERICA:   COUNTRY
 SRVC.              WELEX:   SERVICE COMPANY
 DATE.        09-APR-1980:   LOGDATE
 API .     49025108060000:   API NUMBER
~CURVE INFORMATION
#MNEM.UNIT       API CODE    CURVE DESCRIPTION
#----------   ------------   ------------------------------
 DEPT.F                  :   
 GRD .GAPI   45 310 01 00:   GAMMA RAY FROM DENSITY LOG
 CALD.IN     45 280 60 00:   CALIPER FROM DENSITY LOG
 TEND.LBS    45 635 01 00:   TENSION FROM DENSITY LOG
 RHOB.G/C3   45 350 01 00:   BULK DENSITY
 CORR.G/C3   45 356 01 00:   DENSITY CORRECTION
~PARAMETER INFORMATION
#MNEM.UNIT          VALUE    DESCRIPTION
#----------   ------------   ------------------------------
 EKB .F         5287.0000:   Kelly bushing
 EGL .F         5277.0000:   Ground level
 EDF .F            0.0000:   Drilling floor
 EPD .F         5277.0000:   Permanent datum
 TD  .F         2762.0000:   Total depth
 DATE.        09-APR-1980:   Date logged
 CLNT.            A2DTECH:   Client Code
 SL  . 474' FNL & 644' FWL:   Surface Location
 PD  .                 GL:   Permanent Datum
 LMF .                 KB:   Log Measured From
 DMF .                 KB:   Drilling Measured From
 DAPD.F                10:   Feet Above Permanent Datum
 DD  .F              2762:   Depth driller
 DL  .F            2751.5:   Depth logger
 BLI .F              2750:   Bottom log interval
 TLI .F               750:   Top log interval
 CS1 .IN            9.625:   Casing size
 CBD1.      9.625" @ 760':   Casing driller 1
 BS1 .IN             8.75:   Bit size
 BSD1.F              2762:   Depth drilled with bit1
 DFT .                AIR:   Type fluid in hole
 TCS .HRS               3:   Time Circ. stopped
 MRT .F               118:   Maximum recorded temp.
 ENGI.            BENTSEN:   Recorded By
 WITN.           DINSMORE:   Witnessed by
 ORIG.         2.5" PRINT:   Origin of data
 UWI .     49025108060000:   Unique Well ID
 DICO. A2D TECHNOLOGIES, INC.:   Digitizing Company
~OTHER INFORMATION
~A   DEPT       GRD      CALD       TEND       RHOB       CORR   
# ...
 1533.0000    68.6860     9.0350  1273.6820     2.5560     0.0820
 1533.5000    68.4350     9.0310  1273.7710     2.5430     0.0620
 1534.0000    68.2630     9.0260  1273.8610     2.5330     0.0620
 1534.5000    69.2600     9.0210  1273.9500     2.5350     0.0620
 1535.0000    68.8210     9.0160  1274.0389     2.5490     0.0820
 1535.5000    68.4770     9.0110  1274.1290     2.5510     0.0900
 1536.0000    68.0500     9.0060  1274.2180     2.5540     0.0910
 1536.5000    67.6470     9.0010  1274.3080     2.5580     0.0920
 1537.0000    67.2380     8.9960  1274.3970     2.5430     0.0780
 1537.5000    66.8500     8.9910  1274.4871     2.5360     0.0590
 1538.0000    66.4020     8.9860  1274.5760     2.5430     0.0610
 1538.5000    66.5360     8.9810  1274.6660     2.5560     0.0630
 1539.0000    66.7070     8.9760  1274.7550     2.5670     0.0670
 1539.5000    66.8960     8.9710  1274.8440     2.5820     0.0730
 1540.0000    66.3180     8.9660  1274.9340     2.5690     0.0590
 1540.5000    65.4280     8.9610  1275.0229     2.5410     0.0320
 1541.0000    66.3350     8.9570  1275.1130     2.5340     0.0330
 1541.5000    68.0240     8.9650  1275.2020     2.5410     0.0460
 1542.0000    67.9470     8.9720  1275.2920     2.5510     0.0630
 1542.5000    67.7480     8.9800  1275.3810     2.5440     0.0520
 1543.0000    67.4850     8.9880  1275.4709     2.5280     0.0380
 1543.5000    67.2670     8.9960  1275.5601     2.5260     0.0440
 1544.0000    67.0400     8.9970  1275.6500     2.5310     0.0500
 1544.5000    66.7980     8.9990  1275.7390     2.5440     0.0560
 1545.0000    66.5780     9.0000  1275.8280     2.5570     0.0590
 1545.5000    66.3940     9.0010  1275.9180     2.5570     0.0480
 1546.0000    66.6910     9.0020  1276.0070     2.5380     0.0420
 1546.5000    66.9600     9.0030  1276.0970     2.5300     0.0460
 1547.0000    67.2540     9.0050  1276.1860     2.5430     0.0620
 1547.5000    67.5380     9.0060  1276.2760     2.5580     0.0780
 1548.0000    67.8240     9.0070  1276.3650     2.5770     0.0960
 1548.5000    68.1070     9.0080  1276.4550     2.5710     0.0960
 1549.0000    68.3990     9.0100  1276.5439     2.5480     0.0740
 1549.5000    68.6780     9.0110  1276.6340     2.5220     0.0420
 1550.0000    68.9480     9.0120  1276.7230     2.5130     0.0160
 1550.5000    69.2950     9.0130  1276.8120     2.5140     0.0200
 1551.0000    68.9060     9.0150  1276.9020     2.5290     0.0380
 1551.5000    68.0590     9.0160  1276.9910     2.5490     0.0560
 1552.0000    67.3110     9.0170  1277.0811     2.5450     0.0670
 1552.5000    66.5570     9.0180  1277.1700     2.5470     0.0740
 1553.0000    66.9090     9.0200  1277.2600     2.5520     0.0830
 1553.5000    67.6350     9.0210  1277.3490     2.5540     0.0850
 1554.0000    68.3660     9.0220  1277.4390     2.5370     0.0630
 1554.5000    69.0510     9.0230  1277.5280     2.5090     0.0400
 1555.0000    69.7670     9.0240  1277.6180     2.5160     0.0540
 1555.5000    69.6270     9.0260  1277.7070     2.5480     0.0700
 1556.0000    69.1600     9.0270  1277.7960     2.5490     0.0760
 1556.5000    68.7200     9.0280  1277.8860     2.5310     0.0580
 1557.0000    67.9200     9.0290  1277.9750     2.5130     0.0410
 1557.5000    67.1670     9.0310  1278.0649     2.4900     0.0220
 1558.0000    66.3900     9.0320  1278.1541     2.4940     0.0280
 1558.5000    65.5700     9.0330  1278.2440     2.5130     0.0440
 1559.0000    65.1370     9.0340  1278.3330     2.5300     0.0600
 1559.5000    65.1890     9.0360  1278.4230     2.5400     0.0760
 1560.0000    65.1640     9.0360  1278.5120     2.5510     0.0770
 1560.5000    65.1810     9.0360  1278.6010     2.5600     0.0780
 1561.0000    65.2520     9.0360  1278.6910     2.5700     0.0930
 1561.5000    66.2190     9.0360  1278.7800     2.5780     0.1010
 1562.0000    67.0230     9.0360  1278.8700     2.5690     0.0910
 1562.5000    67.9100     9.0360  1278.9590     2.5450     0.0640
 1563.0000    67.7040     9.0360  1279.0490     2.5360     0.0450
 1563.5000    67.0620     9.0360  1279.1379     2.5310     0.0380
 1564.0000    66.3040     9.0360  1279.2280     2.5280     0.0350
 1564.5000    67.2320     9.0310  1279.3170     2.5330     0.0400
 1565.0000    68.9940     9.0210  1279.4070     2.5390     0.0450
 1565.5000    70.0190     9.0120  1279.4960     2.5410     0.0510
 1566.0000    69.7810     9.0030  1279.5850     2.5350     0.0500
 1566.5000    69.7220     8.9940  1279.6750     2.5270     0.0380
 1567.0000    69.6330     8.9850  1279.7640     2.5350     0.0480
 1567.5000    69.5220     8.9760  1279.8540     2.5450     0.0790
 1568.0000    69.4350     8.9680  1279.9430     2.5580     0.0670
 1568.5000    69.3350     8.9590  1280.0330     2.4910     0.0170
 1569.0000    69.2360     8.9580  1280.1219     2.5160     0.0530
 1569.5000    69.1390     8.9600  1280.2120     2.5360     0.0680
 1570.0000    69.0440     8.9620  1280.3010     2.5400     0.0660
 1570.5000    68.9450     8.9640  1280.3910     2.5400     0.0600
 1571.0000    68.8500     8.9660  1280.4800     2.5380     0.0530
 1571.5000    68.7440     8.9680  1280.5690     2.5370     0.0470
 1572.0000    68.3460     8.9710  1280.6591     2.5320     0.0400
 1572.5000    68.3340     8.9730  1280.7480     2.5280     0.0420
 1573.0000    68.8860     8.9750  1280.8380     2.5400     0.0600
 1573.5000    69.4020     8.9770  1280.9270     2.5570     0.0700
 1574.0000    69.8890     8.9790  1281.0170     2.5620     0.0700
 1574.5000    70.4110     8.9810  1281.1060     2.5600     0.0650
 1575.0000    69.7970     8.9830  1281.1960     2.5570     0.0610
 1575.5000    68.8040     8.9850  1281.2850     2.5600     0.0610
 1576.0000    67.8180     8.9880  1281.3750     2.5800     0.0750
 1576.5000    66.8180     8.9900  1281.4640     2.5870     0.0950
 1577.0000    66.1450     8.9920  1281.5530     2.5660     0.0840
 1577.5000    65.7870     8.9940  1281.6429     2.5430     0.0540
 1578.0000    65.3840     8.9960  1281.7321     2.5270     0.0400
 1578.5000    65.0220     8.9980  1281.8220     2.5160     0.0260
 1579.0000    64.6260     9.0000  1281.9110     2.5120     0.0200
 1579.5000    64.9910     9.0020  1282.0010     2.5280     0.0320
 1580.0000    65.4680     9.0050  1282.0900     2.5370     0.0430
 1580.5000    65.9070     9.0070  1282.1801     2.5370     0.0520
 1581.0000    66.2810     9.0090  1282.2690     2.5350     0.0480
 1581.5000    65.2440     9.0110  1282.3580     2.5300     0.0420
 1582.0000    64.1720     9.0130  1282.4480     2.5360     0.0500
 1582.5000    63.0920     9.0150  1282.5370     2.5450     0.0380
 1583.0000    62.3010     9.0170  1282.6270     2.5410     0.0270
 1583.5000    63.3780     9.0190  1282.7159     2.5280     0.0140
 1584.0000    64.2880     9.0210  1282.8060     2.5260     0.0290
 1584.5000    65.2930     9.0240  1282.8950     2.5310     0.0450
 1585.0000    66.2570     9.0260  1282.9850     2.5230     0.0430
 1585.5000    67.2540     9.0280  1283.0740     2.5140     0.0340
 1586.0000    68.1820     9.0300  1283.1639     2.5200     0.0430
 1586.5000    69.2630     9.0320  1283.2531     2.5330     0.0530
 1587.0000    69.0790     9.0340  1283.3420     2.5350     0.0550
 1587.5000    68.7980     9.0350  1283.4320     2.5270     0.0490
 1588.0000    68.4710     9.0320  1283.5210     2.5210     0.0420
 1588.5000    68.1460     9.0280  1283.6110     2.5340     0.0520
 1589.0000    67.8700     9.0250  1283.7000     2.5340     0.0560
 1589.5000    67.6230     9.0220  1283.7900     2.5270     0.0520
 1590.0000    68.5960     9.0190  1283.8790     2.5340     0.0520
 1590.5000    69.4950     9.0160  1283.9690     2.5380     0.0600
 1591.0000    70.4840     9.0120  1284.0580     2.5210     0.0510
 1591.5000    70.5250     9.0090  1284.1479     2.5090     0.0420
 1592.0000    70.5470     9.0060  1284.2371     2.5110     0.0360
 1592.5000    70.5320     9.0030  1284.3260     2.5090     0.0340
 1593.0000    70.5380     8.9990  1284.4160     2.5050     0.0320
 1593.5000    70.5390     8.9960  1284.5050     2.4990     0.0290
