~VERSION INFORMATION
 VERS.                2.0:   CWLS LOG ASCII STANDARD - VERSION 2.0
 WRAP.                 NO:   ONE LINE PER DEPTH STEP
~WELL INFORMATION
#MNEM.UNIT      DATA TYPE    INFORMATION
#----------   ------------   ------------------------------
 STRT.F            3.5000:   START DEPTH
 STOP.F         5648.0000:   STOP DEPTH
 STEP.F            0.5000:   STEP LENGTH
 NULL.          -999.2500:   NO VALUE
 COMP.       FLUOR DANIEL:   COMPANY
 WELL.   FLUOR "X" #46-10:   WELL
 FLD .          N.P.R. #3:   FIELD
 LOC .      S10 T38N R78W:   LOCATION
 CNTY.            NATRONA:   COUNTY
 STAT.            WYOMING:   STATE
 CTRY. UNITED STATES OF AMERICA:   COUNTRY
 SRVC.      WESTERN ATLAS:   SERVICE COMPANY
 DATE.        25-MAR-1996:   LOGDATE
 API .     49025227700000:   API NUMBER
~CURVE INFORMATION
#MNEM.UNIT       API CODE    CURVE DESCRIPTION
#----------   ------------   ------------------------------
 DEPT.F                  :   
 CALD.IN     45 280 60 00:   CALIPER FROM DENSITY LOG
 ZDEN.G/C3   45 350 01 00:   BULK DENSITY
 ZCOR.G/C3   45 356 01 00:   DENSITY CORRECTION
 TEND.LBS    45 635 01 00:   TENSION FORM DENSITY LOG
 GRD .GAPI   45 310 01 00:   GAMMA RAY FROM DENSITY LOG
 CNC .DEC    42 890 01 00:   NEUTRON POROSITY LIMESTONE
 SPR .MV     07 010 01 00:   SPONTANEOUS POTENTIAL
 RD  .OHMM   07 220 10 00:   RESISTIVITY DEEP
 RS  .OHMM   07 220 09 00:   RESISTIVITY SHALLOW
~PARAMETER INFORMATION
#MNEM.UNIT          VALUE    DESCRIPTION
#----------   ------------   ------------------------------
 EKB .F         5216.0000:   Kelly bushing
 EGL .F         5206.0000:   Ground level
 EDF .F         5215.0000:   Drilling floor
 TD  .F         5650.0000:   Total depth
 CLNT.            A2DTECH:   Client Code
 SL  . 1493' FSL & 2330' FWL:   Surface Location
 PD  .                 GL:   Permanent Datum
 EPD .F              5206:   Elevation Permanent Datum
 LMF .                 KB:   Log Measured From
 DMF .                 KB:   Drilling Measured From
 DAPD.F                10:   Feet Above Permanent Datum
 DATE.        25-MAR-1996:   Date Logged [DD-MMM-YYYY]
 DD  .F              5650:   Depth driller
 DL  .F              5648:   Depth logger
 BLI .F              5636:   Bottom log interval
 TLI .F                 0:   Top log interval
 CS1 .IN            9.625:   Casing size
 CBD1.      9.625" @ 498':   Casing driller 1
 CBL1.F               496:   Casing logger 1
 BS1 .IN             8.75:   Bit size
 BSD1.F              5650:   Depth drilled with bit1
 DFT .           CHEM GEL:   Type fluid in hole
 DFD .                9.6:   Density
 DFV .                 54:   Viscosity
 DFPH.                9.5:   pH
 DFL .                8.4:   Fluid loss
 MSS .           FLOWLINE:   Source of sample
 RMS .OHMM          0.635:   Rm
 MST .F                68:   Rm Meas. temp.
 RMF .OHMM          0.483:   Rmf
 MFST.F                68:   Rmf Meas. temp.
 MFSS.               MEAS:   Source Rmf.
 RMC .OHMM          0.789:   Rmc
 MCST.F                68:   Rmc Meas. temp.
 MCSS.               MEAS:   Source Rmc.
 RMB .OHMM           0.26:   Rm. at BHT
 BHT .F               166:   BHT.
 TCS .HRS               6:   Time Circ. stopped
 MRT .F               166:   Maximum recorded temp.
 LUN .            HL-6530:   Logging unit number
 LUL .             CASPER:   Logging unit location
 ENGI.        VERN RAUTIO:   Recorded By
 WITN. LORRAINE LAFRENIERE:   Witnessed by
 ORIG.           5" PRINT:   Origin of data
 UWI .     49025227700000:   Unique Well ID
 DICO. A2D TECHNOLOGIES, INC.:   Digitizing Company
~OTHER INFORMATION
~A  DEPTH     CALD       ZDEN       ZCOR       TEND        GRD        CNC        SPR         RD         RS
# ...
 4894.5000     9.3250     2.6826    -0.0051   -15.9363    92.4699     0.1253   -71.0325    52.7954    49.8151
 4895.0000     9.3102     2.6812    -0.0142   -15.9363    93.9759     0.1250   -71.0332    52.8041    50.1678
 4895.5000     9.3106     2.6819    -0.0187   -15.9363    91.8675     0.1247   -71.0166    52.0850    49.4842
 4896.0000     9.3109     2.6902    -0.0097   -15.9363    90.9639     0.1277   -70.8839    51.3758    48.8115
 4896.5000     9.3111     2.6932    -0.0037   -15.9363    90.3614     0.1310   -70.7874    50.3284    48.8179
 4897.0000     9.3114     2.6931     0.0023   -15.9363    90.3614     0.1316   -70.7345    49.3008    47.4918
 4897.5000     9.3118     2.6939     0.0023   -25.8964    90.6627     0.1319   -70.6675    47.6320    45.8814
 4898.0000     9.3121     2.6946    -0.0007   -36.3347    90.6627     0.1322   -70.4342    46.0181    43.7160
 4898.5000     9.3124     2.6961    -0.0067   -45.8167    94.5783     0.1400   -70.2843    43.5455    42.5286
 4899.0000     9.3127     2.6983    -0.0145   -55.7769    99.3976     0.1517   -70.1342    40.5561    40.2418
 4899.5000     9.3130     2.7013    -0.0203   -45.8167   103.6145     0.1656   -70.1350    37.4071    38.0779
 4900.0000     9.3133     2.7028    -0.0023   -39.9496   108.4337     0.1635   -70.1357    37.9333    37.0424
 4900.5000     9.3136     2.7035     0.0052   -44.6975   109.6386     0.1514   -69.9856    41.5094    39.7050
 4901.0000     9.3139     2.7030     0.0067   -45.8167   108.1325     0.1376   -69.8356    48.0095    46.8901
 4901.5000     9.3130     2.7013     0.0022   -35.8566    99.3883     0.1195   -69.8364    54.3849    55.3146
 4902.0000     9.3121     2.6998    -0.0083   -35.8566    85.5300     0.1060   -69.8372    61.1820    62.7949
 4902.5000     9.3111     2.7044    -0.0098   -35.8566    82.7466     0.0997   -69.8380    70.2725    69.0837
 4903.0000     9.3102     2.7119     0.0007   -45.8167    81.9092     0.0952   -69.8387    77.9713    69.0837
 4903.5000     9.3092     2.7172     0.0097   -45.8167    81.9063     0.0898   -69.8394    77.9815    69.5638
 4904.0000     9.3083     2.7217     0.0157   -42.6693    77.6866     0.0853   -69.8402    77.9916    70.0472
 4904.5000     9.3074     2.7293     0.0172   -35.8566    74.3655     0.0820   -69.8409    78.1122    70.0472
 4905.0000     9.3064     2.7353     0.0143   -35.8566    73.4633     0.0796   -69.8416    79.1014    70.0472
 4905.5000     9.3055     2.7361     0.0086   -35.4140    73.4605     0.0769   -69.5409    80.2140    71.5177
 4906.0000     9.3045     2.7270    -0.0019   -23.2673    72.8552     0.0742   -69.4599    85.3794    76.6459
 4906.5000     9.3036     2.7165    -0.0169   -19.7532    68.6355     0.0717   -69.2404    94.7330    88.6434
 4907.0000     9.3026     2.7030    -0.0199   -16.4716    63.7364     0.0694   -68.9396   100.1380    97.6679
 4907.5000     9.3017     2.6901    -0.0123   -26.8924    62.6050     0.0706   -68.6387   101.5465    99.7182
 4908.0000     9.3007     2.6835    -0.0018   -25.8964    65.0117     0.0911   -68.3379    98.7900    94.9996
 4908.5000     9.2998     2.6895     0.0058   -34.0637    71.9366     0.1103   -68.0370    89.6799    70.5340
 4909.0000     9.2988     2.6955     0.0043   -35.8566    85.5875     0.1325   -67.5853    65.2392    53.8400
 4909.5000     9.2979     2.6970    -0.0002   -35.8566   101.4483     0.1552   -67.4350    45.2167    46.8765
 4910.0000     9.2969     2.6956    -0.0032   -35.8566   109.2767     0.1669   -67.1343    40.7639    41.3828
 4910.5000     9.2960     2.6963    -0.0046   -35.8566   111.9847     0.1672   -66.9843    39.3827    39.1525
 4911.0000     9.2950     2.6971    -0.0001   -45.8167   112.5843     0.1621   -66.8340    40.2152    39.6985
 4911.5000     9.2941     2.7099     0.0045   -45.8167   110.6098     0.1513   -66.8349    42.2165    43.1385
 4912.0000     9.2939     2.7242     0.0105   -45.8167   102.3369     0.1386   -67.1373    45.5613    45.5958
 4912.5000     9.2793     2.7340     0.0090   -45.8167    91.1895     0.1188   -67.4398    50.9037    50.2377
 4913.0000     9.2798     2.7348     0.0045   -55.3861    82.7529     0.1047   -67.7421    57.6633    57.7006
 4913.5000     9.2803     2.7182     0.0046   -56.0887    76.6823     0.0896   -68.0445    64.4227    64.4615
 4914.0000     9.2808     2.7145     0.0046   -55.3429    70.0959     0.0776   -68.1962    73.9969    73.0190
 4914.5000     9.2812     2.7175     0.0061   -46.1334    68.5870     0.0761   -68.0459    78.2188    78.2548
 4915.0000     9.2817     2.7221     0.0077   -45.6624    68.2829     0.0746   -67.1418    81.5452    78.2548
 4915.5000     9.2821     2.7303     0.0077   -35.5649    68.5813     0.0728   -66.8408    83.2690    77.7148
 4916.0000     9.3127     2.7364     0.0062   -35.4665    68.3552     0.0707   -66.5401    86.2115    78.2548
 4916.5000     9.3282     2.7386     0.0047   -27.2055    62.8520     0.0686   -66.6916    91.1302    81.5749
 4917.0000     9.3287     2.7326     0.0018   -15.9363    61.3431     0.0680   -67.1448    96.3328    87.4242
 4917.5000     9.3291     2.7251    -0.0012   -15.9363    59.5330     0.0689   -67.7490    97.6877    97.6679
 4918.0000     9.3295     2.7244     0.0109    -9.4024    58.6265     0.0792   -68.0514    97.7002    97.6679
 4918.5000     9.3300     2.7252     0.0139   -25.8964    68.2615     0.0976   -68.3537    93.0954    91.1332
 4919.0000     9.3305     2.7244     0.0154   -15.9363    76.9936     0.1168   -68.3546    81.6364    71.0241
 4919.5000     9.3309     2.7199     0.0079   -15.9363    87.8341     0.1459   -68.3553    61.4785    53.8400
 4920.0000     9.3313     2.7132    -0.0010   -15.9363   104.0963     0.1571   -68.3560    48.9350    45.5958
 4920.5000     9.3318     2.7048    -0.0055   -25.8964   108.3096     0.1502   -68.3567    44.4223    41.9599
 4921.0000     9.3323     2.6959    -0.0085   -25.8964   108.0056     0.1393   -68.2066    44.4280    44.9686
 4921.5000     9.3327     2.6989    -0.0040   -15.9363   103.7859     0.1297   -68.2074    49.6375    49.8910
 4922.0000     9.3331     2.7080     0.0066   -10.1476    97.4577     0.1240   -68.3590    55.0737    55.3522
 4922.5000     9.3336     2.7230     0.0126    -3.9841    91.4307     0.1213   -68.5107    59.4371    58.1016
 4923.0000     9.3341     2.7276     0.0065     2.1795    91.4272     0.1210   -68.6622    59.4466    60.1486
 4923.5000     9.3345     2.7336     0.0037     5.7769    92.0267     0.1222   -68.8583    60.2828    60.9875
 4924.0000     9.3349     2.7351     0.0052    13.9442    90.8191     0.1228   -68.7057    61.9826    61.4113
 4924.5000     9.3354     2.7306     0.0067    13.9442    89.0090     0.1238   -68.5535    62.8564    61.4113
 4925.0000     9.3358     2.7321     0.0098    -0.9960    88.4037     0.1247   -68.5520    63.7405    62.7004
 4925.5000     9.3514     2.7321     0.0068    -4.0837    90.2074     0.1259   -68.5504    63.7487    62.7004
 4926.0000     9.3368     2.7329     0.0053     3.9841    90.2045     0.1280   -68.5490    62.0182    60.1486
 4926.5000     9.3465     2.7284     0.0054     3.9841    92.6113     0.1322   -68.5472    60.3328    57.7006
 4927.0000     9.3528     2.7126     0.0069     3.9841    95.9775     0.1358   -68.5458    59.1008    56.9070
 4927.5000     9.3532     2.6991     0.0084    12.6162    98.9302     0.1349   -68.3936    57.4966    55.3522
 4928.0000     9.3385     2.6984     0.0100     3.9841    98.6262     0.1334   -68.2413    56.3224    55.3522
 4928.5000     9.3390     2.7044     0.0069     3.9841    98.0209     0.1319   -67.9382    57.1146    56.9070
 4929.0000     9.3244     2.7089    -0.0020     3.9841    98.0180     0.1313   -67.9366    58.3220    57.7006
 4929.5000     9.3248     2.7112    -0.0065    10.5976    98.9181     0.1322   -67.6332    59.5530    59.3213
 4930.0000     9.3253     2.7090    -0.0110    13.9442   100.4213     0.1334   -67.3302    59.9742    60.1486
 4930.5000     9.3258     2.7014    -0.0109    13.9442   101.6239     0.1334   -67.3288    61.2421    60.5666
