~VERSION INFORMATION
 VERS.                2.0:   CWLS LOG ASCII STANDARD - VERSION 2.0
 WRAP.                 NO:   ONE LINE PER DEPTH STEP
~WELL INFORMATION
#MNEM.UNIT      DATA TYPE    INFORMATION
#----------   ------------   ------------------------------
 STRT.F           14.0000:   START DEPTH
 STOP.F         3030.0000:   STOP DEPTH
 STEP.F            0.5000:   STEP LENGTH
 NULL.          -999.2500:   NO VALUE
 COMP. LAWRENCE ALLISON & ASSOC. WEST:   COMPANY
 WELL. LAWRENCE "X" #37-28:   WELL
 FLD .          N.P.R. #3:   FIELD
 LOC .      S28 T39N R78W:   LOCATION
 CNTY.            NATRONA:   COUNTY
 STAT.            WYOMING:   STATE
 CTRY. UNITED STATES OF AMERICA:   COUNTRY
 SRVC.      DRESSER ATLAS:   SERVICE COMPANY
 DATE.        22-SEP-1986:   LOGDATE
 API .     49025111090000:   API NUMBER
~CURVE INFORMATION
#MNEM.UNIT       API CODE    CURVE DESCRIPTION
#----------   ------------   ------------------------------
 DEPT.F                  :   
 GRR .GAPI   07 310 01 00:   GAMMA RAY FROM RESISTIVITY
 SPR .MV     07 010 01 00:   SPONTANEOUS POTENTIAL
 TENR.LBS    07 635 01 00:   TENSION FROM RESISTIVITY
 RILD.OHMM   07 120 46 00:   DEEP INDUCTION RESISTIVITY
 RILM.OHMM   07 120 44 00:   INDUCTION LOG MEDIUM RESISTIVITY
 RFOC.OHMM   07 220 04 00:   RESISTIVITY FOCUSED LOG RES.
 CNC .DEC    42 890 03 00:   NEUTRON PORISITY SANDSTONE
 RHOB.G/C3   45 350 01 00:   BULK DENSITY
 CORR.G/C3   45 356 01 00:   DENSITY CORRECTION
 TEND.LBS    45 635 01 00:   TENSION FROM DENSITY LOG
 CALD.IN     45 280 60 00:   CALIPER FROM DENSITY LOG
~PARAMETER INFORMATION
#MNEM.UNIT          VALUE    DESCRIPTION
#----------   ------------   ------------------------------
 EKB .F         5124.0000:   Kelly bushing
 EGL .F         5113.0000:   Ground level
 EDF .F         5123.0000:   Drilling floor
 TD  .F         3026.0000:   Total depth
 DATE.        22-SEP-1986:   Date logged
 CLNT.            A2DTECH:   Client Code
 SL  . 1097' FSL & 1722' FWL:   Surface Location
 PD  .                 GL:   Permanent Datum
 EPD .F              5113:   Elevation Permanent Datum
 LMF .                 KB:   Log Measured From
 DMF .                 KB:   Drilling Measured From
 DAPD.F                11:   Feet Above Permanent Datum
 DD  .F              3026:   Depth driller
 DL  .F              3023:   Depth logger
 BLI .F              3020:   Bottom log interval
 CS1 .IN            8.625:   Casing size
 CBD1.      8.625" @ 517':   Casing driller 1
 CBL1.F               518:   Casing logger 1
 BS1 .IN            7.875:   Bit size
 BSD1.F              3026:   Depth drilled with bit1
 DFT .            KCL-GEL:   Type fluid in hole
 DFD .                8.6:   Density
 DFV .                 41:   Viscosity
 DFPH.                9.5:   pH
 DFL .                6.8:   Fluid loss
 MSS .           FLOWLINE:   Source of sample
 RMS .OHMM           0.37:   Rm
 MST .F                58:   Rm Meas. temp.
 RMF .OHMM           0.33:   Rmf
 MFST.F                63:   Rmf Meas. temp.
 RMC .OHMM           0.59:   Rmc
 MCST.F                58:   Rmc Meas. temp.
 MFSS.               MEAS:   Source Rmf.
 MCSS.               CALC:   Source Rmc.
 RMB .OHMM           0.16:   Rm. at BHT
 BHT .F               131:   BHT.
 TCS .HRS               3:   Time Circ. stopped
 MRT .F               131:   Maximum recorded temp.
 LUN .            HL 6426:   Logging unit number
 LUL .                 RS:   Logging unit location
 ENGI.               RALL:   Recorded By
 WITN.             STRONG:   Witnessed by
 ORIG.           5" PRINT:   Origin of data
 UWI .     49025111090000:   Unique Well ID
 DICO. A2D TECHNOLOGIES, INC.:   Digitizing Company
~OTHER INFORMATION
~A   DEPT      GRR        SPR       TENR       RILD       RILM       RFOC        CNC       RHOB       CORR       TEND       CALD   
# ...
 1173.0000    90.5100   -12.2210   -51.5160     8.9890     9.2070     9.3110  -999.2500  -999.2500  -999.2500  -999.2500  -999.2500
 1173.5000    91.7070   -12.0310   -52.4070     8.9530     9.3030     9.1910  -999.2500  -999.2500  -999.2500  -999.2500  -999.2500
 1174.0000    96.4320   -11.7690   -53.2970     8.8290     9.3220     9.0710  -999.2500  -999.2500  -999.2500  -999.2500  -999.2500
 1174.5000    98.2040   -11.6460   -54.0200     8.7060     9.2150     8.9500  -999.2500  -999.2500  -999.2500  -999.2500  -999.2500
 1175.0000    95.2930   -11.9630   -60.7200     8.5830     9.1080     8.8300  -999.2500  -999.2500  -999.2500  -999.2500  -999.2500
 1175.5000    94.8870   -12.3350   -64.0700     8.4600     9.0010     8.7100  -999.2500  -999.2500  -999.2500  -999.2500  -999.2500
 1176.0000    97.4070   -12.6070   -59.9830     8.3370     8.9040     8.5900  -999.2500  -999.2500  -999.2500  -999.2500  -999.2500
 1176.5000   100.7730   -12.9530   -56.6000     8.2140     8.8200     8.4690  -999.2500  -999.2500  -999.2500  -999.2500  -999.2500
 1177.0000   102.0990   -13.2550   -43.9700     8.0910     8.7360     8.3490  -999.2500  -999.2500  -999.2500  -999.2500  -999.2500
 1177.5000    99.0980   -13.4330   -45.3230     7.9680     8.6520     8.2290  -999.2500  -999.2500  -999.2500  -999.2500  -999.2500
 1178.0000    95.6790   -13.5600   -46.6240     7.9250     8.5670     8.1090  -999.2500  -999.2500  -999.2500  -999.2500  -999.2500
 1178.5000    94.6460   -13.5290   -47.9260     7.9250     8.4830     7.9880  -999.2500  -999.2500  -999.2500  -999.2500  -999.2500
 1179.0000    95.9990   -13.2890   -49.2270     7.9250     8.4560     7.9250  -999.2500  -999.2500  -999.2500  -999.2500  -999.2500
 1179.5000    98.4480   -13.0790   -50.5280     7.9250     8.4560     8.1050  -999.2500  -999.2500  -999.2500  -999.2500  -999.2500
 1180.0000    99.1030   -12.8130   -51.8300     8.0260     8.4560     8.2460  -999.2500  -999.2500  -999.2500  -999.2500  -999.2500
 1180.5000    99.0040   -12.6490   -53.1310     8.1720     8.5500     8.3880  -999.2500  -999.2500  -999.2500  -999.2500  -999.2500
 1181.0000    99.0970   -12.9010   -54.0200     8.3010     8.6360     8.3850  -999.2500  -999.2500  -999.2500  -999.2500  -999.2500
 1181.5000   100.7750   -13.2100   -54.0200     8.3180     8.6940     8.2470  -999.2500  -999.2500  -999.2500  -999.2500  -999.2500
 1182.0000   104.2320   -13.4490   -54.0200     8.3330     8.6650     8.0730  -999.2500  -999.2500  -999.2500  -999.2500  -999.2500
 1182.5000   103.8080   -13.6090   -54.0200     8.3480     8.6340     8.3770  -999.2500  -999.2500  -999.2500  -999.2500  -999.2500
 1183.0000   100.1320   -13.5260   -54.0200     8.3630     8.6030     8.7860  -999.2500  -999.2500  -999.2500  -999.2500  -999.2500
 1183.5000    96.3770   -13.4240   -57.5380     8.3780     8.5720     9.1940  -999.2500  -999.2500  -999.2500  -999.2500  -999.2500
 1184.0000    92.7840   -13.3680   -62.1520     8.3490     8.5350     9.3620  -999.2500  -999.2500  -999.2500  -999.2500  -999.2500
 1184.5000    91.8240   -13.2460   -66.7660     8.2990     8.5140     8.7770  -999.2500  -999.2500  -999.2500  -999.2500  -999.2500
 1185.0000    93.4960   -13.0390   -71.3800     8.2480     8.4620     8.3780  -999.2500  -999.2500  -999.2500  -999.2500  -999.2500
 1185.5000    95.1730   -12.6280   -73.6820     8.1980     8.4100     8.5300  -999.2500  -999.2500  -999.2500  -999.2500  -999.2500
 1186.0000    95.3100   -12.2450   -72.6020     8.1480     8.3580     8.6580  -999.2500  -999.2500  -999.2500  -999.2500  -999.2500
 1186.5000    93.7770   -12.2030   -71.5230     8.0970     8.3060     8.7850  -999.2500  -999.2500  -999.2500  -999.2500  -999.2500
 1187.0000    92.5980   -12.2380   -70.4430     8.0470     8.2530     8.7570  -999.2500  -999.2500  -999.2500  -999.2500  -999.2500
 1187.5000    95.3390   -12.2130   -69.3630     7.9990     8.2400     8.5290  -999.2500  -999.2500  -999.2500  -999.2500  -999.2500
 1188.0000   100.7910   -12.2270   -68.2830     8.1060     8.2760     8.3010  -999.2500  -999.2500  -999.2500  -999.2500  -999.2500
 1188.5000   104.6560   -12.2220   -67.2030     8.1440     8.3110     8.1490  -999.2500  -999.2500  -999.2500  -999.2500  -999.2500
 1189.0000   105.0650   -12.2210   -66.1230     8.1830     8.3460     8.2720  -999.2500  -999.2500  -999.2500  -999.2500  -999.2500
 1189.5000    99.9290   -12.2250   -65.0430     8.2210     8.3820     8.5300  -999.2500  -999.2500  -999.2500  -999.2500  -999.2500
 1190.0000    92.2690   -12.2200   -64.0700     8.2590     8.4170     8.7890  -999.2500  -999.2500  -999.2500  -999.2500  -999.2500
 1190.5000    88.6720   -12.2250   -64.0700     8.3010     8.4560     9.0480  -999.2500  -999.2500  -999.2500  -999.2500  -999.2500
 1191.0000    88.3810   -12.2190   -64.0700     8.1980     8.3680     9.2760  -999.2500  -999.2500  -999.2500  -999.2500  -999.2500
 1191.5000    89.5850   -12.2260   -64.0700     8.0850     8.2710     9.2760  -999.2500  -999.2500  -999.2500  -999.2500  -999.2500
 1192.0000    94.3760   -12.2170   -64.0700     7.9710     8.1750     8.9130  -999.2500  -999.2500  -999.2500  -999.2500  -999.2500
 1192.5000    98.1860   -12.2290   -64.0700     7.8580     8.0730     8.4170  -999.2500  -999.2500  -999.2500  -999.2500  -999.2500
 1193.0000    96.1490   -12.4140   -64.0700     7.7450     8.0170     7.9990  -999.2500  -999.2500  -999.2500  -999.2500  -999.2500
 1193.5000    94.6150   -12.6980   -64.0700     7.6320     8.0420     7.9390  -999.2500  -999.2500  -999.2500  -999.2500  -999.2500
 1194.0000    97.2480   -12.9440   -64.0700     7.5190     8.0660     7.9760  -999.2500  -999.2500  -999.2500  -999.2500  -999.2500
 1194.5000    99.9690   -13.2300   -64.0700     7.4060     8.0900     8.0140  -999.2500  -999.2500  -999.2500  -999.2500  -999.2500
 1195.0000   100.3880   -13.4240   -64.0700     7.3740     8.1150     8.0510  -999.2500  -999.2500  -999.2500  -999.2500  -999.2500
 1195.5000    99.1630   -13.3150   -64.0700     7.3980     8.1390     8.0200  -999.2500  -999.2500  -999.2500  -999.2500  -999.2500
 1196.0000    98.9100   -13.0940   -64.0700     7.4220     8.1490     7.8880  -999.2500  -999.2500  -999.2500  -999.2500  -999.2500
 1196.5000   100.3360   -12.8930   -64.0700     7.4460     8.2040     7.7570  -999.2500  -999.2500  -999.2500  -999.2500  -999.2500
 1197.0000   100.7940   -12.6800   -64.0700     7.4700     8.2490     7.8170  -999.2500  -999.2500  -999.2500  -999.2500  -999.2500
 1197.5000    98.7780   -12.4760   -64.0700     7.4970     8.3010     7.9880  -999.2500  -999.2500  -999.2500  -999.2500  -999.2500
 1198.0000    95.9880   -12.2600   -64.0700     7.4440     8.2760     8.1490  -999.2500  -999.2500  -999.2500  -999.2500  -999.2500
 1198.5000    93.2960   -12.0640   -64.0700     7.3620     8.2460     7.9990  -999.2500  -999.2500  -999.2500  -999.2500  -999.2500
 1199.0000    90.6310   -11.8370   -64.0700     7.2810     8.2240     7.9150  -999.2500  -999.2500  -999.2500  -999.2500  -999.2500
 1199.5000    90.4040   -11.6280   -64.0700     7.1990     7.8980     7.8360  -999.2500  -999.2500  -999.2500  -999.2500  -999.2500
 1200.0000    92.6070   -11.6050   -64.0700     7.1580     7.5670     7.7440  -999.2500  -999.2500  -999.2500  -999.2500  -999.2500
 1200.5000    96.2650   -11.6250   -61.7590     7.1580     7.6070     7.7080  -999.2500  -999.2500  -999.2500  -999.2500  -999.2500
 1201.0000   100.3650   -11.6110   -59.1960     7.1580     7.6190     7.7080  -999.2500  -999.2500  -999.2500  -999.2500  -999.2500
 1201.5000   100.3770   -11.6190   -56.6330     7.1580     7.5620     7.7080  -999.2500  -999.2500  -999.2500  -999.2500  -999.2500
 1202.0000    98.4700   -11.6170   -54.0200     7.2160     7.5060     7.7080  -999.2500  -999.2500  -999.2500  -999.2500  -999.2500
 1202.5000    99.0510   -11.6160   -38.9450     7.2760     7.4500     7.6370  -999.2500  -999.2500  -999.2500  -999.2500  -999.2500
 1203.0000    98.2500   -11.6170   -23.8690     7.3350     7.5060     8.0530  -999.2500  -999.2500  -999.2500  -999.2500  -999.2500
