~VERSION INFORMATION
 VERS.                2.0:   CWLS LOG ASCII STANDARD - VERSION 2.0
 WRAP.                 NO:   ONE LINE PER DEPTH STEP
~WELL INFORMATION
#MNEM.UNIT      DATA TYPE    INFORMATION
#----------   ------------   ------------------------------
 STRT.F            5.0000:   START DEPTH
 STOP.F         5604.0000:   STOP DEPTH
 STEP.F            0.5000:   STEP LENGTH
 NULL.          -999.2500:   NO VALUE
 COMP.   LAWRENCE ALLISON:   COMPANY
 WELL. LAWRENCE 62 TPX #10-10:   WELL
 FLD .           NPR NO 3:   FIELD
 LOC .      S10 T38N R78W:   LOCATION
 CNTY.            NATRONA:   COUNTY
 STAT.            WYOMING:   STATE
 CTRY. UNITED STATES OF AMERICA:   COUNTRY
 SRVC.      DRESSER ATLAS:   SERVICE COMPANY
 DATE.        08-NOV-1985:   LOGDATE
 API .     49025110490000:   API NUMBER
~CURVE INFORMATION
#MNEM.UNIT       API CODE    CURVE DESCRIPTION
#----------   ------------   ------------------------------
 DEPT.F                  :   
 TEND.LBS    45 635 01 00:   TENSION FORM DENSITY LOG
 CNC .DEC    42 890 03 00:   NEUTRON POROSITY SANDSTONE
 CORR.G/C3   45 356 01 00:   DENSITY CORRECTION
 RHOB.G/C3   45 350 01 00:   BULK DENSITY
 TENR.LBS    11 635 01 00:   TENSION FROM RESISTIVITY
 GRR .GAPI   11 310 01 00:   GAMMA RAY FROM RESISTIVITY
 SPR .MV     11 010 01 00:   SPONTANEOUS POTENTIAL FROM RES.
 CALR.IN     11 280 01 00:   CALIPER FROM RESISTIVITY
 RD  .OHMM   11 220 10 00:   RESISTIVITY DEEP
 RS  .OHMM   11 220 09 00:   RESISTIVITY SHALLOW
 RMLL.OHMM   11 270 04 00:   MICRO LATEROLOG
 TENS.LBS    60 635 01 00:   TENSION FROM SONIC
 DT  .US/F   60 520 00 00:   DELTA TIME
~PARAMETER INFORMATION
#MNEM.UNIT          VALUE    DESCRIPTION
#----------   ------------   ------------------------------
 EKB .F         5167.0000:   Kelly bushing
 EGL .F         5155.0000:   Ground level
 EDF .F            0.0000:   Drilling floor
 TD  .F         5600.0000:   Total depth
 CLNT.            A2DTECH:   Client Code
 PD  .                 GL:   Permanent Datum
 EPD .F              5155:   Elevation Permanent Datum
 LMF .                 KB:   Log Measured From
 DMF .                 KB:   Drilling Measured From
 DAPD.F                12:   Feet Above Permanent Datum
 DATE.        08-NOV-1985:   Date Logged [DD-MMM-YYYY]
 DD  .F              5600:   Depth driller
 DL  .F              5600:   Depth logger
 BLI .F              5597:   Bottom log interval
 TLI .F               467:   Top log interval
 CS1 .IN            9.625:   Casing size
 CBD1.      9.625" @ 467':   Casing driller 1
 CBL1.F               465:   Casing logger 1
 BS1 .IN             8.75:   Bit size
 BSD1.F              5600:   Depth drilled with bit1
 DFT .        KCL POLYMER:   Type fluid in hole
 DFD .                9.2:   Density
 DFV .                 38:   Viscosity
 DFPH.                8.5:   pH
 DFL .                8.6:   Fluid loss
 MSS .           FLOWLINE:   Source of sample
 RMS .OHMM           0.28:   Rm
 MST .F                75:   Rm Meas. temp.
 RMF .OHMM           0.21:   Rmf
 MFST.F                75:   Rmf Meas. temp.
 MFSS.               CALC:   Source Rmf.
 RMC .OHMM           0.35:   Rmc
 MCST.F                75:   Rmc Meas. temp.
 MCSS.               CALC:   Source Rmc.
 RMB .OHMM           0.13:   Rm. at BHT
 BHT .F               168:   BHT.
 TCS .HRS               7:   Time Circ. stopped
 MRT .F               168:   Maximum recorded temp.
 LUN .               6274:   Logging unit number
 LUL .               GLTE:   Logging unit location
 ENGI.               MACK:   Recorded By
 WITN.             STRONG:   Witnessed by
 ORIG.      2.5" 5" PRINT:   Origin of data
 UWI .     49025110490000:   Unique Well ID
 DICO. A2D TECHNOLOGIES, INC.:   Digitizing Company
~OTHER INFORMATION
~A  DEPTH     TEND        CNC       CORR       RHOB       TENR        GRR        SPR       CALR         RD         RS       RMLL       TENS         DT
# ...
 2501.0000   -59.7864     0.1983     0.0419     2.4135   -57.5304    77.3326   -37.3832     9.4678    21.0373    11.6163     9.2677   -54.6141    76.3785
 2501.5000   -74.3346     0.1930     0.0359     2.4193   -65.8793    75.8774   -37.3622     9.4700    20.7625    11.4634     9.2118   -54.5225    76.1633
 2502.0000   -74.2630     0.1978     0.0345     2.4173   -71.6712    75.0106   -37.6406     9.4573    20.7876    11.2372     9.2236   -54.4294    76.0210
 2502.5000   -74.1914     0.1989     0.0344     2.4149   -72.5748    74.7634   -37.9192     9.4595    20.8077    11.1680     9.3620   -54.3356    75.8039
 2503.0000   -88.7427     0.1989     0.0373     2.4154   -73.4789    74.2065   -38.3472     9.4624    20.8279    11.0961     9.4971   -54.2249    75.6570
 2503.5000   -88.6681     0.1975     0.0433     2.4178   -74.3825    72.7513   -38.4759     9.4640    21.2863    11.0308     9.5057   -54.1334    75.5849
 2504.0000   -88.5965     0.1862     0.0524     2.4238   -67.4728    72.1838   -38.4550     9.4663    21.6045    11.0394     9.4482   -54.0419    75.6801
 2504.5000   -88.5234     0.1742     0.0628     2.4515   -68.6024    71.9367   -38.4340     9.4685    22.7012    11.1247     9.5229   -53.9503    75.9136
 2505.0000   -73.8304     0.1652     0.0754     2.4899   -69.5064    71.0803   -38.5629     9.4858    24.5246    11.2889     9.6828   -53.8587    75.5461
 2505.5000   -73.7573     0.1561     0.0660     2.5371   -70.4100    69.6251   -38.9910     9.5030    28.2009    11.8204    10.1976   -53.7672    75.1785
 2506.0000   -59.0643     0.1500     0.0608     2.5402   -71.3136    66.0741   -39.2693     9.5203    31.5410    14.8570    11.4637   -53.6756    73.0868
 2506.5000   -58.9912     0.1507     0.0608     2.5381   -72.2172    67.6129   -39.5479     9.5375    35.0329    20.4743    17.0518   -53.5841    71.3495
 2507.0000   -58.9181     0.1568     0.0618     2.5381   -73.1208    72.1457   -39.9758     9.5398    36.5568    19.9414    29.4447   -53.4910    71.1252
 2507.5000   -63.1013     0.1718     0.0769     2.5352   -74.0248    74.8822   -40.2542     9.5420    35.8387    17.8796    36.8400   -53.3971    71.3525
 2508.0000   -78.2700     0.1894     0.1018     2.5088   -74.9284    74.6246   -40.6824     9.5443    32.1055    16.2220    26.9812   -53.2865    71.8799
 2508.5000   -87.9520     0.1965     0.0914     2.4589   -75.8320    71.9718   -40.9611     9.5315    27.9742    14.9461    26.4426   -53.1950    72.4073
 2509.0000   -87.8655     0.1994     0.0583     2.4277   -69.1199    70.8144   -41.3889     9.5038    25.4103    14.2812    25.0415   -53.1034    72.9347
 2509.5000   -87.7924     0.1965     0.0421     2.4120   -70.0524    72.3548   -41.8170     9.4910    23.7306    14.2925    19.9299   -53.0118    74.0631
 2510.0000   -87.7193     0.2018     0.0490     2.4164   -70.9559    75.3906   -41.6464     9.4633    22.3162    12.3492    11.9289   -52.9203    75.1367
 2510.5000   -87.6462     0.2000     0.0549     2.4223   -71.8595    75.4681   -41.0266     9.4356    22.1834    11.5429     9.6267   -52.8288    76.0504
 2511.0000   -87.5731     0.1982     0.0608     2.4252   -72.7631    74.5760   -40.5565     9.4379    22.2050    11.6444     9.7026   -52.7372    76.4721
 2511.5000   -87.4866     0.1941     0.0666     2.4267   -73.6721    73.1208   -40.2361     9.4401    21.9202    11.7224     9.8471   -52.6456    76.3233
 2512.0000   -87.4150     0.2000     0.0608     2.4238   -74.5828    69.8692   -40.0654     9.4574    21.6295    11.4769     9.7200   -52.5526    76.0994
 2512.5000   -87.3434     0.2059     0.0549     2.4238   -60.2998    71.4081   -40.0445     9.4896    21.2141    11.1707     9.3967   -52.4587    75.9506
 2513.0000   -87.2717     0.2029     0.0490     2.4238   -61.2292    74.4439   -39.8738     9.5068    20.7835    10.7974     9.2104   -52.3481    75.8766
 2513.5000   -87.2001     0.2011     0.0461     2.4267   -62.1395    76.5815   -39.8528     9.5241    20.3888    10.5220     9.0923   -52.2565    76.0287
 2514.0000   -87.1286     0.1999     0.0490     2.4326   -63.0501    76.3239   -39.9815     9.5413    20.1274    10.4572     9.0351   -52.1650    76.6312
 2514.5000   -87.0569     0.1994     0.0490     2.4326   -64.1406    76.6651   -40.1108     9.5586    20.0076    10.5385     8.8559   -52.0734    77.0835
 2515.0000   -86.9853     0.2008     0.0549     2.4326   -72.6315    77.9045   -40.2390     9.5458    20.0278    10.6216     8.6163   -59.5123    77.1601
 2515.5000   -86.9137     0.2039     0.0585     2.4326   -73.5351    79.1440   -40.2186     9.5325    19.7459    10.7037     8.2795   -66.9282    77.2367
 2516.0000   -86.8421     0.2061     0.0719     2.4308   -74.4387    78.8864   -40.1976     9.5354    19.6525    10.7119     9.0822   -66.8138    77.3133
 2516.5000   -86.7690     0.2078     0.0697     2.4251   -75.3427    77.4312   -40.0264     9.5376    19.5356    10.6439     9.1415   -59.2147    77.4651
 2517.0000   -86.6959     0.2099     0.0528     2.4147   -76.2463    75.9725   -40.0054     9.5399    19.2851    10.5783     9.0235   -58.6251    77.6203
 2517.5000   -86.6228     0.2100     0.0325     2.3944   -77.0105    71.2135   -39.8347     9.5270    19.1704    10.5884     8.9611   -51.5203    77.6183
 2518.0000   -86.5497     0.2076     0.0063     2.3976   -78.0535    70.0716   -39.6640     9.5294    19.8708    10.5212     8.5256   -51.4097    77.3196
 2518.5000   -86.4766     0.2047     0.0243     2.4032   -86.5448    70.4132   -39.4934     9.5316    20.3082    10.4584     8.3824   -51.3181    76.8703
 2519.0000   -86.4035     0.2021     0.0407     2.4067   -87.4483    70.1416   -39.1730     9.5339    20.6118    10.4664     8.7578   -58.7569    76.4210
 2519.5000   -86.3304     0.1988     0.0549     2.4127   -88.3519    67.7854   -39.0023     9.5361    20.7753    10.5473     9.4752   -51.1350    75.8965
 2520.0000   -86.2573     0.1859     0.0608     2.4191   -89.2555    68.1836   -38.8316     9.5228    20.9401    10.6289     9.5908   -51.0434    75.5220
 2520.5000   -86.1842     0.1765     0.0695     2.4261   -90.1596    69.4289   -38.6610     9.5406    21.2532    10.6370     9.0197   -50.9519    75.5990
 2521.0000   -86.1111     0.1665     0.0725     2.4367   -83.2499    71.5983   -38.4903     9.5429    22.0244    10.7939     9.0279   -50.8603    75.5249
 2521.5000   -86.0380     0.1547     0.0695     2.4653   -76.5662    72.7595   -38.4693     9.5451    25.1508    11.2614     9.3553   -50.7688    75.6019
 2522.0000   -85.9649     0.1462     0.0490     2.4936   -77.6958    69.6502   -38.2986     9.5474    29.7346    12.6814     9.8988   -50.6757    74.4764
 2522.5000   -85.8918     0.1435     0.0305     2.5044   -78.5994    64.6912   -38.2777     9.5496    33.0265    15.7378    10.9196   -50.5818    71.9827
 2523.0000   -85.8187     0.1429     0.0549     2.5029   -71.6902    60.2362   -38.2567     9.5519    35.6792    19.1282    14.2307   -50.4712    69.3242
 2523.5000   -85.7322     0.1688     0.0755     2.4795   -72.8198    60.0525   -38.2357     9.5392    31.9626    20.3768    23.4862   -50.3797    66.6657
 2524.0000   -85.6606     0.1988     0.0910     2.4267   -73.7234    60.9925   -38.2147     9.5259    24.7523    19.6967    17.5593   -50.2881    65.0910
 2524.5000   -85.5890     0.1975     0.0988     2.4164   -66.8141    60.4355   -38.4932     9.5131    20.2622    14.8299    13.3117   -50.1965    66.2946
 2525.0000   -85.5173     0.1921     0.0798     2.4164   -60.3565    60.8283   -39.0719     9.5004    17.4117    10.2727     8.3659   -50.1050    69.3085
 2525.5000   -85.4458     0.1851     0.0595     2.4179   -61.2601    63.6204   -39.4762     9.4876    16.4839    10.1368     7.0877   -50.0134    72.6602
 2526.0000   -85.3742     0.1800     0.0451     2.4196   -62.1637    68.9807   -39.7303     9.4605    17.0862    10.1465     6.8030   -49.9219    75.0145
 2526.5000   -85.3025     0.1736     0.0344     2.4244   -63.0673    73.1776   -39.9845     9.4627    18.4586    10.1542     7.4542   -49.8303    75.5419
