~VERSION INFORMATION
 VERS.                2.0:   CWLS LOG ASCII STANDARD - VERSION 2.0
 WRAP.                 NO:   ONE LINE PER DEPTH STEP
~WELL INFORMATION
#MNEM.UNIT      DATA TYPE    INFORMATION
#----------   ------------   ------------------------------
 STRT.F          700.5000:   START DEPTH
 STOP.F         3060.0000:   STOP DEPTH
 STEP.F            0.5000:   STEP LENGTH
 NULL.          -999.2500:   NO VALUE
 COMP.    FENIX & SCISSON:   COMPANY
 WELL.   FENIX "A" #23-34:   WELL
 FLD .           N P R #3:   FIELD
 LOC .      S34 T39N R78W:   LOCATION
 CNTY.            NATRONA:   COUNTY
 STAT.            WYOMING:   STATE
 CTRY. UNITED STATES OF AMERICA:   COUNTRY
 SRVC.       SCHLUMBERGER:   SERVICE COMPANY
 DATE.        23-APR-1977:   LOGDATE
 API .     49025103590000:   API NUMBER
~CURVE INFORMATION
#MNEM.UNIT       API CODE    CURVE DESCRIPTION
#----------   ------------   ------------------------------
 DEPT.F                  :   
 ILD .OHMM   07 120 46 00:   DEEP INDUCTION RESISTIVITY
 ILM .OHMM   07 120 44 00:   INDUCTION LOG MEDIUM RESISTIVITY
 LL8 .OHMM   07 220 08 00:   LATEROLOG-8 RES.
 SPR .MV     07 010 01 00:   SPONTANEOUS POTENTIAL
 GRD .GAPI   45 310 01 00:   GAMMA RAY FROM DENSITY LOG
 CALD.IN     45 280 60 00:   CALIPER FROM DENSITY LOG
 RHOB.G/C3   45 350 01 00:   BULK DENSITY
 CORR.G/C3   45 356 01 00:   DENSITY CORRECTION
~PARAMETER INFORMATION
#MNEM.UNIT          VALUE    DESCRIPTION
#----------   ------------   ------------------------------
 EKB .F         5094.0000:   Kelly bushing
 EGL .F         5082.0000:   Ground level
 EDF .F            0.0000:   Drilling floor
 EPD .F            0.0000:   Permanent datum
 TD  .F         3051.0000:   Total depth
 DATE.        23-APR-1977:   Date logged
 CLNT.            A2DTECH:   Client Code
 SL  . 990' FWL & 1650' FNL:   Surface Location
 PD  .                 GL:   Permanent Datum
 DD  .F              3050:   Depth driller
 DL  .F              3051:   Depth logger
 BLI .F              3045:   Bottom log interval
 CS1 .IN            8.625:   Casing size
 CBD1.      8.625" @ 718':   Casing driller 1
 CBL1.F               717:   Casing logger 1
 BS1 .IN            7.875:   Bit size
 DFT .                FGM:   Type fluid in hole
 DFD .                8.8:   Density
 DFV .                 34:   Viscosity
 DFPH.                8.5:   pH
 DFL .                8.2:   Fluid loss
 MSS .           FLOWLINE:   Source of sample
 RMS .OHMM           .155:   Rm
 MST .F                66:   Rm Meas. temp.
 RMF .OHMM           .152:   Rmf
 MFST.F                66:   Rmf Meas. temp.
 MFSS.               MEAS:   Source Rmf.
 RMB .OHMM           .085:   Rm. at BHT
 BHT .F               120:   BHT.
 TCS .HRS            0230:   Time Circ. stopped
 MRT .F               120:   Maximum recorded temp.
 LUN .               5642:   Logging unit number
 LUL .               CSPR:   Logging unit location
 ENGI.             TAYLOR:   Recorded By
 WITN.         HARRINGTON:   Witnessed by
 ORIG.           5" PRINT:   Origin of data
 UWI .     49025103590000:   Unique Well ID
 DICO. A2D TECHNOLOGIES, INC.:   Digitizing Company
 DAPD.                 12:   Feet Above Permanent Datum
 BSD1.               3050:   Depth drilled with bit1
 TLI .                717:   Top log interval
 TLAB.               0530:   Time logger at bottom
~OTHER INFORMATION
~A   DEPT      ILD        ILM        LL8        SPR         GRD      CALD       RHOB       CORR   
# ...
 1024.5000     9.2690     7.4820     8.5920   -70.3490   114.4980    10.2360     2.5020     0.0240
 1025.0000     9.3260     7.3490     8.7890   -70.5600   115.0640    10.2320     2.4760     0.0230
 1025.5000     9.3820     7.2280     8.9690   -70.8090   115.0660    10.2200     2.4630     0.0250
 1026.0000     9.4380     7.1440     9.1660   -71.0580   116.2340    10.2080     2.4760     0.0340
 1026.5000     9.4940     7.1900     9.1660   -71.3070   117.4490    10.1950     2.4760     0.0320
 1027.0000     9.5160     7.2300     9.1660   -71.5580   118.0810    10.1830     2.4700     0.0300
 1027.5000     9.5250     7.2710     9.1660   -71.7490   119.1280    10.1710     2.4750     0.0280
 1028.0000     9.5330     7.3120     9.1660   -71.5250   119.7160    10.1590     2.4830     0.0350
 1028.5000     9.5420     7.3530     9.1660   -71.3960   117.0350    10.1470     2.4760     0.0370
 1029.0000     9.5500     7.3940     9.1660   -71.1400   115.2670    10.1340     2.4640     0.0260
 1029.5000     9.5590     7.4130     9.1660   -70.8860   115.2020    10.1220     2.4560     0.0170
 1030.0000     9.5670     7.2580     9.1660   -70.6330   114.3130    10.1100     2.4710     0.0220
 1030.5000     9.5760     7.1410     9.1650   -70.3790   112.4800    10.0980     2.4860     0.0300
 1031.0000     9.5850     7.0250     9.1670   -70.1250   113.7550    10.0860     2.4970     0.0360
 1031.5000     9.5970     6.9490     9.1660   -69.8710   114.2440    10.0760     2.5220     0.0280
 1032.0000     9.5950     7.0140     9.4020   -69.6170   114.4760    10.1020     2.5280     0.0250
 1032.5000     9.9270     7.1580     9.6760   -69.3630   114.9590    10.1420     2.5260     0.0410
 1033.0000    10.2110     7.3210     9.9500   -69.1110   114.1390    10.1830     2.4980     0.0290
 1033.5000    10.4950     7.5850    10.2230   -68.9560   111.6620    10.2240     2.5090     0.0420
 1034.0000    10.7790     7.8490    10.4970   -68.9850   110.4840    10.2560     2.4920     0.0300
 1034.5000    11.0630     8.1140    10.7710   -69.0110   109.5490    10.2580     2.5130     0.0490
 1035.0000    11.3470     8.3780    11.0450   -69.0370   108.6290    10.2650     2.5200     0.0590
 1035.5000    11.6310     8.6430    11.3180   -69.0630   108.0690    10.2720     2.5020     0.0380
 1036.0000    11.9150     8.7520    11.7290   -69.0890   109.0820    10.2780     2.5140     0.0460
 1036.5000    12.2010     8.7040    11.6720   -69.1150   109.7820    10.2850     2.5250     0.0570
 1037.0000    12.2010     8.5800    11.4500   -69.1470   108.5390    10.2910     2.5080     0.0510
 1037.5000    12.2010     8.4560    11.2290   -68.9750   106.9730    10.2980     2.5050     0.0440
 1038.0000    12.1600     8.3580    11.2760   -68.7640   106.9970    10.3050     2.4660     0.0310
 1038.5000    11.9580     8.5680    11.4380   -68.5500   107.4280    10.3110     2.4430     0.0160
 1039.0000    11.7560     8.7430    11.3490   -68.3360   108.1430    10.3240     2.4430     0.0130
 1039.5000    11.5540     8.9150    11.1310   -68.1240   108.4620    10.3470     2.4650     0.0230
 1040.0000    11.3510     8.9150    10.9140   -67.9510   107.7830    10.3690     2.4930     0.0340
 1040.5000    11.1490     8.9150    10.6960   -67.9560   107.9510    10.3920     2.4710     0.0210
 1041.0000    10.9470     8.6720    10.4790   -67.9570   110.4360    10.4140     2.4790     0.0280
 1041.5000    10.7450     8.4340    10.2610   -67.9560   113.1040    10.3990     2.4880     0.0320
 1042.0000    10.5430     8.2050    10.0520   -67.9570   113.3230    10.3540     2.4810     0.0220
 1042.5000    10.4160     8.1400    10.0520   -67.9810   113.1170    10.3100     2.4730     0.0170
 1043.0000    10.3590     8.0770    10.0520   -68.0940   113.1230    10.2650     2.4620     0.0160
 1043.5000    10.3020     8.0140    10.0520   -68.3320   112.2410    10.2560     2.4630     0.0190
 1044.0000    10.2450     7.9510    10.0520   -68.7320   112.2690    10.2560     2.4780     0.0270
 1044.5000    10.1870     7.8880    10.0520   -69.1300   112.2710    10.2570     2.5060     0.0380
 1045.0000    10.1300     7.8260    10.0130   -69.5260   111.5060    10.2590     2.5080     0.0330
 1045.5000    10.0730     7.7630     9.8650   -69.9230   108.2050    10.2610     2.5090     0.0420
 1046.0000    10.0160     7.7000     9.7170   -70.1280   103.7180    10.2630     2.4880     0.0320
 1046.5000     9.9590     7.5870     9.5680   -70.1080   103.6340    10.2650     2.4910     0.0310
 1047.0000     9.9020     7.4660     9.4200   -70.0900   105.8920    10.2670     2.4870     0.0370
 1047.5000     9.8450     7.3450     9.2720   -70.0700   107.2140    10.2690     2.4850     0.0470
 1048.0000     9.7880     7.2240     9.1600   -70.0500   107.7670    10.2700     2.5170     0.0570
 1048.5000     9.7300     7.1440     9.1390   -70.0300   107.9370    10.2720     2.5180     0.0530
 1049.0000     9.6730     7.1900     9.1170   -70.0100   108.2660    10.2740     2.5100     0.0470
 1049.5000     9.6160     7.2580     9.0960   -69.9900   109.8250    10.2720     2.5020     0.0590
 1050.0000     9.5590     7.3250     9.0750   -69.9700   111.5070    10.2590     2.4940     0.0460
 1050.5000     9.5020     7.3450     9.0540   -69.9510   113.2180    10.2470     2.4870     0.0410
 1051.0000     9.4450     7.2510     9.0330   -69.9410   112.8060    10.2340     2.4950     0.0410
 1051.5000     9.3880     7.1790     9.0120   -69.9410   109.5760    10.2220     2.4940     0.0350
 1052.0000     9.3360     7.1070     8.9910   -69.9410   107.2880    10.2100     2.4910     0.0350
 1052.5000     9.3330     7.0350     8.9700   -69.9360   108.5040    10.1970     2.4920     0.0470
 1053.0000     9.3210     7.0140     8.9490   -70.1660   110.6580    10.1930     2.4980     0.0490
 1053.5000     9.3100     7.1020     8.9270   -70.4840   112.0370    10.1870     2.5010     0.0490
 1054.0000     9.2980     7.2100     8.9060   -70.8050   110.8900    10.1820     2.4770     0.0250
 1054.5000     9.2860     7.2100     8.8850   -71.1250   109.8710    10.1760     2.4830     0.0210
 1055.0000     9.2750     7.0340     8.8640   -71.4430   109.2650    10.1710     2.4810     0.0250
 1055.5000     9.2630     6.8850     8.8430   -71.7620   109.2950    10.1650     2.4780     0.0380
 1056.0000     9.2510     6.9390     8.8220   -71.8320   111.0690    10.1600     2.4780     0.0640
 1056.5000     9.2500     7.0150     8.8010   -71.6520   113.4830    10.1540     2.4820     0.0530
 1057.0000     9.2610     7.0910     8.7800   -71.4740   114.7640    10.1480     2.4740     0.0290
 1057.5000     9.2750     7.1440     8.7520   -71.2950   114.5770    10.1430     2.4620     0.0220
 1058.0000     9.2900     7.1440     8.7650   -71.1230   114.1960    10.1370     2.4700     0.0220
 1058.5000     9.3050     7.1440     8.7890   -70.9140   113.2400    10.1320     2.4880     0.0480
 1059.0000     9.3190     7.1440     8.8140   -70.7350   113.3210    10.1260     2.4830     0.0520
 1059.5000     9.3340     7.1440     8.8380   -70.6670   111.4820    10.1200     2.4750     0.0420
 1060.0000     9.3480     7.1440     8.8630   -70.5940   109.3810    10.1150     2.4660     0.0170
 1060.5000     9.3630     7.1440     8.8880   -70.5210   107.5010    10.1090     2.4670     0.0290
 1061.0000     9.3770     7.1440     8.9120   -70.4490   107.0920    10.1040     2.4730     0.0410
 1061.5000     9.3920     7.1440     8.9370   -70.3760   108.5460    10.0980     2.4630     0.0210
 1062.0000     9.4070     7.1440     8.9610   -70.5200   109.7560    10.0920     2.4570     0.0260
 1062.5000     9.4210     7.1440     8.9860   -70.8800   110.7790    10.0870     2.4640     0.0360
 1063.0000     9.4360     7.1440     9.0110   -71.2400   113.9630    10.0810     2.4660     0.0400
 1063.5000     9.4500     7.1310     9.0350   -71.6010   115.0050    10.0760     2.4640     0.0240
 1064.0000     9.4650     7.1190     9.0600   -71.9180   114.6170    10.0700     2.4660     0.0250
 1064.5000     9.4800     7.1070     9.0840   -71.8580   113.1380    10.0640     2.4720     0.0340
