~VERSION INFORMATION
 VERS.                2.0:   CWLS LOG ASCII STANDARD - VERSION 2.0
 WRAP.                 NO:   ONE LINE PER DEPTH STEP
~WELL INFORMATION
#MNEM.UNIT      DATA TYPE    INFORMATION
#----------   ------------   ------------------------------
 STRT.F            5.0000:   START DEPTH
 STOP.F         5604.0000:   STOP DEPTH
 STEP.F            0.5000:   STEP LENGTH
 NULL.          -999.2500:   NO VALUE
 COMP.   LAWRENCE ALLISON:   COMPANY
 WELL. LAWRENCE 62 TPX #10-10:   WELL
 FLD .           NPR NO 3:   FIELD
 LOC .      S10 T38N R78W:   LOCATION
 CNTY.            NATRONA:   COUNTY
 STAT.            WYOMING:   STATE
 CTRY. UNITED STATES OF AMERICA:   COUNTRY
 SRVC.      DRESSER ATLAS:   SERVICE COMPANY
 DATE.        08-NOV-1985:   LOGDATE
 API .     49025110490000:   API NUMBER
~CURVE INFORMATION
#MNEM.UNIT       API CODE    CURVE DESCRIPTION
#----------   ------------   ------------------------------
 DEPT.F                  :   
 TEND.LBS    45 635 01 00:   TENSION FORM DENSITY LOG
 CNC .DEC    42 890 03 00:   NEUTRON POROSITY SANDSTONE
 CORR.G/C3   45 356 01 00:   DENSITY CORRECTION
 RHOB.G/C3   45 350 01 00:   BULK DENSITY
 TENR.LBS    11 635 01 00:   TENSION FROM RESISTIVITY
 GRR .GAPI   11 310 01 00:   GAMMA RAY FROM RESISTIVITY
 SPR .MV     11 010 01 00:   SPONTANEOUS POTENTIAL FROM RES.
 CALR.IN     11 280 01 00:   CALIPER FROM RESISTIVITY
 RD  .OHMM   11 220 10 00:   RESISTIVITY DEEP
 RS  .OHMM   11 220 09 00:   RESISTIVITY SHALLOW
 RMLL.OHMM   11 270 04 00:   MICRO LATEROLOG
 TENS.LBS    60 635 01 00:   TENSION FROM SONIC
 DT  .US/F   60 520 00 00:   DELTA TIME
~PARAMETER INFORMATION
#MNEM.UNIT          VALUE    DESCRIPTION
#----------   ------------   ------------------------------
 EKB .F         5167.0000:   Kelly bushing
 EGL .F         5155.0000:   Ground level
 EDF .F            0.0000:   Drilling floor
 TD  .F         5600.0000:   Total depth
 CLNT.            A2DTECH:   Client Code
 PD  .                 GL:   Permanent Datum
 EPD .F              5155:   Elevation Permanent Datum
 LMF .                 KB:   Log Measured From
 DMF .                 KB:   Drilling Measured From
 DAPD.F                12:   Feet Above Permanent Datum
 DATE.        08-NOV-1985:   Date Logged [DD-MMM-YYYY]
 DD  .F              5600:   Depth driller
 DL  .F              5600:   Depth logger
 BLI .F              5597:   Bottom log interval
 TLI .F               467:   Top log interval
 CS1 .IN            9.625:   Casing size
 CBD1.      9.625" @ 467':   Casing driller 1
 CBL1.F               465:   Casing logger 1
 BS1 .IN             8.75:   Bit size
 BSD1.F              5600:   Depth drilled with bit1
 DFT .        KCL POLYMER:   Type fluid in hole
 DFD .                9.2:   Density
 DFV .                 38:   Viscosity
 DFPH.                8.5:   pH
 DFL .                8.6:   Fluid loss
 MSS .           FLOWLINE:   Source of sample
 RMS .OHMM           0.28:   Rm
 MST .F                75:   Rm Meas. temp.
 RMF .OHMM           0.21:   Rmf
 MFST.F                75:   Rmf Meas. temp.
 MFSS.               CALC:   Source Rmf.
 RMC .OHMM           0.35:   Rmc
 MCST.F                75:   Rmc Meas. temp.
 MCSS.               CALC:   Source Rmc.
 RMB .OHMM           0.13:   Rm. at BHT
 BHT .F               168:   BHT.
 TCS .HRS               7:   Time Circ. stopped
 MRT .F               168:   Maximum recorded temp.
 LUN .               6274:   Logging unit number
 LUL .               GLTE:   Logging unit location
 ENGI.               MACK:   Recorded By
 WITN.             STRONG:   Witnessed by
 ORIG.      2.5" 5" PRINT:   Origin of data
 UWI .     49025110490000:   Unique Well ID
 DICO. A2D TECHNOLOGIES, INC.:   Digitizing Company
~OTHER INFORMATION
~A  DEPTH     TEND        CNC       CORR       RHOB       TENR        GRR        SPR       CALR         RD         RS       RMLL       TENS         DT
# ...
 1825.0000  -999.2500  -999.2500  -999.2500  -999.2500   -69.7464   112.7287   -77.3199    10.3554     9.1029     7.2409     7.2209  -999.2500  -999.2500
 1825.5000  -999.2500  -999.2500  -999.2500  -999.2500   -69.6026   110.0587   -77.4596    10.3424     9.1111     7.2464     7.2264  -999.2500  -999.2500
 1826.0000  -999.2500  -999.2500  -999.2500  -999.2500   -69.4589   111.8962   -77.5988    10.3443     9.1192     7.2004     7.1831  -999.2500  -999.2500
 1826.5000  -999.2500  -999.2500  -999.2500  -999.2500   -69.3151   112.5278   -77.5880    10.3463     9.1274     7.2073     7.1885  -999.2500  -999.2500
 1827.0000  -999.2500  -999.2500  -999.2500  -999.2500   -69.1713   114.3571   -77.7275    10.3632     9.1356     7.1615     7.2944  -999.2500  -999.2500
 1827.5000  -999.2500  -999.2500  -999.2500  -999.2500   -69.0276   116.1863   -77.5672    10.3651     9.2716     7.3191     7.6098  -999.2500  -999.2500
 1828.0000  -999.2500  -999.2500  -999.2500  -999.2500   -68.8838   116.5104   -77.2573    10.3670     9.3445     7.4269     7.3054  -999.2500  -999.2500
 1828.5000  -999.2500  -999.2500  -999.2500  -999.2500   -68.7401   115.3538   -76.9475    10.3840     9.4180     7.3798     7.3110  -999.2500  -999.2500
 1829.0000  -999.2500  -999.2500  -999.2500  -999.2500   -68.5963   113.5903   -76.7873    10.3860     9.5581     7.3344     7.5745  -999.2500  -999.2500
 1829.5000  -999.2500  -999.2500  -999.2500  -999.2500   -68.4525   112.7167   -76.6272    10.3879     9.6332     7.4957     7.6860  -999.2500  -999.2500
 1830.0000  -999.2500  -999.2500  -999.2500  -999.2500   -68.3088   111.5520   -76.6168    10.3898     9.8446     7.7661     7.8534  -999.2500  -999.2500
 1830.5000  -999.2500  -999.2500  -999.2500  -999.2500   -68.1650   111.2854   -76.6063    10.3768     9.7843     7.8806     7.9140  -999.2500  -999.2500
 1831.0000  -999.2500  -999.2500  -999.2500  -999.2500   -68.0213   111.6259   -76.5958    10.3788     9.7965     7.8318     7.9201  -999.2500  -999.2500
 1831.5000  -999.2500  -999.2500  -999.2500  -999.2500   -67.8775   112.8563   -76.5855    10.3807     9.9434     7.7836     7.7615  -999.2500  -999.2500
 1832.0000  -999.2500  -999.2500  -999.2500  -999.2500   -67.7338   113.1804   -76.7345    10.3676    10.0182     7.7898     7.9321  -999.2500  -999.2500
 1832.5000  -999.2500  -999.2500  -999.2500  -999.2500   -67.5900   111.4250   -76.8640    10.3546    10.0970     7.8499     7.9933  -999.2500  -999.2500
 1833.0000  -999.2500  -999.2500  -999.2500  -999.2500   -67.4462   108.1563   -76.8536    10.3266    10.1131     7.9656     7.9993  -999.2500  -999.2500
 1833.5000  -999.2500  -999.2500  -999.2500  -999.2500   -67.3025   105.7939   -76.9928    10.3285    10.1856     8.0272     8.1171  -999.2500  -999.2500
 1834.0000  -999.2500  -999.2500  -999.2500  -999.2500   -67.1587   110.3260   -76.8323    10.3155    10.1948     8.0892     8.2367  -999.2500  -999.2500
 1834.5000  -999.2500  -999.2500  -999.2500  -999.2500   -67.0150   116.3469   -76.8219    10.3174    10.2040     8.1517     8.2429  -999.2500  -999.2500
 1835.0000  -999.2500  -999.2500  -999.2500  -999.2500   -66.8712   120.8707   -76.6367    10.3043    10.1422     8.2147     8.2492  -999.2500  -999.2500
 1835.5000  -999.2500  -999.2500  -999.2500  -999.2500   -66.7274   117.9096   -76.5015    10.2913    10.0812     8.2781     8.2554  -999.2500  -999.2500
 1836.0000  -999.2500  -999.2500  -999.2500  -999.2500   -66.5837   114.6490   -76.3392    10.2933    10.0228     8.3421     8.2031  -999.2500  -999.2500
 1836.5000  -999.2500  -999.2500  -999.2500  -999.2500   -66.4399   111.6879   -76.4811    10.2952     9.8252     8.2334     8.0978  -999.2500  -999.2500
 1837.0000  -999.2500  -999.2500  -999.2500  -999.2500   -66.2962   112.6189   -76.7675    10.2972     9.6315     8.0142     7.9909  -999.2500  -999.2500
 1837.5000  -999.2500  -999.2500  -999.2500  -999.2500   -66.1524   113.5500   -76.9067    10.3141     9.3764     7.6403     7.6197  -999.2500  -999.2500
 1838.0000  -999.2500  -999.2500  -999.2500  -999.2500   -66.0087   114.4810   -77.1957    10.3160     9.1916     7.3338     7.2644  -999.2500  -999.2500
 1838.5000  -999.2500  -999.2500  -999.2500  -999.2500   -65.8649   115.4121   -77.3376    10.3180     9.3283     7.1889     7.1685  -999.2500  -999.2500
 1839.0000  -999.2500  -999.2500  -999.2500  -999.2500   -65.7211   116.0437   -77.6265    10.3200     9.6662     7.1944     7.3770  -999.2500  -999.2500
 1839.5000  -999.2500  -999.2500  -999.2500  -999.2500   -65.5774   115.7772   -77.7658    10.3369     9.8100     7.5170     7.9123  -999.2500  -999.2500
 1840.0000  -999.2500  -999.2500  -999.2500  -999.2500   -65.4336   114.9118   -77.9051    10.3389     9.9560     7.9953     7.8093  -999.2500  -999.2500
 1840.5000  -999.2500  -999.2500  -999.2500  -999.2500   -65.2899   114.0465   -77.8920    10.3558    10.1018     7.8911     7.8152  -999.2500  -999.2500
 1841.0000  -999.2500  -999.2500  -999.2500  -999.2500   -65.1461   113.1796   -77.7319    10.3577    10.1132     7.7835     7.8756  -999.2500  -999.2500
 1841.5000  -999.2500  -999.2500  -999.2500  -999.2500   -65.0023   114.1122   -77.5734    10.3597    10.2636     7.7404     7.9915  -999.2500  -999.2500
 1842.0000  -999.2500  -999.2500  -999.2500  -999.2500   -64.8586   113.5462   -77.3832    10.3616    10.3443     7.9159     8.1092  -999.2500  -999.2500
 1842.5000  -999.2500  -999.2500  -999.2500  -999.2500   -64.7148   112.9790   -77.2515    10.3786    10.4983     8.1532     8.2859  -999.2500  -999.2500
 1843.0000  -999.2500  -999.2500  -999.2500  -999.2500   -64.5711   114.2107   -77.0913    10.3805    10.5808     8.4402     8.5845  -999.2500  -999.2500
 1843.5000  -999.2500  -999.2500  -999.2500  -999.2500   -64.4273   116.0400   -76.9312    10.3825    10.8130     8.6850     8.8326  -999.2500  -999.2500
 1844.0000  -999.2500  -999.2500  -999.2500  -999.2500   -64.2835   115.4740   -76.6214    10.3844    10.8956     8.8645     8.8393  -999.2500  -999.2500
 1844.5000  -999.2500  -999.2500  -999.2500  -999.2500   -64.1398   114.3084   -76.4612    10.4015    10.8300     8.9331     8.7848  -999.2500  -999.2500
 1845.0000  -999.2500  -999.2500  -999.2500  -999.2500   -63.9960   115.5397   -76.1514    10.4033    10.7648     8.8777     8.8528  -999.2500  -999.2500
 1845.5000  -999.2500  -999.2500  -999.2500  -999.2500   -63.8523   115.5726   -75.9912    10.4053    10.7769     8.8862     8.8595  -999.2500  -999.2500
 1846.0000  -999.2500  -999.2500  -999.2500  -999.2500   -63.7085   113.8090   -75.8311    10.4072    10.8616     8.8929     8.8663  -999.2500  -999.2500
 1846.5000  -999.2500  -999.2500  -999.2500  -999.2500   -63.5648   114.1413   -75.8207    10.3942    10.8714     8.8997     8.8730  -999.2500  -999.2500
 1847.0000  -999.2500  -999.2500  -999.2500  -999.2500   -63.5081   116.2700   -76.1096    10.3961    10.8035     8.9065     8.8798  -999.2500  -999.2500
 1847.5000  -999.2500  -999.2500  -999.2500  -999.2500   -63.5081   116.9016   -76.2515    10.3831    10.5929     8.8500     8.6449  -999.2500  -999.2500
 1848.0000  -999.2500  -999.2500  -999.2500  -999.2500   -63.5081   115.7369   -76.5405    10.3850    10.5292     8.8584     8.4734  -999.2500  -999.2500
 1848.5000  -999.2500  -999.2500  -999.2500  -999.2500   -63.5081   113.3745   -76.8295    10.3870    10.3935     8.8022     8.3054  -999.2500  -999.2500
 1849.0000  -999.2500  -999.2500  -999.2500  -999.2500   -63.5081   111.6109   -77.1184    10.3739    10.3286     8.9336     8.3695  -999.2500  -999.2500
 1849.5000  -999.2500  -999.2500  -999.2500  -999.2500   -63.5081   108.9491   -77.2577    10.3609    10.2687     9.0026     9.0376  -999.2500  -999.2500
 1850.0000  -999.2500  -999.2500  -999.2500  -999.2500   -63.5081   110.4780   -77.3969    10.3478    10.2779     9.1389     8.3822  -999.2500  -999.2500
 1850.5000  -999.2500  -999.2500  -999.2500  -999.2500   -63.5081   112.6110   -77.0845    10.3348    10.4554     9.0819     8.2715  -999.2500  -999.2500
