~VERSION INFORMATION
 VERS.                2.0:   CWLS LOG ASCII STANDARD - VERSION 2.0
 WRAP.                 NO:   ONE LINE PER DEPTH STEP
~WELL INFORMATION
#MNEM.UNIT      DATA TYPE    INFORMATION
#----------   ------------   ------------------------------
 STRT.F            0.0000:   START DEPTH
 STOP.F         3205.0000:   STOP DEPTH
 STEP.F            0.5000:   STEP LENGTH
 NULL.          -999.2500:   NO VALUE
 COMP. LAWRENCE-ALLISON AND ASSOCIATES:   COMPANY
 WELL. LAWRENCE "X" #64-28:   WELL
 FLD .          N.P.R. #3:   FIELD
 LOC .      S28 T39N R78W:   LOCATION
 CNTY.            NATRONA:   COUNTY
 STAT.            WYOMING:   STATE
 CTRY. UNITED STATES OF AMERICA:   COUNTRY
 SRVC.      DRESSER ATLAS:   SERVICE COMPANY
 DATE.        25-MAY-1986:   LOGDATE
 API .     49025110730000:   API NUMBER
~CURVE INFORMATION
#MNEM.UNIT       API CODE    CURVE DESCRIPTION
#----------   ------------   ------------------------------
 DEPT.F                  :   
 GRR .GAPI   07 310 01 00:   GAMMA RAY FROM RESISTIVITY
 SPR .MV     07 010 01 00:   SPONTANEOUS POTENTIAL
 RILD.OHMM   07 120 46 00:   DEEP INDUCTION RESISTIVITY
 RILM.OHMM   07 120 44 00:   INDUCTION LOG MEDIUM RESISTIVITY
 RSFL.OHMM   07 221 01 00:   AMPPLIFIED SHALLOW FOCUSED LOG RESISTIVITY
 TENR.LBS    07 635 01 00:   TENSION FROM RESISTIVITY
 CNC .DEC    42 890 03 00:   NEUTRON POROSITY SANDSTONE
 CALD.IN     45 280 60 00:   CALIPER FROM DENSITY LOG
 DEN .G/C3   45 350 01 00:   BULK DENSITY
 CORR.G/C3   45 356 01 00:   DENSITY CORRECTION
 TEND.LBS    45 635 01 00:   TENSION FROM DENSITY LOG
~PARAMETER INFORMATION
#MNEM.UNIT          VALUE    DESCRIPTION
#----------   ------------   ------------------------------
 EKB .F         5070.0000:   Kelly bushing
 EGL .F         5058.0000:   Ground level
 TD  .F         3205.0000:   Total depth
 DATE.        25-MAY-1986:   Date logged
 CLNT.            A2DTECH:   Client Code
 SL  . 2248' FNL & 1636' FEL:   Surface Location
 PD  .                 GL:   Permanent Datum
 EPD .F              5058:   Elevation Permanent Datum
 LMF .                 KB:   Log Measured From
 DMF .                 KB:   Drilling Measured From
 DAPD.F                12:   Feet Above Permanent Datum
 DD  .F              3205:   Depth driller
 DL  .F              3203:   Depth logger
 BLI .F              3201:   Bottom log interval
 CS1 .IN            8.625:   Casing size
 CBD1.      8.625" @ 476':   Casing driller 1
 CBL1.F               478:   Casing logger 1
 BS1 .IN            7.875:   Bit size
 BSD1.F              3205:   Depth drilled with bit1
 DFT .        POLYMER-KCL:   Type fluid in hole
 DFD .                  9:   Density
 DFV .                 37:   Viscosity
 DFPH.                8.5:   pH
 DFL .                 10:   Fluid loss
 MSS .           FLOWLINE:   Source of sample
 RMS .OHMM           0.31:   Rm
 MST .F                69:   Rm Meas. temp.
 RMF .OHMM           0.25:   Rmf
 MFST.F                69:   Rmf Meas. temp.
 RMC .OHMM           0.39:   Rmc
 MCST.F                69:   Rmc Meas. temp.
 MFSS.               MEAS:   Source Rmf.
 MCSS.               CALC:   Source Rmc.
 RMB .OHMM           0.19:   Rm. at BHT
 BHT .F               115:   BHT.
 TCS .HRS               4:   Time Circ. stopped
 MRT .F               115:   Maximum recorded temp.
 LUN .            HL-6274:   Logging unit number
 LUL .           GILLETTE:   Logging unit location
 ENGI.             RAUTIO:   Recorded By
 WITN.             STRONG:   Witnessed by
 ORIG.           5" PRINT:   Origin of data
 UWI .     49025110730000:   Unique Well ID
 DICO. A2D TECHNOLOGIES, INC.:   Digitizing Company
~OTHER INFORMATION
~A    DEPT     GRR        SPR       RILD       RILM       RSFL       TENR        CNC       CALD        DEN       CORR       TEND   
# ...
 3172.0000   142.6150   -38.0610     4.6590     5.2510     6.3000   261.9760     0.2450     8.0590  -999.2500     0.0680   178.4270
 3172.5000   132.8460   -37.9490     4.6590     5.2820     6.3680   268.4790     0.2480     8.0610  -999.2500     0.0670   181.9810
 3173.0000   126.2760   -37.8790     4.6540     5.2330     6.3450   273.9520     0.2510     8.0720  -999.2500     0.0670   185.4390
 3173.5000   131.6170   -37.7590     4.6480     5.1840     6.3140   276.8710     0.2430     8.0820  -999.2500     0.0660   188.8980
 3174.0000   139.5850   -37.4320     4.6420     5.1350     6.2830   279.3910     0.2410     8.0930  -999.2500     0.0660   192.3560
 3174.5000   143.4870   -37.0640     4.6350     5.0860     6.2520   281.9110     0.2440     8.0840  -999.2500     0.0650   195.8140
 3175.0000  -999.2500   -36.7490     4.6290     5.0370     6.1020   283.9320     0.2460     8.0730  -999.2500     0.0640   199.2720
 3175.5000  -999.2500   -36.3980     4.6230     4.9880     5.9510   292.0600     0.2510     8.0620  -999.2500     0.0640   202.7300
 3176.0000  -999.2500   -36.0610     4.6160     4.9390     5.8630   298.8450     0.2570     8.0590  -999.2500     0.0640   206.1880
 3176.5000  -999.2500   -35.7800     4.6830     4.8900     5.9170   305.6290     0.2610     8.0780  -999.2500     0.0640   209.6470
 3177.0000  -999.2500   -35.5270     4.7480     4.8340     6.2190   312.4140     0.2590     8.0950  -999.2500     0.0650   213.1050
 3177.5000  -999.2500   -35.3560     4.8140     4.9290     6.5120   319.1980     0.2480     8.0940  -999.2500     0.0660   216.5630
 3178.0000  -999.2500   -35.1520     4.8790     5.3150     6.7290   325.9830     0.2580     8.0940  -999.2500     0.0670   221.1580
 3178.5000  -999.2500   -34.7720     4.9440     5.7030     6.8960   332.7670     0.2860     8.0870  -999.2500     0.0670   235.3270
 3179.0000  -999.2500   -34.3870     5.0090     5.7600     7.0290   339.5520     0.2740     8.0690  -999.2500     0.0680   249.4960
 3179.5000  -999.2500   -34.0550     5.0750     5.8090     7.1770   346.3360     0.2350     8.0610  -999.2500     0.0690   263.6650
 3180.0000  -999.2500   -33.7630     5.0390     5.6560     7.2430   353.7920     0.2280     8.1000  -999.2500     0.0700   266.4360
 3180.5000  -999.2500   -33.5770     4.9010     5.4850     6.6070   356.1820     0.2450     8.1070  -999.2500     0.0690   262.0000
 3181.0000  -999.2500   -33.4190     4.7620     5.3130     6.5460   358.8350     0.2480     8.0970  -999.2500     0.0680   257.5650
 3181.5000  -999.2500   -33.2580     4.6240     5.1420     6.2620   361.4880     0.2490     8.0860  -999.2500     0.0680   253.1290
 3182.0000  -999.2500   -33.1040     4.4850     4.9710     5.8680   364.1400     0.2490     8.0760  -999.2500     0.0670   248.9920
 3182.5000  -999.2500   -32.9420     4.3430     4.7990     5.4740   366.7930     0.2490     8.0740  -999.2500     0.0670   253.1500
 3183.0000  -999.2500   -32.7890     4.2020     4.6280     5.2990   369.4450     0.2490     8.0740  -999.2500     0.0660   257.9320
 3183.5000  -999.2500   -32.6260     4.0600     4.4560     5.2990   372.0980     0.2490     8.0740  -999.2500     0.0660   262.7140
 3184.0000  -999.2500   -32.4730     3.9190     4.2850     5.2990   374.7500     0.2480     8.0740  -999.2500     0.0650   267.4960
 3184.5000  -999.2500   -32.3480     3.7770     4.1140     5.1820   377.4030     0.2490     8.0740  -999.2500     0.0640   272.2780
 3185.0000  -999.2500   -32.2880     3.6360     3.9420     4.9650   380.0560     0.2490     8.0730  -999.2500     0.0640   277.0600
 3185.5000  -999.2500   -32.2520     3.4950     3.7710     4.7220   382.7080     0.2500     8.0610  -999.2500     0.0640   281.8420
 3186.0000  -999.2500   -32.1690     3.3900     3.5690     4.5320   387.2680     0.2490     8.0580  -999.2500     0.0640   286.6240
 3186.5000  -999.2500   -32.2590     3.3070     3.5510     4.4850   393.0280     0.2490     8.0690  -999.2500     0.0650   291.4060
 3187.0000  -999.2500   -32.3400     3.2250     3.5290     4.4460   398.7880     0.2490     8.0790  -999.2500     0.0660   296.1880
 3187.5000  -999.2500   -32.0760     3.1830     3.5070     4.4090   404.5480     0.2480     8.0900  -999.2500     0.0660   300.9700
 3188.0000  -999.2500   -31.7320     3.1630     3.4850     4.3510   410.3080     0.2480     8.0890  -999.2500     0.0670   305.7520
 3188.5000  -999.2500   -31.2810     3.1430     3.4630     4.2890   416.0680     0.2480     8.0810  -999.2500     0.0680   310.7930
 3189.0000  -999.2500   -30.6120     3.1230     3.4410     4.3570   421.8280     0.2480     8.0730  -999.2500     0.0680   316.7440
 3189.5000  -999.2500   -29.9110     3.1030     3.4190     4.4360   418.7340     0.2480     8.0670  -999.2500     0.0690   322.6950
 3190.0000  -999.2500   -29.2720     3.0810     3.3970     4.5320   413.6730     0.2480     8.0620  -999.2500     0.0690   328.6460
 3190.5000  -999.2500   -28.7390     3.1230     3.3750     4.6160   423.2060     0.2480     8.0560  -999.2500     0.0690   334.5970
 3191.0000  -999.2500   -28.2360     3.1690     3.3460     4.3760   430.5560     0.2480     8.0590  -999.2500     0.0690   340.5480
 3191.5000  -999.2500   -27.7910     3.2150     3.4620     4.0970   437.9050  -999.2500     8.0660  -999.2500     0.0680   346.4990
 3192.0000  -999.2500   -27.3810     3.2550     3.6110     3.8760   445.2550  -999.2500     8.0740  -999.2500     0.0680   352.4500
 3192.5000  -999.2500   -26.9520     3.2890     3.7510     3.9120   452.6050  -999.2500     8.0840  -999.2500     0.0670   358.4010
 3193.0000  -999.2500   -26.6040     3.3190     3.9460     4.8900   459.9550  -999.2500     8.0930  -999.2500     0.0660   364.3510
 3193.5000  -999.2500   -26.2930     3.3490     4.2410     5.9710   467.3050  -999.2500     8.0670  -999.2500     0.0660   370.3020
 3194.0000  -999.2500   -26.0240     3.3780     4.5360     5.9820   474.6550  -999.2500     8.0670  -999.2500     0.0660   376.2530
 3194.5000  -999.2500   -25.6910     3.4090     4.8340     5.8630   483.5330  -999.2500     8.0900  -999.2500     0.0660   383.3210
 3195.0000  -999.2500   -25.3740     3.4150     4.8090     6.3510   492.2110  -999.2500     8.0940  -999.2500     0.0660   392.3420
 3195.5000  -999.2500   -25.3750     3.4210     4.7840     6.7920   503.1680  -999.2500     8.0940  -999.2500     0.0660   401.3630
 3196.0000  -999.2500   -25.4640     3.4280     4.7600     6.4860   514.1240  -999.2500     8.0940  -999.2500     0.0660   410.3850
 3196.5000  -999.2500   -25.4960     3.4340     4.7620     5.9230   525.0800  -999.2500     8.0940  -999.2500     0.0660   419.4060
 3197.0000  -999.2500   -25.5620     3.4400     4.8020     5.2370   533.4330  -999.2500     8.0940  -999.2500     0.0660   428.4270
 3197.5000  -999.2500   -25.6150     3.4060     4.8410     4.4500   538.6310  -999.2500     8.0940  -999.2500     0.0660   437.4490
 3198.0000  -999.2500   -25.6660     3.3730     4.8780     4.3270   542.8310  -999.2500     8.0940  -999.2500     0.0670   446.4700
 3198.5000  -999.2500   -25.7250     3.3400     4.8610     4.1830   547.0310  -999.2500     8.0940  -999.2500     0.0670   455.4910
 3199.0000  -999.2500   -25.9490     3.3160     4.8450     4.0220   551.2310  -999.2500     8.0900  -999.2500     0.0670   464.5130
 3199.5000  -999.2500   -26.3660     3.2710     4.8280     3.7550   564.6630  -999.2500     8.0800  -999.2500     0.0670   473.5340
 3200.0000  -999.2500   -26.7860     3.2260     4.8120     3.6350   587.8910  -999.2500     8.0700  -999.2500     0.0670   482.5550
 3200.5000  -999.2500   -27.1540     3.2640     4.7960     3.8400   613.2730  -999.2500     8.0610  -999.2500     0.0670   491.5770
 3201.0000  -999.2500   -27.3530     3.3200     4.7790     4.0680   603.2930  -999.2500     8.0580  -999.2500     0.0670   501.0080
 3201.5000  -999.2500   -27.3710     3.3540     4.7630     4.2960   549.4010  -999.2500     8.0750  -999.2500     0.0680   476.3100
 3202.0000  -999.2500   -27.3900     3.3680     4.7450     4.4500   433.6330  -999.2500     8.0910  -999.2500     0.0680   375.8960
