~VERSION INFORMATION
 VERS.                2.0:   CWLS LOG ASCII STANDARD - VERSION 2.0
 WRAP.                 NO:   ONE LINE PER DEPTH STEP
~WELL INFORMATION
#MNEM.UNIT      DATA TYPE    INFORMATION
#----------   ------------   ------------------------------
 STRT.F          170.5000:   START DEPTH
 STOP.F         3160.0000:   STOP DEPTH
 STEP.F            0.5000:   STEP LENGTH
 NULL.          -999.2500:   NO VALUE
 COMP.  FENIX AND SCISSON:   COMPANY
 WELL.    FENIX "A" #85-3:   WELL
 FLD .       TEA POT DOME:   FIELD
 LOC .       S3 T38N R78W:   LOCATION
 CNTY.            NATRONA:   COUNTY
 STAT.            WYOMING:   STATE
 CTRY. UNITED STATES OF AMERICA:   COUNTRY
 SRVC.           BIRDWELL:   SERVICE COMPANY
 DATE.        20-DEC-1977:   LOGDATE
 API .     49025104450000:   API NUMBER
~CURVE INFORMATION
#MNEM.UNIT       API CODE    CURVE DESCRIPTION
#----------   ------------   ------------------------------
 DEPT.F                  :   
 CALD.IN     45 280 60 00:   CALIPER FROM DENSITY LOG
 GRD .GAPI   45 310 01 00:   GAMMA RAY FROM DENSITY LOG
 RHOB.G/C3   45 350 01 00:   BULK DENSITY
 CORR.G/C3   45 356 01 00:   DENSITY CORRECTION
 SPR .MV     05 010 01 00:   SPONTANEOUS POTENTIAL
 SN  .OHMM   05 040 00 00:   SHORT NORMAL
 ILD .OHMM   05 120 46 00:   DEEP INDUCTION RESISTIVITY
~PARAMETER INFORMATION
#MNEM.UNIT          VALUE    DESCRIPTION
#----------   ------------   ------------------------------
 EKB .F         5165.0000:   Kelly bushing
 EGL .F         5155.0000:   Ground level
 TD  .F         3151.0000:   Total depth
 DATE.        20-DEC-1977:   Date logged
 CLNT.            A2DTECH:   Client Code
 SL  . 2000' FSL & 100'FEL:   Surface Location
 PD  .                 GL:   Permanent Datum
 EPD .F              5155:   Elevation Permanent Datum
 LMF .                 KB:   Log Measured From
 DMF .                 KB:   Drilling Measured From
 DAPD.F                10:   Feet Above Permanent Datum
 DD  .F              3150:   Depth driller
 DL  .F              3151:   Depth logger
 BLI .F              3146:   Bottom log interval
 TLI .F               200:   Top log interval
 CS1 .IN            8.625:   Casing size
 CBD1.      8.625" @ 223':   Casing driller 1
 BS1 .IN            7.875:   Bit size
 BSD1.F              3150:   Depth drilled with bit1
 DFT .                KCL:   Type fluid in hole
 DFD .                8.9:   Density
 DFV .                 40:   Viscosity
 DFPH.                 11:   pH
 DFL .                7.2:   Fluid loss
 MSS .           FLOWLINE:   Source of sample
 RMS .OHMM            0.4:   Rm
 MST .F                62:   Rm Meas. temp.
 RMF .OHMM           0.48:   Rmf
 MFST.F                63:   Rmf Meas. temp.
 RMC .OHMM           0.52:   Rmc
 MCST.F                63:   Rmc Meas. temp.
 MFSS.               MEAS:   Source Rmf.
 MCSS.               MEAS:   Source Rmc.
 TCS .HRS             3.5:   Time Circ. stopped
 MRT .F               118:   Maximum recorded temp.
 LUN .               2958:   Logging unit number
 LUL .             CASPER:   Logging unit location
 ENGI.             MILLER:   Recorded By
 WITN.         HERRINGTON:   Witnessed by
 ORIG.           5" PRINT:   Origin of data
 UWI .     49025104450000:   Unique Well ID
 DICO. A2D TECHNOLOGIES, INC.:   Digitizing Company
~OTHER INFORMATION
~A   DEPT     CALD        GRD       RHOB        CORR       SPR         SN        ILD   
# ...
 2946.0000     9.8272   121.3594     2.5273     0.0278   -17.1422     5.6847     2.6296
 2946.5000     9.8258   122.1487     2.5283     0.0297   -17.0394     5.4646     2.6049
 2947.0000     9.8045   126.9046     2.5162     0.0316   -16.7514     5.7376     2.5874
 2947.5000     9.7832   137.0237     2.4981     0.0305   -16.2363     6.0399     2.5878
 2948.0000     9.7818   145.5613     2.4750     0.0255   -15.6758     6.5817     2.5924
 2948.5000     9.7608   148.1309     2.4630     0.0184   -15.0915     7.2165     2.6250
 2949.0000     9.7395   140.7717     2.4409     0.0073   -14.6785     7.6351     2.7206
 2949.5000     9.7381   128.8216     2.4279    -0.0008   -14.1803     7.9949     2.9843
 2950.0000     9.7367   111.6346     2.4288    -0.0169   -13.7811     8.4104     3.7159
 2950.5000     9.6756    96.5882     2.5356     0.0201   -13.3796     8.7671     4.2829
 2951.0000     9.6941    93.9904     2.5406     0.0200   -13.1223     9.0356     4.6784
 2951.5000     9.6927    97.9513     2.5495     0.0199   -12.8751     9.2091     4.5785
 2952.0000     9.6714   103.3061     2.5514     0.0189   -12.6627     9.2748     4.3870
 2952.5000     9.6699   101.1059     2.5544     0.0208   -12.5072     9.2767     4.2086
 2953.0000     9.6486   100.8943     2.5593     0.0207   -12.5015     9.1512     4.1566
 2953.5000     9.6472   100.6815     2.5632     0.0176   -12.4632     8.8873     4.1573
 2954.0000     9.6657   100.0711     2.5451     0.0075   -12.3398     8.6011     4.1594
 2954.5000     9.6643   100.4545     2.5331     0.0025   -12.2572     8.6631     4.1879
 2955.0000     9.6828   100.0417     2.5280     0.0014   -12.1791     8.7481     4.2176
 2955.5000     9.7013   105.5925     2.5269     0.0023   -12.0232     8.8532     4.2477
 2956.0000     9.6999   108.7612     2.5309     0.0062   -12.0179     9.0366     4.2191
 2956.5000     9.7183   110.7346     2.5388     0.0092   -11.9945     9.0381     4.2198
 2957.0000     9.6970   110.9192     2.5367     0.0081   -11.8559     9.0400     4.2206
 2957.5000     9.6959   110.1130     2.5306     0.0070   -11.7015     8.8981     4.0598
 2958.0000     9.6547   106.9161     2.5286     0.0080   -11.5363     8.5648     3.8303
 2958.5000     9.6334   101.9250     2.5325     0.0109   -10.9423     7.9297     3.6248
 2959.0000     9.5922   104.1055     2.5404     0.0148    -9.6040     7.4588     3.3846
 2959.5000     9.5510   109.4576     2.5503     0.0308    -7.6276     7.2720     3.1860
 2960.0000     9.5297   116.7971     2.5543     0.0397    -5.7512     7.1019     3.0702
 2960.5000     9.5283   120.5620     2.5472     0.0396    -4.4144     6.9487     3.0067
 2961.0000     9.5269   129.0996     2.5331     0.0386    -3.8438     6.8512     2.9664
 2961.5000     9.5255   147.3758     2.5250     0.0365    -3.9770     6.8168     2.9465
 2962.0000     9.5440   158.8861     2.5220     0.0294    -4.4833     7.1684     2.9567
 2962.5000     9.5426   161.6601     2.5029     0.0233    -5.3607     7.5923     2.9913
 2963.0000     9.5412   173.7695     2.4738     0.0132    -6.6207     8.1680     3.0949
 2963.5000     9.5397   167.5971     2.4728     0.0111    -8.1966     8.4320     3.5492
 2964.0000     9.5383   149.0912     2.4737     0.0121    -9.1065     8.7788     3.9605
 2964.5000     9.5170   134.0705     2.5226     0.0170   -10.2620     9.0058     4.3207
 2965.0000     9.5355   104.5328     2.5535     0.0270   -11.6113     9.1948     4.5537
 2965.5000     9.5341   100.7426     2.5894     0.0549   -12.4195     9.4101     4.7337
 2966.0000     9.5526   100.3310     2.5894     0.0609   -13.1521     9.5914     4.8983
 2966.5000     9.5512    99.5219     2.5823     0.0608   -13.8321     9.7204     4.9791
 2967.0000     9.5699    98.1166     2.5752     0.0607   -14.6827     9.8720     5.0377
 2967.5000     9.5884    97.7051     2.5722     0.0656   -15.4751    10.0050     5.0737
 2968.0000     9.5671    98.2844     2.5761     0.0706   -15.7543    10.1053     5.0746
 2968.5000     9.5458   100.6524     2.5810     0.0935   -15.7493    10.2240     5.1108
 2969.0000     9.5046    99.2528     2.5819     0.1055   -15.7433    10.2927     5.1117
 2969.5000     9.4833    97.6431     2.5829     0.1214   -15.7362    10.3660     5.1126
 2970.0000     9.4023    95.8431     2.5828     0.1393   -15.7313    10.4403     5.1491
 2970.5000     9.3810    97.6206     2.5657     0.1373   -15.5761    10.5155     5.1500
 2971.0000     9.3995    99.5968     2.5237     0.0921   -15.5701    10.5424     5.1509
 2971.5000     9.3782   100.7723     2.4887     0.0139   -15.4149    10.5926     5.1519
 2972.0000     9.3967    99.5686     2.5375     0.0129   -15.4087    10.5948     5.1527
 2972.5000     9.3953    99.9520     2.5435     0.0188   -15.2537    10.5970     5.1536
 2973.0000     9.3939   101.7238     2.5484     0.0228   -15.2129    10.6730     5.1546
 2973.5000     9.3925    99.9238     2.5553     0.0297   -15.0921    10.6014     5.1554
 2974.0000     9.4110   102.0960     2.5622     0.0336   -14.8577    10.6036     5.1562
 2974.5000     9.4095   104.2709     2.5652     0.0356   -14.7547    10.6059     5.1573
 2975.0000     9.4081    98.8822     2.5681     0.0375   -14.6263    10.6080     5.1580
 2975.5000     9.3868   101.0544     2.5690     0.0384   -14.3995    10.5366     5.1565
 2976.0000     9.3854    99.4503     2.5699     0.0434   -14.1472    10.5393     5.1241
 2976.5000     9.3840    97.8519     2.5729     0.0453   -13.7126    10.5014     5.1119
 2977.0000     9.3829    94.4591     2.5678     0.0362   -13.2795    10.4560     5.0896
 2977.5000     9.4014    96.0350     2.5567     0.0221   -12.7810    10.2576     4.9866
 2978.0000     9.4000    96.2197     2.5497     0.0160   -12.2020     9.9413     4.8854
 2978.5000     9.3787    98.9909     2.5516     0.0210   -11.7269     9.3237     4.6861
 2979.0000     9.3772    99.9705     2.5525     0.0269   -10.9819     8.5716     4.4799
 2979.5000     9.3758   105.5185     2.5524     0.0298   -10.0944     8.0342     4.1273
 2980.0000     9.3741   101.7254     2.5514     0.0357    -9.4428     7.5350     3.4083
 2980.5000     9.3730   102.7107     2.5503     0.0417    -8.5910     7.2126     2.5637
 2981.0000     9.3915   104.0907     2.5442     0.0466    -8.0428     6.9861     2.5565
 2981.5000     9.3901   110.0361     2.5342     0.0516    -7.6836     6.4407     2.5905
 2982.0000     9.3887   116.3875     2.5331     0.0625    -7.5281     6.1537     2.7115
 2982.5000     9.3873   135.7317     2.5080     0.0684    -7.5224     6.0112     2.9012
 2983.0000     9.3859   153.3373     2.4930     0.0713    -8.0339     6.4499     3.1478
 2983.5000     9.3845   167.6301     2.4739     0.0713    -8.7041     7.2719     3.5073
 2984.0000     9.3830   167.6245     2.4259     0.0451    -9.3054     8.1138     4.0269
 2984.5000     9.3617   153.6926     2.4118     0.0281    -9.7647     9.2186     4.4756
 2985.0000     9.3603   132.8947     2.4168    -0.0061   -10.0292     9.8708     4.9650
 2985.5000     9.3592   112.0968     2.5026    -0.0061   -10.2452    10.1274     5.1881
 2986.0000     9.3578    88.2405     2.5605     0.0249   -10.3364    10.2937     5.2867
 2986.5000     9.3564    87.6302     2.5694     0.0318   -10.4597    10.3675     5.2149
 2987.0000     9.3550    85.6315     2.5663     0.0297   -10.4537    10.3696     5.1517
 2987.5000     9.3536    85.0211     2.5663     0.0336   -10.4353    10.3718     5.0708
 2988.0000     9.3720    87.3920     2.5672     0.0346   -10.2916    10.2586     4.9702
 2988.5000     9.3706    87.7754     2.5651     0.0325   -10.0229    10.0551     4.8453
 2989.0000     9.3891    88.3604     2.5541     0.0284    -9.6785     9.8186     4.7360
 2989.5000     9.4076    89.9363     2.5500     0.0303    -9.2287     9.6083     4.5772
 2990.0000     9.4460    90.9159     2.5499     0.0323    -8.9254     9.2978     4.4142
 2990.5000     9.4446    95.0783     2.5498     0.0322    -8.1731     8.8547     4.1530
 2991.0000     9.4631    97.0517     2.5518     0.0321    -7.4360     8.5180     3.8862
