~VERSION INFORMATION
 VERS.                2.0:   CWLS LOG ASCII STANDARD - VERSION 2.0
 WRAP.                 NO:   ONE LINE PER DEPTH STEP
~WELL INFORMATION
#MNEM.UNIT      DATA TYPE    INFORMATION
#----------   ------------   ------------------------------
 STRT.F          208.0000:   START DEPTH
 STOP.F         2980.0000:   STOP DEPTH
 STEP.F            0.5000:   STEP LENGTH
 NULL.          -999.2500:   NO VALUE
 COMP. FENIX & SCISSON INC:   COMPANY
 WELL. FENIX  32AX #28-28:   WELL
 FLD .        TEAPOT DOME:   FIELD
 LOC .      S28 T39N R78W:   LOCATION
 CNTY.            NATRONA:   COUNTY
 STAT.            WYOMING:   STATE
 CTRY. UNITED STATES OF AMERICA:   COUNTRY
 SRVC.           BIRDWELL:   SERVICE COMPANY
 DATE.        09-OCT-1977:   LOGDATE
 API .     49025104430000:   API NUMBER
~CURVE INFORMATION
#MNEM.UNIT       API CODE    CURVE DESCRIPTION
#----------   ------------   ------------------------------
 DEPT.F                  :   
 SPR .MV     05 010 01 00:   SPONTANEOUS POTENTIAL
 ILD .OHMM   05 120 46 00:   DEEP INDUCTION RESISTIVITY
 SN  .OHMM   05 040 16 00:   SHORT NORMAL
 GRD .GAPI   45 310 01 00:   GAMMA RAY FROM DENSITY LOG
 CALD.IN     45 280 60 00:   CALIPER FROM DENSITY LOG
 CORR.G/C3   45 356 01 00:   DENSITY CORRECTION
 DEN .G/C3   45 350 01 00:   BULK DENSITY
~PARAMETER INFORMATION
#MNEM.UNIT          VALUE    DESCRIPTION
#----------   ------------   ------------------------------
 EKB .F         5005.0000:   Kelly bushing
 EGL .F         4995.0000:   Ground level
 EDF .F            0.0000:   Drilling floor
 EPD .F         4995.0000:   Permanent datum
 TD  .F         2980.0000:   Total depth
 DATE.        09-OCT-1977:   Date logged
 CLNT.            A2DTECH:   Client Code
 SL  . 990' FNL & 1650' FWL:   Surface Location
 PD  .                 GL:   Permanent Datum
 DAPD.F                10:   Feet Above Permanent Datum
 DD  .F              2980:   Depth driller
 DL  .F              2979:   Depth logger
 BLI .F              2974:   Bottom log interval
 TLI .F               221:   Top log interval
 CS1 .IN            8.625:   Casing size
 CBD1.      8.625" @ 211':   Casing driller 1
 CBL1.F               221:   Casing logger 1
 BS1 .IN            7.875:   Bit size
 BSD1.F              2980:   Depth drilled with bit1
 DFT .            KCL GEL:   Type fluid in hole
 DFD .                8.8:   Density
 DFV .                 33:   Viscosity
 DFPH.                 11:   pH
 DFL .                6.4:   Fluid loss
 MSS .           FLOWLINE:   Source of sample
 RMS .OHMM            .52:   Rm
 MST .F                59:   Rm Meas. temp.
 RMF .OHMM            .67:   Rmf
 MFST.F                54:   Rmf Meas. temp.
 RMC .OHMM            .45:   Rmc
 MCST.F                56:   Rmc Meas. temp.
 MFSS.               MEAS:   Source Rmf.
 MCSS.               MEAS:   Source Rmc.
 RMB .OHMM            .35:   Rm. at BHT
 BHT .F                91:   BHT.
 TCS .HRS               3:   Time Circ. stopped
 MRT .F                91:   Maximum recorded temp.
 LUN .               2958:   Logging unit number
 LUL .             CASPER:   Logging unit location
 ENGI.                LAW:   Recorded By
 WITN.       W. PENINGELL:   Witnessed by
 ORIG.           5" PRINT:   Origin of data
 UWI .     49025104430000:   Unique Well ID
 DICO. A2D TECHNOLOGIES, INC.:   Digitizing Company
~OTHER INFORMATION
~A   DEPT      SPR        ILD         SN         GRD      CALD       CORR        DEN   
# ...
  390.0000   -34.9270     9.8620     8.7520   118.2270     8.3010     0.0210     2.4880
  390.5000   -34.9970     9.9530     8.7520   115.8640     8.3030     0.0160     2.4840
  391.0000   -35.0340     9.7460     8.7520   115.3900     8.3000     0.0170     2.4830
  391.5000   -35.8460     9.5060     8.7430   117.4290     8.2980     0.0240     2.4900
  392.0000   -36.7990     9.8620     8.7250   119.6520     8.2950     0.0300     2.4970
  392.5000   -36.5890     9.7370     8.7070   120.6330     8.2920     0.0270     2.4990
  393.0000   -36.2640     9.5060     8.6880   116.6680     8.2890     0.0230     2.4790
  393.5000   -36.2610     9.6660     8.6720   113.7770     8.2860     0.0210     2.4800
  394.0000   -36.3120     9.8930     8.6630   112.4490     8.2840     0.0210     2.4800
  394.5000   -36.7110     9.9530     8.5970   110.0700     8.2840     0.0220     2.4810
  395.0000   -37.0780     9.5940     8.5300   108.3590     8.2840     0.0160     2.4720
  395.5000   -36.6330     9.9530     8.3860   106.7380     8.2840     0.0110     2.4680
  396.0000   -36.0830     8.7700     8.2570   105.0890     8.2840     0.0150     2.4680
  396.5000   -35.8600     8.3430     8.1900   107.4830     8.2840     0.0170     2.4660
  397.0000   -35.7160     8.2630     8.1230   111.2810     8.2840     0.0170     2.4610
  397.5000   -35.6860     8.1820     8.0580   108.6310     8.2840     0.0180     2.4570
  398.0000   -35.7230     8.0580     7.8060   108.0850     8.2840     0.0130     2.4450
  398.5000   -35.7600     8.1270     7.5260   108.4510     8.2840     0.0080     2.4230
  399.0000   -35.7980     8.3590     7.2450   108.3200     8.2840     0.0030     2.4100
  399.5000   -35.8350     8.2980     6.9650   112.1680     8.2840     0.0040     2.3920
  400.0000   -35.8580     8.2070     6.6650   113.3270     8.2840     0.0060     2.3690
  400.5000   -35.7610     8.4360     6.3160   112.4740     8.2840     0.0070     2.3450
  401.0000   -35.6680     8.1220     5.9680   115.0870     8.2880     0.0070     2.3190
  401.5000   -35.5800     7.0720     5.6920   117.6450     8.2940     0.0060     2.2900
  402.0000   -35.4890     5.7240     5.2740   119.5430     8.3000     0.0180     2.2610
  402.5000   -35.9750     4.6020     4.6020   117.8130     8.3050     0.0380     2.2400
  403.0000   -36.8310     3.4900     4.0730   116.1570     8.3110     0.0680     2.2500
  403.5000   -36.8770     3.0950     3.5260   114.5160     8.3170     0.0980     2.2900
  404.0000   -36.9020     2.7270     3.5590   112.9940     8.3230     0.1270     2.3480
  404.5000   -36.9310     2.7520     3.5590   112.1780     8.2960     0.0700     2.4980
  405.0000   -36.9610     2.8570     3.6160   107.5530     8.2560     0.0450     2.4810
  405.5000   -36.9900     2.9340     3.7560   102.6490     8.2140     0.0230     2.4820
  406.0000   -37.0200     2.9830     3.9010   105.0570     8.2080     0.0220     2.4850
  406.5000   -37.0510     3.1730     4.2750   108.1480     8.2110     0.0220     2.4830
  407.0000   -37.0550     3.7370     5.5420   111.5620     8.2150     0.0200     2.4790
  407.5000   -37.0440     4.3740     6.0030   116.1640     8.2190     0.0170     2.4790
  408.0000   -36.7670     5.2010     6.6400   120.7590     8.2220     0.0150     2.4820
  408.5000   -36.0450     6.0270     7.5430   123.7150     8.2010     0.0150     2.4860
  409.0000   -36.1880     6.8930     8.1320   119.6680     8.1500     0.0110     2.4810
  409.5000   -36.1030     7.1880     7.8390   123.4780     8.0980     0.0040     2.4710
  410.0000   -35.2770     7.4980     8.0580   126.6730     8.0790     0.0020     2.4820
  410.5000   -35.5220     7.6360     7.6260   125.5740     8.0700     0.0100     2.4960
  411.0000   -35.5590     7.6610     7.7320   122.8560     8.0650     0.0170     2.5040
  411.5000   -35.4710     7.6870     7.8390   124.7860     8.0650     0.0170     2.4950
  412.0000   -35.2280     7.6960     7.9460   125.4320     8.0650     0.0120     2.4890
  412.5000   -35.0590     7.6890     7.9840   128.0420     8.0650     0.0130     2.4880
  413.0000   -35.4540     7.6830     7.9840   123.8320     8.0650     0.0180     2.4930
  413.5000   -35.8490     7.6770     7.9840   124.8930     8.0700     0.0190     2.4970
  414.0000   -35.7080     7.6710     7.9840   123.3480     8.0760     0.0130     2.5010
  414.5000   -36.7800     7.6650     8.0360   122.5930     8.0820     0.0110     2.4860
  415.0000   -37.1410     7.6580     8.1320   126.1850     8.0880     0.0140     2.4780
  415.5000   -37.3330     7.6520     8.1230   126.9460     8.0940     0.0080     2.4700
  416.0000   -37.4900     7.6460     8.1050   127.5370     8.0990     0.0050     2.4690
  416.5000   -37.7380     7.6400     8.0880   125.4010     8.1050     0.0070     2.4680
  417.0000   -37.9980     7.6340     8.0710   123.6200     8.1030     0.0090     2.4710
  417.5000   -37.9560     7.6280     8.0530   120.6640     8.1010     0.0110     2.4730
  418.0000   -37.8290     7.6260     8.0360   117.2860     8.0990     0.0150     2.4770
  418.5000   -38.2710     7.5900     8.0180   110.9210     8.0970     0.0150     2.4810
  419.0000   -38.6260     7.5320     8.0010   112.2770     8.0950     0.0150     2.4870
  419.5000   -38.6760     7.4740     7.9840   113.7930     8.0940     0.0200     2.4940
  420.0000   -37.9060     7.4190     7.9680   110.3980     8.0920     0.0180     2.4970
  420.5000   -37.1080     7.4500     7.9500   114.3880     8.0900     0.0120     2.4860
  421.0000   -36.7060     7.4800     7.9310   118.0930     8.0880     0.0060     2.4760
  421.5000   -37.2980     7.5100     7.9110   116.7350     8.0860     0.0050     2.4700
  422.0000   -37.8180     7.5400     7.9520   119.2310     8.0870     0.0050     2.4780
  422.5000   -37.2010     7.5700     8.0320   120.8670     8.0890     0.0100     2.4850
  423.0000   -36.4860     7.6000     8.1320   117.2590     8.0910     0.0160     2.4870
  423.5000   -36.5470     7.6260     8.0850   119.0820     8.0930     0.0190     2.4870
  424.0000   -36.6530     7.5690     7.9990   117.5720     8.0950     0.0210     2.4950
  424.5000   -36.5910     7.4940     7.9130   114.6030     8.0970     0.0190     2.4920
  425.0000   -36.5070     7.4190     7.8270   113.6410     8.0990     0.0210     2.4950
  425.5000   -36.5370     7.5560     7.7410   115.4020     8.1010     0.0250     2.4970
  426.0000   -36.7460     7.3790     7.6550   117.7740     8.1030     0.0210     2.4990
  426.5000   -37.1850     7.1620     7.5690   120.3780     8.1050     0.0180     2.4950
  427.0000   -37.2520     6.9570     7.5560   122.9380     8.1000     0.0180     2.4900
  427.5000   -37.2510     7.0770     7.4870   125.4390     8.0950     0.0110     2.4760
  428.0000   -37.1790     7.1510     7.3510   126.2060     8.0890     0.0100     2.4620
  428.5000   -37.0700     6.9380     7.1510   128.9070     8.0840     0.0110     2.4550
  429.0000   -37.4540     6.7060     6.9300   129.2870     8.0780     0.0140     2.4500
  429.5000   -37.8340     6.4930     6.8760   127.6310     8.0730     0.0170     2.4530
  430.0000   -37.8490     6.2590     6.8300   126.2690     8.0670     0.0180     2.4610
  430.5000   -37.7130     6.0620     6.7680   129.2700     8.0830     0.0160     2.4790
  431.0000   -37.5700     6.1170     6.7680   130.5050     8.1100     0.0140     2.4770
  431.5000   -37.4450     6.0060     6.7680   132.0430     8.1380     0.0160     2.4850
  432.0000   -37.3770     6.0820     6.7680   131.4090     8.1660     0.0170     2.4900
  432.5000   -37.2950     6.2110     7.0410   129.0450     8.1860     0.0100     2.4840
  433.0000   -37.0430     6.3400     7.3920   130.8660     8.1880     0.0090     2.4770
  433.5000   -36.0190     6.4640     7.7430   132.6010     8.1900     0.0080     2.4750
  434.0000   -35.8600     7.2250     8.0930   133.1350     8.1920     0.0080     2.4800
  434.5000   -35.9030     7.9110     8.3340   130.1750     8.1940     0.0120     2.4860
  435.0000   -35.9710     8.0530     8.4360   129.8240     8.1970     0.0160     2.4910
