~VERSION INFORMATION
 VERS.                2.0:   CWLS LOG ASCII STANDARD - VERSION 2.0
 WRAP.                 NO:   ONE LINE PER DEPTH STEP
~WELL INFORMATION
#MNEM.UNIT      DATA TYPE    INFORMATION
#----------   ------------   ------------------------------
 STRT.F            0.0000:   START DEPTH
 STOP.F         3205.0000:   STOP DEPTH
 STEP.F            0.5000:   STEP LENGTH
 NULL.          -999.2500:   NO VALUE
 COMP. LAWRENCE-ALLISON AND ASSOCIATES:   COMPANY
 WELL. LAWRENCE "X" #64-28:   WELL
 FLD .          N.P.R. #3:   FIELD
 LOC .      S28 T39N R78W:   LOCATION
 CNTY.            NATRONA:   COUNTY
 STAT.            WYOMING:   STATE
 CTRY. UNITED STATES OF AMERICA:   COUNTRY
 SRVC.      DRESSER ATLAS:   SERVICE COMPANY
 DATE.        25-MAY-1986:   LOGDATE
 API .     49025110730000:   API NUMBER
~CURVE INFORMATION
#MNEM.UNIT       API CODE    CURVE DESCRIPTION
#----------   ------------   ------------------------------
 DEPT.F                  :   
 GRR .GAPI   07 310 01 00:   GAMMA RAY FROM RESISTIVITY
 SPR .MV     07 010 01 00:   SPONTANEOUS POTENTIAL
 RILD.OHMM   07 120 46 00:   DEEP INDUCTION RESISTIVITY
 RILM.OHMM   07 120 44 00:   INDUCTION LOG MEDIUM RESISTIVITY
 RSFL.OHMM   07 221 01 00:   AMPPLIFIED SHALLOW FOCUSED LOG RESISTIVITY
 TENR.LBS    07 635 01 00:   TENSION FROM RESISTIVITY
 CNC .DEC    42 890 03 00:   NEUTRON POROSITY SANDSTONE
 CALD.IN     45 280 60 00:   CALIPER FROM DENSITY LOG
 DEN .G/C3   45 350 01 00:   BULK DENSITY
 CORR.G/C3   45 356 01 00:   DENSITY CORRECTION
 TEND.LBS    45 635 01 00:   TENSION FROM DENSITY LOG
~PARAMETER INFORMATION
#MNEM.UNIT          VALUE    DESCRIPTION
#----------   ------------   ------------------------------
 EKB .F         5070.0000:   Kelly bushing
 EGL .F         5058.0000:   Ground level
 TD  .F         3205.0000:   Total depth
 DATE.        25-MAY-1986:   Date logged
 CLNT.            A2DTECH:   Client Code
 SL  . 2248' FNL & 1636' FEL:   Surface Location
 PD  .                 GL:   Permanent Datum
 EPD .F              5058:   Elevation Permanent Datum
 LMF .                 KB:   Log Measured From
 DMF .                 KB:   Drilling Measured From
 DAPD.F                12:   Feet Above Permanent Datum
 DD  .F              3205:   Depth driller
 DL  .F              3203:   Depth logger
 BLI .F              3201:   Bottom log interval
 CS1 .IN            8.625:   Casing size
 CBD1.      8.625" @ 476':   Casing driller 1
 CBL1.F               478:   Casing logger 1
 BS1 .IN            7.875:   Bit size
 BSD1.F              3205:   Depth drilled with bit1
 DFT .        POLYMER-KCL:   Type fluid in hole
 DFD .                  9:   Density
 DFV .                 37:   Viscosity
 DFPH.                8.5:   pH
 DFL .                 10:   Fluid loss
 MSS .           FLOWLINE:   Source of sample
 RMS .OHMM           0.31:   Rm
 MST .F                69:   Rm Meas. temp.
 RMF .OHMM           0.25:   Rmf
 MFST.F                69:   Rmf Meas. temp.
 RMC .OHMM           0.39:   Rmc
 MCST.F                69:   Rmc Meas. temp.
 MFSS.               MEAS:   Source Rmf.
 MCSS.               CALC:   Source Rmc.
 RMB .OHMM           0.19:   Rm. at BHT
 BHT .F               115:   BHT.
 TCS .HRS               4:   Time Circ. stopped
 MRT .F               115:   Maximum recorded temp.
 LUN .            HL-6274:   Logging unit number
 LUL .           GILLETTE:   Logging unit location
 ENGI.             RAUTIO:   Recorded By
 WITN.             STRONG:   Witnessed by
 ORIG.           5" PRINT:   Origin of data
 UWI .     49025110730000:   Unique Well ID
 DICO. A2D TECHNOLOGIES, INC.:   Digitizing Company
~OTHER INFORMATION
~A    DEPT     GRR        SPR       RILD       RILM       RSFL       TENR        CNC       CALD        DEN       CORR       TEND   
# ...
 1555.5000    97.0020   -52.7730     6.8670     7.1850     7.9500   -25.4490  -999.2500  -999.2500  -999.2500  -999.2500  -999.2500
 1556.0000    94.4590   -52.2870     6.9200     7.2180     8.1120   -29.3770  -999.2500  -999.2500  -999.2500  -999.2500  -999.2500
 1556.5000    91.9130   -52.0360     6.9740     7.2520     8.2380   -32.6280  -999.2500  -999.2500  -999.2500  -999.2500  -999.2500
 1557.0000    90.4230   -52.1130     7.0280     7.2850     8.1400   -35.8800  -999.2500  -999.2500  -999.2500  -999.2500  -999.2500
 1557.5000    90.3780   -52.2820     7.0820     7.3190     8.0600   -39.1310  -999.2500  -999.2500  -999.2500  -999.2500  -999.2500
 1558.0000    93.2040   -52.3930     7.0460     7.3530     7.9800   -42.3830  -999.2500  -999.2500  -999.2500  -999.2500  -999.2500
 1558.5000    94.4050   -52.5320     7.1720     7.3770     7.9010   -45.4090  -999.2500  -999.2500  -999.2500  -999.2500  -999.2500
 1559.0000    94.0930   -52.5500     7.2900     7.2830     7.8210   -41.2640  -999.2500  -999.2500  -999.2500  -999.2500  -999.2500
 1559.5000    94.8980   -52.4230     7.4450     7.2080     7.9500   -37.3870  -999.2500  -999.2500  -999.2500  -999.2500  -999.2500
 1560.0000    94.5380   -52.2950     7.4290     7.1110     8.1770   -33.5100  -999.2500  -999.2500  -999.2500  -999.2500  -999.2500
 1560.5000    94.5830   -52.1750     7.4050     7.2310     8.4680   -29.6330  -999.2500  -999.2500  -999.2500  -999.2500  -999.2500
 1561.0000    96.4070   -52.0380     7.3820     7.4010     8.3900   -25.4490  -999.2500  -999.2500  -999.2500  -999.2500  -999.2500
 1561.5000    98.3620   -51.9240     7.3580     7.5840     8.1610   -27.6590  -999.2500  -999.2500  -999.2500  -999.2500  -999.2500
 1562.0000   100.4390   -51.7910     7.3350     7.5350     8.0140   -30.0590  -999.2500  -999.2500  -999.2500  -999.2500  -999.2500
 1562.5000   102.4110   -51.6610     7.3100     7.4820     8.1060   -32.4590  -999.2500  -999.2500  -999.2500  -999.2500  -999.2500
 1563.0000   101.6900   -51.7290     7.2110     7.4290     8.1860   -35.4290  -999.2500  -999.2500  -999.2500  -999.2500  -999.2500
 1563.5000    95.3840   -51.9210     7.1080     7.3760     8.1940   -35.4290  -999.2500  -999.2500  -999.2500  -999.2500  -999.2500
 1564.0000    89.4960   -52.1900     6.9810     7.3240     8.0760   -35.4290  -999.2500  -999.2500  -999.2500  -999.2500  -999.2500
 1564.5000    89.9980   -52.3800     6.9700     7.2710     7.9580   -35.4290  -999.2500  -999.2500  -999.2500  -999.2500  -999.2500
 1565.0000    93.4220   -52.2160     6.9550     7.2180     7.8400   -35.4290  -999.2500  -999.2500  -999.2500  -999.2500  -999.2500
 1565.5000    96.4240   -51.9930     6.9410     7.1770     7.7220   -39.2340  -999.2500  -999.2500  -999.2500  -999.2500  -999.2500
 1566.0000    96.8890   -51.8580     6.9260     7.2300     7.6540   -45.4090  -999.2500  -999.2500  -999.2500  -999.2500  -999.2500
 1566.5000    95.3060   -51.4900     6.9310     7.2840     7.8910   -39.9990  -999.2500  -999.2500  -999.2500  -999.2500  -999.2500
 1567.0000    94.4860   -50.8570     6.9620     7.3370     8.1790   -34.6940  -999.2500  -999.2500  -999.2500  -999.2500  -999.2500
 1567.5000    94.7700   -50.4380     6.9920     7.3770     8.4680   -29.3890  -999.2500  -999.2500  -999.2500  -999.2500  -999.2500
 1568.0000    95.4260   -50.4510     7.0230     7.3080     8.5130   -25.4490  -999.2500  -999.2500  -999.2500  -999.2500  -999.2500
 1568.5000    96.3010   -50.6340     7.0460     7.2520     8.2680   -35.1990  -999.2500  -999.2500  -999.2500  -999.2500  -999.2500
 1569.0000    96.7550   -50.9150     6.9950     7.1970     8.0230   -42.9530  -999.2500  -999.2500  -999.2500  -999.2500  -999.2500
 1569.5000    96.3250   -51.2110     6.9550     7.1410     7.7770   -41.3580  -999.2500  -999.2500  -999.2500  -999.2500  -999.2500
 1570.0000    95.4190   -51.4080     6.9150     7.0860     7.7180   -35.4290  -999.2500  -999.2500  -999.2500  -999.2500  -999.2500
 1570.5000    93.4900   -51.3880     6.8750     7.0300     7.8480   -29.5000  -999.2500  -999.2500  -999.2500  -999.2500  -999.2500
 1571.0000    93.9770   -51.4220     6.8340     6.9810     8.0140   -27.0460  -999.2500  -999.2500  -999.2500  -999.2500  -999.2500
 1571.5000    96.4560   -51.8730     6.7920     7.0080     7.8570   -32.0860  -999.2500  -999.2500  -999.2500  -999.2500  -999.2500
 1572.0000    97.2980   -52.2980     6.8250     7.0320     7.5840   -37.1260  -999.2500  -999.2500  -999.2500  -999.2500  -999.2500
 1572.5000   101.3140   -52.6750     6.8610     7.0560     7.5630   -42.1660  -999.2500  -999.2500  -999.2500  -999.2500  -999.2500
 1573.0000   104.6160   -53.0770     6.8970     7.0800     7.7310   -41.4170  -999.2500  -999.2500  -999.2500  -999.2500  -999.2500
 1573.5000   100.7660   -53.0700     6.9320     7.1040     8.0370   -30.2170  -999.2500  -999.2500  -999.2500  -999.2500  -999.2500
 1574.0000    93.8980   -52.8710     6.9680     7.1290     8.5010   -28.0800  -999.2500  -999.2500  -999.2500  -999.2500  -999.2500
 1574.5000    87.2830   -52.6600     7.0040     7.1530     8.8660   -32.6620  -999.2500  -999.2500  -999.2500  -999.2500  -999.2500
 1575.0000    85.5270   -52.4150     7.0400     7.1770     8.7850   -37.2440  -999.2500  -999.2500  -999.2500  -999.2500  -999.2500
 1575.5000    90.6060   -52.3080     7.0760     7.1270     8.2410   -41.8250  -999.2500  -999.2500  -999.2500  -999.2500  -999.2500
 1576.0000    96.1970   -52.2140     7.1110     7.0780     7.7960   -45.4090  -999.2500  -999.2500  -999.2500  -999.2500  -999.2500
 1576.5000    97.2730   -52.0760     7.0140     7.0290     7.9410   -40.2940  -999.2500  -999.2500  -999.2500  -999.2500  -999.2500
 1577.0000    96.5180   -52.0060     6.9190     6.9790     8.0830   -36.0940  -999.2500  -999.2500  -999.2500  -999.2500  -999.2500
 1577.5000    95.9330   -52.0080     6.8240     6.9300     8.1050   -31.8950  -999.2500  -999.2500  -999.2500  -999.2500  -999.2500
 1578.0000    95.1470   -51.9960     6.6680     6.8810     7.9770   -27.6950  -999.2500  -999.2500  -999.2500  -999.2500  -999.2500
 1578.5000    96.4260   -51.9010     6.7520     6.8770     7.8480   -28.8000  -999.2500  -999.2500  -999.2500  -999.2500  -999.2500
 1579.0000    96.6670   -51.7640     6.8010     6.9240     7.7200   -35.9990  -999.2500  -999.2500  -999.2500  -999.2500  -999.2500
 1579.5000    95.8490   -51.6590     6.8500     6.9720     7.6920   -45.4090  -999.2500  -999.2500  -999.2500  -999.2500  -999.2500
 1580.0000    96.9270   -51.6400     6.8990     7.0200     7.7960   -40.4190  -999.2500  -999.2500  -999.2500  -999.2500  -999.2500
 1580.5000    93.9970   -51.6970     6.9480     7.0680     7.9630   -30.3390  -999.2500  -999.2500  -999.2500  -999.2500  -999.2500
 1581.0000    88.2490   -51.7780     6.9810     7.1160     8.2010   -31.9360  -999.2500  -999.2500  -999.2500  -999.2500  -999.2500
 1581.5000    88.4020   -51.6990     6.9810     7.1770     8.3140   -45.4090  -999.2500  -999.2500  -999.2500  -999.2500  -999.2500
 1582.0000    94.0700   -51.5050     6.9810     7.1540     8.3140   -32.9010  -999.2500  -999.2500  -999.2500  -999.2500  -999.2500
 1582.5000    98.3990   -51.4690     6.9810     7.1220     8.3140   -19.4610  -999.2500  -999.2500  -999.2500  -999.2500  -999.2500
 1583.0000    99.0900   -51.6080     6.9810     7.0910     8.2490    -5.4890  -999.2500  -999.2500  -999.2500  -999.2500  -999.2500
 1583.5000    97.3340   -51.9180     6.9810     7.0590     8.1320   -11.5390  -999.2500  -999.2500  -999.2500  -999.2500  -999.2500
 1584.0000    95.1510   -52.1930     6.9810     7.0710     8.0140   -17.8390  -999.2500  -999.2500  -999.2500  -999.2500  -999.2500
 1584.5000    96.2780   -52.2220     6.9810     7.1160     8.0540   -25.4490  -999.2500  -999.2500  -999.2500  -999.2500  -999.2500
 1585.0000    96.5580   -52.1830     7.0370     7.1600     8.0960   -28.5200  -999.2500  -999.2500  -999.2500  -999.2500  -999.2500
 1585.5000    94.8000   -52.2270     7.1080     7.2050     8.1380   -32.3970  -999.2500  -999.2500  -999.2500  -999.2500  -999.2500
