~VERSION INFORMATION
 VERS.                2.0:   CWLS LOG ASCII STANDARD - VERSION 2.0
 WRAP.                 NO:   ONE LINE PER DEPTH STEP
~WELL INFORMATION
#MNEM.UNIT      DATA TYPE    INFORMATION
#----------   ------------   ------------------------------
 STRT.F            0.0000:   START DEPTH
 STOP.F         3358.0000:   STOP DEPTH
 STEP.F            0.5000:   STEP LENGTH
 NULL.          -999.2500:   NO VALUE
 COMP. LAWRENCE ALLISON & ASSOC.:   COMPANY
 WELL. LAWRENCE NPR 3 "X" #14-11:   WELL
 FLD .                NPR:   FIELD
 LOC .      S11 T38N R78W:   LOCATION
 CNTY.            NATRONA:   COUNTY
 STAT.            WYOMING:   STATE
 CTRY. UNITED STATES OF AMERICA:   COUNTRY
 SRVC.      DRESSER ATLAS:   SERVICE COMPANY
 DATE.        25-SEP-1985:   LOGDATE
 API .     49025110470000:   API NUMBER
~CURVE INFORMATION
#MNEM.UNIT       API CODE    CURVE DESCRIPTION
#----------   ------------   ------------------------------
 DEPT.F                  :   
 TENR.LBS    07 635 01 00:   TENSION
 SPR .MV     07 010 01 00:   SPONTANEOUS POTENTIAL
 SFL .OHMM   07 220 01 00:   SHALLOW FOCUSED LOG RESISTIVITY
 ILD .OHMM   07 120 46 00:   DEEP INDUCTION RESISTIVITY
 ILM .OHMM   07 120 44 00:   INDUCTION LOG MEDIUM RESISTIVITY
 TENS.LBS    60 635 01 00:   TENSION FROM SONIC LOG
 DT  .US/F   60 520 00 00:   DELTA TIME
 TEND.LBS    45 635 01 00:   TENSION FROM DENSITY LOG
 RHOB.G/C3   45 350 01 00:   BULK DENSITY
 CORR.G/C3   45 356 01 00:   DENSITY CORRECTION
 NPHI.DEC    42 890 01 00:   NEUTRON POROSITY LIMESTONE
 GRR .GAPI   07 310 01 00:   GAMMA RAY FROM RESISTIVITY
~PARAMETER INFORMATION
#MNEM.UNIT          VALUE    DESCRIPTION
#----------   ------------   ------------------------------
 EKB .F         5184.0000:   Kelly bushing
 EGL .F         5173.0000:   Ground level
 EDF .F            0.0000:   Drilling floor
 TD  .F         3353.0000:   Total depth
 DATE.        25-SEP-1985:   Date logged
 CLNT.            A2DTECH:   Client Code
 SL  . 473' FWL & 2360' FNL:   Surface Location
 PD  .                 GL:   Permanent Datum
 EPD .F              5173:   Elevation Permanent Datum
 LMF .                 KB:   Log Measured From
 DMF .                 KB:   Drilling Measured From
 DAPD.F                11:   Feet Above Permanent Datum
 DD  .F              3353:   Depth driller
 DL  .F              3346:   Depth logger
 BLI .F              3344:   Bottom log interval
 CS1 .IN            8.625:   Casing size
 CBD1.      8.625" @ 586':   Casing driller 1
 CBL1.F               585:   Casing logger 1
 BS1 .IN            7.875:   Bit size
 BSD1.F              3353:   Depth drilled with bit1
 DFT .     GEL/KCL/STAFLO:   Type fluid in hole
 DFD .                8.9:   Density
 DFV .                 39:   Viscosity
 DFPH.                  8:   pH
 DFL .                8.9:   Fluid loss
 MSS .           FLOWLINE:   Source of sample
 RMS .OHMM            .45:   Rm
 MST .F                80:   Rm Meas. temp.
 RMF .OHMM            .33:   Rmf
 MFST.F                80:   Rmf Meas. temp.
 RMC .OHMM            .56:   Rmc
 MCST.F                80:   Rmc Meas. temp.
 MFSS.               CALC:   Source Rmf.
 MCSS.               CALC:   Source Rmc.
 RMB .OHMM            .27:   Rm. at BHT
 BHT .F               130:   BHT.
 TCS .HRS               3:   Time Circ. stopped
 MRT .F               135:   Maximum recorded temp.
 LUN .               6274:   Logging unit number
 LUL .               GLTE:   Logging unit location
 ENGI.               MACK:   Recorded By
 WITN.             STRONG:   Witnessed by
 ORIG.           5" PRINT:   Origin of data
 UWI .     49025110470000:   Unique Well ID
 DICO. A2D TECHNOLOGIES, INC.:   Digitizing Company
~OTHER INFORMATION
~A    DEPT    TENR        SPR        SFL        ILD        ILM       TENS         DT       TEND       RHOB       CORR       NPHI         GRR  
# ...
  588.0000   -76.7670   -23.6720     5.8650     6.3480     6.2710  -999.2500  -999.2500  -999.2500  -999.2500  -999.2500  -999.2500    37.6030
  588.5000   -76.0500   -25.7950     6.1670    10.3450     6.7760  -999.2500  -999.2500  -999.2500  -999.2500  -999.2500  -999.2500    39.4070
  589.0000   -75.3320   -27.9190     6.4700    10.1200     8.3050  -999.2500  -999.2500  -999.2500  -999.2500  -999.2500  -999.2500    39.7560
  589.5000   -74.6150   -28.9580     6.7720     9.3400     8.2680  -999.2500  -999.2500  -999.2500  -999.2500  -999.2500  -999.2500    39.5440
  590.0000   -73.8970   -31.0710     7.0740     8.5610     8.1930  -999.2500  -999.2500  -999.2500  -999.2500  -999.2500  -999.2500    40.4140
  590.5000   -73.1800   -33.2910     7.3770     8.0060     8.0060  -999.2500  -999.2500  -999.2500  -999.2500  -999.2500  -999.2500    41.7230
  591.0000   -72.4620   -35.7190     7.7180     8.0060     8.0060  -999.2500  -999.2500  -999.2500  -999.2500  -999.2500  -999.2500    42.9100
  591.5000   -71.7450   -36.5540     7.7180     8.9160     7.9740  -999.2500  -999.2500  -999.2500  -999.2500  -999.2500  -999.2500    42.5260
  592.0000   -71.0270   -35.8960     7.7500     9.9600     7.9380  -999.2500  -999.2500  -999.2500  -999.2500  -999.2500  -999.2500    40.8190
  592.5000   -70.3100   -31.4340     7.7790    11.0040     7.9020  -999.2500  -999.2500  -999.2500  -999.2500  -999.2500  -999.2500    39.2520
  593.0000   -69.5930   -26.5580     7.8090    12.1990     7.8610  -999.2500  -999.2500  -999.2500  -999.2500  -999.2500  -999.2500    37.6210
  593.5000   -68.8750   -21.5830     7.8390    12.1990     8.4490  -999.2500  -999.2500  -999.2500  -999.2500  -999.2500  -999.2500    36.5220
  594.0000   -68.1580   -16.8650     7.8880    11.2950     9.1360  -999.2500  -999.2500  -999.2500  -999.2500  -999.2500  -999.2500    35.8490
  594.5000   -67.4400   -11.4740     7.9990    10.4370     9.7920  -999.2500  -999.2500  -999.2500  -999.2500  -999.2500  -999.2500    36.1170
  595.0000   -66.7230    -8.0390     8.1090     9.4400     9.6150  -999.2500  -999.2500  -999.2500  -999.2500  -999.2500  -999.2500    38.0870
  595.5000   -66.0050    -7.7240     8.2200     9.4400     9.1860  -999.2500  -999.2500  -999.2500  -999.2500  -999.2500  -999.2500    39.8190
  596.0000   -65.2880    -6.8570     8.3050     9.8850     9.2060  -999.2500  -999.2500  -999.2500  -999.2500  -999.2500  -999.2500    41.0210
  596.5000   -64.5710    -6.1920     8.3050    10.3150     9.6570  -999.2500  -999.2500  -999.2500  -999.2500  -999.2500  -999.2500    41.2730
  597.0000   -63.8530    -5.4720     8.3050    10.7440    10.1080  -999.2500  -999.2500  -999.2500  -999.2500  -999.2500  -999.2500    40.5350
  597.5000   -63.1360    -4.7490     8.3050    11.1730    10.5590  -999.2500  -999.2500  -999.2500  -999.2500  -999.2500  -999.2500    40.2960
  598.0000   -62.4180    -4.0310     8.5940    11.7600    10.7310  -999.2500  -999.2500  -999.2500  -999.2500  -999.2500  -999.2500    40.0580
  598.5000   -61.7010    -3.3460     8.8770    11.2410    10.6630  -999.2500  -999.2500  -999.2500  -999.2500  -999.2500  -999.2500    39.2560
  599.0000   -61.1330    -2.5300     9.2690    10.7310    10.5790  -999.2500  -999.2500  -999.2500  -999.2500  -999.2500  -999.2500    38.4940
  599.5000   -61.6530    -2.5140     9.0880    10.7310    10.4960  -999.2500  -999.2500  -999.2500  -999.2500  -999.2500  -999.2500    38.7510
  600.0000   -62.0840    -3.3150     8.8630    10.6410    10.4120  -999.2500  -999.2500  -999.2500  -999.2500  -999.2500  -999.2500    40.6220
  600.5000   -62.5140    -3.9680     8.6380    10.5510    10.3280  -999.2500  -999.2500  -999.2500  -999.2500  -999.2500  -999.2500    44.9270
  601.0000   -62.9440    -4.6680     8.3050    10.4600    10.2440  -999.2500  -999.2500  -999.2500  -999.2500  -999.2500  -999.2500    45.9360
  601.5000   -63.3740    -5.3580     8.3740    10.3700    10.1610  -999.2500  -999.2500  -999.2500  -999.2500  -999.2500  -999.2500    44.1490
  602.0000   -63.8050    -6.0450     8.5460    10.2800    10.0770  -999.2500  -999.2500  -999.2500  -999.2500  -999.2500  -999.2500    41.8140
  602.5000   -64.2350    -6.7410     8.7180    10.1900     9.9930  -999.2500  -999.2500  -999.2500  -999.2500  -999.2500  -999.2500    40.7820
  603.0000   -64.6650    -7.4230     8.8900    10.1000     9.9100  -999.2500  -999.2500  -999.2500  -999.2500  -999.2500  -999.2500    41.5920
  603.5000   -65.0960    -8.1230     9.0620    10.0090     9.8260  -999.2500  -999.2500  -999.2500  -999.2500  -999.2500  -999.2500    41.7990
  604.0000   -65.5260    -8.8080     9.2690     9.9730     9.7920  -999.2500  -999.2500  -999.2500  -999.2500  -999.2500  -999.2500    41.5230
  604.5000   -65.9560    -9.4690     9.1210     9.8000     9.6230  -999.2500  -999.2500  -999.2500  -999.2500  -999.2500  -999.2500    42.4860
  605.0000   -66.3860   -10.2000     8.9350     9.6560     9.4810  -999.2500  -999.2500  -999.2500  -999.2500  -999.2500  -999.2500    43.9460
  605.5000   -66.8170   -11.8120     8.7500     9.5120     9.3400  -999.2500  -999.2500  -999.2500  -999.2500  -999.2500  -999.2500    44.5710
  606.0000   -67.2470   -13.4210     8.5640     9.3680     9.1980  -999.2500  -999.2500  -999.2500  -999.2500  -999.2500  -999.2500    44.0110
  606.5000   -67.6770   -14.8740     8.3790     9.2240     9.0570  -999.2500  -999.2500  -999.2500  -999.2500  -999.2500  -999.2500    44.1120
  607.0000   -68.1070   -15.4850     8.1540     9.0800     8.9150  -999.2500  -999.2500  -999.2500  -999.2500  -999.2500  -999.2500    44.9410
  607.5000   -68.5380   -16.1380     8.1150     8.9360     8.7740  -999.2500  -999.2500  -999.2500  -999.2500  -999.2500  -999.2500    44.8350
  608.0000   -68.9680   -16.5400     8.0660     8.8730     8.7120  -999.2500  -999.2500  -999.2500  -999.2500  -999.2500  -999.2500    43.9440
  608.5000   -69.3980   -17.2740     8.0170     8.7680     8.6090  -999.2500  -999.2500  -999.2500  -999.2500  -999.2500  -999.2500    43.0690
  609.0000   -69.8290   -18.1740     7.9680     8.6630     8.5060  -999.2500  -999.2500  -999.2500  -999.2500  -999.2500  -999.2500    43.0850
  609.5000   -70.2590   -19.0620     7.9190     8.5580     8.4030  -999.2500  -999.2500  -999.2500  -999.2500  -999.2500  -999.2500    43.5540
  610.0000   -70.6890   -19.9410     7.8610     8.4530     8.3000  -999.2500  -999.2500  -999.2500  -999.2500  -999.2500  -999.2500    44.1430
  610.5000   -71.1190   -20.8310     7.7410     8.3480     8.1960  -999.2500  -999.2500  -999.2500  -999.2500  -999.2500  -999.2500    44.8510
  611.0000   -71.5500   -21.7220     7.5910     8.2430     8.0930  -999.2500  -999.2500  -999.2500  -999.2500  -999.2500  -999.2500    44.9940
  611.5000   -71.9800   -22.5910     7.4410     8.1380     7.9900  -999.2500  -999.2500  -999.2500  -999.2500  -999.2500  -999.2500    45.1900
  612.0000   -72.4100   -23.5120     7.2760     8.0330     7.8870  -999.2500  -999.2500  -999.2500  -999.2500  -999.2500  -999.2500    45.7410
  612.5000   -72.8410   -24.3540     7.1120     7.9280     7.7840  -999.2500  -999.2500  -999.2500  -999.2500  -999.2500  -999.2500    48.6510
  613.0000   -73.2710   -25.2610     6.9150     7.8230     7.6810  -999.2500  -999.2500  -999.2500  -999.2500  -999.2500  -999.2500    47.6830
  613.5000   -73.7010   -25.8540     6.9150     7.7180     7.5780  -999.2500  -999.2500  -999.2500  -999.2500  -999.2500  -999.2500    46.3660
  614.0000   -74.1310   -27.3040     6.9800     7.7180     7.5780  -999.2500  -999.2500  -999.2500  -999.2500  -999.2500  -999.2500    45.6250
  614.5000   -74.5620   -29.7880     7.0450     7.7180     7.5780  -999.2500  -999.2500  -999.2500  -999.2500  -999.2500  -999.2500    45.0930
  615.0000   -74.9920   -33.2540     7.1100     7.7180     7.5780  -999.2500  -999.2500  -999.2500  -999.2500  -999.2500  -999.2500    44.7210
  615.5000   -75.4220   -36.3480     7.1750     7.6820     7.5320  -999.2500  -999.2500  -999.2500  -999.2500  -999.2500  -999.2500    45.5230
