~VERSION INFORMATION
 VERS.                2.0:   CWLS LOG ASCII STANDARD - VERSION 2.0
 WRAP.                 NO:   ONE LINE PER DEPTH STEP
~WELL INFORMATION
#MNEM.UNIT      DATA TYPE    INFORMATION
#----------   ------------   ------------------------------
 STRT.F          243.5000:   START DEPTH
 STOP.F         2836.0000:   STOP DEPTH
 STEP.F            0.5000:   STEP LENGTH
 NULL.          -999.2500:   NO VALUE
 COMP. FENIX & SCISSON U. S. NAVY:   COMPANY
 WELL.   FENIX "A" #86-20:   WELL
 FLD .             NPR #3:   FIELD
 LOC .      S20 T39N R78W:   LOCATION
 CNTY.            NATRONA:   COUNTY
 STAT.            WYOMING:   STATE
 CTRY. UNITED STATES OF AMERICA:   COUNTRY
 SRVC.       SCHLUMBERGER:   SERVICE COMPANY
 DATE.        22-MAR-1977:   LOGDATE
 API .     49025103130000:   API NUMBER
~CURVE INFORMATION
#MNEM.UNIT       API CODE    CURVE DESCRIPTION
#----------   ------------   ------------------------------
 DEPT.F                  :   
 SPR .MV     07 010 01 00:   SPONTANEOUS POTENTIAL
 ILD .OHMM   07 120 46 00:   DEEP INDUCTION RESISTIVITY
 ILM .OHMM   07 120 44 00:   INDUCTION LOG MEDIUM RESISTIVITY
 LL8 .OHMM   07 220 08 00:   LATEROLOG-8 RES.
 CALD.IN     45 280 60 00:   CALIPER FROM DENSITY LOG
 GRD .GAPI   45 310 01 00:   GAMMA RAY FROM DENSITY LOG
 RHOB.G/C3   45 350 01 00:   BULK DENSITY
 CORR.G/C3   45 356 01 00:   DENSITY CORRECTION
~PARAMETER INFORMATION
#MNEM.UNIT          VALUE    DESCRIPTION
#----------   ------------   ------------------------------
 EKB .F         5005.0000:   Kelly bushing
 EGL .F         4994.0000:   Ground level
 EDF .F            0.0000:   Drilling floor
 TD  .F         2836.0000:   Total depth
 DATE.        22-MAR-1977:   Date logged
 CLNT.            A2DTECH:   Client Code
 SL  . 330' FEL & 1650' FSL:   Surface Location
 PD  .                 GL:   Permanent Datum
 EPD .F              5005:   Elevation Permanent Datum
 LMF .                 KB:   Log Measured From
 DMF .                 KB:   Drilling Measured From
 DD  .F              2835:   Depth driller
 DL  .F              2836:   Depth logger
 BLI .F              2826:   Bottom log interval
 TLI .F               259:   Top log interval
 CBD1.      8.625" @ 258':   Casing driller 1
 CBL1.F               259:   Casing logger 1
 BS1 .IN            7.875:   Bit size
 DFT .                KCL:   Type fluid in hole
 DFD .                9.1:   Density
 DFV .                 35:   Viscosity
 DFPH.                  9:   pH
 DFL .                8.6:   Fluid loss
 MSS .              CIRC.:   Source of sample
 RMS .OHMM           0.22:   Rm
 MST .F                60:   Rm Meas. temp.
 RMF .OHMM           0.18:   Rmf
 MFST.F                60:   Rmf Meas. temp.
 RMC .OHMM           0.33:   Rmc
 MCST.F                60:   Rmc Meas. temp.
 MFSS.               MEAS:   Source Rmf.
 RMB .OHMM           0.12:   Rm. at BHT
 BHT .F               110:   BHT.
 TCS .HRS            0900:   Time Circ. stopped
 MRT .F               110:   Maximum recorded temp.
 LUN .               7980:   Logging unit number
 LUL .               CSPR:   Logging unit location
 ENGI.                FIX:   Recorded By
 WITN.               JAPP:   Witnessed by
 ORIG.           5" PRINT:   Origin of data
 UWI .     49025103130000:   Unique Well ID
 DICO. A2D TECHNOLOGIES, INC.:   Digitizing Company
 DAPD.                 11:   Feet Above Permanent Datum
 CS1 .              8.625:   Casing size
 BSD1.               2835:   Depth drilled with bit1
 MCSS.               CACL:   Source Rmc.
 TLAB.               1630:   Time logger at bottom
~OTHER INFORMATION
~A   DEPT      SPR        ILD        ILM        LL8       CALD         GRD      RHOB       CORR   
# ...
 2106.5000   -51.9080     3.4380     3.5680     5.0200     8.8320   136.7440     2.5090     0.0220
 2107.0000   -51.9720     3.4620     3.5890     5.0970     8.8360   134.9270     2.5090     0.0180
 2107.5000   -52.0330     3.4860     3.6100     5.1740     8.8410   135.4580     2.5130     0.0160
 2108.0000   -52.0950     3.5100     3.6310     5.1470     8.8460   135.2680     2.5280     0.0420
 2108.5000   -52.1580     3.5340     3.6520     5.0090     8.8500   134.1280     2.5290     0.0330
 2109.0000   -52.2200     3.5580     3.6740     4.8990     8.8550   129.8560     2.4940     0.0190
 2109.5000   -52.2820     3.5820     3.6950     5.5510     8.8590   131.0250     2.4940     0.0130
 2110.0000   -52.3440     3.6070     3.7160     6.3670     8.8640   131.9950     2.5030     0.0130
 2110.5000   -52.4060     3.6310     3.7370     7.1830     8.8680   133.0960     2.5260     0.0130
 2111.0000   -52.4700     3.6550     3.7580     5.4890     8.8730   135.2650     2.5350     0.0180
 2111.5000   -52.5290     3.7270     3.7790     4.3910     8.8780   140.2340     2.5370     0.0230
 2112.0000   -52.5760     3.7270     3.8650     5.3650     8.8820   144.5100     2.5220     0.0200
 2112.5000   -52.3990     3.6620     3.8320     7.4500     8.8870   133.6180     2.5120     0.0160
 2113.0000   -52.1680     3.5800     3.7500     7.3820     8.8910   125.6250     2.5340     0.0200
 2113.5000   -51.9370     3.4980     3.6670     6.5640     8.8950   126.9460     2.5430     0.0270
 2114.0000   -51.7120     3.4170     3.5850     5.6260     8.8930   134.9460     2.5220     0.0180
 2114.5000   -51.4720     3.3350     3.5020     4.6870     8.8900   137.1420     2.5110     0.0260
 2115.0000   -51.4130     3.2530     3.4200     3.7960     8.8880   139.8440     2.5150     0.0330
 2115.5000   -51.4830     3.1710     3.3370     3.8650     8.8860   144.2440     2.5060     0.0210
 2116.0000   -51.5410     3.0780     3.2550     4.6830     8.8830   143.7520     2.4920     0.0230
 2116.5000   -51.5970     3.0500     3.1720     5.2690     8.8810   141.6030     2.4900     0.0090
 2117.0000   -51.6570     2.9950     3.1060     3.5940     8.8790   139.2090     2.5020     0.0200
 2117.5000   -51.7150     2.9950     3.1220     3.6600     8.8760   140.5840     2.5040     0.0320
 2118.0000   -51.7740     3.0370     3.1430     4.3790     8.8720   147.4150     2.4750     0.0240
 2118.5000   -51.8330     3.1070     3.1630     4.9890     8.8640   143.0120     2.4840     0.0230
 2119.0000   -51.8910     3.1920     3.2870     4.9000     8.8560   138.1560     2.5000     0.0280
 2119.5000   -51.9490     3.3660     3.4940     4.8100     8.8490   144.9150     2.5170     0.0190
 2120.0000   -52.0090     3.5780     3.7000     5.1380     8.8410   144.3110     2.5200     0.0250
 2120.5000   -52.0670     3.7910     3.9070     5.4650     8.8330   137.6100     2.5390     0.0310
 2121.0000   -52.1220     4.0030     4.1140     5.9910     8.8250   131.4350     2.5490     0.0260
 2121.5000   -52.1910     4.2150     4.3200     7.3660     8.8170   130.0700     2.5370     0.0150
 2122.0000   -52.0700     4.4280     4.5270     8.9530     8.8090   128.3670     2.5440     0.0120
 2122.5000   -51.8480     4.6400     4.7340     9.4410     8.8020   125.8590     2.5540     0.0100
 2123.0000   -51.6380     4.8100     4.9440     8.8760     8.7940   125.6010     2.5530     0.0110
 2123.5000   -51.4320     4.8100     4.9890     8.3100     8.7860   126.5600     2.5520     0.0250
 2124.0000   -51.2220     4.7940     4.9620     7.2790     8.7780   128.3020     2.5470     0.0330
 2124.5000   -51.0080     4.7770     4.9170     5.5650     8.7700   132.1490     2.5390     0.0270
 2125.0000   -50.8070     4.7600     4.8730     5.7200     8.7630   134.9980     2.5430     0.0300
 2125.5000   -50.6120     4.7440     4.8280     7.2400     8.7550   135.4540     2.5560     0.0430
 2126.0000   -50.7400     4.7270     4.8100     9.4410     8.7470   127.8750     2.5690     0.0350
 2126.5000   -50.8730     4.7230     4.8560     9.1030     8.7390   118.1280     2.5740     0.0280
 2127.0000   -51.0210     4.7900     4.9710     7.9860     8.7310   117.3810     2.5660     0.0230
 2127.5000   -51.1610     4.9020     5.0860     7.1830     8.7240   122.6520     2.5540     0.0280
 2128.0000   -51.3030     5.0140     5.2000     7.6720     8.7160   120.1470     2.5680     0.0440
 2128.5000   -51.4460     5.0810     5.2690     8.1600     8.7080   114.6290     2.5600     0.0320
 2129.0000   -51.5870     5.0810     5.2070     8.3120     8.7000   110.5100     2.5490     0.0230
 2129.5000   -51.7300     4.9790     5.1020     8.4630     8.6980   117.5830     2.5340     0.0180
 2130.0000   -51.8740     4.8510     4.9980     7.8150     8.6980   125.0120     2.5340     0.0140
 2130.5000   -52.0100     4.7230     4.8940     6.9890     8.6980   126.4350     2.5420     0.0090
 2131.0000   -52.1530     4.6380     4.8100     6.1630     8.6980   128.1600     2.5280     0.0260
 2131.5000   -52.0710     4.7560     4.8100     5.6680     8.6980   138.7010     2.5450     0.0440
 2132.0000   -51.9290     4.9040     4.8100     7.2050     8.6980   139.5730     2.5680     0.0490
 2132.5000   -51.8020     5.0510     4.9660     8.7420     8.6980   135.8470     2.5680     0.0310
 2133.0000   -51.6910     5.1990     5.1600    10.0630     8.6980   130.5100     2.5740     0.0320
 2133.5000   -51.4940     5.3470     5.3540     9.7200     8.6980   125.0630     2.5910     0.0520
 2134.0000   -51.3170     5.4940     5.5480     9.0920     8.6980   120.4160     2.5960     0.0430
 2134.5000   -51.1370     5.6420     5.7420     8.4630     8.6980   118.8900     2.5740     0.0250
 2135.0000   -50.9550     5.7900     5.9370     8.6140     8.6980   117.4190     2.5580     0.0140
 2135.5000   -50.7750     5.8780     6.1310     9.3680     8.6980   117.3680     2.5460     0.0110
 2136.0000   -50.5920     6.0100     6.2150     9.9720     8.6980   118.4570     2.5620     0.0200
 2136.5000   -50.4170     6.0500     6.2490     9.5040     8.6960   117.4520     2.5720     0.0290
 2137.0000   -50.2380     6.0890     6.2830     9.1030     8.6940   117.3130     2.5530     0.0160
 2137.5000   -50.2940     6.1290     6.3170     9.9720     8.6930   117.8210     2.5600     0.0200
 2138.0000   -50.4190     6.1690     6.3510     9.7920     8.6910   116.8600     2.5640     0.0230
 2138.5000   -50.5460     6.2080     6.3850     9.8580     8.6890   116.2000     2.5650     0.0210
 2139.0000   -50.6680     6.1520     6.4190     9.9400     8.6870   115.1420     2.5690     0.0290
 2139.5000   -50.7950     6.0720     6.4390    10.0230     8.6850   112.2310     2.5710     0.0280
 2140.0000   -50.9150     6.0420     6.3780    10.1060     8.6830   118.8040     2.5760     0.0250
 2140.5000   -51.0440     6.0110     6.3170    10.1550     8.6820   121.4910     2.5850     0.0220
 2141.0000   -51.1710     5.9810     6.2550     9.3240     8.6800   125.4950     2.5740     0.0300
 2141.5000   -51.2700     5.9510     6.1940     8.4930     8.6780   129.9590     2.5870     0.0350
 2142.0000   -51.5840     5.9210     6.1330     8.1600     8.6760   131.8390     2.5790     0.0290
 2142.5000   -51.6630     5.8900     6.0960     8.4320     8.6740   133.3510     2.5710     0.0240
 2143.0000   -51.4610     5.8780     5.9860     9.1120     8.6730   133.1930     2.5780     0.0240
 2143.5000   -51.2790     5.9800     6.0900    10.1550     8.6710   132.3660     2.5720     0.0280
 2144.0000   -51.1040     6.1080     6.2200    10.0670     8.6690   132.9560     2.5710     0.0340
 2144.5000   -50.9190     6.2360     6.3500     9.6240     8.6670   133.8720     2.5490     0.0540
 2145.0000   -50.7410     6.3630     6.4810     9.2710     8.6650   133.2440     2.5480     0.0800
 2145.5000   -50.5570     6.4910     6.6110     9.9990     8.6640   131.7430     2.5570     0.1280
 2146.0000   -50.3800     6.6190     6.7410    10.9100     8.6620   133.3690     2.5640     0.0590
 2146.5000   -50.2070     6.7470     6.8710    11.8210     8.6600   130.7650     2.5060     0.0180
