~VERSION INFORMATION
 VERS.                2.0:   CWLS LOG ASCII STANDARD - VERSION 2.0
 WRAP.                 NO:   ONE LINE PER DEPTH STEP
~WELL INFORMATION
#MNEM.UNIT      DATA TYPE    INFORMATION
#----------   ------------   ------------------------------
 STRT.F           15.0000:   START DEPTH
 STOP.F         2952.5000:   STOP DEPTH
 STEP.F            0.5000:   STEP LENGTH
 NULL.          -999.2500:   NO VALUE
 COMP.    FENIX & SCISSON:   COMPANY
 WELL.  FENIX "AX" #64-29:   WELL
 FLD .  TEAPOT DOME NPR-3:   FIELD
 LOC .      S29 T39N R78W:   LOCATION
 CNTY.            NATRONA:   COUNTY
 STAT.            WYOMING:   STATE
 CTRY. UNITED STATES OF AMERICA:   COUNTRY
 SRVC.           BIRDWELL:   SERVICE COMPANY
 DATE.        02-MAY-1978:   LOGDATE
 API .     49025106460000:   API NUMBER
~CURVE INFORMATION
#MNEM.UNIT       API CODE    CURVE DESCRIPTION
#----------   ------------   ------------------------------
 DEPT.F                  :   
 SPR .MV     05 010 01 00:   SPONTANEOUS POTENTIAL
 IL  .OHMM   05 120 00 00:   INDUCTION RESISTIVITY
 SN  .OHMM   05 040 16 00:   SHORT NORMAL 16"
 CALD.IN     45 280 60 00:   CALIPER FROM DENSITY LOG
 GRD .GAPI   45 310 01 00:   GAMMA RAY FROM DENSITY LOG
 CORR.G/C3   45 356 01 00:   DENSITY CORRECTION
 RHOB.G/C3   45 350 01 00:   BULK DENSITY
~PARAMETER INFORMATION
#MNEM.UNIT          VALUE    DESCRIPTION
#----------   ------------   ------------------------------
 EKB .F         4993.0000:   Kelly bushing
 EGL .F         4983.0000:   Ground level
 EDF .F            0.0000:   Drilling floor
 TD  .F         2952.0000:   Total depth
 DATE.        02-MAY-1978:   Date logged
 CLNT.            A2DTECH:   Client Code
 SL  . 2150' FNL & 1560' FEL:   Surface Location
 PD  .                 GL:   Permanent Datum
 DD  .F              2950:   Depth driller
 DL  .F              2952:   Depth logger
 BLI .F              2947:   Bottom log interval
 CBL1.F               150:   Casing logger 1
 BS1 .IN            7.875:   Bit size
 DFT .                GEL:   Type fluid in hole
 DFD .                8.7:   Density
 DFV .                 30:   Viscosity
 DFPH.                 10:   pH
 DFL .                7.6:   Fluid loss
 MSS .            MUD PIT:   Source of sample
 RMS .OHMM            1.3:   Rm
 MST .F                62:   Rm Meas. temp.
 RMF .OHMM            .95:   Rmf
 MFST.F                64:   Rmf Meas. temp.
 RMC .OHMM              1:   Rmc
 MCST.F                64:   Rmc Meas. temp.
 MFSS.               MEAS:   Source Rmf.
 RMB .OHMM            .73:   Rm. at BHT
 BHT .F               110:   BHT.
 TCS .HRS               3:   Time Circ. stopped
 MRT .F               110:   Maximum recorded temp.
 LUN .               2958:   Logging unit number
 LUL .               CASP:   Logging unit location
 ENGI.             MILLER:   Recorded By
 WITN.           MCGINLEY:   Witnessed by
 ORIG.         2.5" PRINT:   Origin of data
 UWI .     49025106460000:   Unique Well ID
 DICO. A2D TECHNOLOGIES, INC.:   Digitizing Company
 DAPD.                 10:   Feet Above Permanent Datum
 BSD1.F              2950:   Depth drilled with bit1
 EPD .F              4983:   Elevation Permanent Datum
 LMF .                 KB:   Log Measured From
 DMF .                 KB:   Drilling Measured From
 TLI .F               150:   Top log interval
~OTHER INFORMATION
~A   DEPT      SPR         IL         SN       CALD        GRD       CORR       RHOB   
# ...
  697.5000   -71.2470     8.8870     7.7800    11.9120    83.2150     0.0830     2.5710
  698.0000   -71.2440     8.8910     7.7590    11.9120    85.4960     0.0850     2.5590
  698.5000   -71.2410     8.8950     7.7380    11.9120    87.5910     0.0900     2.5520
  699.0000   -71.2390     8.9010     7.7180    11.9120    86.9950     0.0960     2.5560
  699.5000   -71.2360     8.9090     7.6980    11.9120    86.5640     0.1010     2.5590
  700.0000   -71.2330     8.9030     7.6820    11.9120    86.2870     0.1060     2.5530
  700.5000   -71.2300     8.8410     7.6690    11.9120    85.3010     0.1110     2.5470
  701.0000   -71.2270     8.7860     7.6570    11.9120    83.4640     0.1160     2.5570
  701.5000   -71.2250     8.7320     7.6440    11.9120    81.5160     0.1180     2.5650
  702.0000   -71.2220     8.6770     7.6320    11.9120    80.7160     0.1170     2.5610
  702.5000   -71.2190     8.6220     7.6190    11.9120    82.1760     0.1150     2.5560
  703.0000   -71.2160     8.5670     7.6070    11.9120    83.4310     0.1170     2.5630
  703.5000   -71.2130     8.5120     7.5940    11.9120    84.3540     0.1210     2.5640
  704.0000   -71.2110     8.4570     7.5820    11.9120    84.8550     0.1230     2.5600
  704.5000   -71.2080     8.4020     7.5690    11.9120    83.1550     0.1260     2.5550
  705.0000   -71.2050     8.3470     7.5570    11.9120    79.7970     0.1220     2.5640
  705.5000   -71.2020     8.2920     7.5440    11.9120    80.6800     0.1110     2.5810
  706.0000   -71.1990     8.2370     7.5320    11.9120    82.7680     0.0940     2.5740
  706.5000   -71.1970     8.1820     7.5190    11.9120    84.6830     0.0750     2.5630
  707.0000   -71.1940     8.1250     7.5070    11.9120    83.3640     0.0690     2.5510
  707.5000   -71.1910     8.2190     7.4950    11.9120    82.0370     0.0670     2.5420
  708.0000   -71.1880     8.2760     7.4820    11.9120    83.2220     0.0710     2.5410
  708.5000   -71.1850     8.2760     7.4700    11.9120    86.8930     0.0810     2.5410
  709.0000   -71.1830     8.2760     7.4570    11.9120    83.7100     0.0900     2.5400
  709.5000   -71.1800     8.2670     7.4450    11.9120    80.9850     0.0990     2.5390
  710.0000   -71.1770     8.2540     7.4320    11.9120    77.1440     0.1070     2.5380
  710.5000   -71.1740     8.2420     7.4200    11.9120    78.1400     0.1150     2.5370
  711.0000   -71.1710     8.2300     7.4070    11.9120    80.8740     0.1190     2.5350
  711.5000   -71.1690     8.2180     7.3950    11.9120    83.2290     0.1340     2.5160
  712.0000   -71.1660     8.2050     7.3820    11.9110    84.9680     0.1510     2.4990
  712.5000   -71.1630     8.1930     7.3700    11.9100    83.0280     0.1710     2.4780
  713.0000   -71.1600     8.1810     7.3570    11.9090    81.3700     0.1850     2.4840
  713.5000   -71.1570     8.1680     7.3450    11.9090    79.1610     0.2020     2.5080
  714.0000   -71.1540     8.1560     7.3320    11.9080    80.8850     0.1260     2.5310
  714.5000   -71.1520     8.1440     7.3200    11.9070    84.4770     0.1230     2.5520
  715.0000   -71.1490     8.1320     7.3070    11.9060    87.8890     0.1170     2.5780
  715.5000   -71.1460     8.1230     7.2950    11.9060    87.5180     0.1170     2.5790
  716.0000   -71.1430     8.1240     7.2820    11.9050    86.7890     0.1140     2.5780
  716.5000   -71.1400     8.1210     7.2740    11.9040    85.8060     0.1120     2.5740
  717.0000   -71.1380     8.1310     7.2700    11.9030    85.1090     0.1120     2.5700
  717.5000   -71.1350     8.1340     7.2660    11.9020    82.0900     0.1150     2.5660
  718.0000   -71.1320     7.9600     7.2610    11.9020    77.4570     0.1230     2.5660
  718.5000   -71.1290     7.9690     7.2570    11.9010    75.7320     0.1340     2.5660
  719.0000   -71.1260     7.9510     7.2530    11.9000    78.3640     0.1430     2.5580
  719.5000   -71.1240     7.9330     7.2490    11.8990    79.4670     0.1450     2.5560
  720.0000   -71.1210     7.9190     7.2450    11.8980    87.5540     0.1460     2.5590
  720.5000   -71.1180     7.9030     7.2410    11.8980    86.1450     0.1430     2.5650
  721.0000   -71.1150     7.8880     7.2360    11.8970    85.9000     0.1400     2.5700
  721.5000   -71.1120     7.8740     7.2320    11.8960    86.0340     0.1360     2.5760
  722.0000   -71.1100     7.8590     7.2280    11.8950    87.2250     0.1330     2.5710
  722.5000   -71.1070     7.8440     7.2240    11.8950    89.4200     0.1330     2.5620
  723.0000   -71.1040     7.8300     7.2200    11.8940    90.4240     0.1430     2.5520
  723.5000   -71.1010     7.8150     7.2150    11.8930    90.1850     0.1540     2.5470
  724.0000   -71.0980     7.8010     7.2110    11.8920    90.0480     0.1560     2.5490
  724.5000   -71.0960     7.7860     7.2070    11.8910    88.9120     0.1580     2.5600
  725.0000   -71.0930     7.7710     7.2030    11.8910    84.6150     0.1590     2.5720
  725.5000   -71.0900     7.7570     7.1990    11.8900    85.4750     0.1590     2.5770
  726.0000   -71.0870     7.7420     7.1940    11.8890    86.6350     0.1550     2.5770
  726.5000   -71.0840     7.7270     7.1900    11.8880    87.9230     0.1490     2.5800
  727.0000   -71.0820     7.7130     7.1860    11.8870    89.1650     0.1430     2.5960
  727.5000   -71.0790     7.6980     7.1820    11.8870    91.0350     0.1370     2.5810
  728.0000   -71.0760     7.6830     7.1770    11.8860    90.0940     0.1300     2.5730
  728.5000   -71.0730     7.6690     7.1730    11.8850    86.7560     0.1180     2.5780
  729.0000   -71.0700     7.6540     7.1690    11.8840    82.7090     0.1060     2.5850
  729.5000   -71.0680     7.6390     7.1650    11.8840    84.2060     0.0940     2.5930
  730.0000   -71.0650     7.6240     7.1620    11.8830    87.5550     0.0830     2.5900
  730.5000   -71.0620     7.6100     7.1570    11.8820    90.7620     0.0720     2.5740
  731.0000   -71.0590     7.5950     7.1520    11.8810    93.6320     0.0840     2.5590
  731.5000   -71.0560     7.5810     7.1420    11.8800    96.5090     0.1000     2.5570
  732.0000   -71.0540     7.5660     7.1500    11.8800    93.8760     0.1130     2.5550
  732.5000   -71.0510     7.5490     7.2900    11.8790    91.1480     0.1230     2.5520
  733.0000   -71.0480     7.7290     7.4360    11.8780    89.4460     0.1410     2.5490
  733.5000   -71.0450     7.9770     7.5850    11.8770    90.4710     0.1520     2.5460
  734.0000   -71.0420     8.1130     7.7340    11.8760    91.2530     0.1580     2.5430
  734.5000   -71.0400     8.2660     7.8380    11.8760    92.2300     0.1590     2.5390
  735.0000   -71.0370     8.4200     7.8570    11.8750    88.5690     0.1590     2.5450
  735.5000   -71.0340     8.5730     7.8750    11.8740    85.4370     0.1590     2.5520
  736.0000   -71.0310     8.7450     7.8940    11.8730    86.2730     0.1580     2.5520
  736.5000   -71.0280     8.7720     7.9120    11.8730    86.9210     0.1590     2.5520
  737.0000   -71.0260     8.8030     7.9310    11.8790    87.2690     0.1580     2.5510
  737.5000   -71.0230     8.8340     7.9500    11.8870    82.8440     0.1550     2.5640
  738.0000   -71.0200     8.8650     7.9680    11.8940    80.9120     0.1190     2.5840
  738.5000   -71.0170     8.8960     7.9870    11.9010    84.1940     0.0860     2.5760
  739.0000   -71.0140     8.9270     8.0050    11.9090    86.0600     0.0860     2.5650
  739.5000   -71.0110     8.9580     8.0240    11.9160    85.0740     0.0890     2.5730
  740.0000   -71.0090     8.9890     8.0430    11.9230    84.0960     0.0940     2.5810
  740.5000   -71.0060     9.0200     8.0610    11.9310    82.8950     0.0970     2.5840
  741.0000   -71.0030     9.0510     8.0800    11.9380    83.2760     0.1010     2.5780
  741.5000   -71.0000     9.0820     8.0990    11.9450    85.6390     0.1050     2.5780
  742.0000   -70.9970     9.1130     8.1170    11.9520    87.8380     0.1110     2.5780
  742.5000   -70.9950     9.1440     8.1250    11.9530    90.9280     0.1160     2.5790
