~VERSION INFORMATION
 VERS.                2.0:   CWLS LOG ASCII STANDARD - VERSION 2.0
 WRAP.                 NO:   ONE LINE PER DEPTH STEP
~WELL INFORMATION
#MNEM.UNIT      DATA TYPE    INFORMATION
#----------   ------------   ------------------------------
 STRT.F            0.0000:   START DEPTH
 STOP.F          619.0000:   STOP DEPTH
 STEP.F            0.5000:   STEP LENGTH
 NULL.          -999.2500:   NO VALUE
 COMP.       FLUOR DANIEL:   COMPANY
 WELL.      FLUOR X #52-3:   WELL
 FLD .                NPR:   FIELD
 LOC .       S3 T38N R78W:   LOCATION
 CNTY.            NATRONA:   COUNTY
 STAT.            WYOMING:   STATE
 CTRY. UNITED STATES OF AMERICA:   COUNTRY
 SRVC.     ATLAS WIRELINE:   SERVICE COMPANY
 DATE.        18-AUG-1994:   LOGDATE
 API .     49025226460000:   API NUMBER
~CURVE INFORMATION
#MNEM.UNIT       API CODE    CURVE DESCRIPTION
#----------   ------------   ------------------------------
 DEPT.F                  :   
 GRR .GAPI   07 310 01 00:   GAMMA RAY FROM RESISTIVITY
 TENR.LBS    07 635 01 00:   TENSION
 RILD.OHMM   07 120 46 00:   INDUCTION LOG DEEP RESISTIVITY
 RILM.OHMM   07 120 44 00:   INDUCTION LOG MEDIUM RESISTIVITY
~PARAMETER INFORMATION
#MNEM.UNIT          VALUE    DESCRIPTION
#----------   ------------   ------------------------------
 EKB .F         5131.0000:   Kelly bushing
 EGL .F         5121.0000:   Ground level
 EDF .F         5130.0000:   Drilling floor
 EPD .F         5121.0000:   Permanent datum
 TD  .F          611.0000:   Total depth
 DATE.        18-AUG-1994:   Date logged
 CLNT.            A2DTECH:   Client Code
 SL  . 699' FNL & 2048' FEL:   Surface Location
 PD  .                 GL:   Permanent Datum
 LMF .                 KB:   Log Measured From
 DMF .                 KB:   Drilling Measured From
 DAPD.F                10:   Feet Above Permanent Datum
 DD  .F               580:   Depth driller
 DL  .F               611:   Depth logger
 BLI .F               609:   Bottom log interval
 CS1 .IN            9.625:   Casing size
 CBD1.       9.625" @ 54':   Casing driller 1
 CBL1.F                56:   Casing logger 1
 BS1 .IN             8.75:   Bit size
 BSD1.F               580:   Depth drilled with bit1
 DFT .                AIR:   Type fluid in hole
 LUN .            HL 6530:   Logging unit number
 LUL .             CASPER:   Logging unit location
 WITN.        GARY STRONG:   Witnessed by
 ORIG.           5" PRINT:   Origin of data
 UWI .     49025226460000:   Unique Well ID
 DICO. A2D TECHNOLOGIES, INC.:   Digitizing Company
~OTHER INFORMATION
~A    DEPT      GRR      TENR       RILD       RILM   
# ...
  511.0000   116.7000    49.2310    12.2580    12.5580
  511.5000   117.5510    49.8350    12.3110    12.6220
  512.0000   117.5400    50.4380    12.3450    12.6870
  512.5000   117.5390    51.0420    12.3800    12.7490
  513.0000   117.5530    51.6460    12.3980    12.7000
  513.5000   116.6870    52.2490    12.3650    12.6540
  514.0000   115.5130    52.8530    12.3430    12.6080
  514.5000   115.1450    53.4570    12.3200    12.5620
  515.0000   116.4100    54.0600    12.2970    12.5160
  515.5000   117.3120    54.6640    12.2590    12.4700
  516.0000   117.7240    55.2680    12.2000    12.4240
  516.5000   118.1410    55.8710    12.1410    12.3780
  517.0000   119.2250    56.4750    12.0820    12.3320
  517.5000   120.9590    57.0790    12.0230    12.2840
  518.0000   122.1720    57.9510    11.9640    12.1400
  518.5000   120.5910    59.2820    11.9040    11.9890
  519.0000   119.2490    60.6130    11.8450    11.8380
  519.5000   121.0190    61.9440    11.7090    11.6810
  520.0000   122.8690    63.2750    11.5150    11.5040
  520.5000   124.7210    64.6070    11.3200    11.3280
  521.0000   125.0290    65.9380    11.1250    11.1520
  521.5000   125.2510    67.2690    10.9300    10.9760
  522.0000   125.5210    72.1330    10.7360    10.8000
  522.5000   124.8070    77.9010    10.5530    10.6240
  523.0000   123.5600    83.6690    10.4080    10.4480
  523.5000   123.2950    85.9660    10.2640    10.3050
  524.0000   123.6600    80.1970    10.1190    10.1770
  524.5000   124.0330    74.4290     9.9740    10.0480
  525.0000   124.3640    68.6600     9.8300     9.9200
  525.5000   123.8400    69.6680     9.6850     9.7920
  526.0000   123.7960    72.3070     9.5400     9.6640
  526.5000   128.9590    74.9470     9.3960     9.5350
  527.0000   135.6360    77.5870     9.2510     9.4620
  527.5000   138.0780    80.2270     9.1880     9.4420
  528.0000   137.1330    82.8660     9.1550     9.4230
  528.5000   133.4340    85.5060     9.1230     9.4030
  529.0000   130.4740    88.1460     9.0900     9.3840
  529.5000   129.5890    90.7860     9.0580     9.3130
  530.0000   130.8760    93.4250     9.0250     9.2290
  530.5000   138.5100    96.0650     8.9920     9.1440
  531.0000   140.4770    97.4460     8.9590     9.0600
  531.5000   138.8180    96.4850     8.8710     8.9760
  532.0000   135.8760    95.5230     8.7580     8.8710
  532.5000   133.5180    94.5620     8.6440     8.7610
  533.0000   133.1070    93.6010     8.5310     8.6510
  533.5000   133.6430    92.6390     8.4020     8.5410
  534.0000   135.2050    91.6780     8.1660     8.4310
  534.5000   136.2090    90.7160     8.0110     8.3170
  535.0000   134.0710    89.7550     7.9940     8.2840
  535.5000   131.9260    88.7940     7.9770     8.2500
  536.0000   132.5740    87.8320     7.9590     8.2150
  536.5000   135.9110    93.3090     7.9420     8.1810
  537.0000   139.3440    99.7980     7.7310     8.1250
  537.5000   140.4720   106.2880     7.4310     7.7860
  538.0000   140.9610   107.8630     7.1310     7.4400
  538.5000   141.3500   107.8630     6.8310     7.0480
  539.0000   141.2910   107.8630     6.5830     6.6490
  539.5000   140.1980   107.8630     6.2950     6.3540
  540.0000   139.0930   107.8630     6.3880     6.5830
  540.5000   137.9940   107.8630     6.5240     6.7970
  541.0000   135.6090   107.8630     6.6600     7.0110
  541.5000   132.7450   107.8630     6.8300     7.3530
  542.0000   131.7700   107.8630     7.1720     7.7900
  542.5000   134.6140   107.8630     7.6120     8.2280
  543.0000   137.2370   107.8630     8.0520     8.6650
  543.5000   136.1830   107.8630     8.4920     9.1020
  544.0000   133.6790   107.8630     8.9320     9.5390
  544.5000   132.7210   107.8630     9.3840     9.7460
  545.0000   134.9760   107.8630     9.4830     9.7850
  545.5000   139.8370   107.8630     9.5850     9.8240
  546.0000   141.6810   110.9590     9.6860     9.8560
  546.5000   137.5660   114.6670     9.7390     9.8860
  547.0000   133.7320   118.2790     9.7390     9.9170
  547.5000   131.7370   121.1630     9.7390     9.9480
  548.0000   130.2340   124.0460     9.7390     9.9780
  548.5000   129.3480   126.9300     9.6620    10.0140
  549.0000   134.1640   129.8130     9.5840     9.9790
  549.5000   136.9820   132.6970     9.5060     9.9360
  550.0000   137.1460   135.5800     9.4270     9.9130
  550.5000   137.4200   137.9260     9.3490     9.9000
  551.0000   138.2410   136.4860     9.2980     9.8880
  551.5000   138.3900   135.0470     9.2980     9.8750
  552.0000   135.1500   133.6080     9.3220     9.8620
  552.5000   129.1850   132.1680     9.4420     9.8500
  553.0000   122.6760   130.7290     9.5610     9.8300
  553.5000   120.7960   129.2900     9.6810     9.8320
  554.0000   122.8620   128.1750     9.7390     9.7100
  554.5000   125.2010   129.4290     9.3930     9.5720
  555.0000   127.5440   130.6830     9.0850     9.3090
  555.5000   128.1270   131.9360     8.7170     8.8790
  556.0000   126.6390   133.1900     8.3100     8.4480
  556.5000   125.1550   134.4430     7.9020     8.0180
  557.0000   123.6200   135.6970     7.4940     7.5540
  557.5000   124.3000   136.9500     6.9790     7.0530
  558.0000   127.6870   138.2040     6.4190     6.5520
  558.5000   133.4920   139.4580     5.8290     6.0510
  559.0000   139.1780   140.7110     5.0980     5.2750
  559.5000   140.0540   141.9650     4.3660     4.3050
  560.0000   137.2330   143.2180     3.6350     3.6410
  560.5000   135.0040   144.4720     3.0230     3.1480
  561.0000   135.5460   145.7250     2.7180     2.7240
  561.5000   136.4290   146.9790     2.3970     2.4420
  562.0000   137.2670   148.2330     2.3970     2.4420
  562.5000   134.2520   149.4860     2.4420     2.6520
  563.0000   130.1790   150.7400     2.6020     2.8070
  563.5000   126.9550   151.9930     2.7620     3.3990
  564.0000   127.1240   153.2470     2.9220     4.0780
  564.5000   127.7740   154.5010     3.6240     4.7570
  565.0000   128.4730   155.7540     4.3950     5.4370
  565.5000   130.4910   157.0080     5.1670     6.1160
  566.0000   132.1130   158.2660     5.9850     6.7550
  566.5000   130.5220   159.4390     7.0070     7.3290
  567.0000   128.3280   160.6170     7.5800     7.7140
  567.5000   126.7810   161.7940     7.7580     7.8590
  568.0000   128.7860   162.9720     7.9290     8.0040
  568.5000   132.2690   164.1500     8.0990     8.1490
  569.0000   133.2020   165.3270     8.2690     8.2940
  569.5000   133.5750   166.5050     8.4730     8.4380
  570.0000   135.0020   167.6820     8.4330     8.5520
  570.5000   137.4180   170.1530     8.3660     8.4330
  571.0000   138.1080   174.2980     8.2780     8.3150
  571.5000   140.1570   178.4440     8.1340     8.1640
  572.0000   144.9740   182.5890     7.9890     8.1920
  572.5000   147.7340   186.7340     7.8670     8.2320
  573.0000   145.3720   188.9140     7.8770     8.2710
  573.5000   141.5790   189.6240     7.8860     8.3170
  574.0000   137.7660   190.3340     7.8960     8.2800
  574.5000   135.8910   191.0430     7.9050     8.2350
  575.0000   137.2330   191.7530     7.9140     8.1900
  575.5000   138.5600   192.4630     7.9230     8.1450
  576.0000   138.7920   193.1730     7.9320     8.1000
  576.5000   137.5840   193.8830     7.9390     8.0430
  577.0000   136.3560   194.5920     7.9170     7.9830
  577.5000   136.8000   195.3020     7.8970     7.9230
  578.0000   141.8740   196.0120     7.8770     7.8670
  578.5000   144.9000   196.7220     7.8670     8.0310
  579.0000   142.1090   197.4320     7.9230     8.1860
  579.5000   139.3130   198.1410     7.9610     8.3950
  580.0000   139.4370   200.9830     8.0140     8.3470
  580.5000   141.3200   207.4600     8.0070     8.2970
  581.0000   142.9570   213.9360     7.9950     8.2470
  581.5000   141.3640   218.7500     7.9830     8.1960
  582.0000   139.6790   218.7500     7.9710     8.1460
  582.5000   138.4820   218.7500     7.9590     8.0960
  583.0000   137.8110   218.7500     7.9480     8.0460
  583.5000   136.6520   218.7500     7.8300     7.9240
