~VERSION INFORMATION
 VERS.                2.0:   CWLS LOG ASCII STANDARD - VERSION 2.0
 WRAP.                 NO:   ONE LINE PER DEPTH STEP
~WELL INFORMATION
#MNEM.UNIT      DATA TYPE    INFORMATION
#----------   ------------   ------------------------------
 STRT.F         2200.0000:   START DEPTH
 STOP.F         3200.0000:   STOP DEPTH
 STEP.F            0.5000:   STEP LENGTH
 NULL.          -999.2500:   NO VALUE
 COMP.   LAWRENCE ALLISON:   COMPANY
 WELL. LAWRENCE "X" #18-34:   WELL
 FLD .          NPR NO. 3:   FIELD
 LOC .      S34 T39N R78W:   LOCATION
 CNTY.            NATRONA:   COUNTY
 STAT.            WYOMING:   STATE
 CTRY. UNITED STATES OF AMERICA:   COUNTRY
 SRVC.      DRESSER ATLAS:   SERVICE COMPANY
 DATE.        14-MAY-1986:   LOGDATE
 API .     49025110720000:   API NUMBER
~CURVE INFORMATION
#MNEM.UNIT       API CODE    CURVE DESCRIPTION
#----------   ------------   ------------------------------
 DEPT.F                  :   
 CALD.IN     45 280 60 00:   CALIPER FROM DENSITY LOG
 GRD .GAPI   45 310 01 00:   GAMMA RAY FROM DENSITY LOG
 TEND.LBS    45 635 01 00:   TENSION FORM DENSITY LOG
 CORR.G/C3   45 356 01 00:   DENSITY CORRECTION
 DEN .G/C3   45 350 01 00:   BULK DENSITY
 CNC .DEC    42 890 03 00:   NEUTRON POROSITY SANDSTONE
~PARAMETER INFORMATION
#MNEM.UNIT          VALUE    DESCRIPTION
#----------   ------------   ------------------------------
 EKB .F         5192.0000:   Kelly bushing
 EGL .F         5181.0000:   Ground level
 EDF .F         5189.0000:   Drilling floor
 TD  .F         3195.0000:   Total depth
 CLNT.            A2DTECH:   Client Code
 SL  . 722' FWL & 239' FSL:   Surface Location
 PD  .                 GL:   Permanent Datum
 EPD .F              5181:   Elevation Permanent Datum
 LMF .                 KB:   Log Measured From
 DMF .                 KB:   Drilling Measured From
 DAPD.F                11:   Feet Above Permanent Datum
 DATE.        14-MAY-1986:   Date Logged [DD-MMM-YYYY]
 DD  .F              3195:   Depth driller
 DL  .F              3194:   Depth logger
 BLI .F              3192:   Bottom log interval
 TLI .F                 0:   Top log interval
 CS1 .IN            8.625:   Casing size
 CBD1.      8.625" @ 601':   Casing driller 1
 CBL1.F               596:   Casing logger 1
 BS1 .IN            7.875:   Bit size
 BSD1.F              3195:   Depth drilled with bit1
 DFT .        POLYMER-KCL:   Type fluid in hole
 DFD .                  9:   Density
 DFV .                 35:   Viscosity
 DFPH.                9.5:   pH
 DFL .               16.2:   Fluid loss
 MSS .           FLOWLINE:   Source of sample
 RMS .OHMM          0.378:   Rm
 MST .F                65:   Rm Meas. temp.
 RMF .OHMM          0.306:   Rmf
 MFST.F                65:   Rmf Meas. temp.
 MFSS.               MEAS:   Source Rmf.
 RMC .OHMM          0.472:   Rmc
 MCST.F                65:   Rmc Meas. temp.
 MCSS.               CALC:   Source Rmc.
 RMB .OHMM          0.208:   Rm. at BHT
 BHT .F               118:   BHT.
 TCS .HRS               3:   Time Circ. stopped
 MRT .F               118:   Maximum recorded temp.
 LUN .            HL-6274:   Logging unit number
 LUL .           GILLETTE:   Logging unit location
 ENGI.             RAUTIO:   Recorded By
 WITN.             STRONG:   Witnessed by
 ORIG.           5" PRINT:   Origin of data
 UWI .     49025110720000:   Unique Well ID
 DICO. A2D TECHNOLOGIES, INC.:   Digitizing Company
~OTHER INFORMATION
~A  DEPT        CALD      GRD        TEND        CORR        DEN        CNC 
# ...
 2304.0000    10.3390   111.8426   -23.2283     0.0390     2.5519     0.3475
 2304.5000    10.3384   113.0405   -23.0833     0.0284     2.5533     0.3303
 2305.0000    10.3378   118.7925   -37.9759     0.0344     2.5503     0.3397
 2305.5000    10.3523   122.1236   -37.7948     0.0525     2.5375     0.3536
 2306.0000    10.3517   123.5723   -37.6499     0.0619     2.5050     0.3633
 2306.5000    10.3662   121.1481   -37.5049     0.0887     2.4582     0.3461
 2307.0000    10.3807   117.2178   -37.3599     0.1343     2.4341     0.3279
 2307.5000    10.3952   112.9858   -29.6962     0.1174     2.4657     0.3155
 2308.0000    10.3945   108.7538   -22.0300     0.0645     2.5109     0.3001
 2308.5000    10.4091   105.1252   -14.3325     0.0131     2.5328     0.2777
 2309.0000    10.4084   101.4965   -21.7063    -0.0021     2.5373     0.2795
 2309.5000    10.4078   105.1055   -36.6353     0.0056     2.5154     0.2944
 2310.0000    10.4223   109.3200   -44.0091     0.0145     2.4973     0.3261
 2310.5000    10.4519   112.9311   -36.3092     0.0386     2.4769     0.3327
 2311.0000    10.4664   111.7157   -36.1642     0.0643     2.4563     0.3255
 2311.5000    10.4960   106.8804   -36.0150     0.0839     2.4425     0.3249
 2312.0000    10.5256   104.7601   -35.8381     0.0873     2.4376     0.3237
 2312.5000    10.5401   106.4312   -35.6932     0.0672     2.4670     0.3177
 2313.0000    10.5546   108.1239   -35.5482     0.0264     2.4858     0.3065
 2313.5000    10.5689   109.8165   -35.4033     0.0505     2.4745     0.2899
 2314.0000    10.5683   112.2651   -35.2583     0.0928     2.4677     0.2999
 2314.5000    10.5828   111.9547   -35.1128     0.0731     2.4790     0.3062
 2315.0000    10.5973   111.6443   -34.9624     0.0485     2.4895     0.3195
 2315.5000    10.6268   113.7449   -34.7873     0.0278     2.4781     0.3250
 2316.0000    10.6414   115.2445   -42.1974     0.0519     2.4585     0.3129
 2316.5000    10.6559   116.1407   -42.0162     0.0760     2.4646     0.3042
 2317.0000    10.6703   116.7353   -41.8712     0.0805     2.4970     0.3005
 2317.5000    10.6697   117.9332   -41.7263     0.0473     2.5113     0.3002
 2318.0000    10.6862   119.1311   -41.5789     0.0170     2.4992     0.3117
 2318.5000    10.7138   119.7256   -33.8814     0.0064     2.4803     0.3300
 2319.0000    10.7283   118.2064   -33.7364     0.0094     2.4795     0.3338
 2319.5000    10.7426   117.8960   -26.0727    -0.0057     2.4841     0.3241
 2320.0000    10.7420   119.9988   -18.4090    -0.0193     2.4885     0.3154
 2320.5000    10.7414   123.0067   -10.7452    -0.0284     2.4930     0.3123
 2321.0000    10.7409   123.9051   -10.6003     0.0169     2.5066     0.3090
 2321.5000    10.7403   121.4809   -17.9741     0.0304     2.5156     0.2994
 2322.0000    10.7548   117.2342   -17.7930     0.0410     2.5231     0.2903
 2322.5000    10.7541   111.6747   -32.6856     0.0183     2.5269     0.2991
 2323.0000    10.7535   109.3861   -32.5407    -0.0089     2.5260     0.3211
 2323.5000    10.7529   110.5840   -32.3957    -0.0120     2.5216     0.3378
 2324.0000    10.7523   116.3067   -32.2508     0.0076     2.5170     0.3438
 2324.5000    10.7366   119.3146   -32.1053     0.0121     2.5208     0.3469
 2325.0000    10.7360   119.4073   -31.9549     0.0076     2.5222     0.3360
 2325.5000    10.7204   117.4871   -31.7797    -0.0007     2.5192     0.3054
 2326.0000    10.7197   115.6359   -31.6541     0.0468     2.5177     0.2773
 2326.5000    10.7343   113.8475   -31.4898     0.0618     2.5199     0.2867
 2327.0000    10.7488   112.3305   -38.9000     0.0558     2.5252     0.3142
 2327.5000    10.7481   110.5118   -38.7188     0.0452     2.5380     0.3360
 2328.0000    10.7475   108.6931   -31.0526     0.0404     2.5417     0.3176
 2328.5000    10.7167   107.1760   -30.8739     0.0483     2.5281     0.3025
 2329.0000    10.7001   107.1455   -30.7290     0.0768     2.5055     0.2931
 2329.5000    10.6702   107.7811   -38.1390     0.0858     2.4904     0.2895
 2330.0000    10.6545   108.7179   -37.9579     0.0450     2.4835     0.2925
 2330.5000    10.6388   109.9570   -37.8129     0.0314     2.4805     0.2974
 2331.0000    10.6232   111.6550   -45.1880     0.0208     2.4835     0.3028
 2331.5000    10.6075   111.9501   -45.0376     0.0374     2.4963     0.3038
 2332.0000    10.5918   107.7159   -52.3795     0.0480     2.5174     0.2898
 2332.5000    10.5762   104.6906   -52.2345     0.0433     2.5257     0.2943
 2333.0000    10.5585   101.3580   -52.0896     0.0282     2.5279     0.3035
 2333.5000    10.5145   100.7515   -51.9446     0.0418     2.5193     0.3170
 2334.0000    10.4687   102.8521   -51.7996     0.0599     2.5113     0.3052
 2334.5000    10.4379   108.2733   -51.6542     0.0553     2.5075     0.3031
 2335.0000    10.4223   114.2977   -51.5038     0.0447     2.5097     0.3174
 2335.5000    10.3915   120.0205   -43.8098     0.0541     2.5120     0.3273
 2336.0000    10.3759   122.1723   -36.1461     0.0673     2.5135     0.3319
 2336.5000    10.3451   120.9079   -43.5200     0.0703     2.5142     0.3367
 2337.0000    10.3142   119.3224   -43.3750     0.0612     2.5132     0.3279
 2337.5000    10.2835   116.6650   -35.7113     0.0325     2.5058     0.3265
 2338.0000    10.2678   114.8463   -27.5428     0.0083     2.4983     0.3398
 2338.5000    10.2521   117.5525   -20.3476     0.0006     2.4952     0.3461
 2339.0000    10.2214   121.7670   -27.7576     0.0174     2.4975     0.3195
 2339.5000    10.1906   122.6654   -27.5765     0.0112     2.4975     0.2986
 2340.0000    10.1599   120.8445   -27.4315    -0.0039     2.5012     0.2736
 2340.5000    10.1422   114.6744   -27.2866    -0.0070     2.5140     0.2766
 2341.0000    10.0982   111.1717   -27.1416     0.0036     2.5147     0.2890
 2341.5000    10.0675   111.4668   -26.9925     0.0156     2.5034     0.2963
 2342.0000    10.0518   108.4393   -19.2967     0.0201     2.4890     0.2969
 2342.5000    10.0211   106.0173   -11.6330     0.0186     2.4898     0.2945
 2343.0000    10.0054   107.2151    -3.9692     0.0125     2.4965     0.2957
 2343.5000     9.9897   108.7147   -11.3794     0.0079     2.4980     0.2975
 2344.0000     9.9590   106.5602   -11.1982     0.0185     2.4942     0.2978
 2344.5000     9.8979    99.9084   -11.0526     0.0275     2.5033     0.2924
 2345.0000     9.8370    93.3016   -10.9023     0.0320     2.5196     0.2869
 2345.5000     9.7912    89.6730   -10.7271     0.0335     2.5356     0.2830
 2346.0000     9.7755    90.8709   -10.5822     0.0053     2.5348     0.2921
 2346.5000     9.7749   101.7218   -10.4373    -0.0104     2.5273     0.2985
 2347.0000     9.7593   114.9861   -10.2923    -0.0013     2.5145     0.3208
 2347.5000     9.7436   129.1553   -17.6661     0.0213     2.4931     0.3326
 2348.0000     9.7128   132.1989   -17.5188     0.0318     2.4748     0.3369
 2348.5000     9.6819   126.7224   -24.8950     0.0318     2.4820     0.3178
 2349.0000     9.6663   121.8871   -32.2689     0.0256     2.4963     0.2947
 2349.5000     9.6506   120.0684   -32.0877     0.0046     2.4989     0.2915
 2350.0000     9.6349   122.6760   -31.9428     0.0000     2.4830     0.3073
 2350.5000     9.6272   123.6778   -24.2790     0.0151     2.4860     0.3272
 2351.0000     9.6100   122.7692   -24.1341     0.0256     2.4935     0.3342
 2351.5000     9.5902   124.2946   -26.0138     0.0324     2.4980     0.3366
 2352.0000     9.5752   125.1766   -27.9082     0.0364     2.4950     0.3176
 2352.5000     9.5603   123.3630   -29.8026     0.0377     2.4927     0.3049
 2353.0000     9.5605   122.4551   -31.5112     0.0286     2.4926     0.2911
 2353.5000     9.5606   122.4522   -31.4200     0.0135     2.4987     0.2817
 2354.0000     9.5608   122.1476   -31.3471    -0.0031     2.5084     0.2864
 2354.5000     9.5621   120.6364   -31.2741     0.0271     2.5167     0.2886
 2355.0000     9.5762   118.8235   -31.2012     0.0406     2.5227     0.2819
 2355.5000     9.5914   117.2720   -31.1278     0.0482     2.5242     0.2786
