~VERSION INFORMATION
 VERS.                2.0:   CWLS LOG ASCII STANDARD - VERSION 2.0
 WRAP.                 NO:   ONE LINE PER DEPTH STEP
~WELL INFORMATION
#MNEM.UNIT      DATA TYPE    INFORMATION
#----------   ------------   ------------------------------
 STRT.F          200.0000:   START DEPTH
 STOP.F         3014.0000:   STOP DEPTH
 STEP.F            0.5000:   STEP LENGTH
 NULL.          -999.2500:   NO VALUE
 COMP.    FENIX & SCISSON:   COMPANY
 WELL. FENIX NPR 3 "AX" #45-28:   WELL
 FLD .                NPR:   FIELD
 LOC .      S28 T39N R78W:   LOCATION
 CNTY.            NATRONA:   COUNTY
 STAT.            WYOMING:   STATE
 CTRY. UNITED STATES OF AMERICA:   COUNTRY
 SRVC.              WELEX:   SERVICE COMPANY
 DATE.        30-SEP-1977:   LOGDATE
 API .     49025104230000:   API NUMBER
~CURVE INFORMATION
#MNEM.UNIT       API CODE    CURVE DESCRIPTION
#----------   ------------   ------------------------------
 DEPT.F                  :   
 SPR .MV     07 010 01 00:   SPONTANEOUS POTENTIAL
 TENR.LBS    07 635 01 00:   TENSION
 SFL .OHMM   07 220 01 00:   SHALLOW FOCUSED LOG RESISTIVITY
 ILD .OHMM   07 120 46 00:   INDUCTION LOG DEEP RESISTIVITY
 ILM .OHMM   07 120 44 00:   INDUCTION LOG MEDIUM RESISTIVITY
 TEND.LBS    45 635 01 00:   TENSION FROM DENSITY LOG
 CALD.IN     45 280 60 00:   CALIPER FROM DENSITY LOG
 RHOB.G/C3   45 350 01 00:   BULK DENSITY
 CORR.G/C3   45 356 01 00:   DENSITY CORRECTION
 GRD .GAPI   45 310 01 00:   GAMMA RAY FROM DENSITY LOG
~PARAMETER INFORMATION
#MNEM.UNIT          VALUE    DESCRIPTION
#----------   ------------   ------------------------------
 EKB .F         5075.0000:   Kelly bushing
 EGL .F         5065.0000:   Ground level
 EDF .F            0.0000:   Drilling floor
 E TD.F         3008.0000:   Total depth
 DATE.        30-SEP-1977:   Date logged
 CLNT.            A2DTECH:   Client Code
 SL  . 2210' FSL & 2310' FWL:   Surface Location
 PD  .                 GL:   Permanent Datum
 EPD .F              5065:   Elevation Permanent Datum
 LMF .                 KB:   Log Measured From
 DMF .                 KB:   Drilling Measured From
 DAPD.F                10:   Feet Above Permanent Datum
 DD  .F              3005:   Depth driller
 DL  .F              3008:   Depth logger
 BLI .F              3006:   Bottom log interval
 TLI .F               200:   Top log interval
 CS1 .IN            8.625:   Casing size
 CBD1.      8.625" @ 205':   Casing driller 1
 CBL1.F               220:   Casing logger 1
 BS1 .IN            7.875:   Bit size
 BSD1.F              3005:   Depth drilled with bit1
 DFT .            KCL/MUD:   Type fluid in hole
 DFD .                9.1:   Density
 DFV .                 38:   Viscosity
 DFPH.                 11:   pH
 DFL .                6.8:   Fluid loss
 MSS .           FLOWLINE:   Source of sample
 RMS .OHMM            .31:   Rm
 MST .F                78:   Rm Meas. temp.
 RMF .OHMM            .15:   Rmf
 MFST.F                78:   Rmf Meas. temp.
 RMC .OHMM           1.02:   Rmc
 MCST.F                78:   Rmc Meas. temp.
 MFSS.               FANN:   Source Rmf.
 MCSS.                KIT:   Source Rmc.
 RMB .OHMM            .20:   Rm. at BHT
 BHT .F               117:   BHT.
 TCS .HRS               3:   Time Circ. stopped
 MRT .F               117:   Maximum recorded temp.
 LUN .               8611:   Logging unit number
 LUL .             CASPER:   Logging unit location
 ENGI.         G. BENTSEN:   Recorded By
 WITN.         HARRINGTON:   Witnessed by
 ORIG.           5" PRINT:   Origin of data
 UWI .     49025104230000:   Unique Well ID
 DICO. A2D TECHNOLOGIES, INC.:   Digitizing Company
~OTHER INFORMATION
~A   DEPT      SPR        TENR       SFL        ILD        ILM       TEND       CALD       RHOB       CORR        GRD   
# ...
 2612.0000   -65.2090   833.5600    11.0280     6.2090     7.2220  1002.9280     8.6880     2.5140     0.0080    82.7080
 2612.5000   -65.1900   833.7880     9.9490     6.1660     7.0820  1002.9710     8.6840     2.5080     0.0080    81.8210
 2613.0000   -65.1710   834.0160     8.4390     6.3330     7.1760  1003.0140     8.6800     2.5130     0.0080    85.6260
 2613.5000   -65.1520   834.2440     8.5830     6.5410     7.4140  1003.0570     8.6760     2.5130     0.0080    88.5620
 2614.0000   -65.1320   834.4720     8.8260     6.7500     7.6510  1003.1000     8.6750     2.5090     0.0080    91.4770
 2614.5000   -65.1130   834.7000     9.0680     6.9590     7.8890  1003.1430     8.6820     2.5050     0.0070    92.4080
 2615.0000   -65.1170   834.9280    10.0610     7.1670     8.1260  1003.1860     8.6880     2.5010     0.0070    88.9060
 2615.5000   -65.1260   835.1560    11.5910     7.2940     8.3640  1003.2290     8.6950     2.4970     0.0070    85.9870
 2616.0000   -65.1350   835.3840    12.4930     7.3980     8.6020  1003.2720     8.7010     2.5030     0.0070    83.0710
 2616.5000   -65.1440   835.6120    11.9210     7.4950     8.8390  1003.3150     8.7070     2.5070     0.0080    80.1470
 2617.0000   -65.1530   835.8400    11.4640     7.5530     9.0850  1003.3590     8.7140     2.5080     0.0090    77.2270
 2617.5000   -65.1620   836.0680    11.0070     7.6110     9.0020  1003.4020     8.7200     2.5090     0.0110    74.8820
 2618.0000   -65.1720   836.2960    10.5490     7.6700     8.9490  1003.4450     8.7270     2.5160     0.0120    76.3220
 2618.5000   -65.1810   836.5240    10.0920     7.7280     8.8940  1003.4880     8.7330     2.5250     0.0130    78.2140
 2619.0000   -65.1900   836.7520     9.4270     7.7760     8.8380  1003.5310     8.7340     2.5340     0.0140    80.0900
 2619.5000   -65.1990   836.9800     9.6290     7.8050     8.7830  1003.5740     8.7340     2.5320     0.0120    81.9650
 2620.0000   -65.2080   837.2080     9.9980     7.8340     8.7280  1003.6170     8.7340     2.5160     0.0100    83.0270
 2620.5000   -65.2170   837.4360    10.3670     7.8630     8.6720  1003.6600     8.7340     2.4990     0.0080    83.2920
 2621.0000   -65.2270   837.6640    10.7360     7.8920     8.6170  1003.7030     8.7340     2.4930     0.0070    83.5590
 2621.5000   -65.2360   837.8920    11.1050     7.9110     8.5620  1003.7460     8.7340     2.4880     0.0050    83.8220
 2622.0000   -65.2450   838.1200    11.4740     7.8310     8.5070  1003.7890     8.7340     2.5000     0.0030    84.0950
 2622.5000   -65.2540   838.3480    11.8430     7.7720     8.4510  1003.8320     8.7340     2.5120     0.0030    84.3690
 2623.0000   -65.2630   838.5760    12.0950     7.7120     8.3960  1003.8750     8.7340     2.5300     0.0040    86.5790
 2623.5000   -65.2720   838.8040    10.5340     7.6540     8.3410  1003.9180     8.7340     2.5210     0.0040    91.2940
 2624.0000   -65.2820   839.0320     9.0020     7.5970     8.2850  1003.9610     8.7340     2.4990     0.0050    95.9990
 2624.5000   -65.2910   839.2600     9.6420     7.5390     8.2300  1004.0040     8.7340     2.4810     0.0050   100.6990
 2625.0000   -65.3000   839.4880    10.5480     7.4820     8.1750  1004.0480     8.7340     2.4850     0.0060   103.7240
 2625.5000   -65.3070   839.7160    11.4540     7.4250     8.1200  1004.0910     8.7340     2.4900     0.0060    97.9670
 2626.0000   -65.2890   839.9440    12.0950     7.3670     8.0640  1004.1340     8.7340     2.4930     0.0060    91.8270
 2626.5000   -65.2710   840.1720    11.1520     7.2800     8.1890  1004.1770     8.7340     2.4910     0.0060    89.3130
 2627.0000   -65.2530   840.4000    10.4230     7.3540     8.3360  1004.2200     8.7340     2.4930     0.0060    90.0360
 2627.5000   -65.2350   840.6280    10.1890     7.5060     8.4830  1004.2630     8.7340     2.5090     0.0060    90.8140
 2628.0000   -65.2170   840.8560     9.9640     7.6570     8.6300  1004.3060     8.7340     2.5240     0.0060    91.6120
 2628.5000   -65.1990   841.0840    10.2580     7.8090     8.7770  1004.3490     8.7330     2.5230     0.0060    92.4000
 2629.0000   -65.1820   841.3120    10.9980     7.9600     8.9240  1004.3920     8.7270     2.5180     0.0060    91.6680
 2629.5000   -65.1640   841.5400    11.7390     8.1120     9.0020  1004.4350     8.7210     2.5130     0.0060    90.8200
 2630.0000   -65.1460   841.7680    12.4340     8.2730     8.9760  1004.4780     8.7150     2.5110     0.0060    89.9740
 2630.5000   -65.1280   841.9960    10.8270     8.1950     8.9550  1004.5210     8.7100     2.5200     0.0060    89.1310
 2631.0000   -65.1100   842.2240    10.9510     8.0910     8.9350  1004.5640     8.7040     2.5260     0.0060    88.2890
 2631.5000   -65.0920   842.4520    11.2260     7.9870     8.8880  1004.6070     8.6980     2.5200     0.0050    87.4460
 2632.0000   -65.0750   842.6800    11.5010     7.8820     8.7620  1004.6500     8.6920     2.5130     0.0040    86.5810
 2632.5000   -65.0570   842.9080    11.7640     7.7780     8.6360  1004.6930     8.6870     2.5050     0.0040    86.1050
 2633.0000   -65.0390   843.1360    11.4950     7.6740     8.5100  1004.7370     8.6810     2.5070     0.0030    87.7010
 2633.5000   -65.0210   843.3640    11.2350     7.5700     8.3830  1004.7800     8.6750     2.5090     0.0030    89.5910
 2634.0000   -65.0030   843.5930    10.9760     7.4660     8.2570  1004.8230     8.6690     2.5140     0.0050    91.5010
 2634.5000   -64.9850   843.8210    10.7160     7.3620     8.0580  1004.8660     8.6630     2.5190     0.0070    93.3990
 2635.0000   -64.9670   844.0490    10.4570     7.2440     8.1280  1004.9090     8.6580     2.5240     0.0090    95.3100
 2635.5000   -64.9500   844.2770    10.1490     7.1470     8.2940  1004.9520     8.6520     2.5250     0.0100    97.4640
 2636.0000   -64.9320   844.5050    10.4840     7.1470     8.4610  1004.9950     8.6460     2.5250     0.0120    95.0660
 2636.5000   -64.9150   844.7330    10.8940     7.1890     8.6270  1005.0380     8.6400     2.5320     0.0140    90.5850
 2637.0000   -64.8820   844.9610    11.5490     7.2850     8.7930  1005.0810     8.6340     2.5390     0.0160    91.6890
 2637.5000   -64.8480   845.1890    11.4290     7.4630     8.9590  1005.1240     8.6330     2.5420     0.0170    93.7530
 2638.0000   -64.8130   845.4170    11.1290     7.6410     9.1250  1005.1670     8.6300     2.5350     0.0180    95.7640
 2638.5000   -64.7780   845.6450    10.8270     7.8180     9.2910  1005.2100     8.6270     2.5280     0.0160    96.9870
 2639.0000   -64.7440   845.8730    11.2880     7.9960     9.4570  1005.2530     8.6240     2.5210     0.0140    91.2290
 2639.5000   -64.7090   846.1010    11.7530     8.1730     9.6230  1005.2960     8.6210     2.5140     0.0120    86.7380
 2640.0000   -64.6740   846.3290    12.3200     8.3510     9.7890  1005.3390     8.6180     2.5070     0.0100    84.8020
 2640.5000   -64.6390   846.5570    12.2760     8.5280     9.9550  1005.3830     8.6150     2.5090     0.0080    87.0710
 2641.0000   -64.6050   846.7850    12.2070     8.7060    10.1220  1005.4260     8.6120     2.5130     0.0060    88.7470
 2641.5000   -64.5700   847.0130    12.5300     8.8830    10.2880  1005.4690     8.6080     2.5180     0.0060    89.1090
 2642.0000   -64.5360   847.2410    12.9500     9.0610    10.4540  1005.5120     8.6040     2.5170     0.0060    87.9690
 2642.5000   -64.5410   847.4690    13.3870     9.2380    10.6200  1005.5550     8.6000     2.5120     0.0060    86.8360
 2643.0000   -64.6230   847.6970    13.0680     9.4160    10.7860  1005.5980     8.5960     2.5090     0.0060    85.7340
 2643.5000   -64.7040   847.9250    12.7360     9.5930    10.8930  1005.6410     8.5920     2.5200     0.0060    82.3200
 2644.0000   -64.7850   848.1530    12.3200     9.7710    10.9810  1005.6840     8.5880     2.5360     0.0060    77.7010
 2644.5000   -64.8650   848.3940    13.5480     9.9480    11.0690  1005.7270     8.5840     2.5530     0.0060    73.1080
 2645.0000   -64.9460   848.2860    15.9530    10.1260    11.1560  1005.7700     8.5800     2.5640     0.0060    68.8340
