~VERSION INFORMATION
 VERS.                2.0:   CWLS LOG ASCII STANDARD - VERSION 2.0
 WRAP.                 NO:   ONE LINE PER DEPTH STEP
~WELL INFORMATION
#MNEM.UNIT      DATA TYPE    INFORMATION
#----------   ------------   ------------------------------
 STRT.F          620.0000:   START DEPTH
 STOP.F         3209.0000:   STOP DEPTH
 STEP.F            0.5000:   STEP LENGTH
 NULL.          -999.2500:   NO VALUE
 COMP. FENIX & SCISSON - US NAVY:   COMPANY
 WELL.   FENIX "A" #23-33:   WELL
 FLD .             NPR #3:   FIELD
 LOC .      S33 T39N R78W:   LOCATION
 CNTY.            NATRONA:   COUNTY
 STAT.            WYOMING:   STATE
 CTRY. UNITED STATES OF AMERICA:   COUNTRY
 SRVC.              WELEX:   SERVICE COMPANY
 DATE.        26-MAR-1977:   LOGDATE
 API .     49025103250000:   API NUMBER
~CURVE INFORMATION
#MNEM.UNIT       API CODE    CURVE DESCRIPTION
#----------   ------------   ------------------------------
 DEPT.F                  :   
 GRD .GAPI   45 310 01 00:   GAMMA RAY FROM DENSITY LOG
 CALD.IN     45 280 60 00:   CALIPER FROM DENSITY LOG
 CORR.G/C3   45 356 01 00:   DENSITY CORRECTION
 RHOB.G/C3   45 350 01 00:   BULK DENSITY
 SPR .MV     07 010 01 00:   SPONTANEOUS POTENTIAL
 ILD .OHMM   07 120 46 00:   DEEP INDUCTION RESISTIVITY
 ILM .OHMM   07 120 44 00:   INDUCTION LOG MEDIUM RESISTIVITY
 SGRD.OHMM   07 220 05 00:   SHALLOW SHORT GUARD RESISTIVITY
~PARAMETER INFORMATION
#MNEM.UNIT          VALUE    DESCRIPTION
#----------   ------------   ------------------------------
 EKB .F         5183.0000:   Kelly bushing
 EGL .F         5172.0000:   Ground level
 TD  .F         3213.0000:   Total depth
 CLNT.            A2DTECH:   Client Code
 SL  . 900' FWL & 1650' FNL:   Surface Location
 PD  .                 GL:   Permanent Datum
 EPD .F              5172:   Elevation Permanent Datum
 LMF .                 KB:   Log Measured From
 DMF .                 KB:   Drilling Measured From
 DAPD.F                11:   Feet Above Permanent Datum
 DATE.        26-MAR-1977:   Date Logged [DD-MMM-YYYY]
 DD  .F              3210:   Depth driller
 DL  .F              3213:   Depth logger
 BLI .F              3211:   Bottom log interval
 TLI .F               625:   Top log interval
 CS1 .IN            8.625:   Casing size
 CBD1.      8.625" @ 633':   Casing driller 1
 CBL1.F               635:   Casing logger 1
 BS1 .IN            7.875:   Bit size
 BSD1.F              3210:   Depth drilled with bit1
 DFT .            KCL MUD:   Type fluid in hole
 DFD .                9.5:   Density
 DFV .                 34:   Viscosity
 DFPH.                8.5:   pH
 DFL .                 14:   Fluid loss
 MSS .           FLOWLINE:   Source of sample
 RMS .OHMM           0.34:   Rm
 MST .F                86:   Rm Meas. temp.
 RMF .OHMM           0.25:   Rmf
 MFST.F                86:   Rmf Meas. temp.
 MFSS.            FANN KL:   Source Rmf.
 RMC .OHMM           0.55:   Rmc
 MCST.F                86:   Rmc Meas. temp.
 MCSS.            FANN KL:   Source Rmc.
 RMB .OHMM           0.31:   Rm. at BHT
 BHT .F                92:   BHT.
 TCS .HRS             2.5:   Time Circ. stopped
 MRT .F                92:   Maximum recorded temp.
 LUN .               8611:   Logging unit number
 LUL .             CASPER:   Logging unit location
 ENGI.            C. DOAK:   Recorded By
 WITN.            K. JAPP:   Witnessed by
 ORIG.           5" PRINT:   Origin of data
 UWI .     49025103250000:   Unique Well ID
 DICO. A2D TECHNOLOGIES, INC.:   Digitizing Company
~OTHER INFORMATION
~A   DEPT       GRD        CALD      CORR        RHOB      SPR        ILD        ILM       SGRD   
# ...
 2645.0000    80.0000     8.8978     0.0250     2.5280   -43.4168     5.8162     7.2214     8.3981
 2645.5000    80.3142     8.8988     0.0221     2.5242   -43.4027     5.8194     7.2742     8.4020
 2646.0000    80.9222     8.8998     0.0206     2.5246   -43.2439     5.8225     7.2771     8.6398
 2646.5000    81.6786     8.9008     0.0237     2.5342   -43.2323     5.8660     7.2801     8.7628
 2647.0000    81.5448     8.9018     0.0268     2.5358   -43.2207     5.8692     7.2831     8.8266
 2647.5000    80.6691     8.9028     0.0283     2.5328   -43.0619     5.8312     7.2291     8.7092
 2648.0000    80.0865     8.8890     0.0299     2.5321   -43.2004     5.8352     7.0918     8.5933
 2648.5000    80.9949     8.8901     0.0299     2.5337   -43.3361     5.7583     6.9978     8.4207
 2649.0000    81.0325     8.8911     0.0315     2.5330   -43.3217     5.6827     6.8106     8.1946
 2649.5000    80.4306     8.8923     0.0316     2.5301   -43.4602     5.6080     6.5379     8.0258
 2650.0000    79.2582     8.8932     0.0301     2.5211   -43.3848     5.5343     6.3631     7.8605
 2650.5000    78.8276     8.8942     0.0271     2.5076   -43.2872     5.3868     6.3214     7.6067
 2651.0000    79.9286     8.8954     0.0240     2.5077   -43.2753     5.3484     6.3682     7.5566
 2651.5000    81.3826     8.8964     0.0183     2.5077   -43.2578     5.2760     6.5036     7.5601
 2652.0000    82.2873     8.8974     0.0123     2.5018   -43.1046     5.2491     6.6419     7.7207
 2652.5000    83.6372     8.8984     0.0093     2.4958   -43.0799     5.2520     6.7367     7.8307
 2653.0000    84.0968     8.8925     0.0064     2.4951   -42.9315     5.2187     6.7394     7.9422
 2653.5000    82.9245     8.8856     0.0034     2.4989   -42.9200     5.1508     6.6045     8.0000
 2654.0000    82.0488     8.8718     0.0020     2.5050   -42.9102     5.1175     6.4657     8.0030
 2654.5000    82.9535     8.8728     0.0036     2.4998   -42.8984     5.0509     6.2867     8.0059
 2655.0000    84.1550     8.8741     0.0036     2.4931   -42.8852     4.9838     6.0475     7.8994
 2655.5000    85.3565     8.8751     0.0052     2.4863   -42.8736     4.8509     5.7655     7.5263
 2656.0000    84.4809     8.8760     0.0068     2.4819   -42.8620     4.7216     5.5346     6.7654
 2656.5000    82.8789     8.8770     0.0113     2.4906   -42.8512     4.5964     5.5751     5.9641
 2657.0000    81.4409     8.8782     0.0144     2.4978   -42.7813     4.5672     5.7330     6.3477
 2657.5000    80.0742     8.8792     0.0145     2.5024   -42.6800     4.5072     5.8147     7.1877
 2658.0000    78.7920     8.8748     0.0130     2.5055   -42.5211     4.4787     5.8171     7.5974
 2658.5000    78.9246     8.8661     0.0131     2.5056   -42.5096     4.5122     5.8194     7.5481
 2659.0000    79.6893     8.8674     0.0131     2.5026   -42.3505     4.6094     5.9024     7.2454
 2659.5000    80.5780     8.8684     0.0132     2.4936   -42.1915     4.7408     6.1115     7.1977
 2660.0000    77.1837     8.8546     0.0163     2.4816   -41.7355     4.8759     6.1986     7.6087
 2660.5000    73.9341     8.8556     0.0193     2.4621   -41.2821     5.0494     6.1586     7.6634
 2661.0000    71.4264     8.8569     0.0224     2.4577   -40.6814     5.3384     6.4346     7.3567
 2661.5000    69.2154     8.8579     0.0240     2.4577   -39.7862     5.7618     7.2005     7.7228
 2662.0000    67.1528     8.8292     0.0240     2.4540   -37.4182     6.2617     7.8453     9.0590
 2662.5000    67.7609     8.8302     0.0241     2.4390   -36.0811     6.8994     8.2357    14.4620
 2663.0000    68.9623     8.8313     0.0226     2.4338   -35.0386     7.8144     8.7652    16.4872
 2663.5000    69.8671     8.8026     0.0197     2.4445   -34.1434     8.6117     9.2013    16.7204
 2664.0000    70.9202     8.8036     0.0137     2.4535   -33.6900     9.2414     9.7929    16.2723
 2664.5000    71.6766     8.7749     0.0078     2.4365   -33.3839     9.5821    10.2801    17.9269
 2665.0000    72.5816     8.7463     0.0018     2.4280   -33.3726     9.9679    10.5712    16.0632
 2665.5000    72.5527     8.7274     0.0019     2.4371   -33.3608    10.2519    10.7219    14.3933
 2666.0000    71.1304     8.7179     0.0050     2.4470   -33.3490    10.4717    10.8749    14.3987
 2666.5000    69.9580     8.6900     0.0097     2.4628   -33.3366    10.6227    11.0300    13.8212
 2667.0000    68.9340     8.6614     0.0126     2.4719   -33.3255    10.7758    11.1106    15.7583
 2667.5000    69.0969     8.6329     0.0157     2.4690   -33.4616    10.6341    11.1151    19.1151
 2668.0000    71.7821     8.6340     0.0172     2.4608   -33.4471    10.4943    10.8867    20.6324
 2668.5000    75.5058     8.6051     0.0203     2.4555   -33.7301    10.2146    10.5903    21.3860
 2669.0000    77.7459     8.6063     0.0204     2.4496   -33.7185     9.9423    10.2480    22.5741
 2669.5000    80.1343     8.6073     0.0204     2.4481   -34.1488     9.6743    10.0417    16.5685
 2670.0000    75.1043     8.6084     0.0205     2.4617   -34.2874     9.4023     9.9086    14.4429
 2670.5000    73.4971     8.6094     0.0205     2.4649   -34.2729     9.2317     9.8446    13.7685
 2671.0000    71.5750     8.6176     0.0221     2.4536   -34.2613     9.2379     9.9860    13.3076
 2671.5000    70.5510     8.6411     0.0252     2.4529   -34.2497     9.3068    10.0591    12.9510
 2672.0000    69.5270     8.6421     0.0298     2.4624   -33.9436     9.3911    10.0631    12.9558
 2672.5000    68.6513     8.6434     0.0328     2.4729   -33.6374     9.5771    10.1491    13.6944
 2673.0000    68.2207     8.6444     0.0374     2.4825   -33.4786     9.6485    10.2108    14.8792
 2673.5000    68.6804     8.6454     0.0420     2.4863   -33.1659     9.7205    10.2148    15.5123
 2674.0000    69.5852     8.6464     0.0405     2.4878   -33.0133     9.7929    10.2191    15.7573
 2674.5000    71.0834     8.6178     0.0391     2.4789   -32.8542     9.7308    10.1523    15.2066
 2675.0000    71.9881     8.6188     0.0389     2.4699   -32.6930     9.7362    10.0876    17.8323
 2675.5000    74.2876     8.6198     0.0362     2.4752   -32.6814     9.7173    10.0226    17.0324
 2676.0000    74.3911     8.6059     0.0332     2.4768   -32.8171     9.6798     9.9579    14.5087
 2676.5000    73.0703     8.6070     0.0303     2.4678   -32.8055     9.6189     9.9629    14.5141
 2677.0000    74.8689     8.6080     0.0274     2.4618   -32.9441     9.6242     9.8976    14.2227
 2677.5000    76.6639     8.6091     0.0259     2.4551   -32.9296     9.6295     9.8338    13.3733
 2678.0000    77.4203     8.6101     0.0244     2.4657   -33.1148     9.5680     9.8388    16.5605
 2678.5000    76.6930     8.6261     0.0245     2.4801   -33.2039     9.5074     9.8423    16.3402
 2679.0000    75.8173     8.6420     0.0246     2.4892   -33.1894     9.3824     9.8464    15.0503
 2679.5000    74.9417     8.6579     0.0216     2.4915   -33.3255     9.3887     9.8507    14.1514
 2680.0000    74.5075     8.6885     0.0187     2.4767   -33.3137     9.3938     9.8547    14.4520
 2680.5000    74.5257     8.7192     0.0157     2.4645   -33.4492     9.3343     9.8587    14.2597
 2681.0000    74.5402     8.7499     0.0143     2.4661   -33.4374     9.4040     9.9308    13.9689
 2681.5000    74.4064     8.7806     0.0128     2.4692   -33.4256     9.4173    10.1094    13.7875
 2682.0000    74.2726     8.8113     0.0129     2.4722   -33.4115     9.6784    10.8815    14.5097
 2682.5000    73.9904     8.8420     0.0130     2.4731   -33.4021     9.8180    11.4219    15.5121
 2683.0000    73.1183     8.8133     0.0160     2.4723   -33.5381     9.9595    11.8961    15.5179
 2683.5000    72.4836     8.7678     0.0176     2.4664   -33.6730    10.1031    11.9830    16.0672
 2684.0000    71.8121     8.7264     0.0192     2.4604   -33.6613    10.1785    11.5826    18.7013
 2684.5000    71.3779     8.6977     0.0177     2.4499   -33.7983    10.1840    11.1955    20.8865
 2685.0000    71.0957     8.6693     0.0148     2.4447   -33.9311    10.1181    10.8961    19.7748
