~VERSION INFORMATION
 VERS.                2.0:   CWLS LOG ASCII STANDARD - VERSION 2.0
 WRAP.                 NO:   ONE LINE PER DEPTH STEP
~WELL INFORMATION
#MNEM.UNIT      DATA TYPE    INFORMATION
#----------   ------------   ------------------------------
 STRT.F          197.0000:   START DEPTH
 STOP.F         3238.5000:   STOP DEPTH
 STEP.F            0.5000:   STEP LENGTH
 NULL.          -999.2500:   NO VALUE
 COMP.    FENIX & SCISSON:   COMPANY
 WELL. FENIX 28 "A" #28-11:   WELL
 FLD .              NPR-3:   FIELD
 LOC .      S11 T38N R78W:   LOCATION
 CNTY.            NATRONA:   COUNTY
 STAT.            WYOMING:   STATE
 CTRY. UNITED STATES OF AMERICA:   COUNTRY
 SRVC.              WELEX:   SERVICE COMPANY
 DATE.        25-OCT-1977:   LOGDATE
 API .     49025104350000:   API NUMBER
~CURVE INFORMATION
#MNEM.UNIT       API CODE    CURVE DESCRIPTION
#----------   ------------   ------------------------------
 DEPT.F                  :   
 SPR .MV     07 010 01 00:   SPONTANEOUS POTENTIAL
 TENR.LBS    07 635 01 00:   TENSION FROM RESISTIVITY
 ILM .OHMM   07 120 44 00:   INDUCTION LOG MEDIUM RESISTIVITY
 SGRD.OHMM   07 220 05 00:   SHALLOW SHORT GUARD RESISTIVITY
 ILD .OHMM   07 120 46 00:   INDUCTION LOG DEEP RESISTIVITY
 GRD .GAPI   45 310 01 00:   GAMMA RAY FROM DENSITY LOG
 CALD.IN     45 280 60 00:   CALIPER FROM DENSITY LOG
 CORR.G/C3   45 356 01 00:   DENSITY CORRECTION
 RHOB.G/C3   45 350 01 00:   BULK DENSITY
~PARAMETER INFORMATION
#MNEM.UNIT          VALUE    DESCRIPTION
#----------   ------------   ------------------------------
 EKB .F         5211.0000:   Kelly bushing
 EGL .F         5201.0000:   Ground level
 EDF .F            0.0000:   Drilling floor
 EPD .F         5201.0000:   Permanent datum
 TD  .F         3235.0000:   Total depth
 CLNT.            A2DTECH:   Client Code
 SL  . 330' FSL & 990' FWL:   Surface Location
 PD  .                 GL:   Permanent Datum
 DAPD.F                10:   Feet Above Permanent Datum
 DATE.        25-OCT-1977:   Date Logged [DD-MMM-YYYY]
 DD  .F              3235:   Depth driller
 DL  .F              3231:   Depth logger
 BLI .F              3229:   Bottom log interval
 TLI .F               200:   Top log interval
 CS1 .IN            8.625:   Casing size
 CBD1.      8.625" @ 217':   Casing driller 1
 CBL1.F               217:   Casing logger 1
 BS1 .              7.875:   Bit size
 BSD1.IN             3235:   Depth drilled with bit1
 DFT .            KCL MUD:   Type fluid in hole
 DFD .                8.9:   Density
 DFV .                 35:   Viscosity
 DFPH.               11.5:   pH
 DFL .               16.4:   Fluid loss
 MSS .           FLOWLINE:   Source of sample
 RMS .OHMM           1.18:   Rm
 MST .F                74:   Rm Meas. temp.
 RMF .OHMM           1.74:   Rmf
 MFST.F                74:   Rmf Meas. temp.
 MFSS.               MEAS:   Source Rmf.
 MCSS.               MEAS:   Source Rmc.
 RMB .OHMM           1.15:   Rm. at BHT
 BHT .F               116:   BHT.
 TCS .HRS               3:   Time Circ. stopped
 MRT .F               116:   Maximum recorded temp.
 LUN .               8611:   Logging unit number
 LUL .             CASPER:   Logging unit location
 ENGI.            C. DOAK:   Recorded By
 WITN.      W. PETTINGILL:   Witnessed by
 ORIG.           5" PRINT:   Origin of data
 UWI .     49025104350000:   Unique Well ID
 DICO. A2D TECHNOLOGIES, INC.:   Digitizing Company
~OTHER INFORMATION
~A   DEPT      SPR       TENR        ILM       SGRD        ILD         GRD      CALD       CORR       RHOB   
# ...
 3190.0000   -67.8070  1978.5250     4.3307     7.6666     4.1182   132.7504     7.8217     0.0386     2.5159
 3190.5000   -68.2667  1979.7800     4.2988     7.2831     3.9495   135.1418     7.8205     0.0293     2.4949
 3191.0000   -68.5752  1981.0350     4.2085     5.9556     3.8912   136.3718     7.8208     0.0230     2.4742
 3191.5000   -69.0349  1982.2900     4.1739     5.0068     3.7604   136.6703     7.8231     0.0168     2.4626
 3192.0000   -69.1921  1983.5450     4.0893     4.5424     3.6314   136.3356     7.8255     0.0152     2.4769
 3192.5000   -69.3506  1984.8000     4.0873     4.7992     3.5558   133.5095     7.8278     0.0183     2.4836
 3193.0000   -69.3564  1986.0551     4.0293     5.2130     3.5060   130.9953     7.8301     0.0214     2.4889
 3193.5000   -69.3623  1987.3109     4.0274     5.2835     3.4808   128.8846     7.8129     0.0229     2.4919
 3194.0000   -69.3681  1988.5455     4.0821     5.4297     3.4799   126.5865     7.8117     0.0228     2.4827
 3194.5000   -69.3740  1989.8199     4.1942     5.0639     3.4790   125.9444     7.8105     0.0228     2.4731
 3195.0000   -69.5311  1990.0000     4.3099     5.3133     3.4780   126.2402     7.8093     0.0228     2.4656
 3195.5000   -69.5370  2030.0000     4.4337     5.5750     3.4769   126.8442     7.8394     0.0212     2.4738
 3196.0000   -69.3915  2030.0000     4.5509     5.0929     3.5003   127.4502     7.8538     0.0180     2.4701
 3196.5000   -69.3988  2030.0000     4.5798     4.8500     3.4991   129.3042     7.8682     0.0134     2.4566
 3197.0000   -69.4047  2030.0000     4.6743     4.9157     3.4982   130.8891     7.8667     0.0103     2.4491
 3197.5000   -69.4105  2023.4985     4.7701     5.2666     3.5058   133.3197     7.8342     0.0087     2.4686
 3198.0000   -69.5676  2017.4594     4.7018     5.3744     3.5207   134.8662     7.8174     0.0086     2.4708
 3198.5000   -69.5735  2011.4100     4.5713     5.1531     3.5197   136.0917     7.8162     0.0040     2.4640
 3199.0000   -69.5794  2005.3668     4.4137     5.0103     3.5187   136.3901     7.7994     0.0024     2.4610
 3199.5000   -69.4339  1999.3229     4.2611     4.8044     3.5175   135.4315     7.7979     0.0086     2.4609
 3200.0000   -69.5495  1993.2791     4.1143     4.7364     3.5166   131.9813     7.8013     0.0153     2.4648
 3200.5000   -69.6599  2018.5312     4.0001     4.8680     3.4914   130.4119     7.8264     0.0178     2.4694
 3201.0000   -69.7552  2033.9540     3.9706     4.9953     3.4905   128.2046     7.8242     0.0147     2.4722
 3201.5000   -69.7633  2034.4293     3.9688     5.1452     3.4895   123.8213     7.8224     0.0147     2.4707
 3202.0000   -69.7713  2049.8521     3.9669     5.2165     3.4886   121.8719     7.8207     0.0177     2.4670
 3202.5000   -69.7793  2050.3271     3.9926     5.0035     3.5119   126.3649     7.8189     0.0208     2.4610
 3203.0000   -69.7874  2050.9211     4.0025     4.8651     3.5109   131.5728     7.8172     0.0223     2.4505
 3203.5000   -69.7954  2051.3962     4.0008     4.7657     3.5342   133.4336     7.7997     0.0239     2.4688
 3204.0000   -69.8047  2051.8716     3.9994     4.8652     3.5401   131.8547     7.7957     0.0207     2.4595
 3204.5000   -69.8120  2052.3467     3.8886     4.8309     3.5831   129.3436     7.7802     0.0129     2.4467
 3205.0000   -69.8193  2052.8218     3.8337     4.7971     3.5073   127.1445     7.7472     0.0145     2.4594
 3205.5000   -69.8265  2053.3135     3.8059     4.7306     3.4835   125.2573     7.7298     0.0144     2.4624
 3206.0000   -69.8338  2053.8911     3.8844     4.6650     3.4827   123.9943     7.7271     0.0129     2.4414
 3206.5000   -69.8411  2054.3662     3.9924     4.7954     3.5063   127.4076     7.7576     0.0078     2.4308
 3207.0000   -69.8502  2054.8411     4.0468     4.8955     3.5543   128.9526     7.7867     0.0004     2.4252
 3207.5000   -69.8575  2055.3162     4.0175     4.9978     3.5535   126.7535     7.8318     0.0004     2.4215
 3208.0000   -69.8648  2055.8047     3.9608     4.8944     3.5527   122.0583     7.8461     0.0035     2.4335
 3208.5000   -69.8721  2056.3855     3.9320     4.8601     3.5272   122.3553     7.8751     0.0065     2.4417
 3209.0000   -69.8793  2041.7939     3.8765     4.8933     3.5021   123.9103     7.8891     0.0112     2.4493
 3209.5000   -69.8866  2042.3879     3.9294     4.8926     3.4771   126.3776     7.9038     0.0142     2.4590
 3210.0000   -69.8941  2042.8633     3.9554     4.8921     3.4285   127.9226     7.9324     0.0142     2.4703
 3210.5000   -69.9030  2043.3484     3.9538     4.8915     3.3573   129.7796     7.9302     0.0142     2.4613
 3211.0000   -69.9103  2043.9324     3.9524     4.8573     3.2875   128.2046     7.9284     0.0109     2.4448
 3211.5000   -69.9176  2044.4075     3.9511     4.5005     3.1969   109.4688     7.9267     0.0033     2.4261
 3212.0000   -69.9248  2044.8826     3.9225     4.1623     3.1522     9.2965     7.9249     0.0002     2.4236
 3212.5000   -69.9321  2045.3578     3.9211     4.1120     3.1081     0.5451     7.9232     0.0017     2.4361
 3213.0000   -69.9395  2030.8853     3.8658     4.2270     3.0860  -999.2500     7.9210     0.0079     2.4501
 3213.5000   -69.9485  2031.4792     3.8645     4.4675     3.0640  -999.2500     7.9041     0.0122     2.4584
 3214.0000   -69.9558  2016.8879     3.8629     4.4054     3.0389  -999.2500     7.9179     0.0191     2.4674
 3214.5000   -69.9631  2032.4297     3.8349     4.2846     3.0204  -999.2500     7.9157     0.0233     2.4734
 3215.0000   -69.9704  2047.8524     3.8070     4.1096     3.0197  -999.2500     7.9140     0.0248     2.4738
 3215.5000   -69.9776  2063.7065     3.8323     3.9969     3.0190  -999.2500     7.8966     0.0186     2.4644
 3216.0000   -69.9849  2108.7122     3.8580     4.0804     3.0184  -999.2500     7.8948     0.0139     2.4584
 3216.5000   -69.9924  2124.1350     3.8564     4.1369     3.0177  -999.2500     7.8927     0.0139     2.4734
 3217.0000   -70.1526  2109.6626     3.8551     4.0233     3.0169  -999.2500     7.8909     0.0170     2.4802
 3217.5000   -70.1599  2110.1375     3.8271     3.9951     3.0162  -999.2500     7.8893     0.0169     2.4809
 3218.0000   -70.1671  2095.6650     3.9060     4.2515     3.0155  -999.2500     7.8874     0.0169     2.4637
 3218.5000   -70.0213  2066.2451     3.9596     4.2217     3.0149  -999.2500     7.8857     0.0122     2.4435
 3219.0000   -70.0304  2051.7725     4.0133     4.1059     3.0142  -999.2500     7.8838    -0.0033     2.4345
 3219.5000   -70.0378  2052.3665     4.0119     4.4612     3.0345  -999.2500     7.8817    -0.0049     2.4405
 3220.0000   -70.0468  2082.7368     4.0385     5.1589     3.0547  -999.2500     7.8802     0.0013     2.4525
 3220.5000   -70.0541  2098.1599     4.0653     5.3401     3.0754  -999.2500     7.8782     0.0044     2.4638
 3221.0000   -70.0614  2083.8059     4.0639     5.0867     3.0960  -999.2500     7.8765     0.0136     2.4780
 3221.5000   -70.0686  2069.3335     4.1225     4.8456     3.0953  -999.2500     7.8747     0.0246     2.4938
 3222.0000   -70.0759  2084.7563     4.1755     4.9811     3.0946  -999.2500     7.8729     0.0337     2.4841
 3222.5000   -70.0832  2040.3884     4.1737     4.4273     3.0939  -999.2500     7.8708     0.0415     2.4718
 3223.0000   -70.0908  2010.9617     4.2014     3.9901     3.0930  -999.2500     7.8690     0.0476     2.4796
 3223.5000   -70.0996  2088.2771     4.2590     3.5198     3.0924  -999.2500     7.8673     0.0631     2.4923
 3224.0000   -70.1069  2086.6570     4.2873     3.8533     3.0917  -999.2500     7.8655     0.0879     2.5051
 3224.5000   -69.9610  2027.4601     4.2558     4.5811     3.0910  -999.2500     7.8325     0.1080     2.5141
 3225.0000   -70.1214  2012.8689     4.1957     4.7094     3.0690  -999.2500     7.8290     0.1235     2.4931
 3225.5000   -70.1287  2177.8872     4.2235     4.3333     3.0683  -999.2500     7.7348     0.1374     2.4722
 3226.0000   -70.1362  2133.5193     4.3407     4.2144     3.0674  -999.2500     7.6393     0.1500     2.4122
