~VERSION INFORMATION
 VERS.                2.0:   CWLS LOG ASCII STANDARD - VERSION 2.0
 WRAP.                 NO:   ONE LINE PER DEPTH STEP
~WELL INFORMATION
#MNEM.UNIT      DATA TYPE    INFORMATION
#----------   ------------   ------------------------------
 STRT.F           40.0000:   START DEPTH
 STOP.F         3326.0000:   STOP DEPTH
 STEP.F            0.5000:   STEP LENGTH
 NULL.          -999.2500:   NO VALUE
 COMP.    FENIX & SCISSON:   COMPANY
 WELL.  FENIX "AX" #53-15:   WELL
 FLD .              NPR-3:   FIELD
 LOC .      S15 T38N R78W:   LOCATION
 CNTY.            NATRONA:   COUNTY
 STAT.            WYOMING:   STATE
 CTRY. UNITED STATES OF AMERICA:   COUNTRY
 SRVC.              WELEX:   SERVICE COMPANY
 DATE.        02-MAR-1977:   LOGDATE
 API .     49025102640000:   API NUMBER
~CURVE INFORMATION
#MNEM.UNIT       API CODE    CURVE DESCRIPTION
#----------   ------------   ------------------------------
 DEPT.F                  :   
 CALD.IN     42 280 60 00:   CALIPER
 TEND.LBS    42 635 01 00:   TENSION FROM NEUTRON POROSITY LOG
 GRD .GAPI   42 310 30 00:   GAMMA RAY
 NPHI.DEC    42 890 03 00:   NEUTRON POROSITY SANDSTONE
 DPHI.DEC    45 890 12 00:   DENSITY POROSITY SANDSTONE
 SPR .MV     07 010 01 00:   SPONTANEOUS POTENTIAL
 ILD .OHMM   07 120 46 00:   DEEP INDUCTION RESISTIVITY
 ILM .OHMM   07 120 44 00:   INDUCTION LOG MEDIUM RESISTIVITY
 SGRD.OHMM   07 220 05 00:   SHALLOW SHORT GUARD RESISTIVITY
~PARAMETER INFORMATION
#MNEM.UNIT          VALUE    DESCRIPTION
#----------   ------------   ------------------------------
 EKB .F            0.0000:   Kelly bushing
 EGL .F         5251.0000:   Ground level
 EDF .F            0.0000:   Drilling floor
 TD  .F          750.0000:   Total depth
 DATE.        02-MAR-1977:   Date logged
 CLNT.            A2DTECH:   Client Code
 SL  . 1650' FNL & 2360' FEL:   Surface Location
 PD  .                 GL:   Permanent Datum
 EPD .F              5253:   Elevation Permanent Datum
 LMF .                 GL:   Log Measured From
 DMF .                 GL:   Drilling Measured From
 DD  .F               750:   Depth driller
 DL  .F               747:   Depth logger
 BLI .F               745:   Bottom log interval
 CS1 .IN            8.625:   Casing size
 CBD1.       8.625" @ 40':   Casing driller 1
 CBL1.F                44:   Casing logger 1
 BS1 .IN            7.875:   Bit size
 BSD1.F               750:   Depth drilled with bit1
 DFT .           CHEM-GEL:   Type fluid in hole
 MSS .           FLOWLINE:   Source of sample
 RMS .OHMM          0.425:   Rm
 MST .F                56:   Rm Meas. temp.
 RMF .OHMM          0.466:   Rmf
 MFST.F                56:   Rmf Meas. temp.
 RMC .OHMM          0.712:   Rmc
 MCST.F                56:   Rmc Meas. temp.
 MFSS.               MEAS:   Source Rmf.
 MCSS.               MEAS:   Source Rmc.
 RMB .OHMM          0.350:   Rm. at BHT
 BHT .F                68:   BHT.
 TCS .HRS               2:   Time Circ. stopped
 MRT .F                68:   Maximum recorded temp.
 LUN .               8611:   Logging unit number
 LUL .            GILLETH:   Logging unit location
 ENGI.          D. LAWSON:   Recorded By
 WITN.           S. BURKL:   Witnessed by
 ORIG.           5" PRINT:   Origin of data
 UWI .     49025102640000:   Unique Well ID
 DICO. A2D TECHNOLOGIES, INC.:   Digitizing Company
~OTHER INFORMATION
~A   DEPT     CALD       TEND         GRD        NPHI     DPHI        SPR        ILD        ILM       SGRD   
# ...
 1317.5000     7.9720   264.0000   123.8820     0.3220     0.0830  -999.2500  -999.2500  -999.2500  -999.2500
 1318.0000     7.9680   263.0500   125.2230     0.3310     0.0880  -999.2500  -999.2500  -999.2500  -999.2500
 1318.5000     7.9640   262.1000   125.0010     0.3410     0.0940  -999.2500  -999.2500  -999.2500  -999.2500
 1319.0000     7.9610   261.1500   124.0900     0.3490     0.0870  -999.2500  -999.2500  -999.2500  -999.2500
 1319.5000     7.9570   260.2000   125.4340     0.3550     0.0840  -999.2500  -999.2500  -999.2500  -999.2500
 1320.0000     7.9530   259.2500   123.3620     0.3560     0.0860  -999.2500  -999.2500  -999.2500  -999.2500
 1320.5000     7.9500   258.3000   125.2890     0.3580     0.0900  -999.2500  -999.2500  -999.2500  -999.2500
 1321.0000     7.9460   257.3500   122.8100     0.3600     0.0990  -999.2500  -999.2500  -999.2500  -999.2500
 1321.5000     7.9420   256.4000   122.1120     0.3640     0.0950  -999.2500  -999.2500  -999.2500  -999.2500
 1322.0000     7.9390   255.4500   122.0960     0.3650     0.0950  -999.2500  -999.2500  -999.2500  -999.2500
 1322.5000     7.9350   274.2260   122.5100     0.3600     0.1170  -999.2500  -999.2500  -999.2500  -999.2500
 1323.0000     7.9320   266.1340   120.8560     0.3550     0.1690  -999.2500  -999.2500  -999.2500  -999.2500
 1323.5000     7.9550   273.7660   122.8120     0.3520     0.2170  -999.2500  -999.2500  -999.2500  -999.2500
 1324.0000     8.0230   263.6220   123.4620     0.3520     0.2550  -999.2500  -999.2500  -999.2500  -999.2500
 1324.5000     8.0900   204.7950   127.7910     0.3540     0.2870  -999.2500  -999.2500  -999.2500  -999.2500
 1325.0000     8.1570   293.2780   132.8130     0.3570     0.2910  -999.2500  -999.2500  -999.2500  -999.2500
 1325.5000     8.1590   264.7350   129.1190     0.3610     0.2680  -999.2500  -999.2500  -999.2500  -999.2500
 1326.0000     8.1350   264.2900   119.3180     0.3630     0.1950  -999.2500  -999.2500  -999.2500  -999.2500
 1326.5000     8.1110   260.4170   116.1550     0.3610     0.1280  -999.2500  -999.2500  -999.2500  -999.2500
 1327.0000     8.1100   256.5430   117.6720     0.3610     0.1170  -999.2500  -999.2500  -999.2500  -999.2500
 1327.5000     8.1100   270.9290   115.4850     0.3640     0.1040  -999.2500  -999.2500  -999.2500  -999.2500
 1328.0000     8.1070   266.4670   113.6400     0.3660     0.1100  -999.2500  -999.2500  -999.2500  -999.2500
 1328.5000     8.0330   253.6460   117.9610     0.3620     0.1130  -999.2500  -999.2500  -999.2500  -999.2500
 1329.0000     8.0160   274.7250   120.8720     0.3570     0.1060  -999.2500  -999.2500  -999.2500  -999.2500
 1329.5000     8.0250   273.5200   120.8900     0.3560     0.1030  -999.2500  -999.2500  -999.2500  -999.2500
 1330.0000     8.0350   271.9470   116.1220     0.3490     0.1040  -999.2500  -999.2500  -999.2500  -999.2500
 1330.5000     8.0450   270.3730   114.1030     0.3380     0.1100  -999.2500  -999.2500  -999.2500  -999.2500
 1331.0000     8.0620   268.8000   113.1620     0.3360     0.1210  -999.2500  -999.2500  -999.2500  -999.2500
 1331.5000     8.0890   267.2270   117.2490     0.3300     0.1150  -999.2500  -999.2500  -999.2500  -999.2500
 1332.0000     8.1150   265.6530   120.4400     0.3230     0.1180  -999.2500  -999.2500  -999.2500  -999.2500
 1332.5000     8.1420   264.0360   114.6630     0.3250     0.0990  -999.2500  -999.2500  -999.2500  -999.2500
 1333.0000     8.1880   262.3580   114.4150     0.3300     0.0930  -999.2500  -999.2500  -999.2500  -999.2500
 1333.5000     8.2430   260.6790   116.1740     0.3360     0.0880  -999.2500  -999.2500  -999.2500  -999.2500
 1334.0000     8.2700   259.0010   120.8430     0.3420     0.0820  -999.2500  -999.2500  -999.2500  -999.2500
 1334.5000     8.2620   257.3230   123.9070     0.3500     0.0700  -999.2500  -999.2500  -999.2500  -999.2500
 1335.0000     8.1950   255.6440   121.9440     0.3500     0.0810  -999.2500  -999.2500  -999.2500  -999.2500
 1335.5000     8.1270   256.8700   118.1600     0.3470     0.0920  -999.2500  -999.2500  -999.2500  -999.2500
 1336.0000     8.1080   261.4480   115.2490     0.3400     0.0930  -999.2500  -999.2500  -999.2500  -999.2500
 1336.5000     8.1040   265.1520   114.3770     0.3360     0.1050  -999.2500  -999.2500  -999.2500  -999.2500
 1337.0000     8.1000   266.6330   115.6080     0.3400     0.1100  -999.2500  -999.2500  -999.2500  -999.2500
 1337.5000     8.0970   268.1140   117.2070     0.3480     0.1150  -999.2500  -999.2500  -999.2500  -999.2500
 1338.0000     8.0930   269.5950   117.0600     0.3520     0.1080  -999.2500  -999.2500  -999.2500  -999.2500
 1338.5000     8.0980   271.0760   115.4690     0.3500     0.1100  -999.2500  -999.2500  -999.2500  -999.2500
 1339.0000     8.1520   272.5570   117.4370     0.3480     0.1030  -999.2500  -999.2500  -999.2500  -999.2500
 1339.5000     8.2070   274.0380   114.4020     0.3480     0.1040  -999.2500  -999.2500  -999.2500  -999.2500
 1340.0000     8.2160   274.7250   113.0980     0.3450     0.0950  -999.2500  -999.2500  -999.2500  -999.2500
 1340.5000     8.1930   274.7250   114.9400     0.3370     0.0890  -999.2500  -999.2500  -999.2500  -999.2500
 1341.0000     8.1710   274.7250   111.7940     0.3290     0.0860  -999.2500  -999.2500  -999.2500  -999.2500
 1341.5000     8.1740   274.7250   110.5680     0.3220     0.0730  -999.2500  -999.2500  -999.2500  -999.2500
 1342.0000     8.1820   274.7250   111.1610     0.3200     0.0640  -999.2500  -999.2500  -999.2500  -999.2500
 1342.5000     8.1890   274.7250   109.2110     0.3200     0.0700  -999.2500  -999.2500  -999.2500  -999.2500
 1343.0000     8.1750   274.4880   107.9880     0.3150     0.0710  -999.2500  -999.2500  -999.2500  -999.2500
 1343.5000     8.1570   274.0820   108.6150     0.3110     0.0750  -999.2500  -999.2500  -999.2500  -999.2500
 1344.0000     8.1380   273.6760   110.3580     0.3090     0.0700  -999.2500  -999.2500  -999.2500  -999.2500
 1344.5000     8.1210   273.2700   113.8290     0.3100     0.0620  -999.2500  -999.2500  -999.2500  -999.2500
 1345.0000     8.0880   272.8640   113.3150     0.3030     0.0580  -999.2500  -999.2500  -999.2500  -999.2500
 1345.5000     8.0900   272.4580   112.5050     0.2940     0.0590  -999.2500  -999.2500  -999.2500  -999.2500
 1346.0000     8.0900   272.0520   114.6380     0.2950     0.0630  -999.2500  -999.2500  -999.2500  -999.2500
 1346.5000     8.0900   271.6460   116.5530     0.2970     0.0780  -999.2500  -999.2500  -999.2500  -999.2500
 1347.0000     8.0900   271.2400   111.4310     0.2940     0.0730  -999.2500  -999.2500  -999.2500  -999.2500
 1347.5000     8.0900   270.8340   106.1640     0.2890     0.0670  -999.2500  -999.2500  -999.2500  -999.2500
 1348.0000     8.0850   270.4280   106.3070     0.2820     0.0600  -999.2500  -999.2500  -999.2500  -999.2500
 1348.5000     8.0800   270.0220   108.1760     0.2780     0.0670  -999.2500  -999.2500  -999.2500  -999.2500
 1349.0000     8.0750   269.6160   114.2220     0.2830     0.0690  -999.2500  -999.2500  -999.2500  -999.2500
 1349.5000     8.0710   269.2100   113.7210     0.2810     0.0700  -999.2500  -999.2500  -999.2500  -999.2500
 1350.0000     8.0660   268.8040   112.2260     0.2830     0.0760  -999.2500  -999.2500  -999.2500  -999.2500
 1350.5000     8.0610   268.3980   111.5690     0.2870     0.0820  -999.2500  -999.2500  -999.2500  -999.2500
 1351.0000     8.0560   267.9920   110.9400     0.2910     0.0870  -999.2500  -999.2500  -999.2500  -999.2500
 1351.5000     8.0520   267.5860   110.5780     0.2940     0.0910  -999.2500  -999.2500  -999.2500  -999.2500
 1352.0000     8.0470   267.1800   111.3470     0.2930     0.0910  -999.2500  -999.2500  -999.2500  -999.2500
 1352.5000     8.0420   266.7740   113.9760     0.2910     0.0920  -999.2500  -999.2500  -999.2500  -999.2500
 1353.0000     8.0370   266.3680   109.8970     0.2940     0.0790  -999.2500  -999.2500  -999.2500  -999.2500
 1353.5000     8.0330   265.9610   106.6070     0.2980     0.0750  -999.2500  -999.2500  -999.2500  -999.2500
