~VERSION INFORMATION
 VERS.                2.0:   CWLS LOG ASCII STANDARD - VERSION 2.0
 WRAP.                 NO:   ONE LINE PER DEPTH STEP
~WELL INFORMATION
#MNEM.UNIT      DATA TYPE    INFORMATION
#----------   ------------   ------------------------------
 STRT.F          600.0000:   START DEPTH
 STOP.F         3201.0000:   STOP DEPTH
 STEP.F            0.5000:   STEP LENGTH
 NULL.          -999.2500:   NO VALUE
 COMP.    FENIX & SCISSON:   COMPANY
 WELL. FENIX & SCISSON 38 "AX" #3-34:   WELL
 FLD .              NPR 3:   FIELD
 LOC .      S34 T39N R78W:   LOCATION
 CNTY.            NATRONA:   COUNTY
 STAT.            WYOMING:   STATE
 CTRY. UNITED STATES OF AMERICA:   COUNTRY
 SRVC.              WELEX:   SERVICE COMPANY
 DATE.        16-SEP-1980:   LOGDATE
 API .     49025108560000:   API NUMBER
~CURVE INFORMATION
#MNEM.UNIT       API CODE    CURVE DESCRIPTION
#----------   ------------   ------------------------------
 DEPT.F                  :   
 CORR.G/C3   45 356 01 00:   DENSITY CORRECTION
 GRD .GAPI   45 310 01 00:   GAMMA RAY FROM DENSITY LOG
 RHOB.G/C3   45 350 01 00:   BULK DENSITY
 TEND.LBS    45 635 01 00:   TENSION FORM DENSITY LOG
 CALD.IN     45 280 60 00:   CALIPER FROM DENSITY LOG
 SPR .MV     07 010 01 00:   SPONTANEOUS POTENTIAL FROM RES.
 ILD .OHMM   07 120 46 00:   DEEP INDUCTION RESISTIVITY
 ILM .OHMM   07 120 44 00:   INDUCTION LOG MEDIUM RESISTIVITY
 GURD.OHMM   07 220 05 00:   GUARD LOG RESISTIVITY
~PARAMETER INFORMATION
#MNEM.UNIT          VALUE    DESCRIPTION
#----------   ------------   ------------------------------
 EKB .F         5205.0000:   Kelly bushing
 EGL .F         5195.0000:   Ground level
 TD  .F         3202.0000:   Total depth
 CLNT.            A2DTECH:   Client Code
 SL  . 582' FSL & 1600' FWL:   Surface Location
 PD  .                 GL:   Permanent Datum
 EPD .F              5195:   Elevation Permanent Datum
 LMF .                 KB:   Log Measured From
 DMF .                 KB:   Drilling Measured From
 DAPD.F                10:   Feet Above Permanent Datum
 DATE.        16-SEP-1980:   Date Logged [DD-MMM-YYYY]
 DD  .F              3200:   Depth driller
 DL  .F              3203:   Depth logger
 BLI .F              3201:   Bottom log interval
 TLI .F               600:   Top log interval
 CS1 .IN            8.625:   Casing size
 CBD1.      8.625" @ 580':   Casing driller 1
 CBL1.F               600:   Casing logger 1
 BS1 .IN            7.875:   Bit size
 BSD1.F              3200:   Depth drilled with bit1
 DFT .          DISPERSED:   Type fluid in hole
 DFD .                8.8:   Density
 DFV .                 40:   Viscosity
 DFPH.                 11:   pH
 DFL .                  8:   Fluid loss
 MSS .           FLOWLINE:   Source of sample
 RMS .OHMM           1.33:   Rm
 MST .F                65:   Rm Meas. temp.
 RMF .OHMM           1.15:   Rmf
 MFST.F                65:   Rmf Meas. temp.
 MFSS.               MEAS:   Source Rmf.
 RMC .OHMM           1.50:   Rmc
 MCST.F                65:   Rmc Meas. temp.
 MCSS.               MEAS:   Source Rmc.
 RMB .OHMM            .75:   Rm. at BHT
 BHT .F               115:   BHT.
 TCS .HRS               8:   Time Circ. stopped
 MRT .F               115:   Maximum recorded temp.
 LUN .               1892:   Logging unit number
 LUL .             CASPER:   Logging unit location
 ENGI.    PERIMMER / REIN:   Recorded By
 WITN.              FIVAS:   Witnessed by
 ORIG.         2.5" PRINT:   Origin of data
 UWI .     49025108560000:   Unique Well ID
 DICO. A2D TECHNOLOGIES, INC.:   Digitizing Company
~OTHER INFORMATION
~A   DEPT       CORR       GRD        RHOB      TEND       CALD       SPR          ILD        ILM       GURD 
# ...
  928.5000     0.2642    33.4918     2.3438   520.6326    11.4315   -35.0663     6.6901     5.2501     5.9999
  929.0000     0.2633    33.4805     2.2435   520.7832    11.5598   -34.7831     6.2388     5.1186     6.0788
  929.5000     0.2514    34.1212     2.1811   520.9338    11.4960   -34.8037     6.0646     5.1864     6.0741
  930.0000     0.2242    34.5509     2.0045   517.0682    11.4820   -34.8207     6.0778     5.1821     6.0693
  930.5000     0.1768    32.9961     1.9495   501.2553    11.5115   -34.8377     6.1421     5.1787     6.0779
  931.0000     0.1497    30.7399     1.9359   491.2650    11.5709   -34.8554     6.1006     5.1754     6.1444
  931.5000     0.1798    31.6275     1.9630   491.4232    11.6613   -34.8735     5.9663     5.1009     6.1386
  932.0000     0.2010    33.4251     2.0020   491.1687    11.7537   -35.1928     5.7194     5.0974     6.1335
  932.5000     0.2171    33.2747     2.3211   461.5869    11.7792   -35.3489     5.4080     5.0238     6.1276
  933.0000     0.2317    31.9282     2.3179   461.7470    11.6749   -35.5337     4.9738     4.7643     6.1228
  933.5000     0.2294    32.5330     2.2789   461.8976    11.4789   -35.8519     4.8350     4.4890     6.0339
  934.0000     0.2054    33.3683     2.1864   462.0482    11.5083   -35.8689     4.8428     4.8758     6.0290
  934.5000     0.1947    31.1094     2.0005   462.2263    11.5678   -35.8859     4.9348     4.9410     6.0240
  935.0000     0.1947    28.8533     1.9418   462.3494    11.5673   -35.9036     5.0873     4.9373     6.0190
  935.5000     0.2007    28.7680     1.9283   462.5000    11.4471   -35.9217     5.3174     5.0029     6.0140
  936.0000     0.2278    30.1794     1.9549   462.6506    11.4168   -35.9398     5.3847     5.1485     5.8167
  936.5000     0.2182    30.6178     2.0906   462.8012    11.5471   -35.6566     5.3070     5.2084     4.3056
  937.0000     0.2067    30.6063     2.0019   462.9518    11.6344   -35.6782     5.2309     5.1777     4.4847
  937.5000     0.2087    28.7238     1.9387   463.1024    11.6974   -35.3916     5.1559     5.0940     5.8302
  938.0000     0.2157    24.5629     2.0500   463.2530    11.6685   -35.1099     5.1527     4.9165     6.0799
  938.5000     0.2062    23.3870     2.0549   463.4036    11.6540   -35.1269     5.0787     4.9133     6.0496
  939.0000     0.1826    24.2720     2.0049   463.5542    11.7134   -34.8183     5.1010     4.9101     5.9791
  939.5000     0.1645    26.5069     1.9868   463.7181    11.8028   -34.5585     5.1431     5.0447     5.8920
  940.0000     0.1404    23.3526     1.8269   463.8602    12.4910   -34.2743     5.2110     5.1210     6.0515
  940.5000     0.1220    24.6893     1.8198   464.0060    12.7900   -34.2952     5.3542     5.3440     5.8816
  941.0000     0.1102    28.4444     1.8765   464.1566    11.7227   -34.0120     5.4257     5.3959     4.9086
  941.5000     0.1610    31.4046     1.9249   464.3072    11.5317   -34.0326     5.4981     5.1009     4.9048
  942.0000     0.1734    31.3922     1.9376   464.4578    11.8385   -34.0496     5.6554     5.1679     5.1332
  942.5000     0.1383    31.7777     1.9190   464.6084    12.2492   -34.0666     5.8854     5.2365     5.4134
  943.0000     0.0921    33.4162     1.9386   464.7837    12.6679   -34.0843     5.8814     5.1611     5.3633
  943.5000     0.1282    34.5005     1.9996   464.9257    12.3681   -34.1024     5.7618     4.8784     5.0283
  944.0000     0.1673    35.3881     2.3731   465.0678    11.2299   -34.2209     5.6696     4.7432     4.4943
  944.5000     0.2097    37.1739     2.4332   465.2108    11.1397   -34.4398     5.5535     4.7763     4.6814
  945.0000     0.2276    38.9746     2.4495   465.3615    11.2091   -34.7626     5.4739     5.0343     5.1539
  945.5000     0.2155    38.5935     2.4227   465.5121    11.2885   -35.0808     5.3954     5.1435     5.5192
  946.0000     0.2313    36.2438     2.4027   465.6626    11.1323   -35.7002     5.3922     5.2837     5.2800
  946.5000     0.2381    37.7411     2.3774   465.8132    11.0635   -36.0184     5.3889     5.0683     5.0287
  947.0000     0.2064    38.8937     2.2875   465.9913    11.1074   -36.6386     5.0960     5.2492     5.0280
  947.5000     0.1913    36.6558     2.2363   466.1334    11.1968   -37.0206     5.1837     5.3975     5.0273
  948.0000     0.1793    33.5014     2.2185   466.2651    11.2263   -37.4779     5.2550     5.6279     5.1154
  948.5000     0.1732    32.1435     2.1730   481.0745    11.0762   -37.8976     5.4021     5.8682     5.2670
  949.0000     0.1774    31.2347     2.1624   496.6867    11.0159   -37.3168     5.4764     6.3241     5.3883
  949.5000     0.1943    33.4925     2.1504   496.8373    11.0284   -36.1290     5.4748     7.1409     5.4633
  950.0000     0.1842    33.9081     2.1368   496.9879    11.1348   -33.7364     5.4989     8.3958     5.5393
  950.5000     0.1822    31.2013     2.0787   497.1385    10.9741   -34.9582     5.5820    10.6425     5.5384
  951.0000     0.1917    32.8008     2.0722   497.2892    10.8514   -35.9046     5.7459    15.3480     5.5377
  951.5000     0.1942    36.1401     2.1157   497.4615    10.9836   -36.5627     6.6810    21.4431     5.4602
  952.0000     0.1942    35.2076     2.0816   467.4699    11.1030   -35.4136    11.2266    33.0280     5.3838
  952.5000     0.1942    34.7479     2.0809   467.6252    11.0426   -36.3479   515.0540    50.8717     5.3831
  953.0000     0.2035    36.0846     2.1112   467.7711    10.9205   -37.4614  1223.0964    69.7763     5.3077
  953.5000     0.2092    35.1757     2.1262   467.9217    10.8022   -37.1772  1928.0355    89.2552     5.2052
  954.0000     0.1777    31.4550     2.0360   468.0723    10.8637   -36.8930  1957.1965   106.4639     5.1249
  954.5000     0.1513    29.7642     1.9460   468.2229    10.9212   -36.3076  1981.1929    88.7673     5.0878
  955.0000     0.1210    29.7530     1.8314   468.3735    10.5314   -35.9990  1972.3643    59.8376     5.0167
  955.5000     0.0827    30.1909     1.8419   468.5487    10.5908   -35.6782  1925.6179    37.9661     4.8779
  956.0000     0.0676    30.6706     1.8735   468.6747    11.0993   -35.1538  1846.7980    29.1353     4.8097
  956.5000     0.0676    31.9630     1.9803   468.8329    11.4283   -34.8735  1674.1332    21.7440     4.8091
  957.0000     0.0707    35.9943     2.2580   468.9759    12.6554   -34.5939  1476.4258    15.4821     4.8084
  957.5000     0.0880    38.2292     2.4688   469.1265    13.0816   -34.6109  1101.5797    10.9537     4.9204
  958.0000     0.1218    41.3713     2.5255   469.2771    13.3251   -34.6279   657.6538     9.6161     6.6374
  958.5000     0.1541    43.7058     2.5670   469.4277    13.6421   -34.6449   231.2193     9.1411     9.1136
  959.0000     0.1654    45.9371     2.5501   469.5783    13.5857   -34.6627    54.5574     8.4827     8.2778
  959.5000     0.1789    46.7197     2.5396   469.7289    13.1935   -34.6807    26.4917     7.5410     6.0914
  960.0000     0.1849    45.3593     2.5200   469.8795    12.0538   -34.6988    15.5643     6.4694     5.4472
  960.5000     0.1940    46.2440     2.4820   470.0405    10.3169   -34.7169     9.0529     6.0340     5.4342
  961.0000     0.1909    47.1316     2.4684   470.1807     9.8673   -34.7385     7.8352     6.0340     5.6786
  961.5000     0.1819    46.2228     2.4658   470.3313     9.7172   -34.7555     7.3782     6.0340     5.7646
  962.0000     0.1782    43.5176     2.4729   470.4819     9.8525   -34.7725     7.0843     6.1404     5.9319
  962.5000     0.1688    40.7748     2.4718   470.6325    10.0681   -34.7895     6.8878     6.2045     6.0232
  963.0000     0.1654    38.3442     2.4598   470.7831    10.2059   -34.8072     6.7907     6.2916     6.1158
  963.5000     0.1603    36.1767     2.4582   470.9337    10.2099   -34.8253     6.7889     6.2916     6.2971
  964.0000     0.1547    35.2156     2.4612   471.0843    10.2239   -35.1446     6.6931     6.2916     6.3440
  964.5000     0.1487    34.9289     2.4702   471.2482    10.3133   -35.1627     6.6786     6.2916     6.4321
