~VERSION INFORMATION
 VERS.                2.0:   CWLS LOG ASCII STANDARD - VERSION 2.0
 WRAP.                 NO:   ONE LINE PER DEPTH STEP
~WELL INFORMATION
#MNEM.UNIT      DATA TYPE    INFORMATION
#----------   ------------   ------------------------------
 STRT.F          170.5000:   START DEPTH
 STOP.F         3160.0000:   STOP DEPTH
 STEP.F            0.5000:   STEP LENGTH
 NULL.          -999.2500:   NO VALUE
 COMP.  FENIX AND SCISSON:   COMPANY
 WELL.    FENIX "A" #85-3:   WELL
 FLD .       TEA POT DOME:   FIELD
 LOC .       S3 T38N R78W:   LOCATION
 CNTY.            NATRONA:   COUNTY
 STAT.            WYOMING:   STATE
 CTRY. UNITED STATES OF AMERICA:   COUNTRY
 SRVC.           BIRDWELL:   SERVICE COMPANY
 DATE.        20-DEC-1977:   LOGDATE
 API .     49025104450000:   API NUMBER
~CURVE INFORMATION
#MNEM.UNIT       API CODE    CURVE DESCRIPTION
#----------   ------------   ------------------------------
 DEPT.F                  :   
 CALD.IN     45 280 60 00:   CALIPER FROM DENSITY LOG
 GRD .GAPI   45 310 01 00:   GAMMA RAY FROM DENSITY LOG
 RHOB.G/C3   45 350 01 00:   BULK DENSITY
 CORR.G/C3   45 356 01 00:   DENSITY CORRECTION
 SPR .MV     05 010 01 00:   SPONTANEOUS POTENTIAL
 SN  .OHMM   05 040 00 00:   SHORT NORMAL
 ILD .OHMM   05 120 46 00:   DEEP INDUCTION RESISTIVITY
~PARAMETER INFORMATION
#MNEM.UNIT          VALUE    DESCRIPTION
#----------   ------------   ------------------------------
 EKB .F         5165.0000:   Kelly bushing
 EGL .F         5155.0000:   Ground level
 TD  .F         3151.0000:   Total depth
 DATE.        20-DEC-1977:   Date logged
 CLNT.            A2DTECH:   Client Code
 SL  . 2000' FSL & 100'FEL:   Surface Location
 PD  .                 GL:   Permanent Datum
 EPD .F              5155:   Elevation Permanent Datum
 LMF .                 KB:   Log Measured From
 DMF .                 KB:   Drilling Measured From
 DAPD.F                10:   Feet Above Permanent Datum
 DD  .F              3150:   Depth driller
 DL  .F              3151:   Depth logger
 BLI .F              3146:   Bottom log interval
 TLI .F               200:   Top log interval
 CS1 .IN            8.625:   Casing size
 CBD1.      8.625" @ 223':   Casing driller 1
 BS1 .IN            7.875:   Bit size
 BSD1.F              3150:   Depth drilled with bit1
 DFT .                KCL:   Type fluid in hole
 DFD .                8.9:   Density
 DFV .                 40:   Viscosity
 DFPH.                 11:   pH
 DFL .                7.2:   Fluid loss
 MSS .           FLOWLINE:   Source of sample
 RMS .OHMM            0.4:   Rm
 MST .F                62:   Rm Meas. temp.
 RMF .OHMM           0.48:   Rmf
 MFST.F                63:   Rmf Meas. temp.
 RMC .OHMM           0.52:   Rmc
 MCST.F                63:   Rmc Meas. temp.
 MFSS.               MEAS:   Source Rmf.
 MCSS.               MEAS:   Source Rmc.
 TCS .HRS             3.5:   Time Circ. stopped
 MRT .F               118:   Maximum recorded temp.
 LUN .               2958:   Logging unit number
 LUL .             CASPER:   Logging unit location
 ENGI.             MILLER:   Recorded By
 WITN.         HERRINGTON:   Witnessed by
 ORIG.           5" PRINT:   Origin of data
 UWI .     49025104450000:   Unique Well ID
 DICO. A2D TECHNOLOGIES, INC.:   Digitizing Company
~OTHER INFORMATION
~A   DEPT     CALD        GRD       RHOB        CORR       SPR         SN        ILD   
# ...
 1581.0000    11.5287    59.9499     2.5690     0.0246   -58.4477     8.8794     7.2487
 1581.5000    11.5296    60.5565     2.5781     0.0287   -58.4430     8.8806     7.2497
 1582.0000    11.5703    60.7646     2.5852     0.0298   -58.6373     8.8002     7.2507
 1582.5000    11.5710    61.7697     2.5862     0.0298   -58.6326     8.8831     7.2517
 1583.0000    11.5718    62.5738     2.5853     0.0288   -58.8269     8.8844     7.2527
 1583.5000    11.5727    63.5789     2.5803     0.0259   -59.0212     8.8856     7.2537
 1584.0000    11.5735    63.7869     2.5743     0.0249   -59.2155     8.8868     7.2547
 1584.5000    11.5744    63.2023     2.5753     0.0259   -59.4098     8.8878     7.2558
 1585.0000    11.5752    62.6080     2.5794     0.0290   -59.4051     8.8891     7.2568
 1585.5000    11.5760    61.8205     2.5844     0.0301   -59.5995     8.8903     7.2578
 1586.0000    11.5769    61.6300     2.5835     0.0261   -59.3958     8.8915     7.2586
 1586.5000    11.5777    62.0372     2.5775     0.0221   -59.3911     8.8928     7.3234
 1587.0000    11.5786    62.0460     2.5654     0.0130   -59.5855     8.8940     7.3238
 1587.5000    11.5794    61.8555     2.5554     0.0081   -59.5808     8.8953     7.3928
 1588.0000    11.5803    61.4657     2.5595     0.0101   -59.5762     8.8965     7.3938
 1588.5000    11.5611    61.4745     2.5625     0.0101   -59.5715     8.8977     7.3991
 1589.0000    11.5620    62.0810     2.5535     0.0041   -59.5668     8.8990     7.4688
 1589.5000    11.5828    62.8867     2.5485     0.0052   -59.5622     8.9002     7.4012
 1590.0000    11.5836    64.0909     2.5566     0.0062   -59.5584     8.9015     7.4709
 1590.5000    11.5845    64.0997     2.5667     0.0224   -59.5538     8.9027     7.4719
 1591.0000    11.5654    64.5069     2.5768     0.0265   -59.7482     8.8221     7.2687
 1591.5000    11.5660    64.5138     2.5748     0.0225   -59.7435     8.8233     7.4053
 1592.0000    11.5669    64.7218     2.5698     0.0185   -59.9379     8.8245     7.4063
 1592.5000    11.5677    64.5313     2.5699     0.0195   -59.9332     8.8258     7.2049
 1593.0000    11.5686    64.7393     2.5699     0.0206   -60.1276     8.8270     7.2059
 1593.5000    11.5893    64.5487     2.5679     0.0206   -60.3220     8.8282     7.1402
 1594.0000    11.5702    63.9598     2.5720     0.0247   -60.5165     8.8295     7.0760
 1594.5000    11.5711    63.1716     2.5861     0.0257   -60.3127     8.7495     7.0769
 1595.0000    11.5719    62.3835     2.5771     0.0218   -60.9053     8.8319     7.0779
 1595.5000    11.5728    62.1930     2.5671     0.0158   -60.9007     8.8331     7.0138
 1596.0000    11.5935    62.4010     2.5621     0.0148   -61.0952     8.8344     7.0799
 1596.5000    11.5944    62.6089     2.5712     0.0199   -61.0905     8.8356     7.0809
 1597.0000    11.6152    62.8169     2.5913     0.0260   -61.0859     8.8368     7.0819
 1597.5000    11.5961    63.4233     2.5974     0.0290   -61.0813     8.8381     7.1486
 1598.0000    11.5770    63.2328     2.6015     0.0291   -61.0766     8.8393     7.2159
 1598.5000    11.5778    62.6439     2.5753     0.0190   -61.2711     8.8405     7.2169
 1599.0000    11.5787    62.4534     2.5724     0.0160   -61.4656     8.8418     7.1516
 1599.5000    11.5596    61.2669     2.5684     0.0151   -61.2609     8.8430     7.2190
 1600.0000    11.5604    60.8773     2.5694     0.0131   -61.4563     9.0927     7.2200
 1600.5000    11.5612    61.4766     2.5633     0.0103   -61.4511     8.8173     7.1646
 1601.0000    11.5638    60.9046     2.5585     0.0102   -61.6492     8.7649     7.1554
 1601.5000    11.5656    60.9197     2.5545     0.0092   -61.6462     8.7660     7.0903
 1602.0000    11.5675    60.9349     2.5616     0.0102   -61.6431     8.6066     7.0260
 1602.5000    11.5494    60.7507     2.5606     0.0073   -61.6401     8.6077     6.9623
 1603.0000    11.5313    61.3639     2.5597     0.0043   -61.6371     8.6088     6.8992
 1603.5000    11.5132    61.9825     2.5618     0.0084   -61.6341     8.6099     6.9000
 1604.0000    11.5151    62.3874     2.5648     0.0094   -61.6310     8.6110     6.9650
 1604.5000    11.4970   128.6001     2.5659     0.0165   -61.4289     8.6121     6.9658
 1605.0000    11.4789   114.8636     2.5639     0.0156   -61.4259     8.6131     6.9027
 1605.5000    11.4807   115.0671     2.5580     0.0126   -61.6219     8.6142     6.9676
 1606.0000    11.5026   119.8805     2.5540     0.0126   -61.6195     8.5361     6.9044
 1606.5000    11.5244   122.3053     2.5591     0.0107   -61.6165     8.7770     6.9694
 1607.0000    11.5263   121.9234     2.5531     0.0107   -61.4144     8.7781     6.9703
 1607.5000    11.5281   113.5700     2.5612     0.0178   -61.4113     8.7792     6.9712
 1608.0000    11.5300   118.5868     2.5793     0.0269   -61.6074     8.7803     6.9720
 1608.5000    11.5318   113.8991     2.5814     0.0259   -61.4053     8.7814     6.9729
 1609.0000    11.5337   109.8398     2.5775     0.0250   -61.4022     8.6216     6.9097
 1609.5000    11.5356   110.8538     2.5805     0.0270   -61.3992     8.5434     6.9104
 1610.0000    11.5374   116.6705     2.5866     0.0311   -61.3956     8.6238     6.8477
 1610.5000    11.5593   114.4995     2.5646     0.0140   -61.1940     8.4670     6.6614
 1611.0000    11.5612   114.3081     2.5616     0.0110   -60.9919     8.3131     6.6623
 1611.5000    11.5630   117.1360     2.5677     0.0141   -60.7898     8.3141     6.6631
 1612.0000    11.5645   113.5628     2.5788     0.0142   -60.3885     8.2387     6.5420
 1612.5000    11.5664   116.9783     2.5718     0.0102   -60.3855     8.3162     6.6036
 1613.0000    11.5483   115.4013     2.5749     0.0092   -60.1839     8.3173     6.6044
 1613.5000    11.5501   113.6120     2.5760     0.0103   -60.1809     8.3183     6.6053
 1614.0000    11.5120   112.0344     2.5840     0.0184   -60.1779     8.3194     6.5454
 1614.5000    11.5139   119.4464     2.6032     0.0345   -59.9757     8.3204     6.6682
 1615.0000    11.5157   117.8608     2.5942     0.0295   -59.9727     8.3215     6.7310
 1615.5000    11.5176   122.4986     2.5822     0.0235   -59.7706     8.2460     6.7281
 1616.0000    11.5395   108.7186     2.5712     0.0165   -59.7675     8.3236     6.6671
 1616.5000    11.5213   105.3528     2.5582     0.0115   -59.7645     8.2481     6.4892
 1617.0000    11.5232   105.1608     2.5543     0.0096   -59.7615     8.2491     6.3710
 1617.5000    11.5251   105.3804     2.5523     0.0086   -59.9576     8.1741     6.1951
 1618.0000    11.5269   108.7190     2.5503     0.0087   -59.7554     7.9518     6.1419
 1618.5000    11.5088   111.2179     2.5484     0.0097   -59.7524     7.9528     6.0860
 1619.0000    11.5307   104.0398     2.5484     0.0128   -59.7494     7.9538     6.0868
 1619.5000    11.5125   106.4630     2.5495     0.0189   -59.7463     8.0286     6.0879
 1620.0000    11.5344   109.6868     2.5546     0.0209   -59.5442     8.0296     6.1447
 1620.5000    11.5163   108.1027     2.5687     0.0320   -59.5418     8.1051     6.2028
 1621.0000    11.4981   113.7197     2.5738     0.0311   -59.5387     8.1813     6.3191
 1621.5000    11.4799   111.7396     2.5728     0.0291   -59.5357     8.2583     6.3785
 1622.0000    11.4618   114.1691     2.5659     0.0271   -59.3336     8.4913     6.4983
 1622.5000    11.4636   112.1887     2.5549     0.0221   -59.3305     8.4924     6.6817
 1623.0000    11.4651   112.0008     2.5499     0.0161   -59.3275     8.5722     6.7444
 1623.5000    11.4470   115.2316     2.5520     0.0152   -59.3245     8.5733     6.9349
 1624.0000    11.4488   115.4442     2.5581     0.0193   -59.3215     8.7342     6.8720
 1624.5000    11.4707   108.4587     2.5661     0.0213   -59.3184     8.6555     6.9366
 1625.0000    11.4726   112.4867     2.5762     0.0264   -59.3154     8.5763     6.9375
 1625.5000    11.5145   108.1063     2.5863     0.0304   -59.3124     8.7373     6.9384
 1626.0000    11.5164   108.1143     2.5884     0.0295   -59.3094     8.8194     6.9391
