~VERSION INFORMATION
 VERS.                2.0:   CWLS LOG ASCII STANDARD - VERSION 2.0
 WRAP.                 NO:   ONE LINE PER DEPTH STEP
~WELL INFORMATION
#MNEM.UNIT      DATA TYPE    INFORMATION
#----------   ------------   ------------------------------
 STRT.F           32.0000:   START DEPTH
 STOP.F         2998.0000:   STOP DEPTH
 STEP.F            0.5000:   STEP LENGTH
 NULL.          -999.2500:   NO VALUE
 COMP.   TESORO PETROLEUM:   COMPANY
 WELL. TESORO N.P.R. #3-34:   WELL
 FLD .        TEAPOT DOME:   FIELD
 LOC .      S34 T39N R78W:   LOCATION
 CNTY.            NATRONA:   COUNTY
 STAT.            WYOMING:   STATE
 CTRY. UNITED STATES OF AMERICA:   COUNTRY
 SRVC.       SCHLUMBERGER:   SERVICE COMPANY
 DATE.        08-AUG-1969:   LOGDATE
 API .     49025100250000:   API NUMBER
~CURVE INFORMATION
#MNEM.UNIT       API CODE    CURVE DESCRIPTION
#----------   ------------   ------------------------------
 DEPT.F                  :   
 SPR .MV     05 010 01 00:   SPONTANEOUS POTENTIAL FROM RES.
 ASN .OHMM   05 040 16 00:   AMPLIFIED SHORT NORMAL 16"
 ILD .OHMM   05 120 46 00:   INDUCTION LOG DEEP
 CORR.G/C3   45 356 01 00:   DENSITY CORRECTION
 GRD .GAPI   45 310 01 00:   GAMMA RAY FROM DENSITY LOG
 CALD.IN     45 280 60 00:   CALIPER FROM DENSITY LOG
 RHOB.G/C3   45 350 01 00:   BULK DENSITY
~PARAMETER INFORMATION
#MNEM.UNIT          VALUE    DESCRIPTION
#----------   ------------   ------------------------------
 EKB .F         5185.0000:   Kelly bushing
 EGL .F         5172.0000:   Ground level
 TD  .F         2999.0000:   Total depth
 CLNT.            A2DTECH:   Client Code
 SL  . 465' FWL & 1075' FSL':   Surface Location
 DATE.        08-AUG-1969:   Date Logged [DD-MMM-YYYY]
 DD  .F              2998:   Depth driller
 DL  .F              2999:   Depth logger
 BLI .F              2998:   Bottom log interval
 TLI .F               615:   Top log interval
 CS1 .              10.75:   Casing size
 CBD1.      10.75" @ 615':   Casing driller 1
 CBL1.IN              615:   Casing logger 1
 BS1 .IN                9:   Bit size
 BSD1.F              2998:   Depth drilled with bit1
 DFT .      FRESH GEL MUD:   Type fluid in hole
 DFD .                9.6:   Density
 DFV .                 55:   Viscosity
 DFPH.                9.5:   pH
 DFL .                7.0:   Fluid loss
 MSS .           FLOWLINE:   Source of sample
 RMS .OHMM           0.75:   Rm
 MST .F                87:   Rm Meas. temp.
 RMF .OHMM           1.09:   Rmf
 MFST.F                87:   Rmf Meas. temp.
 MFSS.               MEAS:   Source Rmf.
 RMB .OHMM           0.59:   Rm. at BHT
 BHT .F               111:   BHT.
 TCS .HRS               3:   Time Circ. stopped
 MRT .F               111:   Maximum recorded temp.
 LUN .               4507:   Logging unit number
 LUL .               CSPR:   Logging unit location
 ENGI.            ED MIXA:   Recorded By
 WITN.                MAY:   Witnessed by
 ORIG.   1" 2.5" 5" PRINT:   Origin of data
 UWI .     49025100250000:   Unique Well ID
 DICO. A2D TECHNOLOGIES, INC.:   Digitizing Company
~OTHER INFORMATION
~A   DEPT      SPR        ASN        ILD       CORR        GRD       CALD       RHOB   
# ...
 2489.0000   -22.9871     3.9439     3.7089     0.0388   106.6911     9.1089     2.5401
 2489.5000   -22.9855     3.9439     3.7082     0.0447   107.2905     9.1080     2.5313
 2490.0000   -22.9841     3.9291     3.7075     0.0508   109.3578     9.1378     2.5298
 2490.5000   -22.9826     3.9291     3.6329     0.0528   110.0325     9.1367     2.5313
 2491.0000   -22.9812     3.9291     3.5583     0.0493   108.4933     9.1358     2.5386
 2491.5000   -22.9799     3.9291     3.5575     0.0433   106.0226     9.1348     2.5179
 2492.0000   -22.9783     3.8996     3.5568     0.0471   103.8528     9.1339     2.5120
 2492.5000   -22.8335     3.8848     3.5561     0.0557   101.3969     9.1330     2.5341
 2493.0000   -22.8322     3.8552     3.5554     0.0551   101.7333     9.1321     2.5459
 2493.5000   -22.8305     3.8405     3.5547     0.0519   103.8512     9.1456     2.5341
 2494.0000   -22.8293     3.8109     3.5538     0.0593   101.8961     9.1609     2.5459
 2494.5000   -22.6842     3.7962     3.5531     0.0676    98.2649     9.1599     2.5606
 2495.0000   -22.6828     3.7962     3.5524     0.0580    97.9816     9.1896     2.5577
 2495.5000   -22.6813     3.7962     3.5517     0.0421    99.2862     9.1887     2.5488
 2496.0000   -22.5364     3.7962     3.6248     0.0292   101.1215     9.1878     2.5385
 2496.5000   -22.5351     3.7962     3.6312     0.0244   102.8380     9.1869     2.5149
 2497.0000   -22.6772     3.8132     3.7709     0.0205   103.4373     9.1859     2.5237
 2497.5000   -22.8193     3.9439     3.9181     0.0217   102.1995     9.1850     2.5355
 2498.0000   -22.8175     4.0768     4.1388     0.0238   100.3525     9.1839     2.5250
 2498.5000   -22.8162     4.2245     4.4335     0.0227    99.6235     9.2136     2.5354
 2499.0000   -22.8148     4.3279     4.6544     0.0174    99.2722     9.2127     2.5399
 2499.5000   -22.8134     4.4018     4.8752     0.0113    97.8654     9.2118     2.5457
 2500.0000   -22.9556     4.3131     4.6528     0.0089    94.1896     9.2109     2.5487
 2500.5000   -22.8105     4.0473     4.2089     0.0074    92.9603     9.2099     2.5501
 2501.0000   -22.6656     3.7666     3.8389     0.0047    97.9157     9.2396     2.5177
 2501.5000   -22.6643     3.6029     3.5428     0.0015   100.9323     9.2387     2.4985
 2502.0000   -22.5191     3.4847     3.3915    -0.0012   102.9510     9.2378     2.5044
 2502.5000   -22.5177     3.4697     3.1719    -0.0053   114.1792     9.2369     2.5103
 2503.0000   -22.5164     3.4547     3.1712    -0.0064   120.5201     9.2667     2.5107
 2503.5000   -22.6585     3.4691     3.1705    -0.0021   116.3824     9.2656     2.4867
 2504.0000   -22.6571     3.4984     3.2439     0.0079   111.1768     9.2647     2.4956
 2504.5000   -22.6557     3.5129     3.1801     0.0212   111.3606     9.2638     2.5103
 2505.0000   -22.6541     3.4978     3.2423     0.0342   113.8124     9.2629     2.5015
 2505.5000   -22.6527     3.4827     3.3891     0.0424   114.9180     9.2927     2.5177
 2506.0000   -22.6513     3.5267     3.6100     0.0359   111.3139     9.2917     2.5310
 2506.5000   -22.7935     3.6675     3.8309     0.0230   109.4006     9.3214     2.5354
 2507.0000   -22.6483     3.9545     4.1354     0.0097   109.3945     9.3204     2.5354
 2507.5000   -22.6468     4.1757     4.4940    -0.0023   109.3884     9.3501     2.5280
 2508.0000   -22.5021     4.4118     4.7148     0.0104   108.8436     9.3492     2.5118
 2508.5000   -22.5007     4.7217     4.8620     0.0188   105.9364     9.3789     2.5074
 2509.0000   -22.4990     5.0233     5.0089     0.0241   103.2610     9.4072     2.5398
 2509.5000   -22.6415     5.3415     5.1559     0.0278   100.3754     9.4032     2.5605
 2510.0000   -22.7832     5.5627     5.3029     0.0317    98.5119     9.3993     2.5428
 2510.5000   -22.7988     5.7545     5.3020     0.0372    96.8836     9.3954     2.5424
 2511.0000   -22.7805     5.7247     5.3013     0.0361    95.2783     9.3914     2.5546
 2511.5000   -22.7788     5.5455     5.2267     0.0230    95.0146     9.3875     2.5649
 2512.0000   -22.7775     5.4286     5.1521     0.0099    93.5048     9.3836     2.5723
 2512.5000   -22.9198     5.3692     5.0774     0.0068    95.1586     9.3796     2.5782
 2513.0000   -22.7747     5.3099     4.9290     0.0114    99.2152     9.3757     2.5663
 2513.5000   -22.7733     5.2505     4.9283     0.0137   101.3579     9.3830     2.5767
 2514.0000   -22.6282     5.1764     4.9276     0.0171   102.8950     9.4038     2.5531
 2514.5000   -22.6268     5.0578     5.0008     0.0160   104.4484     9.4029     2.5310
 2515.0000   -22.6255     5.1314     5.1478     0.0098   106.9117     9.4329     2.5280
 2515.5000   -22.6240     5.4561     5.2946     0.0038   108.9428     9.4319     2.5206
 2516.0000   -22.6226     5.9433     5.3679     0.0114   106.4792     9.4312     2.5192
 2516.5000   -22.6211     6.2236     5.4409     0.0168   103.1609     9.4304     2.5487
 2517.0000   -22.6197     6.3434     5.5977     0.0204   100.7083     9.4297     2.5546
 2517.5000   -22.6183     6.3855     5.7349     0.0220    98.2558     9.4289     2.5650
 2518.0000   -22.6169     6.4000     5.7340     0.0216    97.0265     9.4281     2.5724
 2518.5000   -22.4718     6.4735     5.7333     0.0175    96.4088     9.4436     2.5812
 2519.0000   -22.6139     6.5914     5.8804     0.0111    98.8492     9.4741     2.5842
 2519.5000   -22.6126     6.7104     6.0273     0.0060   100.0664     9.5046     2.5871
 2520.0000   -22.7547     6.8419     6.1003     0.0023    97.0023     9.5472     2.5864
 2520.5000   -23.0402     6.9450     6.1737    -0.0017    92.7148     9.4853     2.5658
 2521.0000   -23.3255     6.9596     6.2468    -0.0068    89.6507     9.3317     2.5511
 2521.5000   -23.3241     6.9149     6.3198    -0.0009    87.1981     9.2392     2.5409
 2522.0000   -23.4664     6.9298     6.3191     0.0070    88.4153     9.1467     2.5439
 2522.5000   -23.4648     6.9881     6.3182     0.0144    90.8557     9.0848     2.5531
 2523.0000   -23.4632     7.0175     6.3175     0.0196    89.0148     9.0534     2.5261
 2523.5000   -23.3183     7.0171     6.2429     0.0220    87.7855     9.0221     2.5236
 2524.0000   -23.3171     6.9725     6.1684     0.0195    89.6143     9.0213     2.5622
 2524.5000   -23.1721     6.8393     6.0938     0.0209    92.0547     9.0206     2.5850
 2525.0000   -23.0272     6.5287     6.0191     0.0241    93.2719     9.0198     2.5809
 2525.5000   -23.0256     6.3512     6.0184     0.0278    94.4891     9.0191     2.5603
 2526.0000   -22.8807     6.1884     6.0177     0.0317    95.0947     9.0183     2.5525
 2526.5000   -22.8795     6.0700     5.9431     0.0372    98.7583     9.0175     2.5463
 2527.0000   -22.8779     6.0402     5.7110     0.0383    98.7523     9.0168     2.5398
 2527.5000   -22.8765     6.1337     5.4246     0.0411    99.3578     9.0160     2.5544
 2528.0000   -22.8751     6.3497     5.2023     0.0448    99.3191     9.0153     2.5608
 2528.5000   -22.8736     6.4234     5.1277     0.0483    96.7905     9.0145     2.5641
 2529.0000   -22.8723     6.4082     5.1222     0.0509    92.6116     9.0138     2.5685
 2529.5000   -22.8709     6.2603     5.1263     0.0568    94.7404     9.0130     2.5756
 2530.0000   -22.7257     6.1241     5.1254     0.0523   101.4079     8.9817     2.5725
 2530.5000   -22.7244     5.9937     5.1986     0.0407   104.9704     8.9809     2.5854
 2531.0000   -22.8665     5.9196     5.2719     0.0271   106.6548     8.9767     2.5959
 2531.5000   -22.8651     6.0080     5.3449     0.0175   105.8475     8.9488     2.5756
 2532.0000   -22.8634     6.4065     5.5017     0.0226   103.9836     8.9787     2.5517
 2532.5000   -23.0059     6.8953     5.9342     0.0206   100.6615     8.9778     2.5584
 2533.0000   -23.1475     7.4841     6.3027     0.0162    93.7552     9.0077     2.5634
 2533.5000   -23.1462     7.7645     6.7452     0.0117    89.3592     9.0069     2.5605
 2534.0000   -23.2885     7.9562     7.1137     0.0081    89.6430     9.0061     2.5698
