~VERSION INFORMATION
 VERS.                2.0:   CWLS LOG ASCII STANDARD - VERSION 2.0
 WRAP.                 NO:   ONE LINE PER DEPTH STEP
~WELL INFORMATION
#MNEM.UNIT      DATA TYPE    INFORMATION
#----------   ------------   ------------------------------
 STRT.F            0.0000:   START DEPTH
 STOP.F         1071.5000:   STOP DEPTH
 STEP.F            0.5000:   STEP LENGTH
 NULL.          -999.2500:   NO VALUE
 COMP.       FLUOR DANIEL:   COMPANY
 WELL.     FLUOR X #82-22:   WELL
 FLD .                NPR:   FIELD
 LOC .      S22 T38N R78W:   LOCATION
 CNTY.            NATRONA:   COUNTY
 STAT.            WYOMING:   STATE
 CTRY. UNITED STATES OF AMERICA:   COUNTRY
 SRVC.      WESTERN ATLAS:   SERVICE COMPANY
 DATE.        19-SEP-1994:   LOGDATE
 API .     49025226520000:   API NUMBER
~CURVE INFORMATION
#MNEM.UNIT       API CODE    CURVE DESCRIPTION
#----------   ------------   ------------------------------
 DEPT.F                  :   
 GRR .GAPI   07 310 01 00:   GAMMA RAY FROM RESISTIVITY
 TENR.LBS    07 635 01 00:   TENSION
 ILD .OHMM   07 120 46 00:   INDUCTION LOG DEEP RESISTIVITY
 ILM .OHMM   07 120 44 00:   INDUCTION LOG MEDIUM RESISTIVITY
~PARAMETER INFORMATION
#MNEM.UNIT          VALUE    DESCRIPTION
#----------   ------------   ------------------------------
 EKB .F         5288.0000:   Kelly bushing
 EGL .F         5278.0000:   Ground level
 EDF .F         5287.0000:   Drilling floor
 EPD .F         5278.0000:   Permanent datum
 TD  .F         1062.0000:   Total depth
 DATE.        19-SEP-1994:   Date logged
 CLNT.            A2DTECH:   Client Code
 SL  . 937' FNL & 347' FEL:   Surface Location
 PD  .                 GL:   Permanent Datum
 LMF .                 KB:   Log Measured From
 DMF .                 KB:   Drilling Measured From
 DAPD.F                10:   Feet Above Permanent Datum
 DD  .F              1060:   Depth driller
 DL  .F              1062:   Depth logger
 BLI .F              1054:   Bottom log interval
 CS1 .IN            9.625:   Casing size
 CBD1.       9.625" @ 77':   Casing driller 1
 CBL1.F                78:   Casing logger 1
 BS1 .IN             8.75:   Bit size
 BSD1.F              1060:   Depth drilled with bit1
 DFT .                AIR:   Type fluid in hole
 LUN .            HL 6530:   Logging unit number
 LUL .             CASPER:   Logging unit location
 ENGI.      PAT RASMUSSEN:   Recorded By
 WITN.        GARY STRONG:   Witnessed by
 ORIG.           5" PRINT:   Origin of data
 UWI .     49025226520000:   Unique Well ID
 DICO. A2D TECHNOLOGIES, INC.:   Digitizing Company
~OTHER INFORMATION
~A    DEPT      GRR      TENR        ILD        ILM   
# ...
  219.0000   106.8780   -28.6470     8.9960     9.1090
  219.5000   108.8020   -26.5010     9.0100     9.1850
  220.0000   110.6110   -24.3540     9.0240     9.2260
  220.5000   111.6810   -28.1300     9.0380     9.1900
  221.0000   112.9380   -34.8480     9.0560     9.1610
  221.5000   115.2440   -41.5670     8.9970     9.1320
  222.0000   117.5380   -48.2850     8.9130     9.1030
  222.5000   119.8160   -52.3740     8.8290     9.0750
  223.0000   120.5150   -44.1330     8.7450     9.0060
  223.5000   119.4730   -35.8910     8.6610     8.8790
  224.0000   119.1610   -27.6500     8.5540     8.7510
  224.5000   119.3000   -19.4080     8.4430     8.6240
  225.0000   117.4090   -15.7370     8.3320     8.4970
  225.5000   114.6830   -23.0960     8.2220     8.3760
  226.0000   114.3390   -30.4540     8.1110     8.2690
  226.5000   117.4330   -37.8130     8.0000     8.1620
  227.0000   120.9590   -42.8380     7.8890     8.0550
  227.5000   122.6500   -38.0090     7.7780     7.9480
  228.0000   123.3650   -33.1800     7.6670     7.8410
  228.5000   123.0060   -28.3510     7.5560     7.7340
  229.0000   121.3880   -23.5220     7.4550     7.6270
  229.5000   118.7060   -18.6930     7.3740     7.5050
  230.0000   118.1880   -13.5810     7.2990     7.3180
  230.5000   118.7760   -11.4730     7.2510     7.3800
  231.0000   119.3780    -9.2340     7.3370     7.4930
  231.5000   119.5430    -6.9940     7.4010     7.6060
  232.0000   118.6990    -4.7550     7.4650     7.7190
  232.5000   117.8530    -7.6040     7.5290     7.7530
  233.0000   116.1570   -16.6940     7.5920     7.7720
  233.5000   113.1300   -25.7840     7.6560     7.7920
  234.0000   110.8080   -33.7020     7.7370     7.8090
  234.5000   112.7070   -21.6800     7.6000     7.5930
  235.0000   114.7620   -13.9000     7.4140     7.4020
  235.5000   116.2570   -14.7590     7.2290     7.2100
  236.0000   116.4700   -15.6170     7.0430     7.0190
  236.5000   116.1950   -16.4760     6.8580     6.8670
  237.0000   115.6060   -17.3340     6.6730     6.7230
  237.5000   115.2280   -18.1920     6.4870     6.5790
  238.0000   115.9460   -19.0510     6.3020     6.4360
  238.5000   116.6340   -19.9090     6.2210     6.3630
  239.0000   117.7210   -20.7680     6.1800     6.3530
  239.5000   119.1770   -21.6260     6.1380     6.3420
  240.0000   119.0320   -22.4850     6.0970     6.3320
  240.5000   114.6580   -23.3430     6.0550     6.3220
  241.0000   115.0690   -19.4420     6.0240     6.3100
  241.5000   119.6640   -13.0030     6.0480     6.3210
  242.0000   123.3280    -6.5640     6.0700     6.3330
  242.5000   123.0570    -6.2370     6.0920     6.3460
  243.0000   121.4830   -11.3880     6.1140     6.3580
  243.5000   121.5580   -16.5390     6.1370     6.3690
  244.0000   121.7210   -21.6900     6.1120     6.3050
  244.5000   121.3680   -14.0440     6.0870     6.2520
  245.0000   119.0530     1.4080     6.0610     6.1990
  245.5000   114.3930     3.4110     6.0360     6.1450
  246.0000   110.9790    -1.2710     6.0110     6.0920
  246.5000   108.1990    -9.1550     5.9850     6.0240
  247.0000   106.9090   -19.9990     5.9690     6.0520
  247.5000   109.0240   -30.8430     6.0270     6.1020
  248.0000   113.3160   -41.6870     6.0700     6.1530
  248.5000   117.5090   -40.9260     6.1130     6.2040
  249.0000   118.1260   -37.4180     6.1530     6.2520
  249.5000   116.8500   -33.9100     6.1900     6.3200
  250.0000   116.3900   -30.4010     6.2270     6.3840
  250.5000   118.9720   -26.8930     6.2800     6.4490
  251.0000   122.3760   -23.3850     6.3720     6.5140
  251.5000   125.7660   -19.8770     6.4630     6.5780
  252.0000   124.9840   -16.3690     6.5540     6.6430
  252.5000   119.9790   -14.8000     6.6090     6.7080
  253.0000   114.7910   -20.7320     6.5800     6.7720
  253.5000   109.6080   -26.6640     6.5590     6.8590
  254.0000   104.4240   -32.5960     6.5480     6.8280
  254.5000   102.3140   -38.5270     6.6250     6.7820
  255.0000   106.4230   -42.9750     6.6710     6.7330
  255.5000   111.5010   -36.2700     6.6330     6.6950
  256.0000   116.0320   -29.5640     6.5930     6.6540
  256.5000   116.1420   -22.8590     6.5520     6.6130
  257.0000   113.0130   -16.1530     6.5110     6.5720
  257.5000   109.7610   -16.2220     6.4710     6.5310
  258.0000   109.4340   -20.5060     6.4300     6.4900
  258.5000   113.0730   -24.7900     6.3900     6.4490
  259.0000   115.2740   -29.0740     6.3530     6.4130
  259.5000   112.8920   -33.7020     6.3220     6.3820
  260.0000   109.7250   -23.7480     6.2910     6.3510
  260.5000   110.5000   -12.9250     6.2590     6.3200
  261.0000   113.1480    -2.1020     6.2280     6.2890
  261.5000   115.1840     4.1010     6.1960     6.2580
  262.0000   112.6960    -7.9950     6.1650     6.2270
  262.5000   109.3360   -20.0910     6.1330     6.1960
  263.0000   110.5110   -32.1870     6.1020     6.1650
  263.5000   112.1380   -31.7890     6.0710     6.1370
  264.0000   112.6880   -29.6010     6.0390     6.0900
  264.5000   113.0490   -27.4130     6.0080     6.0470
  265.0000   113.2980   -25.2260     5.9780     6.0040
  265.5000   112.8120   -23.0380     5.9480     5.9690
  266.0000   112.0930   -20.8510     5.9170     5.9940
  266.5000   112.8900   -18.6630     5.8870     6.0160
  267.0000   114.7280   -16.4750     5.8570     6.0240
  267.5000   115.3850   -14.2880     5.8270     5.9740
  268.0000   114.5530   -17.9330     5.7960     5.9390
  268.5000   114.7260   -24.3590     5.7660     5.9040
  269.0000   114.3760   -30.7850     5.7410     5.8690
  269.5000   111.5390   -31.3630     5.7220     5.8340
  270.0000   108.9840   -27.0790     5.6980     5.8050
  270.5000   109.8090   -22.7950     5.7530     5.8960
  271.0000   110.1510   -18.5110     5.8230     5.9740
  271.5000   108.5680   -14.2270     5.8930     6.0510
  272.0000   105.9650   -26.0560     5.9630     6.1290
  272.5000   103.7360   -40.7440     6.0330     6.2060
  273.0000   105.1960   -52.8290     6.1040     6.2840
  273.5000   106.1440   -43.7570     6.1850     6.3610
  274.0000   103.3860   -34.6850     6.2780     6.4390
  274.5000   101.6910   -25.6120     6.3710     6.4880
  275.0000   102.0690   -25.8170     6.4280     6.4880
  275.5000   103.9440   -28.5960     6.4160     6.4880
  276.0000   105.8960   -31.3750     6.4070     6.4880
  276.5000   107.8280   -34.1540     6.3990     6.4880
  277.0000   108.4600   -36.9320     6.3900     6.4880
  277.5000   107.9210   -39.7110     6.3810     6.4780
  278.0000   107.2900   -42.4900     6.3730     6.3920
  278.5000   107.2520   -36.1620     6.2740     6.3060
  279.0000   109.8650   -22.1420     6.1690     6.2200
  279.5000   113.6910   -15.6890     6.0650     6.1330
  280.0000   117.2460   -21.1000     5.9600     6.0470
  280.5000   116.1720   -26.5120     5.8560     5.9610
  281.0000   114.9120   -31.9230     5.7520     5.8710
  281.5000   114.6830   -31.6720     5.6470     5.7760
  282.0000   117.6390   -28.6480     5.5430     5.6810
  282.5000   121.5050   -25.6240     5.3900     5.5420
  283.0000   125.3500   -28.4710     5.4040     5.5640
  283.5000   123.5920   -42.4910     5.4300     5.6030
  284.0000   120.9420   -52.1800     5.4600     5.6430
  284.5000   116.3050   -43.6120     5.4930     5.6820
  285.0000   113.6530   -35.0440     5.5260     5.7220
  285.5000   115.6390   -26.4760     5.5590     5.7610
  286.0000   118.3900   -17.9070     5.5920     5.8010
  286.5000   119.5650   -19.0360     5.6250     5.8400
  287.0000   119.0930   -30.0520     5.6580     5.8800
  287.5000   118.5770   -41.0680     5.6920     5.9140
  288.0000   116.7560   -39.4480     5.7250     5.9140
  288.5000   114.8070   -33.7360     5.7610     5.9140
  289.0000   112.9750   -28.0240     5.8090     5.9140
  289.5000   113.5600   -24.0160     5.8570     5.9760
  290.0000   116.7390   -25.6220     5.9050     6.1230
  290.5000   118.9890   -27.2290     5.9540     6.2690
  291.0000   115.7050   -28.8360     6.0990     6.4160
  291.5000   111.4630   -30.4420     6.2880     6.5620
