~VERSION INFORMATION
 VERS.                2.0:   CWLS LOG ASCII STANDARD - VERSION 2.0
 WRAP.                 NO:   ONE LINE PER DEPTH STEP
~WELL INFORMATION
#MNEM.UNIT      DATA TYPE    INFORMATION
#----------   ------------   ------------------------------
 STRT.F          200.0000:   START DEPTH
 STOP.F         3120.0000:   STOP DEPTH
 STEP.F            0.5000:   STEP LENGTH
 NULL.          -999.2500:   NO VALUE
 COMP.    FENIX & SCISSON:   COMPANY
 WELL. FENIX NPR 3 "AX" #83-28:   WELL
 FLD .                NPR:   FIELD
 LOC .      S28 T39N R78W:   LOCATION
 CNTY.            NATRONA:   COUNTY
 STAT.            WYOMING:   STATE
 CTRY. UNITED STATES OF AMERICA:   COUNTRY
 SRVC.              WELEX:   SERVICE COMPANY
 DATE.        29-SEP-1977:   LOGDATE
 API .     49025104240000:   API NUMBER
~CURVE INFORMATION
#MNEM.UNIT       API CODE    CURVE DESCRIPTION
#----------   ------------   ------------------------------
 DEPT.F                  :   
 CALD.IN     45 280 60 00:   CALIPER FROM DENSITY LOG
 GRD .GAPI   45 310 01 00:   GAMMA RAY FROM DENSITY LOG
 RHOB.G/C3   45 350 01 00:   BULK DENSITY
 CORR.G/C3   45 356 01 00:   DENSITY CORRECTION
 SPR .MV     07 010 01 00:   SPONTANEOUS POTENTIAL
 SGRD.MV     07 220 05 00:   SHLLOW GUARD
 ILD .OHMM   07 120 46 00:   DEEP INDUCTION RESISTIVITY
 ILM .OHMM   07 120 44 00:   INDUCTION LOG MEDIUM RESISTIVITY
~PARAMETER INFORMATION
#MNEM.UNIT          VALUE    DESCRIPTION
#----------   ------------   ------------------------------
 EKB .F         5034.0000:   Kelly bushing
 EGL .F         5024.0000:   Ground level
 TD  .F         3110.0000:   Total depth
 DATE.        29-SEP-1977:   Date logged
 CLNT.            A2DTECH:   Client Code
 SL  . 1650' FNL & 330' FEL:   Surface Location
 PD  .                 GL:   Permanent Datum
 EPD .F              5024:   Elevation Permanent Datum
 LMF .                 KB:   Log Measured From
 DMF .                 KB:   Drilling Measured From
 DAPD.F                10:   Feet Above Permanent Datum
 DD  .F              3110:   Depth driller
 DL  .F              3110:   Depth logger
 BLI .F              3108:   Bottom log interval
 TLI .F               210:   Top log interval
 CS1 .IN            8.625:   Casing size
 CBD1.      8.625" @ 201':   Casing driller 1
 CBL1.F               210:   Casing logger 1
 BS1 .IN            7.875:   Bit size
 BSD1.F              3110:   Depth drilled with bit1
 DFT .          KCL/WATER:   Type fluid in hole
 DFD .                  9:   Density
 DFV .                 40:   Viscosity
 DFPH.                 11:   pH
 DFL .                6.4:   Fluid loss
 MSS .            MUD/PIT:   Source of sample
 RMS .OHMM            .56:   Rm
 MST .F                60:   Rm Meas. temp.
 RMF .OHMM            .34:   Rmf
 MFST.F                60:   Rmf Meas. temp.
 RMC .OHMM            .61:   Rmc
 MCST.F                60:   Rmc Meas. temp.
 MFSS.               MEAS:   Source Rmf.
 MCSS.               MEAS:   Source Rmc.
 RMB .OHMM            .28:   Rm. at BHT
 BHT .F               120:   BHT.
 TCS .HRS               3:   Time Circ. stopped
 MRT .F               120:   Maximum recorded temp.
 LUN .               9685:   Logging unit number
 LUL .             CASPER:   Logging unit location
 ENGI. G. BENTSEN/T. JOYNER:   Recorded By
 WITN.         PETTINGILL:   Witnessed by
 ORIG.   1" 2.5" 5" PRINT:   Origin of data
 UWI .     49025104240000:   Unique Well ID
 DICO. A2D TECHNOLOGIES, INC.:   Digitizing Company
~OTHER INFORMATION
~A   DEPT     CALD         GRD      RHOB       CORR        SPR       SGRD        ILD        ILM   
# ...
 1334.0000     9.8764    97.9201     2.5139     0.0470   -66.1314     7.5668     7.2262     8.0714
 1334.5000     9.9159    97.9248     2.5218     0.0510   -66.1295     7.5676     7.2275     8.0737
 1335.0000     9.8768    97.1437     2.5258     0.0510   -66.5267     7.5700     7.2291     8.0746
 1335.5000     9.8770    96.3641     2.5298     0.0510   -66.5248     7.5714     7.2304     8.1509
 1336.0000     9.8772    96.3672     2.5259     0.0511   -66.5229     7.5724     7.2316     8.1526
 1336.5000     9.8774    93.2348     2.5080     0.0471   -66.5206     7.5735     7.2329     8.1541
 1337.0000     9.8776    96.3751     2.5021     0.0432   -66.5187     7.5749     7.2342     8.1558
 1337.5000     9.9170    94.8113     2.5021     0.0433   -66.5167     7.5075     7.2355     8.1576
 1338.0000     9.8780    96.3830     2.4942     0.0393   -66.5148     7.4399     7.2371     8.1590
 1338.5000     9.9174    97.1721     2.4883     0.0394   -66.5129     7.4412     7.2383     8.1599
 1339.0000     9.9176    97.1752     2.4923     0.0434   -66.5110     7.4425     7.2396     8.0870
 1339.5000     9.9178    97.9642     2.4962     0.0474   -66.5086     7.3758     7.2409     8.0884
 1340.0000     9.9180    97.9674     2.5022     0.0514   -66.5067     7.3768     7.2422     8.0156
 1340.5000     9.9182    94.8349     2.5082     0.0514   -66.5048     7.3781     7.2438     8.0173
 1341.0000     9.9184    94.8381     2.5161     0.0514   -66.5029     7.3792     7.2451     8.0184
 1341.5000     9.9186    94.8428     2.5201     0.0554   -66.5009     7.3808     7.2464     8.0199
 1342.0000     9.9188    93.2774     2.5201     0.0594   -66.4986     7.4505     7.2476     8.0213
 1342.5000     9.9190    92.4978     2.5261     0.0595   -66.4967     7.5209     7.1826     8.0230
 1343.0000     9.9192    92.5010     2.5261     0.0555   -66.4948     7.5922     7.1837     8.0245
 1343.5000     9.9193    91.7214     2.5261     0.0595   -66.4929     7.5935     7.1849     8.0262
 1344.0000     9.9196    93.2932     2.5202     0.0516   -66.4909     7.5949     7.1862     8.0276
 1344.5000     9.9197    92.5136     2.5162     0.0477   -66.4890     7.5965     7.1878     8.0290
 1345.0000     9.9200    92.5167     2.5122     0.0477   -66.4867     7.5979     7.1230     8.0299
 1345.5000     9.9201    92.5215     2.5103     0.0478   -66.4848     7.5989     7.1243     8.0316
 1346.0000     9.9204    91.7403     2.5162     0.0518   -66.4828     7.5302     7.0597     8.0333
 1346.5000     9.9205    91.7451     2.5222     0.0518   -66.4809     7.3268     6.9968     8.0348
 1347.0000     9.9208    90.9639     2.5302     0.0558   -66.4790     7.2608     6.9338     7.7215
 1347.5000     9.9209    90.1828     2.5302     0.0558   -66.4767     7.2619     6.8711     7.7232
 1348.0000     9.9211    92.5404     2.5322     0.0599   -66.4748     7.1965     6.8726     7.7243
 1348.5000     9.9213    92.5436     2.5361     0.0599   -66.4728     7.0665     6.8736     7.7259
 1349.0000     9.9608    93.3326     2.5401     0.0639   -66.4709     7.0677     6.8117     7.7276
 1349.5000     9.9217    93.3358     2.5401     0.0560   -66.4690     7.0690     6.7508     7.7287
 1350.0000     9.9612    93.3405     2.5382     0.0600   -66.6631     7.0056     6.6901     7.7303
 1350.5000     9.9220    93.3437     2.5322     0.0600   -66.6600     7.0069     6.6913     7.6018
 1351.0000     9.9615    92.5641     2.5204     0.0521   -66.8517     7.0090     6.6932     7.5925
 1351.5000     9.9617    91.7829     2.5124     0.0482   -67.0435     7.0105     6.6948     7.5939
 1352.0000     9.9619    91.0034     2.5045     0.0443   -67.0340     7.0129     6.6961     7.5961
 1352.5000    10.0013    90.2222     2.5026     0.0443   -67.0262     6.9495     6.6976     7.5975
 1353.0000    10.0016    91.0113     2.4986     0.0443   -67.2195     6.9511     6.6992     7.5997
 1353.5000    10.0017    89.4458     2.4986     0.0444   -67.4112     7.1481     6.7008     7.6018
 1354.0000    10.0019    88.6663     2.5006     0.0484   -67.4034     7.1498     6.6409     7.6033
 1354.5000    10.0021    87.8851     2.5066     0.0484   -67.3939     7.2178     6.5818     7.6054
 1355.0000    10.0023    89.4584     2.5145     0.0485   -67.3861     7.1532     6.4633     7.6069
 1355.5000    10.0025    90.2459     2.5205     0.0524   -67.3798     7.0892     6.4049     7.4699
 1356.0000     9.9635    90.2506     2.5205     0.0525   -67.3720     6.7713     6.3485     7.3347
 1356.5000     9.9637    87.9009     2.5205     0.0485   -67.1629     6.6492     6.3497     7.0274
 1357.0000     9.9639    91.0428     2.5186     0.0525   -67.1535     6.7124     6.3512     7.0287
 1357.5000     9.9641    91.0460     2.5166     0.0486   -66.9492     6.9023     6.3527     7.1616
 1358.0000     9.9643    93.4036     2.5107     0.0486   -66.7402     7.1634     6.3543     7.2970
 1358.5000     9.9645    92.6225     2.5047     0.0447   -66.5312     6.9695     6.3555     7.3663
 1359.0000     9.9647    93.4115     2.5028     0.0448   -66.5233     7.2335     6.6576     7.5056
 1359.5000     9.9649    96.5519     2.4968     0.0448   -66.5155     7.3022     6.7828     7.7898
 1360.0000     9.9650    93.8037     2.4949     0.0409   -66.5076     7.3040     6.9747     7.7913
 1360.5000     9.9653    93.5600     2.4969     0.0409   -66.4998     7.3734     6.9767     7.8649
 1361.0000     9.9654    93.3164     2.4929     0.0409   -66.4935     7.3751     6.9784     7.8679
 1361.5000     9.9657    93.0727     2.4890     0.0410   -66.4841     7.3768     6.9797     7.8686
 1362.0000     9.9266    91.8666     2.4751     0.0370   -66.4809     7.3786     6.9813     7.8697
 1362.5000     9.9268    91.8697     2.4592     0.0331   -66.4824     7.3126     6.9833     7.9456
 1363.0000     9.9270    90.3059     2.4553     0.0331   -66.4839     7.3143     6.9850     7.9468
 1363.5000     9.8880    90.3090     2.4593     0.0332   -66.4853     7.3838     6.9863     7.9494
 1364.0000     9.8882    91.0965     2.4593     0.0332   -66.4868     7.3181     6.9886     7.9512
 1364.5000     9.8684    89.5326     2.4672     0.0293   -66.4883     7.2527     6.9899     7.9535
 1365.0000     9.7893    89.5358     2.4692     0.0293   -66.4897     7.2544     6.9912     7.9554
 1365.5000     9.7512    88.7562     2.4613     0.0254   -66.4912     7.2561     6.9926     7.9565
 1366.0000     9.7121    90.3280     2.4633     0.0294   -66.4927     7.2578     6.9946     7.9591
 1366.5000     9.7123    90.3327     2.4653     0.0254   -66.4941     7.1929     6.9969     7.8875
 1367.0000     9.7124    88.7672     2.4633     0.0295   -66.4956     7.2622     6.9349     7.7452
 1367.5000     9.7126    89.5563     2.4594     0.0255   -66.4970     7.2632     6.9359     7.7471
 1368.0000     9.7128    90.3437     2.4574     0.0216   -66.4985     7.2643     6.9310     7.7489
 1368.5000     9.7131    89.5642     2.4574     0.0216   -66.5000     7.2664     6.9262     7.7500
 1369.0000     9.7133    88.7830     2.4654     0.0217   -66.5014     7.2681     6.9213     7.7529
 1369.5000     9.7135    88.7878     2.4674     0.0217   -66.5029     7.2698     6.9164     7.7540
 1370.0000     9.7138    88.0066     2.4733     0.0257   -66.5044     7.2715     6.9115     7.7569
 1370.5000     9.6163    88.0114     2.4734     0.0257   -66.5058     7.2732     6.9066     7.7584
 1371.0000     9.6556    88.0145     2.4734     0.0218   -66.5073     7.2749     6.9018     7.7602
 1371.5000     9.6559    88.0192     2.4734     0.0218   -66.5088     7.2770     6.8969     7.7617
 1372.0000     9.6560    87.2381     2.4595     0.0219   -66.3160     7.2780     6.8920     7.6235
 1372.5000     9.6563    87.2428     2.4556     0.0219   -66.3082     7.2798     6.8872     7.6242
 1373.0000     9.6564    88.0303     2.4556     0.0220   -66.3003     7.2153     6.8823     7.6260
 1373.5000     9.6959    88.8193     2.4556     0.0259   -66.2925     7.2170     6.8775     7.6278
 1374.0000     9.6960    90.3911     2.4655     0.0300   -66.2830     7.2181     6.8726     7.6296
