~VERSION INFORMATION
 VERS.                2.0:   CWLS LOG ASCII STANDARD - VERSION 2.0
 WRAP.                 NO:   ONE LINE PER DEPTH STEP
~WELL INFORMATION
#MNEM.UNIT      DATA TYPE    INFORMATION
#----------   ------------   ------------------------------
 STRT.F          450.0000:   START DEPTH
 STOP.F         3070.0000:   STOP DEPTH
 STEP.F            0.5000:   STEP LENGTH
 NULL.          -999.2500:   NO VALUE
 COMP. LAWRENCE ALLISON & ASSOCIATES:   COMPANY
 WELL. LAWRENCE "X" #86-28:   WELL
 FLD .             NPR #3:   FIELD
 LOC .      S28 T39N R78W:   LOCATION
 CNTY.            NATRONA:   COUNTY
 STAT.            WYOMING:   STATE
 CTRY. UNITED STATES OF AMERICA:   COUNTRY
 SRVC.      WESTERN ATLAS:   SERVICE COMPANY
 DATE.        03-JAN-1988:   LOGDATE
 API .     49025111920000:   API NUMBER
~CURVE INFORMATION
#MNEM.UNIT       API CODE    CURVE DESCRIPTION
#----------   ------------   ------------------------------
 DEPT.F                  :   
 TEND.LBS    45 635 01 00:   TENSION FROM DENSITY LOG
 CALD.IN     45 280 60 00:   CALIPER FROM DENSITY LOG
 NPHI.DEC    42 890 03 00:   NEUTRON POROSITY SANDSTONE
 DEN .G/C3   45 350 01 00:   BULK DENSITY
 CORR.G/C3   45 356 01 00:   DENSITY CORRECTION
 TENR.LBS    07 635 01 00:   TENSION FROM RESISTIVITY
 RFOC.OHMM   07 220 04 00:   RESISTIVITY FOCUSED LOG RES.
 RILD.OHMM   07 120 46 00:   DEEP INDUCTION RESISTIVITY
 RILM.OHMM   07 120 44 00:   INDUCTION LOG MEDIUM RESISTIVITY
 SPR .MV     07 010 01 00:   SPONTANEOUS POTENTIAL
 GRR .GAPI   07 310 01 00:   GAMMA RAY FROM RESISTIVITY
~PARAMETER INFORMATION
#MNEM.UNIT          VALUE    DESCRIPTION
#----------   ------------   ------------------------------
 EKB .F         5072.0000:   Kelly bushing
 EGL .F         5061.0000:   Ground level
 EDF .F         5071.0000:   Drilling floor
 TD  .F         3062.0000:   Total depth
 DATE.        03-JAN-1988:   Date logged
 CLNT.            A2DTECH:   Client Code
 SL  . 1721' FSL & 556' FEL:   Surface Location
 PD  .                 GL:   Permanent Datum
 DD  .F              3060:   Depth driller
 DL  .F              3062:   Depth logger
 BLI .F              3060:   Bottom log interval
 CS1 .IN            8.625:   Casing size
 CBD1.      8.625" @ 480':   Casing driller 1
 CBL1.F               480:   Casing logger 1
 BS1 .IN            7.875:   Bit size
 DFT .        KCL-POLYMER:   Type fluid in hole
 DFD .                8.9:   Density
 DFV .                 36:   Viscosity
 DFPH.                9.5:   pH
 DFL .                8.4:   Fluid loss
 MSS .               TANK:   Source of sample
 RMS .OHMM           0.45:   Rm
 MST .F                80:   Rm Meas. temp.
 RMF .OHMM           0.41:   Rmf
 MFST.F                60:   Rmf Meas. temp.
 RMC .OHMM           0.65:   Rmc
 MCST.F                60:   Rmc Meas. temp.
 MFSS.               MEAS:   Source Rmf.
 RMB .OHMM           0.31:   Rm. at BHT
 BHT .F               110:   BHT.
 TCS .HRS               4:   Time Circ. stopped
 MRT .F               110:   Maximum recorded temp.
 LUN .            HL 6343:   Logging unit number
 LUL .               CODY:   Logging unit location
 ENGI.               RALL:   Recorded By
 WITN.              FIVRS:   Witnessed by
 ORIG.     2.5", 5" PRINT:   Origin of data
 UWI .     49025111920000:   Unique Well ID
 DICO. A2D TECHNOLOGIES, INC.:   Digitizing Company
 DAPD.                 11:   Feet Above Permanent Datum
 BSD1.               3060:   Depth drilled with bit1
 MCSS.               CALC:   Source Rmc.
 EPD .               5061:   Elevation Permanent Datum
 LMF .                 KB:   Log Measured From
 DMF .                 KB:   Drilling Measured From
 TLI .                480:   Top log interval
~OTHER INFORMATION
~A   DEPT     TEND       CALD       NPHI        DEN       CORR       TENR       RFOC       RILD       RILM        SPR         GRR  
# ...
 3042.5000   332.4110     7.9190     0.2660     2.4730     0.0610   126.9210     3.6080     2.8950     3.1200    -8.6040  -999.2500
 3043.0000   336.3050     7.9040     0.2660     2.4800     0.0640   128.0570     2.6250     2.9010     3.2250    -8.9670  -999.2500
 3043.5000   340.1990     7.8880     0.2590     2.4980     0.0690   129.1930     2.4690     2.9070     3.4980    -9.1800  -999.2500
 3044.0000   344.0930     7.8730     0.2530     2.5170     0.0720   130.3290     3.1470     2.9130     3.7710    -9.5200  -999.2500
 3044.5000   347.9860     7.8580     0.2250     2.5130     0.0760   131.4650     4.7350     2.9190     4.0440    -9.8560  -999.2500
 3045.0000   351.8800     7.8420     0.2240     2.5060     0.0610   132.6010     5.8660     3.1880     4.3170   -10.1900  -999.2500
 3045.5000   355.7740     7.8310     0.2230     2.4980     0.0420   133.7370     5.7440     3.6200     4.5900   -10.2540  -999.2500
 3046.0000   359.6680     7.8310     0.2220     2.5000     0.0210   134.8730     5.5020     4.0530     4.8620    -9.9630  -999.2500
 3046.5000   363.5620     7.8310     0.2210     2.5040     0.0080   136.0090     5.2690     4.4860     5.1230    -9.6740  -999.2500
 3047.0000   367.4560     7.8310     0.2190     2.5080     0.0080   137.1440     5.4960     4.9180     5.3120    -9.3880  -999.2500
 3047.5000   371.3500     7.8310     0.2160     2.5100     0.0170   138.2800     5.7640     5.0410     5.4930    -9.2330  -999.2500
 3048.0000   375.2440     7.8310     0.2140     2.5120     0.0320   139.4160     6.1210     5.1100     5.6740    -9.5140  -999.2500
 3048.5000   379.1370     7.8310     0.2120     2.5160     0.0440   140.4670     6.0760     5.1790     5.8410    -9.7900  -999.2500
 3049.0000   383.0310     7.8310     0.2110     2.5220     0.0480   141.1030     5.9820     5.2690     5.8250   -10.2050  -999.2500
 3049.5000   386.9250     7.8300     0.2020     2.5310     0.0490   141.6950     5.8960     5.2610     5.8110   -11.0820  -999.2500
 3050.0000   390.8190     7.8310  -999.2500     2.5280     0.0480   142.2870     5.8820     5.2430     5.7960   -11.9440  -999.2500
 3050.5000   394.7130     7.8310  -999.2500     2.5250     0.0420   142.8790     5.8670     5.2260     5.7810   -11.6560  -999.2500
 3051.0000   398.6070     7.8240  -999.2500     2.5230     0.0380   143.4700     5.8520     5.2090     5.7670   -11.1700  -999.2500
 3051.5000   402.5010     7.7730  -999.2500     2.5240     0.0340   144.0620     5.8370     5.1910     5.7520    -8.0640  -999.2500
 3052.0000   406.3950     7.7410  -999.2500     2.5250     0.0690   144.6540     5.8220     5.1740     5.7370  -999.2500  -999.2500
 3052.5000   410.2880     7.7020  -999.2500     2.5180     0.0890   145.2460     5.8070     5.1560     5.7320  -999.2500  -999.2500
 3053.0000   414.1820     7.6660  -999.2500     2.5080     0.0920   145.8380     5.7910     5.1390     5.7330  -999.2500  -999.2500
 3053.5000   418.0760     7.6290  -999.2500     2.5070     0.0990   146.4300     5.7700     5.1210     5.6790  -999.2500  -999.2500
 3054.0000   421.9700     7.5920  -999.2500     2.5110     0.1040   147.0210     5.7460     5.1040     5.6610  -999.2500  -999.2500
 3054.5000   425.8640     7.5550  -999.2500     2.5200     0.1080   147.6130     5.7220     5.0870     5.6420  -999.2500  -999.2500
 3055.0000   429.7580     7.5180  -999.2500     2.5240     0.1110   148.2050     5.6980     5.0690     5.6240  -999.2500  -999.2500
 3055.5000   433.6520     7.4810  -999.2500     2.5190     0.1140   148.7970     5.6740     5.0520     5.6050  -999.2500  -999.2500
 3056.0000   437.5450     7.4380  -999.2500     2.5150     0.1180   149.3890     5.6500     5.0340     5.5870  -999.2500  -999.2500
 3056.5000   441.4390     7.3310  -999.2500     2.5110     0.1120   149.9810     5.6260     5.0280     5.5690  -999.2500  -999.2500
 3057.0000   445.5650     7.1950  -999.2500     2.5060     0.1050   150.5730     5.5230     4.9820     5.5500  -999.2500  -999.2500
 3057.5000   459.9290     7.0630  -999.2500     2.4980     0.1000   151.1640     5.4190     4.9690     5.5320  -999.2500  -999.2500
 3058.0000   475.2020     6.9190  -999.2500     2.4910     0.0940   151.7560     5.3150     4.9500     5.5130  -999.2500  -999.2500
 3058.5000   490.4740  -999.2500  -999.2500     2.4870     0.1130   152.3480     5.2120     4.9310     5.4950  -999.2500  -999.2500
 3059.0000   505.7460  -999.2500  -999.2500     2.4870     0.1220   152.9400     5.1080     4.9130     5.4700  -999.2500  -999.2500
 3059.5000   521.0180  -999.2500  -999.2500     2.4900     0.1230   153.5320     5.0040     4.8940     5.4710  -999.2500  -999.2500
 3060.0000   536.2900  -999.2500  -999.2500     2.4980     0.1250   154.1240     4.9310     4.8750     5.4700  -999.2500  -999.2500
 3060.5000   551.5630  -999.2500  -999.2500     2.5060     0.1280   154.7150     4.9200     4.8560     5.4820  -999.2500  -999.2500
 3061.0000   566.5320  -999.2500  -999.2500     2.5100     0.1290   155.3070     4.9090     4.8440     5.4980  -999.2500  -999.2500
 3061.5000   546.3710  -999.2500  -999.2500     2.5050     0.1270   155.8990     4.8970     4.8440     5.5150  -999.2500  -999.2500
 3062.0000   485.8870  -999.2500  -999.2500     2.4970  -999.2500   156.4910     4.8860     4.8460     5.5320  -999.2500  -999.2500
 3062.5000   353.5790  -999.2500  -999.2500  -999.2500  -999.2500   157.0830     4.8740     4.8480     5.5480  -999.2500  -999.2500
 3063.0000   226.3100  -999.2500  -999.2500  -999.2500  -999.2500   157.6750     4.8630     4.8500     5.5650  -999.2500  -999.2500
 3063.5000    99.0420  -999.2500  -999.2500  -999.2500  -999.2500   158.2660     4.8510     4.8520     5.5820  -999.2500  -999.2500
 3064.0000   -18.1450  -999.2500  -999.2500  -999.2500  -999.2500   158.8580     4.8440     4.8540     5.5980  -999.2500  -999.2500
 3064.5000   -78.6290  -999.2500  -999.2500  -999.2500  -999.2500   159.4500     4.9050     4.8560     5.6150  -999.2500  -999.2500
 3065.0000   -78.6290  -999.2500  -999.2500  -999.2500  -999.2500   160.0420     4.9940     4.8580     5.6260  -999.2500  -999.2500
 3065.5000   -78.6290  -999.2500  -999.2500  -999.2500  -999.2500   160.6340     5.1720     4.8610     5.6260  -999.2500  -999.2500
 3066.0000   -61.5510  -999.2500  -999.2500  -999.2500  -999.2500   161.2260     5.3500     4.8630     5.6260  -999.2500  -999.2500
 3066.5000   -67.5400  -999.2500  -999.2500  -999.2500  -999.2500   161.8180     5.5280     4.8650     5.6260  -999.2500  -999.2500
 3067.0000   -73.5290  -999.2500  -999.2500  -999.2500  -999.2500   162.4090     5.7060     4.8670     5.6320  -999.2500  -999.2500
 3067.5000   -79.5190  -999.2500  -999.2500  -999.2500  -999.2500   163.0010     5.8840     4.8690     5.6500  -999.2500  -999.2500
 3068.0000   -85.5080  -999.2500  -999.2500  -999.2500  -999.2500   163.5930     6.0610     4.8710     5.6680  -999.2500  -999.2500
 3068.5000   -91.4970  -999.2500  -999.2500  -999.2500  -999.2500   164.1850     6.1210     4.8730     5.6850  -999.2500  -999.2500
 3069.0000   -97.4860  -999.2500  -999.2500  -999.2500  -999.2500   164.7770     6.0350     4.8750     5.7030  -999.2500  -999.2500
 3069.5000   -98.7900  -999.2500  -999.2500  -999.2500  -999.2500   165.3690     5.9380     4.8770     5.7210  -999.2500  -999.2500
 3070.0000   -98.7900  -999.2500  -999.2500  -999.2500  -999.2500   165.9600     5.8350     4.8800     5.7330  -999.2500  -999.2500
