~VERSION INFORMATION
 VERS.                2.0:   CWLS LOG ASCII STANDARD - VERSION 2.0
 WRAP.                 NO:   ONE LINE PER DEPTH STEP
~WELL INFORMATION
#MNEM.UNIT      DATA TYPE    INFORMATION
#----------   ------------   ------------------------------
 STRT.F           61.5000:   START DEPTH
 STOP.F         4220.0000:   STOP DEPTH
 STEP.F            0.5000:   STEP LENGTH
 NULL.          -999.2500:   NO VALUE
 COMP.   LAWRENCE ALLISON:   COMPANY
 WELL. ALLISON NPR 3 "LX" #28-34:   WELL
 FLD .                NPR:   FIELD
 LOC .      S34 T39N R78W:   LOCATION
 CNTY.            NATRONA:   COUNTY
 STAT.            WYOMING:   STATE
 CTRY. UNITED STATES OF AMERICA:   COUNTRY
 SRVC.       DRESER ATLAS:   SERVICE COMPANY
 DATE.        23-MAR-1983:   LOGDATE
 API .     49025109190000:   API NUMBER
~CURVE INFORMATION
#MNEM.UNIT       API CODE    CURVE DESCRIPTION
#----------   ------------   ------------------------------
 DEPT.F                  :   
 TEND.LBS    45 635 01 00:   TENSION FROM DENSITY LOG
 CORR.G/C3   45 356 01 00:   DENSITY CORRECTION
 RHOB.G/C3   45 350 01 00:   BULK DENSITY
 CN  .DEC    42 890 00 00:   Neutron Porosity
 SPR .MV     07 010 01 00:   SPONTANEOUS POTENTIAL
 GRR .GAPI   07 310 01 00:   GAMMA RAY FROM RESISTIVITY
 TENR.LBS    07 635 01 00:   TENSION FROM RESISTIVITY
 RILD.OHMM   07 120 46 00:   DEEP INDUCTION RESISTIVITY
 RILM.OHMM   07 120 44 00:   INDUCTION LOG MEDIUM RESISTIVITY
 RFOC.OHMM   07 220 01 00:   RESISTIVITY FOCUSED LOG RES.
 TENS.LBS    60 635 01 00:   TENSION FROM SONIC LOG
 DT  .US/F   60 520 00 00:   DELTA TIME
 CALS.IN     60 280 50 00:   CALIPER FROM SONIC LOG
~PARAMETER INFORMATION
#MNEM.UNIT          VALUE    DESCRIPTION
#----------   ------------   ------------------------------
 EKB .F         5184.0000:   Kelly bushing
 EGL .F         5174.0000:   Ground level
 EDF .F            0.0000:   Drilling floor
 TD  .F         4397.0000:   Total depth
 DATE.        23-MAR-1983:   Date logged
 CLNT.            A2DTECH:   Client Code
 SL  . 942' FWL & 645' FSL:   Surface Location
 PD  .                 GL:   Permanent Datum
 EPD .F              5174:   Elevation Permanent Datum
 LMF .                 KB:   Log Measured From
 DMF .                 KB:   Drilling Measured From
 DAPD.F                10:   Feet Above Permanent Datum
 DD  .F              4397:   Depth driller
 DL  .F              4203:   Depth logger
 BLI .F              4201:   Bottom log interval
 CS1 .IN            9.625:   Casing size
 CBD1.      9.625" @ 659':   Casing driller 1
 CBL1.F               658:   Casing logger 1
 BS1 .IN             8.75:   Bit size
 BSD1.F              4397:   Depth drilled with bit1
 DFT .   GEL/DRISPACK/KCL:   Type fluid in hole
 DFD .                8.6:   Density
 DFV .                 36:   Viscosity
 DFPH.                8.5:   pH
 DFL .                 18:   Fluid loss
 MSS .               TANK:   Source of sample
 RMS .OHMM           0.55:   Rm
 MST .F                74:   Rm Meas. temp.
 RMF .OHMM           0.43:   Rmf
 MFST.F                66:   Rmf Meas. temp.
 RMC .OHMM           0.69:   Rmc
 MCST.F                74:   Rmc Meas. temp.
 MFSS.               MEAS:   Source Rmf.
 MCSS.               CALC:   Source Rmc.
 RMB .OHMM           0.33:   Rm. at BHT
 BHT .F               122:   BHT.
 TCS .HRS             5.5:   Time Circ. stopped
 MRT .F               122:   Maximum recorded temp.
 LUN .               6270:   Logging unit number
 LUL .              WLSTN:   Logging unit location
 ENGI.             REEVES:   Recorded By
 WITN.             STRONG:   Witnessed by
 ORIG.           5" PRINT:   Origin of data
 UWI .     49025109190000:   Unique Well ID
 DICO. A2D TECHNOLOGIES, INC.:   Digitizing Company
~OTHER INFORMATION
~A   DEPT     TEND       CORR       RHOB         CN        SPR         GRR      TENR       RILD       RILM       RFOC       TENS         DT       CALS   
# ...
 1127.5000  -999.2500  -999.2500  -999.2500  -999.2500   -28.8130   101.6720   -81.6630     8.0130     7.8980     7.6140   -94.3780    89.6260    15.4200
 1128.0000  -999.2500  -999.2500  -999.2500  -999.2500   -28.8240   101.0170   -81.1260     8.0050     7.8360     7.6910   -94.3780    89.0570    15.4200
 1128.5000  -999.2500  -999.2500  -999.2500  -999.2500   -28.8350   103.6310   -80.5890     7.9920     7.8020     7.7680   -94.3780    88.4870    15.4200
 1129.0000  -999.2500  -999.2500  -999.2500  -999.2500   -28.8460   104.2920   -80.0520     7.9850     7.7920     7.8450   -94.3780    88.5850    15.4200
 1129.5000  -999.2500  -999.2500  -999.2500  -999.2500   -28.8570   103.9680   -79.5140     7.9690     7.7820     7.9220   -94.3780    89.0280    15.4200
 1130.0000  -999.2500  -999.2500  -999.2500  -999.2500   -28.8680   103.7560   -78.9770     7.9420     7.7720     7.9470   -94.3780    89.4700    15.4200
 1130.5000  -999.2500  -999.2500  -999.2500  -999.2500   -28.8790   103.0970   -78.4400     7.9820     7.7620     7.9470   -94.3780    89.7290    15.4200
 1131.0000  -999.2500  -999.2500  -999.2500  -999.2500   -28.8900   101.9760   -77.9030     7.6350     7.7520     7.9470   -94.3780    89.7930    15.4200
 1131.5000  -999.2500  -999.2500  -999.2500  -999.2500   -28.9010   100.8340   -77.3650     7.6820     7.7420     7.9470   -94.3780    89.8560    15.4200
 1132.0000  -999.2500  -999.2500  -999.2500  -999.2500   -28.9120    99.7890   -76.8280     7.6620     7.7320     7.9470   -94.3780    89.9310    15.4200
 1132.5000  -999.2500  -999.2500  -999.2500  -999.2500   -28.9230    98.9860   -76.2910     7.6730     7.7220     7.9470   -94.3780    90.0320    15.4200
 1133.0000  -999.2500  -999.2500  -999.2500  -999.2500   -28.9340   101.1200   -75.7540     7.6860     7.7120     7.9470   -94.3780    90.1000    15.4200
 1133.5000  -999.2500  -999.2500  -999.2500  -999.2500   -28.9450   102.7650   -75.2160     7.6910     7.7020     7.9470   -94.3780    90.1000    15.4200
 1134.0000  -999.2500  -999.2500  -999.2500  -999.2500   -28.9560   103.5570   -74.6490     7.6970     7.6920     7.9470   -77.6270    89.8760    15.4170
 1134.5000  -999.2500  -999.2500  -999.2500  -999.2500   -28.9670   104.1980   -62.7250     7.7040     7.6820     7.9260   -62.8680    89.5730    15.4130
 1135.0000  -999.2500  -999.2500  -999.2500  -999.2500   -28.9790   103.2500   -50.1000     7.7100     7.6720     7.9030   -48.1090    89.2690    15.4090
 1135.5000  -999.2500  -999.2500  -999.2500  -999.2500   -28.9880   101.6250   -37.4750     7.7170     7.6620     7.8800   -33.3500    88.9650    15.4050
 1136.0000  -999.2500  -999.2500  -999.2500  -999.2500   -28.9970   102.6640   -24.5490     7.7230     7.6560     7.8570   -30.1020    88.6620    15.4010
 1136.5000  -999.2500  -999.2500  -999.2500  -999.2500   -28.9460   104.8180   -46.4600     7.7290     7.6450     7.8340   -46.2030    88.3580    15.3960
 1137.0000  -999.2500  -999.2500  -999.2500  -999.2500   -28.8930   106.7890   -68.9040     7.7360     7.6350     7.8110   -62.3040    88.4520    15.3920
 1137.5000  -999.2500  -999.2500  -999.2500  -999.2500   -28.8380   108.0980   -91.3490     7.7420     7.6250     7.5920   -78.4050    88.6550    15.3880
 1138.0000  -999.2500  -999.2500  -999.2500  -999.2500   -28.7840   104.8930  -104.7090     7.7490     7.6150     7.2470   -94.3780    88.8570    15.3840
 1138.5000  -999.2500  -999.2500  -999.2500  -999.2500   -28.7290   102.8530  -104.7090     7.7550     7.6050     7.2470   -95.1740    89.0960    15.3800
 1139.0000  -999.2500  -999.2500  -999.2500  -999.2500   -28.6740   103.4610  -104.7090     7.7620     7.5950     7.3340   -95.9650    88.9930    15.3760
 1139.5000  -999.2500  -999.2500  -999.2500  -999.2500   -28.6200   105.2020  -104.7090     7.7680     7.5850     7.5420   -96.7550    88.7210    15.3720
 1140.0000  -999.2500  -999.2500  -999.2500  -999.2500   -28.5650   106.7480  -104.7090     7.7740     7.5750     7.8020   -97.5460    88.2930    15.3680
 1140.5000  -999.2500  -999.2500  -999.2500  -999.2500   -28.5110   106.6130  -104.7090     7.7810     7.5650     7.8020   -98.3360    88.1550    15.3630
 1141.0000  -999.2500  -999.2500  -999.2500  -999.2500   -28.4560   106.0040  -104.7090     7.7870     7.5550     7.8020   -99.1270    88.6370    15.3590
 1141.5000  -999.2500  -999.2500  -999.2500  -999.2500   -28.4020   102.6090  -104.7090     7.7940     7.5450     7.4970   -99.9170    89.4980    15.3550
 1142.0000  -999.2500  -999.2500  -999.2500  -999.2500   -28.3480   102.8740  -104.7090     7.8020     7.5350     7.1140  -100.7080    89.6440    15.3510
 1142.5000  -999.2500  -999.2500  -999.2500  -999.2500   -28.2930   103.7720  -104.7090     7.7790     7.5250     7.2440  -101.4980    89.8130    15.3470
 1143.0000  -999.2500  -999.2500  -999.2500  -999.2500   -28.2370   105.0440  -104.7090     7.6970     7.5050     7.4370  -102.2890    89.9610    15.3430
 1143.5000  -999.2500  -999.2500  -999.2500  -999.2500   -28.2000   104.3180  -104.7090     7.6140     7.4750     7.6290  -103.0790    90.0870    15.3410
 1144.0000  -999.2500  -999.2500  -999.2500  -999.2500   -28.2000   103.5660  -104.7090     7.5320     7.4450     7.8020  -103.8700    90.2140    15.3450
 1144.5000  -999.2500  -999.2500  -999.2500  -999.2500   -28.2000   104.9680  -104.7090     7.4490     7.4150     7.5680  -104.6600    90.3400    15.3480
 1145.0000  -999.2500  -999.2500  -999.2500  -999.2500   -28.2000   106.6510  -104.7090     7.3660     7.3850     7.3820  -105.4510    90.4670    15.3510
 1145.5000  -999.2500  -999.2500  -999.2500  -999.2500   -28.2000   105.1360  -104.7090     7.2840     7.3550     7.3820  -106.2410    90.5930    15.3550
 1146.0000  -999.2500  -999.2500  -999.2500  -999.2500   -28.2000   103.6920  -104.7090     7.2010     7.3250     7.3820  -107.0320    90.7200    15.3580
 1146.5000  -999.2500  -999.2500  -999.2500  -999.2500   -28.2000   102.7460  -104.7090     7.1140     7.2950     7.3820  -107.8220    90.8460    15.3620
 1147.0000  -999.2500  -999.2500  -999.2500  -999.2500   -28.2000   103.5770  -104.7090     7.1560     7.2480     7.3820  -108.6130    90.9040    15.3650
 1147.5000  -999.2500  -999.2500  -999.2500  -999.2500   -28.2000   104.3560  -104.7090     7.2010     7.2510     7.3820  -109.4030    90.9040    15.3690
 1148.0000  -999.2500  -999.2500  -999.2500  -999.2500   -28.2000   104.2200  -104.7090     7.2450     7.2670     7.5270  -110.1940    90.9040    15.3720
 1148.5000  -999.2500  -999.2500  -999.2500  -999.2500   -28.2000   103.8980  -104.7090     7.2890     7.2830     7.6780  -110.9840    90.6770    15.3760
 1149.0000  -999.2500  -999.2500  -999.2500  -999.2500   -28.2000   103.5270  -104.7090     7.3340     7.2980     7.8020  -111.7750    90.0700    15.3790
 1149.5000  -999.2500  -999.2500  -999.2500  -999.2500   -28.2000   104.1590  -104.7090     7.3780     7.3130     7.8560  -112.5650    89.6820    15.3830
 1150.0000  -999.2500  -999.2500  -999.2500  -999.2500   -28.2000   105.4260  -104.7090     7.4220     7.3280     7.9020  -113.3560    89.6400    15.3860
 1150.5000  -999.2500  -999.2500  -999.2500  -999.2500   -28.2000   106.5250  -104.7090     7.4670     7.3440     7.9470  -114.1460    89.5980    15.3900
 1151.0000  -999.2500  -999.2500  -999.2500  -999.2500   -28.2000   104.0900  -104.7090     7.5190     7.3590     7.9470  -113.4400    89.5560    15.3930
 1151.5000  -999.2500  -999.2500  -999.2500  -999.2500   -28.1990   102.5070  -104.7090     7.5190     7.3740     7.9470  -111.7600    89.5140    15.3970
 1152.0000  -999.2500  -999.2500  -999.2500  -999.2500   -28.1750   101.7320  -104.7090     7.5190     7.3900     7.9430  -110.0800    89.3740    15.4000
 1152.5000  -999.2500  -999.2500  -999.2500  -999.2500   -28.1510   103.9610  -104.7090     7.5190     7.4050     7.9260  -108.4000    89.1730    15.4030
 1153.0000  -999.2500  -999.2500  -999.2500  -999.2500   -28.1260   106.1310  -104.7090     7.5200     7.4200     7.9090  -106.7200    89.0960    15.4070
