~VERSION INFORMATION
 VERS.                2.0:   CWLS LOG ASCII STANDARD - VERSION 2.0
 WRAP.                 NO:   ONE LINE PER DEPTH STEP
~WELL INFORMATION
#MNEM.UNIT      DATA TYPE    INFORMATION
#----------   ------------   ------------------------------
 STRT.F          397.0000:   START DEPTH
 STOP.F         5516.0000:   STOP DEPTH
 STEP.F            0.5000:   STEP LENGTH
 NULL.          -999.2500:   NO VALUE
 COMP.  FENIX AND SCISSON:   COMPANY
 WELL.   FENIX TPX #54-10:   WELL
 FLD . NAVAL PETROLEUM RESERVE=3:   FIELD
 LOC .      S10 T38N R78W:   LOCATION
 CNTY.            NATRONA:   COUNTY
 STAT.            WYOMING:   STATE
 CTRY. UNITED STATES OF AMERICA:   COUNTRY
 SRVC.       SCHLUMBERGER:   SERVICE COMPANY
 DATE.        03-APR-1981:   LOGDATE
 API .     49025108690000:   API NUMBER
~CURVE INFORMATION
#MNEM.UNIT       API CODE    CURVE DESCRIPTION
#----------   ------------   ------------------------------
 DEPT.F                  :   
 SPR .MV     11 010 01 00:   SPONTANEOUS POTENTIAL FROM RES.
 TENR.LBS    11 635 01 00:   TENSION FROM RES.
 LLD .OHMM   11 220 10 00:   LATEROLOG DEEP
 LLS .OHMM   11 220 09 00:   LATEROLOG LOG SHALLOW
 TEND.LBS    45 635 01 00:   TENSION FORM DENSITY LOG
 GRD .GAPI   45 310 01 00:   GAMMA RAY FROM DENSITY LOG
 NPHI.DEC    42 890 03 00:   NEUTRON POROSITY SANDSTONE
 CALD.IN     45 280 60 00:   CALIPER FROM DENSITY LOG
 CORR.G/C3   45 356 01 00:   DENSITY CORRECTION
 RHOB.G/C3   45 350 01 00:   BULK DENSITY
~PARAMETER INFORMATION
#MNEM.UNIT          VALUE    DESCRIPTION
#----------   ------------   ------------------------------
 EKB .F         5206.0000:   Kelly bushing
 EGL .F         5196.0000:   Ground level
 EDF .F            0.0000:   Drilling floor
 TD  .F         5498.0000:   Total depth
 CLNT.            A2DTECH:   Client Code
 SL  . 2080' FNL & 2150' FEL:   Surface Location
 PD  .                 GL:   Permanent Datum
 EPD .F              5196:   Elevation Permanent Datum
 LMF .                 KB:   Log Measured From
 DMF .                 KB:   Drilling Measured From
 DAPD.F                10:   Feet Above Permanent Datum
 DATE.         3-APR-1981:   Date Logged [DD-MMM-YYYY]
 DD  .F              5485:   Depth driller
 DL  .F              5498:   Depth logger
 BLI .F              5496:   Bottom log interval
 TLI .F               397:   Top log interval
 CS1 .IN                7:   Casing size
 CBD1.         7" @ 3891':   Casing driller 1
 CBL1.F              3889:   Casing logger 1
 BS1 .IN            6.125:   Bit size
 BSD1.F              5485:   Depth drilled with bit1
 DFT .           CHEM GEL:   Type fluid in hole
 DFD .                9.1:   Density
 DFV .                 42:   Viscosity
 DFPH.                9.0:   pH
 DFL .                5.0:   Fluid loss
 MSS .           MUD TANK:   Source of sample
 RMS .OHMM           0.81:   Rm
 MST .F                62:   Rm Meas. temp.
 RMF .OHMM           0.64:   Rmf
 MFST.F                62:   Rmf Meas. temp.
 MFSS.               MEAS:   Source Rmf.
 RMB .OHMM          0.031:   Rm. at BHT
 BHT .F               174:   BHT.
 TCS .HRS            0830:   Time Circ. stopped
 TLAB.HRS            2130:   Time logger at bottom
 MRT .F               174:   Maximum recorded temp.
 LUN .               8035:   Logging unit number
 LUL .               CSPR:   Logging unit location
 ENGI.             BEATIE:   Recorded By
 WITN.              FIVAS:   Witnessed by
 ORIG.           5" PRINT:   Origin of data
 UWI .     49025108690000:   Unique Well ID
 DICO. A2D TECHNOLOGIES, INC:   Digitizing Company
~OTHER INFORMATION
~A   DEPT      SPR       TENR        LLD        LLS       TEND         GRD        NPHI     CALD       CORR       RHOB   
# ...
 3981.5000   -20.4602  1430.8762     6.0102     5.8588  1506.3132    87.2945     0.2579     8.6490  -999.2500     2.9836
 3982.0000   -20.4620  1430.8674     5.9676     6.0675  1507.3232    84.8546     0.2717     8.4359  -999.2500     3.0480
 3982.5000   -20.4635  1430.8588     6.2323     6.2325  1508.3333    83.6231     0.2723     7.4476  -999.2500     3.3267
 3983.0000   -20.6172  1430.8500     6.5817     6.3746  1509.5958    82.9959     0.2512     7.2378  -999.2500     3.4264
 3983.5000   -20.7706  1430.8412     6.7209     6.4609  1510.6063    81.7613     0.2478     7.8662  -999.2500     3.2785
 3984.0000   -20.7720  1430.8325     6.6730     6.4598  1511.6163    82.9441     0.2808     8.1653  -999.2500     3.1562
 3984.5000   -20.9255  1430.8237     6.3521     6.1490  1482.0708    94.4015     0.3080     8.0302  -999.2500     3.0870
 3985.0000   -21.0793  1430.8151     5.6763     5.6116  1483.3333    99.2180     0.3424     7.8802  -999.2500     3.0001
 3985.5000   -21.0805  1430.8063     5.3656     5.3040  1454.2928    90.7301     0.3756     7.9847  -999.2500     2.9474
 3986.0000   -21.0821  1430.7975     5.3649     5.3783  1455.3029    84.6027     0.3827     8.1641     0.1884     2.8514
 3986.5000   -21.0836  1430.7888     6.3933     6.2325  1471.4648    69.5303     0.3240     7.6547     0.1144     2.7950
 3987.0000   -21.0853  1430.7800     9.9344     9.1068  1487.6263    62.2584     0.2450     7.1455     0.1038     2.8162
 3987.5000   -21.0868  1430.5914    14.5312    13.4000  1488.6365    58.6100     0.1792     6.8757     0.1301     2.9149
 3988.0000   -21.0881  1430.3065    17.5614    18.3801  1550.5050    60.9982     0.1538     6.8156     0.1683     3.0150
 3988.5000   -21.0897  1430.0217    20.6360    20.7090  1642.1716    66.7154     0.1469     6.8002     0.2014     3.0856
 3989.0000   -20.9395  1429.7368    20.9249    19.7125  1522.2220    70.9220     0.1548     6.8150     0.2216     3.1486
 3989.5000   -20.7889  1429.4519    17.4311    17.5778  1508.0811    73.9201     0.1587     6.8146     0.2325     3.1637
 3990.0000   -20.7903  1429.1670    14.4195    15.5194  1524.2427    76.3140     0.1557     6.8144     0.2434     3.1705
 3990.5000   -20.7918  1428.8822    12.9766    14.1629  1540.6566    79.6085     0.1553     6.8141     0.2464     3.1719
 3991.0000   -20.7936  1428.5973    12.4397    13.1079  1556.8181    82.0024     0.1716     6.8137     0.2471     3.1742
 3991.5000   -20.7950  1428.3124    12.2646    12.6508  1557.8281    83.1936     0.1805     6.8134     0.2486     3.1877
 3992.0000   -20.7964  1428.0276    12.0916    12.3011  1558.8383    82.2585     0.1829     6.8132  -999.2500     3.2123
 3992.5000   -20.7979  1427.7427    12.6990    12.6500  1544.6968    79.5165     0.1694     6.8129  -999.2500     3.2410
 3993.0000   -20.6343  1427.4578    14.1072    13.7609  1530.5558    75.8623     0.1585     6.8125  -999.2500     3.2943
 3993.5000   -20.4970  1427.1730    14.6148    14.7605  1516.6667    77.0478     0.1631     6.8122  -999.2500     3.4257
 3994.0000   -20.4986  1426.8881    14.4032    15.1791  1502.2727    85.7861     0.1896     6.8419  -999.2500     3.5538
 3994.5000   -20.5000  1426.6031    12.4273    12.4665  1503.5353    92.7117     0.2259     7.0512  -999.2500     3.5811
 3995.0000   -20.5018  1426.3182     9.9256     8.8345  1489.3938    96.3141     0.2482     7.3578  -999.2500     3.4512
 3995.5000   -20.6552  1426.0334     8.1533     7.6754  1490.6569    96.2853     0.2615     7.7392  -999.2500     3.3986
 3996.0000   -20.8086  1425.7485     6.9854     7.1908  1491.6669    95.9602     0.2739     7.9784  -999.2500     3.4020
 3996.5000   -21.1140  1425.4636     6.6030     6.6206  1492.6769    95.6351     0.2779     8.0679  -999.2500     3.5143
 3997.0000   -21.4197  1425.1788     6.5101     6.3465  1493.6869    95.9200     0.2788     8.0677  -999.2500     3.5713
 3997.5000   -21.4212  1424.8939     6.5092     6.3012  1479.5454    96.1933     0.2746     7.8428  -999.2500     3.5886
 3998.0000   -21.5746  1424.6090     6.5083     6.4860  1495.9595    98.4894     0.2601     7.5580  -999.2500     3.5091
 3998.5000   -21.7280  1424.3242     6.5993     6.8535  1481.5654   100.6042     0.2462     7.3182  -999.2500     3.2658
 3999.0000   -21.7295  1424.0393     6.6919     7.1980  1482.8285   101.8127     0.2336     7.1383     0.2463     3.1156
 3999.5000   -21.6989  1423.7544     7.0773     7.7752  1483.6279   101.5106     0.2255     7.0449     0.2106     3.0931
 4000.0000   -21.4287  1423.4696     7.8072     8.5177  1484.8485    96.6767     0.2115     6.9730     0.2109     3.1111
 4000.5000   -21.4301  1423.1847     9.1095     9.3307  1501.5258    90.6344     0.2085     6.9428     0.2076     3.1118
 4001.0000   -20.9760  1422.8998     9.9088     9.5285  1517.8979    85.8006     0.2040     6.9425     0.2064     3.1142
 4001.5000   -20.5215  1422.6149    10.1897     9.5944  1549.4222    83.0516     0.1985     6.9422     0.2093     3.1306
 4002.0000   -20.2190  1422.5026    10.1883     9.7971  1565.7944    79.4562     0.1872     6.9269     0.2168     3.1726
 4002.5000   -20.0684  1422.5021    10.9199    10.8079  1567.0150    76.4350     0.1772     6.9266     0.2500     3.2341
 4003.0000   -19.7468  1422.5016    11.5520    11.5930  1553.0842    74.0181     0.1709     6.9114     0.2500     3.3009
 4003.5000   -19.4638  1422.5010    12.3833    11.9222  1524.0017    73.7160     0.1673     6.9260     0.2500     3.3687
 4004.0000   -19.3128  1422.5005    12.5559    10.5042  1555.8307    76.4350     0.1945     7.2113     0.2497     3.2806
 4004.5000   -19.3146  1422.5000     8.8362     7.3615  1557.0513    80.9668     0.2431     7.7542     0.1911     3.0861
 4005.0000   -19.1641  1422.4995     6.1754     5.8202  1558.5778    84.2900     0.3011     9.2006     0.1625     2.9300
 4005.5000   -19.3179  1422.4990     4.3765     4.4874  1544.6467    87.0091     0.3399    10.0902     0.1752     2.9742
 4006.0000   -19.4713  1422.4985     3.9105     3.9817  1515.5645    89.1639     0.3847    10.3000     0.2465     3.1622
 4006.5000   -19.6247  1422.4980     3.6701     3.6842  1501.5907    89.4260     0.3970    10.4949  -999.2500     3.0057
 4007.0000   -19.6907  1422.4976     3.6180     3.6077  1487.7028    87.3112     0.3984    10.8096  -999.2500     2.9794
 4007.5000   -19.6964  1422.4971     3.6442     3.5950  1489.2291    84.8943     0.3899    10.8398  -999.2500     2.8142
 4008.0000   -19.7027  1422.4966     3.7450     3.8559  1474.9930    82.7395     0.3857    10.5707  -999.2500     2.6648
 4008.5000   -19.7094  1422.4961     3.8237     4.0382  1491.6704    80.6646     0.3812    10.3614  -999.2500     2.7001
 4009.0000   -19.7143  1422.4956     3.8870     4.1926  1492.8911    82.7795     0.3710    10.2868  -999.2500     2.8967
 4009.5000   -19.7209  1422.4951     3.9860     4.2502  1478.9601    87.6133     0.3631    10.4692  -999.2500     2.9853
 4010.0000   -19.7271  1422.4946     4.0441     4.1895  1450.1829    89.4260     0.3577    10.6168     0.2215     3.0071
 4010.5000   -19.7325  1422.4941     4.1179     4.1293  1451.4036    88.2175     0.3466    10.6171     0.2259     3.0235
 4011.0000   -19.7386  1422.4937     4.2127     4.0990  1498.0793    86.7069     0.3382    10.4677     0.2394     3.0220
 4011.5000   -19.7447  1422.4932     4.2788     4.1850  1575.9818    85.8006     0.3360    10.3632     0.2499     3.0573
 4012.0000   -19.7511  1422.4927     4.3641     4.4254  1636.8842    85.1964     0.3493    10.3186     0.2491     3.1796
 4012.5000   -19.7568  1422.4922     4.4838     4.5817  1577.8041    87.0091     0.3735    10.4986     0.2491     3.0835
 4013.0000   -19.6106  1422.4917     4.5460     4.5481  1548.4164    90.3323     0.3944    10.8132     0.2445     2.9904
 4013.5000   -19.5825  1422.4912     4.4187     4.2981  1519.6211    89.4260     0.4104    11.2027     0.2355     2.9482
 4014.0000   -19.4701  1422.4907     4.0884     4.0619  1505.7090    87.9154     0.4113    11.2786     0.2377     2.9671
 4014.5000   -19.6293  1422.4902     3.9193     4.0321  1491.7781    88.2175     0.3962    10.9788     0.2497     3.0496
