~VERSION INFORMATION
 VERS.                2.0:   CWLS LOG ASCII STANDARD - VERSION 2.0
 WRAP.                 NO:   ONE LINE PER DEPTH STEP
~WELL INFORMATION
#MNEM.UNIT      DATA TYPE    INFORMATION
#----------   ------------   ------------------------------
 STRT.F           54.0000:   START DEPTH
 STOP.F         5201.0000:   STOP DEPTH
 STEP.F            0.5000:   STEP LENGTH
 NULL.          -999.2500:   NO VALUE
 COMP.   TESORO PETROLEUM:   COMPANY
 WELL. TESORO DX NPR-3 #51-26:   WELL
 FLD .        TEAPOT DOME:   FIELD
 LOC .      S26 T38N R78W:   LOCATION
 CNTY.            NATRONA:   COUNTY
 STAT.            WYOMING:   STATE
 CTRY. UNITED STATES OF AMERICA:   COUNTRY
 SRVC.      DRESSER ATLAS:   SERVICE COMPANY
 DATE.        27-AUG-1976:   LOGDATE
 API .     49025102680000:   API NUMBER
~CURVE INFORMATION
#MNEM.UNIT       API CODE    CURVE DESCRIPTION
#----------   ------------   ------------------------------
 DEPT.F                  :   
 GRD .GAPI   45 310 01 00:   GAMMA RAY FROM DENSITY LOG
 CALD.IN     45 280 60 00:   CALIPER FROM DENSITY LOG
 CORR.G/C3   45 356 01 00:   DENSITY CORRECTION
 RHOB.G/C3   45 350 01 00:   BULK DENSITY
 SPR .MV     07 010 01 00:   SPONTANEOUS POTENTIAL
 ILD .OHMM   07 120 46 00:   DEEP INDUCTION RESISTIVITY
 ILM .OHMM   07 120 44 00:   INDUCTION LOG MEDIUM RESISTIVITY
 RFOC.OHMM   07 220 04 00:   RESISTIVITY FOCUSED LOG RES.
 TEND.LBS    45 635 01 00:   TENSION FORM DENSITY LOG
 NPHI.DEC    42 890 03 00:   NEUTRON POROSITY SANDSTONE
~PARAMETER INFORMATION
#MNEM.UNIT          VALUE    DESCRIPTION
#----------   ------------   ------------------------------
 EKB .F         5453.5000:   Kelly bushing
 EGL .F         5442.0000:   Ground level
 EDF .F         5452.0000:   Drilling floor
 EPD .F            0.0000:   Permanent datum
 TD  .F         5193.0000:   Total depth
 CLNT.            A2DTECH:   Client Code
 SL  . 2000' FEL & 600' FNL:   Surface Location
 PD  .                 GL:   Permanent Datum
 DAPD.F              11.5:   Feet Above Permanent Datum
 DATE.        27-AUG-1976:   Date Logged [DD-MMM-YYYY]
 DD  .F              5193:   Depth driller
 DL  .F              5193:   Depth logger
 BLI .F              5191:   Bottom log interval
 TLI .F              1726:   Top log interval
 CS1 .IN            8.625:   Casing size
 CBD1.     8.625" @ 1724':   Casing driller 1
 CBL1.F              1726:   Casing logger 1
 BS1 .IN            7.875:   Bit size
 BSD1.F              5193:   Depth drilled with bit1
 DFT .           CHEM GEL:   Type fluid in hole
 DFD .                9.2:   Density
 DFV .                 65:   Viscosity
 DFPH.                 10:   pH
 DFL .                5.8:   Fluid loss
 MSS .           FLOWLINE:   Source of sample
 RMS .OHMM           1.70:   Rm
 MST .F                71:   Rm Meas. temp.
 RMF .OHMM              1:   Rmf
 MFST.F                68:   Rmf Meas. temp.
 MFSS.               MEAS:   Source Rmf.
 RMC .OHMM           1.30:   Rmc
 MCST.F                66:   Rmc Meas. temp.
 MCSS.               MEAS:   Source Rmc.
 RMB .OHMM           0.85:   Rm. at BHT
 BHT .F               142:   BHT.
 TCS .HRS               6:   Time Circ. stopped
 MRT .F               142:   Maximum recorded temp.
 LUN .               6145:   Logging unit number
 LUL .              GLTTE:   Logging unit location
 ENGI.        GOULD-HOYER:   Recorded By
 WITN.        WOLF-CARTER:   Witnessed by
 ORIG.           5" PRINT:   Origin of data
 UWI .     49025102680000:   Unique Well ID
 DICO. A2D TECHNOLOGIES, INC.:   Digitizing Company
~OTHER INFORMATION
~A   DEPT      GRD       CALD       CORR       RHOB        SPR         ILD        ILM      RFOC       TEND       NPHI   
# ...
 3102.5000   121.2440     8.2526     0.0025     2.5319   -32.9593     6.6199     7.0696     8.6259    78.7108     0.2781
 3103.0000   122.2320     8.2547     0.0027     2.5411   -33.0182     6.7186     7.1173     8.3979    77.9611     0.2714
 3103.5000   123.2200     8.2568     0.0029     2.5504   -33.0015     6.7717     7.1231     8.4629    77.2115     0.2648
 3104.0000   123.4916     8.2593     0.0031     2.5427   -32.3327     6.8726     7.1782     8.6518    76.3494     0.2599
 3104.5000   121.8408     8.2464     0.0033     2.5337   -32.3218     6.9750     7.1825     8.7744    83.2959     0.2647
 3105.0000   121.6467     8.2484     0.0020     2.5345   -32.2605     6.8856     7.1600     8.6013    82.3793     0.2659
 3105.5000   122.8817     8.2505     0.0007     2.5384   -32.0396     6.7972     7.1376     8.2041    74.1499     0.2652
 3106.0000   124.8249     8.2523    -0.0066     2.5204   -32.0444     6.7103     6.9511     8.5434    73.4168     0.2658
 3106.5000   122.2226     8.2393    -0.0109     2.5085   -32.0442     6.6705     6.9084     8.9020    65.1874     0.2685
 3107.0000   124.1740     8.2417    -0.0197     2.4981   -32.1367     6.6769     6.9148     8.9074    56.9580     0.2738
 3107.5000   124.6844     8.2587    -0.0226     2.4891   -32.0624     6.6371     6.9200     8.9129    63.7211     0.2756
 3108.0000   125.4336     8.2457    -0.0208     2.4862   -32.2038     6.6450     6.9251     8.5380    70.4842     0.2716
 3108.5000   128.5709     8.2478    -0.0161     2.4968   -32.5454     6.6513     6.9302     7.7747    69.5679     0.2728
 3109.0000   129.7895     8.2499    -0.0129     2.5074   -32.8705     6.6566     6.9834     7.2608    76.5142     0.2686
 3109.5000   125.0543     8.2520    -0.0082     2.5179   -33.1437     6.6180     6.9886     6.8740    83.2773     0.2724
 3110.0000   124.1319     8.2391    -0.0035     2.5285   -33.0311     6.5770     6.9938     8.7581    82.3610     0.2769
 3110.5000   123.9259     8.2416    -0.0003     2.5324   -33.0389     6.5848     7.0474     9.0696    81.6279     0.2699
 3111.0000   124.9139     8.2282    -0.0001     2.5347   -33.0358     6.6374     7.1015     8.4714    80.8947     0.2624
 3111.5000   121.9582     8.2305    -0.0029     2.5273   -33.0047     6.6604     7.1598     8.3591    80.1616     0.2578
 3112.0000   119.7257     8.2328    -0.0087     2.5213   -32.9424     6.7384     7.3124     8.7190    79.4284     0.2611
 3112.5000   120.9607     8.2197    -0.0145     2.5154   -32.8820     6.8426     7.4708     8.7847    78.6953     0.2568
 3113.0000   120.2771     8.2369    -0.0143     2.5110   -32.8518     6.9928     7.6327     8.8510    77.9611     0.2574
 3113.5000   120.5486     8.2390    -0.0156     2.5065   -32.6255     7.1499     7.8521     8.9807    77.2114     0.2595
 3114.0000   124.4023     8.2256    -0.0124     2.4983   -32.3482     7.3034     7.9671     9.2376    75.7653     0.2639
 3114.5000   123.9493     8.2215    -0.0092     2.4947   -32.2400     7.2601     7.9730     9.2304    68.0834     0.2621
 3115.0000   124.4679     8.2003    -0.0060     2.5081   -32.2592     7.2683     7.9789     9.1206    67.3502     0.2584
 3115.5000   126.6499     8.2024    -0.0043     2.5212   -32.2172     7.3246     7.9849     9.1276    59.1208     0.2587
 3116.0000   129.1212     8.2045    -0.0041     2.5392   -32.2651     7.3836     7.9908     9.1963    58.3877     0.2602
 3116.5000   129.0971     8.2066    -0.0054     2.5302   -32.4353     7.5457     7.9968     9.2656    57.6545     0.2557
 3117.0000   129.1363     8.2087    -0.0067     2.5227   -32.4493     7.6581     8.0029     9.4001    56.9214     0.2583
 3117.5000   126.6546     8.2111    -0.0095     2.5213   -32.5909     7.6107     8.0101     9.4709    56.1882     0.2621
 3118.0000   122.0458     8.2132    -0.0063     2.5236   -32.8068     7.6193     8.0160     9.0283    55.4551     0.2576
 3118.5000   121.3540     8.2149    -0.0061     2.5247   -33.2113     7.5741     8.0220     8.7894    54.7220     0.2591
 3119.0000   121.1480     8.2173    -0.0074     2.5211   -33.5254     7.4774     8.0279     9.0422    53.9731     0.2506
 3119.5000   121.4278     8.2343    -0.0087     2.5186   -33.6179     7.4845     8.0339     9.4300    53.2234     0.2439
 3120.0000   121.4605     8.2208    -0.0100     2.5202   -33.6349     7.4400     8.0398     9.6998    52.3394     0.2427
 3120.5000   121.2463     8.2384    -0.0083     2.5256   -33.5320     7.3957     8.0455     9.5727    51.6063     0.2544
 3121.0000   122.7201     8.2254    -0.0081     2.5234   -33.4341     7.4045     8.0518     9.2537    65.8656     0.2659
 3121.5000   126.8126     8.2275    -0.0109     2.5205   -33.4351     7.4115     8.0577     8.9454    72.8118     0.2697
 3122.0000   125.1737     8.2296    -0.0137     2.5251   -33.4159     7.4186     8.0639     8.7661    87.0712     0.2618
 3122.5000   123.2961     8.2318    -0.0150     2.5281   -33.1605     7.4256     8.0712     9.2068    86.1550     0.2566
 3123.0000   121.1711     8.2342    -0.0133     2.5222   -33.0532     7.4319     8.0772     9.4702    77.9256     0.2599
 3123.5000   119.0192     8.2359    -0.0131     2.5208   -32.8338     7.4391     8.0832     9.6778    77.1924     0.2662
 3124.0000   117.6231     8.2383    -0.0124     2.5284   -32.5324     7.4468     8.0321     9.6040    68.9630     0.2755
 3124.5000   118.4205     8.2404    -0.0097     2.5292   -32.3978     7.4234     7.9827     9.2306    60.7197     0.2769
 3125.0000   120.8413     8.2424    -0.0065     2.5256   -32.0560     7.3370     7.9901     9.1083    59.9701     0.2739
 3125.5000   122.7845     8.2445    -0.0018     2.5301   -32.2280     7.3145     7.9961     8.8671    59.0842     0.2677
 3126.0000   124.7277     8.2465     0.0029     2.5453   -32.1337     7.3216     8.0020     8.7495    73.5267     0.2613
 3126.5000   127.3874     8.2484     0.0031     2.5559   -32.3418     7.3295     8.0079     8.8168    80.2898     0.2644
 3127.0000   125.2709     8.2506     0.0003     2.5387   -32.4344     7.3939     8.0517     9.1318    87.0529     0.2698
 3127.5000   123.6320     8.2527    -0.0025     2.5335   -32.6307     7.4466     8.0756     9.3284   101.1292     0.2773
 3128.0000   122.4708     8.2547    -0.0023     2.5283   -32.7615     7.5055     8.0828     9.5952   115.3885     0.2926
 3128.5000   122.7424     8.2516    -0.0051     2.5231   -33.2247     7.5126     8.0888     9.6675   114.6554     0.2992
 3129.0000   123.4916     8.2439    -0.0064     2.5163   -33.4921     7.4078     8.0948     9.6735   113.9222     0.3031
 3129.5000   123.0215     8.2379    -0.0017     2.5120   -33.6187     7.3714     8.0437     9.5466   113.1891     0.3033
 3130.0000   122.1243     8.2186     0.0015     2.5174   -33.3891     7.3277     7.9958     9.4785   104.4529     0.2952
 3130.5000   124.0675     8.2207     0.0047     2.5250   -33.3946     7.2328     7.9452     9.2995    95.5323     0.2852
 3131.0000   121.2428     8.2224     0.0079     2.5265   -33.1773     7.1898     7.8421     9.4344    80.8215     0.2819
 3131.5000   121.5144     8.2248     0.0081     2.5213   -32.9339     7.1983     7.7417     9.4401    72.5921     0.2794
 3132.0000   122.7412     8.2268     0.0083     2.5267   -32.7015     7.2052     7.6943     9.3150    71.8590     0.2764
 3132.5000   125.8785     8.2289     0.0055     2.5185   -32.4701     7.1623     7.5911     9.0683    71.1259     0.2724
 3133.0000   124.0008     8.2308     0.0020     2.5118   -32.2384     7.1691     7.4960     8.7059    70.3927     0.2703
 3133.5000   123.0701     8.2180    -0.0041     2.5089   -32.0079     7.0881     7.4500     8.6464    69.6596     0.2775
 3134.0000   123.3499     8.2200    -0.0080     2.5105   -31.8419     7.0840     7.4569     8.7165    68.9264     0.2797
 3134.5000   125.0543     8.2221    -0.0076     2.5181   -31.8435     7.0912     7.4624     8.5960    68.1933     0.2660
 3135.0000   127.2364     8.2242    -0.0058     2.5159   -31.8467     7.0981     7.4680     8.4311    74.9626     0.2654
 3135.5000   127.2692     8.2263    -0.0030     2.5122   -31.9584     7.0552     7.4735     8.5548    74.2130     0.2705
