~VERSION INFORMATION
 VERS.                2.0:   CWLS LOG ASCII STANDARD - VERSION 2.0
 WRAP.                 NO:   ONE LINE PER DEPTH STEP
~WELL INFORMATION
#MNEM.UNIT      DATA TYPE    INFORMATION
#----------   ------------   ------------------------------
 STRT.F          190.0000:   START DEPTH
 STOP.F         2998.5000:   STOP DEPTH
 STEP.F            0.5000:   STEP LENGTH
 NULL.          -999.2500:   NO VALUE
 COMP.    FENIX & SCISSON:   COMPANY
 WELL.   FENIX "A" #52-28:   WELL
 FLD .        TEAPOT DOME:   FIELD
 LOC .      S28 T39N R78W:   LOCATION
 CNTY.            NATRONA:   COUNTY
 STAT.            WYOMING:   STATE
 CTRY. UNITED STATES OF AMERICA:   COUNTRY
 SRVC.           BIRDWELL:   SERVICE COMPANY
 DATE.        14-AUG-1977:   LOGDATE
 API .     49025104130000:   API NUMBER
~CURVE INFORMATION
#MNEM.UNIT       API CODE    CURVE DESCRIPTION
#----------   ------------   ------------------------------
 DEPT.F                  :   
 SPR .MV     05 010 01 00:   SPONTANEOUS POTENTIAL FROM RES.
 SN  .OHMM   05 040 16 00:   SHORT NORMAL 16"
 ILD .OHMM   05 120 46 00:   INDUCTION LOG DEEP
 GRD .GAPI   45 310 01 00:   GAMMA RAY FROM DENSITY LOG
 CALD.IN     45 280 60 00:   CALIPER FROM DENSITY LOG
 RHOB.G/C3   45 350 01 00:   BULK DENSITY
 CORR.G/C3   45 356 01 00:   DENSITY CORRECTION
~PARAMETER INFORMATION
#MNEM.UNIT          VALUE    DESCRIPTION
#----------   ------------   ------------------------------
 EKB .F         5026.0000:   Kelly bushing
 EGL .F         5016.0000:   Ground level
 EDF .F            0.0000:   Drilling floor
 TD  .F         3000.0000:   Total depth
 DATE.        14-AUG-1977:   Date logged
 CLNT.            A2DTECH:   Client Code
 SL  . 990' FNL & 2310' FEL:   Surface Location
 PD  .                 GL:   Permanent Datum
 EPD .F              5016:   Elevation Permanent Datum
 LMF .                 KB:   Log Measured From
 DMF .                 KB:   Drilling Measured From
 DAPD.F                10:   Feet Above Permanent Datum
 DD  .F              3000:   Depth driller
 DL  .F              3000:   Depth logger
 BLI .F              2994:   Bottom log interval
 TLI .F               214:   Top log interval
 CS1 .IN            8.625:   Casing size
 CBD1.      8.625" @ 214':   Casing driller 1
 CBL1.F               212:   Casing logger 1
 BS1 .IN            7.875:   Bit size
 BSD1.F              3000:   Depth drilled with bit1
 DFT .                KCL:   Type fluid in hole
 DFD .                8.8:   Density
 DFV .                 30:   Viscosity
 DFPH.               10.5:   pH
 DFL .               10.4:   Fluid loss
 MSS .           FLOWLINE:   Source of sample
 RMS .OHMM           0.13:   Rm
 MST .F                82:   Rm Meas. temp.
 RMF .OHMM           0.12:   Rmf
 MFST.F                72:   Rmf Meas. temp.
 RMC .OHMM           0.16:   Rmc
 MCST.F                72:   Rmc Meas. temp.
 MFSS.               MEAS:   Source Rmf.
 MCSS.               MEAS:   Source Rmc.
 TCS .HRS               4:   Time Circ. stopped
 LUN .               2958:   Logging unit number
 LUL .             CASPER:   Logging unit location
 ENGI.                LAW:   Recorded By
 WITN.         PETTINGILL:   Witnessed by
 ORIG.           5" PRINT:   Origin of data
 UWI .     49025104130000:   Unique Well ID
 DICO. A2D TECHNOLOGIES, INC.:   Digitizing Company
~OTHER INFORMATION
~A   DEPT      SPR         SN        ILD         GRD      CALD       RHOB       CORR   
# ...
 2419.5000   -74.9040     5.4820     6.6940   129.6630     9.0280     2.5380     0.0100
 2420.0000   -75.1650     5.4820     6.6510   130.9180     9.0260     2.5370     0.0120
 2420.5000   -75.6100     5.4820     6.5960   127.5320     9.0240     2.5420     0.0180
 2421.0000   -76.0140     5.4820     6.5290   128.4800     9.0220     2.5530     0.0230
 2421.5000   -76.3470     5.4810     6.4540   131.8730     9.0200     2.5580     0.0290
 2422.0000   -76.8310     5.4810     6.3800   135.1130     9.0180     2.5660     0.0310
 2422.5000   -77.4000     5.4670     6.3050   139.4030     9.0160     2.5710     0.0330
 2423.0000   -77.9670     5.4320     6.2310   141.4100     9.0140     2.5760     0.0340
 2423.5000   -78.2920     5.3980     6.1560   138.3270     9.0120     2.5780     0.0300
 2424.0000   -78.4280     5.3640     6.0810   137.1330     9.0100     2.5740     0.0240
 2424.5000   -78.3610     5.3300     6.0280   136.2730     9.0080     2.5680     0.0230
 2425.0000   -78.2910     5.2960     5.9840   130.4450     9.0060     2.5650     0.0230
 2425.5000   -78.1250     5.2610     5.9400   131.4580     9.0040     2.5650     0.0230
 2426.0000   -77.6740     5.2270     5.8960   132.8040     9.0020     2.5650     0.0210
 2426.5000   -77.5470     5.1910     5.8520   132.7020     9.0040     2.5580     0.0150
 2427.0000   -77.3490     5.1740     5.8080   134.4700     9.0060     2.5460     0.0150
 2427.5000   -77.1490     5.1560     5.7490   133.4100     9.0080     2.5450     0.0180
 2428.0000   -76.5470     5.1370     5.6760   135.4150     9.0110     2.5480     0.0190
 2428.5000   -75.6550     5.1190     5.6040   137.2930     9.0130     2.5520     0.0180
 2429.0000   -74.6970     5.1010     5.5320   137.5680     9.0150     2.5530     0.0170
 2429.5000   -73.8020     5.0920     5.4340   136.7870     9.0170     2.5520     0.0180
 2430.0000   -72.8860     5.0850     5.4430   136.0730     9.0200     2.5540     0.0210
 2430.5000   -71.9630     5.0790     5.4610   135.6290     9.0220     2.5570     0.0230
 2431.0000   -71.0350     5.0720     5.4790   136.7510     9.0240     2.5560     0.0260
 2431.5000   -70.1030     5.0650     5.4970   138.0170     9.0270     2.5550     0.0280
 2432.0000   -69.8220     5.0590     5.5150   139.9020     9.0290     2.5550     0.0300
 2432.5000   -69.8640     5.0520     5.5330   142.0250     9.0310     2.5580     0.0270
 2433.0000   -69.9600     5.0460     5.5510   144.1580     9.0330     2.5590     0.0240
 2433.5000   -70.2730     5.0390     5.5700   145.0630     9.0360     2.5580     0.0250
 2434.0000   -70.6880     5.0320     5.5820   143.7270     9.0380     2.5610     0.0260
 2434.5000   -71.1060     5.0260     5.5470   138.5460     9.0400     2.5620     0.0230
 2435.0000   -71.5240     5.0190     5.5210   136.5210     9.0430     2.5590     0.0200
 2435.5000   -71.9420     5.0120     5.4940   138.8070     9.0450     2.5580     0.0200
 2436.0000   -72.3620     5.0050     5.4680   136.2000     9.0470     2.5560     0.0190
 2436.5000   -72.7080     5.0140     5.4410   137.6930     9.0490     2.5490     0.0150
 2437.0000   -73.0000     5.0280     5.4150   134.9260     9.0520     2.5470     0.0140
 2437.5000   -73.2910     5.0430     5.3830   132.9100     9.0540     2.5490     0.0190
 2438.0000   -73.5310     5.0570     5.4150   135.3430     9.0560     2.5590     0.0260
 2438.5000   -73.5240     5.0720     5.4550   136.6850     9.0590     2.5710     0.0320
 2439.0000   -73.5230     5.0860     5.4960   134.5800     9.0610     2.5760     0.0310
 2439.5000   -73.5240     5.1020     5.5360   135.2340     9.0630     2.5750     0.0310
 2440.0000   -73.5250     5.1200     5.5760   133.2150     9.0650     2.5730     0.0290
 2440.5000   -73.6780     5.1380     5.7300   129.6990     9.0680     2.5700     0.0260
 2441.0000   -74.0050     5.2170     5.9010   131.3730     9.0700     2.5580     0.0230
 2441.5000   -74.3430     5.3260     6.0720   131.5060     9.0720     2.5590     0.0240
 2442.0000   -75.1250     5.4350     6.2600   131.3120     9.0750     2.5610     0.0310
 2442.5000   -76.0630     5.5440     6.5910   133.0460     9.0770     2.5830     0.0360
 2443.0000   -77.1820     5.6520     6.9420   128.7290     9.0790     2.5850     0.0370
 2443.5000   -77.9810     5.7890     7.0070   123.2700     9.0810     2.5900     0.0360
 2444.0000   -78.7000     5.7850     7.1330   121.6020     9.0820     2.5930     0.0340
 2444.5000   -79.4140     5.7800     7.1200   123.2130     9.0830     2.5850     0.0200
 2445.0000   -79.7930     5.7750     7.0960   127.9810     9.0850     2.5640     0.0160
 2445.5000   -80.0820     5.7700     7.0710   129.4700     9.0860     2.5600     0.0200
 2446.0000   -80.2320     5.7660     7.0470   132.7950     9.0870     2.5750     0.0240
 2446.5000   -80.3740     5.7610     7.0230   134.3650     9.0880     2.5740     0.0250
 2447.0000   -80.8230     5.7560     6.9990   131.7090     9.0890     2.5720     0.0240
 2447.5000   -81.2980     5.7510     6.9740   128.5960     9.0910     2.5700     0.0230
 2448.0000   -81.9900     5.7460     6.9500   131.5980     9.0920     2.5710     0.0230
 2448.5000   -82.6790     5.7420     6.9280   134.4490     9.0930     2.5740     0.0210
 2449.0000   -82.7390     5.7370     6.9070   134.2250     9.0940     2.5650     0.0180
 2449.5000   -82.5530     5.7290     6.8860   137.7850     9.0950     2.5560     0.0160
 2450.0000   -81.9130     5.7190     6.8640   138.7980     9.0970     2.5460     0.0140
 2450.5000   -81.3760     5.7080     6.8430   134.7720     9.0980     2.5470     0.0180
 2451.0000   -81.3480     5.6980     6.8220   134.8600     9.0990     2.5570     0.0240
 2451.5000   -81.3040     5.6880     6.8010   134.3510     9.1000     2.5660     0.0320
 2452.0000   -81.2590     5.6770     6.7800   130.5860     9.1010     2.5740     0.0310
 2452.5000   -81.2140     5.6670     6.7590   130.4550     9.1030     2.5730     0.0190
 2453.0000   -81.1690     5.6560     6.7380   131.6670     9.1040     2.5570     0.0220
 2453.5000   -81.1240     5.6460     6.7170   131.4960     9.1050     2.5620     0.0280
 2454.0000   -81.0800     5.6360     6.6940   129.6110     9.1060     2.5710     0.0320
 2454.5000   -81.0350     5.6280     6.6940   132.0730     9.1070     2.5720     0.0250
 2455.0000   -80.9660     5.6200     6.6940   132.2450     9.1090     2.5620     0.0230
 2455.5000   -80.6730     5.6130     6.6940   130.6920     9.1100     2.5580     0.0240
 2456.0000   -80.4140     5.6060     6.6940   132.9470     9.1110     2.5590     0.0250
 2456.5000   -80.4120     5.5990     6.6940   133.2820     9.1120     2.5590     0.0230
 2457.0000   -80.4130     5.5920     6.6940   132.7200     9.1130     2.5560     0.0220
 2457.5000   -80.4130     5.5850     6.6940   133.8490     9.1150     2.5590     0.0260
 2458.0000   -80.4120     5.5770     6.7170   133.0870     9.1160     2.5650     0.0300
 2458.5000   -80.5100     5.5700     6.7470   130.4710     9.1170     2.5650     0.0260
 2459.0000   -80.9070     5.5630     6.7770   132.9620     9.1180     2.5580     0.0190
 2459.5000   -81.9270     5.5560     6.8070   134.8690     9.1190     2.5490     0.0150
 2460.0000   -82.9140     5.5490     6.8370   132.8820     9.1180     2.5400     0.0120
 2460.5000   -83.4140     5.5420     6.8660   130.9870     9.1080     2.5390     0.0180
 2461.0000   -83.5240     5.5340     6.8790   131.8000     9.1000     2.5520     0.0240
 2461.5000   -83.8050     5.5270     6.8790   134.6750     9.0920     2.5650     0.0240
 2462.0000   -84.6220     5.5200     6.8790   135.5780     9.0820     2.5660     0.0240
 2462.5000   -85.1470     5.5130     6.8790   131.0620     9.1020     2.5720     0.0280
 2463.0000   -85.1370     5.5060     6.8790   124.0610     9.1290     2.5750     0.0320
 2463.5000   -85.1700     5.4990     6.8790   123.6640     9.1740     2.5750     0.0320
 2464.0000   -85.3810     5.4910     6.7720   126.4310     9.2170     2.5780     0.0290
 2464.5000   -85.5910     5.4840     6.6650   130.2990     9.2210     2.5770     0.0260
