~VERSION INFORMATION
 VERS.                2.0:   CWLS LOG ASCII STANDARD - VERSION 2.0
 WRAP.                 NO:   ONE LINE PER DEPTH STEP
~WELL INFORMATION
#MNEM.UNIT      DATA TYPE    INFORMATION
#----------   ------------   ------------------------------
 STRT.F           10.0000:   START DEPTH
 STOP.F         2950.0000:   STOP DEPTH
 STEP.F            0.5000:   STEP LENGTH
 NULL.          -999.2500:   NO VALUE
 COMP.    FENIX & SCISSON:   COMPANY
 WELL.   PENIX SHX #11-23:   WELL
 FLD .  TEAPOT DOME NPR-3:   FIELD
 LOC .      S23 T38N R78W:   LOCATION
 CNTY.            NATRONA:   COUNTY
 STAT.            WYOMING:   STATE
 CTRY. UNITED STATES OF AMERICA:   COUNTRY
 SRVC.           BIRDWELL:   SERVICE COMPANY
 DATE.        19-MAY-1979:   LOGDATE
 API .     49025107790000:   API NUMBER
~CURVE INFORMATION
#MNEM.UNIT       API CODE    CURVE DESCRIPTION
#----------   ------------   ------------------------------
 DEPT.F                  :   
 ILD .OHMM   05 120 46 00:   INDUCTION LOG DEEP
 SN  .OHMM   05 040 16 00:   SHORT NORMAL 16"
 CALD.IN     45 280 60 00:   CALIPER FROM DENSITY LOG
 GRD .GAPI   45 310 01 00:   GAMMA RAY FROM DENSITY LOG
 RHOB.G/C3   45 350 01 00:   BULK DENSITY
 CORR.G/C3   45 356 01 00:   DENSITY CORRECTION
~PARAMETER INFORMATION
#MNEM.UNIT          VALUE    DESCRIPTION
#----------   ------------   ------------------------------
 EKB .F         5275.0000:   Kelly bushing
 EGL .F         5265.0000:   Ground level
 EDF .F            0.0000:   Drilling floor
 TD  .F         2995.0000:   Total depth
 DATE.        19-MAY-1979:   Date logged
 CLNT.            A2DTECH:   Client Code
 SL  . 337' FNL & 237' FWL:   Surface Location
 PD  .                 GL:   Permanent Datum
 EPD .F              5265:   Elevation Permanent Datum
 LMF .                 KB:   Log Measured From
 DMF .                 KB:   Drilling Measured From
 DAPD.F                10:   Feet Above Permanent Datum
 DD  .F              2995:   Depth driller
 DL  .F              2950:   Depth logger
 BLI .F              2944:   Bottom log interval
 TLI .F              1050:   Top log interval
 CS1 .IN            9.625:   Casing size
 CBD1.     9.625" @ 2050':   Casing driller 1
 CBL1.F              1050:   Casing logger 1
 BS1 .IN             8.75:   Bit size
 BSD1.F              2995:   Depth drilled with bit1
 DFT . AIR/FORRATION FLUIDS:   Type fluid in hole
 TCS .HRS              12:   Time Circ. stopped
 LUN .               3029:   Logging unit number
 LUL .             CASPER:   Logging unit location
 ENGI.         B. ROLLINS:   Recorded By
 ORIG.         2.5" PRINT:   Origin of data
 UWI .     49025107790000:   Unique Well ID
 DICO. A2D TECHNOLOGIES, INC.:   Digitizing Company
~OTHER INFORMATION
~A   DEPT      ILD         SN       CALD        GRD       RHOB         CORR 
# ...
  218.0000  -999.2500  -999.2500    12.1460    81.0970     2.4630     0.0400
  218.5000  -999.2500  -999.2500    12.1470    79.9460     2.4370     0.0310
  219.0000  -999.2500  -999.2500    12.1470    81.9140     2.4250     0.0270
  219.5000  -999.2500  -999.2500    12.1470    82.1300     2.4210     0.0240
  220.0000  -999.2500  -999.2500    12.1470    82.5920     2.4160     0.0190
  220.5000  -999.2500  -999.2500    12.1470    81.6490     2.4160     0.0130
  221.0000  -999.2500  -999.2500    12.1470    79.9810     2.4220     0.0070
  221.5000  -999.2500  -999.2500    12.1470    77.9800     2.4310     0.0140
  222.0000  -999.2500  -999.2500    12.1470    79.5770     2.4470     0.0240
  222.5000  -999.2500  -999.2500    12.1470    89.1540     2.4540     0.0340
  223.0000  -999.2500  -999.2500    12.1470    89.8490     2.4390     0.0380
  223.5000  -999.2500  -999.2500    12.1470    90.9470     2.4300     0.0370
  224.0000  -999.2500  -999.2500    12.1470    89.4460     2.4270     0.0340
  224.5000  -999.2500  -999.2500    12.1470    88.5590     2.4150     0.0310
  225.0000  -999.2500  -999.2500    12.1470    88.0190     2.4110     0.0280
  225.5000  -999.2500  -999.2500    12.1470    86.1960     2.4120     0.0260
  226.0000  -999.2500  -999.2500    12.1470    84.7530     2.4120     0.0230
  226.5000  -999.2500  -999.2500    12.1470    79.9990     2.4130     0.0260
  227.0000  -999.2500  -999.2500    12.1470    79.6600     2.4180     0.0300
  227.5000  -999.2500  -999.2500    12.1470    79.1440     2.4220     0.0340
  228.0000  -999.2500  -999.2500    12.1470    80.9350     2.4260     0.0380
  228.5000  -999.2500  -999.2500    12.1470    84.8080     2.4310     0.0420
  229.0000  -999.2500  -999.2500    12.1470    83.9080     2.4300     0.0460
  229.5000  -999.2500  -999.2500    12.1470    85.9920     2.4270     0.0440
  230.0000  -999.2500  -999.2500    12.1470    86.5390     2.4240     0.0390
  230.5000  -999.2500  -999.2500    12.1470    80.3740     2.4300     0.0400
  231.0000  -999.2500  -999.2500    12.1470    81.5530     2.4400     0.0460
  231.5000  -999.2500  -999.2500    12.1470    82.4640     2.4410     0.0390
  232.0000  -999.2500  -999.2500    12.1470    82.6610     2.4310     0.0270
  232.5000  -999.2500  -999.2500    12.1470    81.6030     2.4280     0.0250
  233.0000  -999.2500  -999.2500    12.1470    83.5770     2.4240     0.0230
  233.5000  -999.2500  -999.2500    12.1470    85.1590     2.4150     0.0210
  234.0000  -999.2500  -999.2500    12.1470    86.1590     2.4080     0.0190
  234.5000  -999.2500  -999.2500    12.1470    84.2910     2.4100     0.0270
  235.0000  -999.2500  -999.2500    12.1470    85.5580     2.4250     0.0380
  235.5000  -999.2500  -999.2500    12.1470    87.2740     2.4380     0.0490
  236.0000  -999.2500  -999.2500    12.1470    92.5440     2.4530     0.0610
  236.5000  -999.2500  -999.2500    12.1470    90.9720     2.4470     0.0640
  237.0000  -999.2500  -999.2500    12.1470    90.8440     2.4370     0.0520
  237.5000  -999.2500  -999.2500    12.1470    91.6370     2.4330     0.0430
  238.0000  -999.2500  -999.2500    12.1470    85.7340     2.4440     0.0320
  238.5000  -999.2500  -999.2500    12.1470    87.4470     2.4610     0.0380
  239.0000  -999.2500  -999.2500    12.1470    92.0960     2.4790     0.0500
  239.5000  -999.2500  -999.2500    12.1470    93.0160     2.4690     0.0530
  240.0000  -999.2500  -999.2500    12.1470    91.2040     2.4510     0.0430
  240.5000  -999.2500  -999.2500    12.1470    85.8180     2.4320     0.0360
  241.0000  -999.2500  -999.2500    12.1470    87.7130     2.4260     0.0270
  241.5000  -999.2500  -999.2500    12.1470    86.0610     2.4280     0.0310
  242.0000  -999.2500  -999.2500    12.1470    84.4780     2.4300     0.0380
  242.5000  -999.2500  -999.2500    12.1470    83.2650     2.4430     0.0500
  243.0000  -999.2500  -999.2500    12.1470    82.1250     2.4570     0.0650
  243.5000  -999.2500  -999.2500    12.1470    81.7060     2.4680     0.0780
  244.0000  -999.2500  -999.2500    12.1470    85.5110     2.4720     0.0940
  244.5000  -999.2500  -999.2500    12.1470    89.1680     2.4630     0.0890
  245.0000  -999.2500  -999.2500    12.1470    89.3330     2.4400     0.0830
  245.5000  -999.2500  -999.2500    12.1470    89.8470     2.4150     0.0610
  246.0000  -999.2500  -999.2500    12.1470    86.3130     2.3980     0.0290
  246.5000  -999.2500  -999.2500    12.1470    84.5460     2.4130     0.0170
  247.0000  -999.2500  -999.2500    12.1470    88.7990     2.4440     0.0290
  247.5000  -999.2500  -999.2500    12.1470    92.2400     2.4570     0.0380
  248.0000  -999.2500  -999.2500    12.1470    94.1440     2.4560     0.0350
  248.5000  -999.2500  -999.2500    12.1470    92.9870     2.4450     0.0280
  249.0000  -999.2500  -999.2500    12.1470    94.2550     2.4350     0.0220
  249.5000  -999.2500  -999.2500    12.1470    96.0870     2.4290     0.0160
  250.0000  -999.2500  -999.2500    12.1470    94.4640     2.4270     0.0190
  250.5000  -999.2500  -999.2500    12.1470    88.9300     2.4410     0.0280
  251.0000  -999.2500  -999.2500    12.1470    91.8350     2.4500     0.0340
  251.5000  -999.2500  -999.2500    12.1470    93.4450     2.4490     0.0340
  252.0000  -999.2500  -999.2500    12.1470    95.2960     2.4460     0.0350
  252.5000  -999.2500  -999.2500    12.1470    94.7650     2.4430     0.0340
  253.0000  -999.2500  -999.2500    12.1470    93.8490     2.4420     0.0340
  253.5000  -999.2500  -999.2500    12.1470    95.9380     2.4430     0.0320
  254.0000  -999.2500  -999.2500    12.1470    96.5350     2.4440     0.0310
  254.5000  -999.2500  -999.2500    12.1470    92.5100     2.4460     0.0290
  255.0000  -999.2500  -999.2500    12.1470    93.5010     2.4440     0.0270
  255.5000  -999.2500  -999.2500    12.1470    95.7050     2.4380     0.0250
  256.0000  -999.2500  -999.2500    12.1470    98.1540     2.4330     0.0230
  256.5000  -999.2500  -999.2500    12.1470    98.7420     2.4400     0.0230
  257.0000  -999.2500  -999.2500    12.1470    99.4520     2.4480     0.0330
  257.5000  -999.2500  -999.2500    12.1470    97.5540     2.4690     0.0420
  258.0000  -999.2500  -999.2500    12.1470    93.4720     2.4790     0.0510
  258.5000  -999.2500  -999.2500    12.1470    90.0170     2.4690     0.0550
  259.0000  -999.2500  -999.2500    12.1470    90.1160     2.4610     0.0480
  259.5000  -999.2500  -999.2500    12.1470    90.4580     2.4560     0.0420
  260.0000  -999.2500  -999.2500    12.1470    90.7670     2.4500     0.0350
  260.5000  -999.2500  -999.2500    12.1470    92.1410     2.4470     0.0290
  261.0000  -999.2500  -999.2500    12.1470    92.9680     2.4360     0.0230
  261.5000  -999.2500  -999.2500    12.1470    90.9390     2.4240     0.0170
  262.0000  -999.2500  -999.2500    12.1470    94.1010     2.4170     0.0130
  262.5000  -999.2500  -999.2500    12.1470    98.0270     2.4230     0.0200
  263.0000  -999.2500  -999.2500    12.1470    99.7290     2.4320     0.0280
  263.5000  -999.2500  -999.2500    12.1470    98.8090     2.4430     0.0330
  264.0000  -999.2500  -999.2500    12.1470    98.3060     2.4460     0.0360
  264.5000  -999.2500  -999.2500    12.1470    93.5550     2.4450     0.0390
  265.0000  -999.2500  -999.2500    12.1470    89.3120     2.4450     0.0420
  265.5000  -999.2500  -999.2500    12.1470    92.3530     2.4530     0.0450
  266.0000  -999.2500  -999.2500    12.1470    93.9350     2.4620     0.0490
  266.5000  -999.2500  -999.2500    12.1470    92.4180     2.4640     0.0480
  267.0000  -999.2500  -999.2500    12.1470    93.6640     2.4620     0.0380
  267.5000  -999.2500  -999.2500    12.1470    88.8060     2.4620     0.0360
  268.0000  -999.2500  -999.2500    12.1470    84.9480     2.4660     0.0390
  268.5000  -999.2500  -999.2500    12.1470    87.5820     2.4720     0.0410
  269.0000  -999.2500  -999.2500    12.1470    90.7400     2.4700     0.0420
  269.5000  -999.2500  -999.2500    12.1470    94.1890     2.4580     0.0400
