~VERSION INFORMATION
 VERS.                2.0:   CWLS LOG ASCII STANDARD - VERSION 2.0
 WRAP.                 NO:   ONE LINE PER DEPTH STEP
~WELL INFORMATION
#MNEM.UNIT      DATA TYPE    INFORMATION
#----------   ------------   ------------------------------
 STRT.F          620.0000:   START DEPTH
 STOP.F         3209.0000:   STOP DEPTH
 STEP.F            0.5000:   STEP LENGTH
 NULL.          -999.2500:   NO VALUE
 COMP. FENIX & SCISSON - US NAVY:   COMPANY
 WELL.   FENIX "A" #23-33:   WELL
 FLD .             NPR #3:   FIELD
 LOC .      S33 T39N R78W:   LOCATION
 CNTY.            NATRONA:   COUNTY
 STAT.            WYOMING:   STATE
 CTRY. UNITED STATES OF AMERICA:   COUNTRY
 SRVC.              WELEX:   SERVICE COMPANY
 DATE.        26-MAR-1977:   LOGDATE
 API .     49025103250000:   API NUMBER
~CURVE INFORMATION
#MNEM.UNIT       API CODE    CURVE DESCRIPTION
#----------   ------------   ------------------------------
 DEPT.F                  :   
 GRD .GAPI   45 310 01 00:   GAMMA RAY FROM DENSITY LOG
 CALD.IN     45 280 60 00:   CALIPER FROM DENSITY LOG
 CORR.G/C3   45 356 01 00:   DENSITY CORRECTION
 RHOB.G/C3   45 350 01 00:   BULK DENSITY
 SPR .MV     07 010 01 00:   SPONTANEOUS POTENTIAL
 ILD .OHMM   07 120 46 00:   DEEP INDUCTION RESISTIVITY
 ILM .OHMM   07 120 44 00:   INDUCTION LOG MEDIUM RESISTIVITY
 SGRD.OHMM   07 220 05 00:   SHALLOW SHORT GUARD RESISTIVITY
~PARAMETER INFORMATION
#MNEM.UNIT          VALUE    DESCRIPTION
#----------   ------------   ------------------------------
 EKB .F         5183.0000:   Kelly bushing
 EGL .F         5172.0000:   Ground level
 TD  .F         3213.0000:   Total depth
 CLNT.            A2DTECH:   Client Code
 SL  . 900' FWL & 1650' FNL:   Surface Location
 PD  .                 GL:   Permanent Datum
 EPD .F              5172:   Elevation Permanent Datum
 LMF .                 KB:   Log Measured From
 DMF .                 KB:   Drilling Measured From
 DAPD.F                11:   Feet Above Permanent Datum
 DATE.        26-MAR-1977:   Date Logged [DD-MMM-YYYY]
 DD  .F              3210:   Depth driller
 DL  .F              3213:   Depth logger
 BLI .F              3211:   Bottom log interval
 TLI .F               625:   Top log interval
 CS1 .IN            8.625:   Casing size
 CBD1.      8.625" @ 633':   Casing driller 1
 CBL1.F               635:   Casing logger 1
 BS1 .IN            7.875:   Bit size
 BSD1.F              3210:   Depth drilled with bit1
 DFT .            KCL MUD:   Type fluid in hole
 DFD .                9.5:   Density
 DFV .                 34:   Viscosity
 DFPH.                8.5:   pH
 DFL .                 14:   Fluid loss
 MSS .           FLOWLINE:   Source of sample
 RMS .OHMM           0.34:   Rm
 MST .F                86:   Rm Meas. temp.
 RMF .OHMM           0.25:   Rmf
 MFST.F                86:   Rmf Meas. temp.
 MFSS.            FANN KL:   Source Rmf.
 RMC .OHMM           0.55:   Rmc
 MCST.F                86:   Rmc Meas. temp.
 MCSS.            FANN KL:   Source Rmc.
 RMB .OHMM           0.31:   Rm. at BHT
 BHT .F                92:   BHT.
 TCS .HRS             2.5:   Time Circ. stopped
 MRT .F                92:   Maximum recorded temp.
 LUN .               8611:   Logging unit number
 LUL .             CASPER:   Logging unit location
 ENGI.            C. DOAK:   Recorded By
 WITN.            K. JAPP:   Witnessed by
 ORIG.           5" PRINT:   Origin of data
 UWI .     49025103250000:   Unique Well ID
 DICO. A2D TECHNOLOGIES, INC.:   Digitizing Company
~OTHER INFORMATION
~A   DEPT       GRD        CALD      CORR        RHOB      SPR        ILD        ILM       SGRD   
# ...
 1632.5000    76.2184    10.3206     0.0224     2.5256   -43.4242     6.2023     7.7614     8.1258
 1633.0000    75.4920    10.3218     0.0255     2.5286   -43.4080     6.2072     7.8189     8.1296
 1633.5000    74.4657    10.3078     0.0226     2.5197   -43.2445     6.2112     7.9312     8.3031
 1634.0000    73.4395    10.3093     0.0197     2.5085   -43.2251     6.2148     8.0452     8.3644
 1634.5000    73.7485    10.2953     0.0168     2.5026   -43.2093     6.2188     8.0492     8.4842
 1635.0000    75.2571    10.2968     0.0200     2.5064   -43.0461     6.2232     8.1089     8.3723
 1635.5000    75.7286    10.2831     0.0231     2.5127   -43.0302     6.2272     8.0022     8.2837
 1636.0000    76.3109    10.2694     0.0277     2.5196   -43.1616     6.2311     7.8427     8.1528
 1636.5000    77.0650    10.2706     0.0263     2.5240   -43.1473     6.2356     7.8466     8.1186
 1637.0000    77.0774    10.2718     0.0234     2.5256   -43.2810     6.2392     7.7562     7.9719
 1637.5000    76.9413    10.2732     0.0220     2.5226   -43.2612     6.2295     7.6942     7.9428
 1638.0000    76.2118    10.3041     0.0221     2.5242   -43.2453     6.2045     7.7522     7.8921
 1638.5000    75.3339    10.3081     0.0238     2.5280   -43.2294     6.2090     7.8635     7.9513
 1639.0000    73.8626    10.3361     0.0269     2.5326   -43.2135     6.2126     7.8675     8.0100
 1639.5000    74.1716    10.3372     0.0300     2.5365   -43.1973     6.2170     7.9376     8.1248
 1640.0000    75.2226    10.3532     0.0331     2.5388   -43.1811     6.1786     8.0397     8.1848
 1640.5000    75.8284    10.3692     0.0348     2.5419   -43.0145     6.2253     8.0437     8.1887
 1641.0000    75.6923    10.4000     0.0349     2.5465   -42.8542     6.2720     8.0478     8.2491
 1641.5000    75.2626    10.4309     0.0350     2.5488   -42.8353     6.2764     8.0519     8.3100
 1642.0000    74.5331    10.4469     0.0336     2.5441   -42.6723     6.2995     8.1115     8.3713
 1642.5000    73.9520    10.4629     0.0337     2.5335   -42.6564     6.3464     8.1156     8.3753
 1643.0000    73.6645    10.4641     0.0293     2.5273   -42.6421     6.4200     8.1198     8.4371
 1643.5000    73.8283    10.4655     0.0264     2.5251   -42.6246     6.4685     8.1633     8.4411
 1644.0000    74.4341    10.4667     0.0235     2.5207   -42.6097     6.5338     8.1851     8.4726
 1644.5000    74.8915    10.4678     0.0221     2.5170   -42.5935     6.5740     8.2450     8.5074
 1645.0000    74.9038    10.4690     0.0192     2.5163   -42.7242     6.6633     8.2493     8.5419
 1645.5000    74.7678    10.4550     0.0193     2.5187   -42.7083     6.6668     8.2541     8.5744
 1646.0000    74.6317    10.4514     0.0194     2.5228   -42.6922     6.6712     8.2583     8.5785
 1646.5000    74.3473    10.4425     0.0195     2.5235   -42.8238     6.7223     8.2625     8.5827
 1647.0000    73.9176    10.4440     0.0197     2.5212   -42.9512     6.7266     8.2663     8.5875
 1647.5000    73.9300    10.4451     0.0228     2.5197   -42.9353     6.7844     8.2708     8.5909
 1648.0000    74.0907    10.4463     0.0244     2.5221   -43.0667     6.8288     8.2750     8.5357
 1648.5000    74.2514    10.4475     0.0275     2.5270   -43.0508     6.8608     8.2792     8.5408
 1649.0000    74.2637    10.4487     0.0307     2.5350   -43.0368     6.8847     8.2834     8.5448
 1649.5000    74.2760    10.4649     0.0323     2.5441   -43.0206     6.8893     8.2876     8.5489
 1650.0000    74.1400    10.4661     0.0339     2.5472   -43.0044     6.8937     8.2919     8.4933
 1650.5000    74.1523    10.4671     0.0355     2.5450   -42.9872     6.8983     8.2970     8.4983
 1651.0000    74.1647    10.4682     0.0341     2.5436   -42.9720     6.8552     8.3005     8.5024
 1651.5000    74.1773    10.4546     0.0312     2.5407   -42.9558     6.8125     8.3054     8.5064
 1652.0000    74.3407    10.4559     0.0268     2.5377   -42.9395     6.7700     8.3096     8.5104
 1652.5000    74.3531    10.4570     0.0238     2.5326   -42.9210     6.7278     8.3133     8.5144
 1653.0000    74.2140    10.4582     0.0225     2.5281   -42.7599     6.7332     8.3176     8.5185
 1653.5000    74.0810    10.4593     0.0242     2.5230   -42.7437     6.6902     8.3219     8.5226
 1654.0000    73.6451    10.4605     0.0258     2.5208   -42.7273     6.6485     8.3264     8.5268
 1654.5000    73.0640    10.4617     0.0259     2.5239   -42.7113     6.6538     8.3305     8.5317
 1655.0000    73.3761    10.4630     0.0260     2.5240   -42.6929     6.6113     8.3348     8.5350
 1655.5000    73.9819    10.4643     0.0246     2.5226   -42.6789     6.6624     8.3391     8.5398
 1656.0000    74.2910    10.4653     0.0217     2.5136   -42.6627     6.6666     8.3434     8.5438
 1656.5000    74.3034    10.4666     0.0203     2.5054   -42.6955     6.7171     8.3485     8.5473
 1657.0000    74.3160    10.4527     0.0159     2.5033   -42.7792     6.7215     8.3528     8.5514
 1657.5000    74.0343    10.4390     0.0130     2.5064   -42.7614     6.7259     8.3563     8.5560
 1658.0000    73.7499    10.4405     0.0161     2.5079   -42.7448     6.7548     8.3612     8.5600
 1658.5000    73.4055    10.4416     0.0179     2.5103   -42.8763     6.7813     8.3654     8.5638
 1659.0000    72.5876    10.4279     0.0211     2.5126   -42.8601     6.7858     8.3697     8.5682
 1659.5000    71.7098    10.4143     0.0255     2.5172   -42.8439     6.7908     8.4314     8.5722
 1660.0000    71.2739    10.4154     0.0271     2.5195   -42.8245     6.7485     8.4360     8.5763
 1660.5000    72.4763    10.4166     0.0272     2.5103   -42.8086     6.7524     8.4406     8.5804
 1661.0000    73.2304    10.4178     0.0228     2.5045   -42.7927     6.7572     8.4445     8.5844
 1661.5000    74.2813    10.4192     0.0199     2.5076   -43.0753     6.7151     8.4488     8.5886
 1662.0000    74.4421    10.4202     0.0200     2.5106   -43.0555     6.7194     8.4532     8.5929
 1662.5000    74.4548    10.4362     0.0187     2.5121   -43.0396     6.6564     8.4584     8.5379
 1663.0000    74.4698    10.4374     0.0172     2.5136   -43.0237     6.6359     8.4619     8.4835
 1663.5000    74.3307    10.4387     0.0174     2.5166   -43.0078     6.6402     8.4669     8.4291
 1664.0000    74.3461    10.4400     0.0159     2.5189   -42.9926     6.5988     8.4706     8.4341
 1664.5000    74.3584    10.4409     0.0161     2.5212   -42.9764     6.6041     8.4755     8.4381
 1665.0000    74.5191    10.4570     0.0177     2.5257   -42.9601     6.5730     8.4798     8.4415
 1665.5000    74.3800    10.4582     0.0208     2.5310   -42.9429     6.5608     8.4837     8.4461
 1666.0000    73.9503    10.4593     0.0239     2.5378   -42.9278     6.5256     8.4881     8.4497
 1666.5000    73.8142    10.4605     0.0241     2.5355   -42.9111     6.5299     8.5513     8.4537
 1667.0000    73.6780    10.4617     0.0242     2.5273   -42.8925     6.5343     8.5556     8.4581
 1667.5000    73.3877    10.4483     0.0243     2.5191   -42.8792     6.5114     8.5600     8.4621
 1668.0000    72.9416    10.4346     0.0244     2.5228   -42.8630     6.4977     8.5644     8.4079
 1668.5000    73.2732    10.4325     0.0245     2.5213   -43.0311     6.5021     8.5688     8.4121
 1669.0000    74.4724    10.4070     0.0246     2.5169   -43.2708     6.5064     8.5152     8.4161
 1669.5000    75.2266    10.4040     0.0232     2.5154   -43.4061     6.5106     8.5195     8.4201
 1670.0000    74.9422    10.3799     0.0218     2.5154   -43.9793     6.5148     8.4643     8.3053
 1670.5000    74.5094    10.3810     0.0220     2.5192   -43.3704     6.5191     8.3540     8.1993
 1671.0000    73.7799    10.3822     0.0221     2.5259   -43.9436     6.5242     8.2440     8.2034
 1671.5000    72.3086    10.3834     0.0222     2.5320   -43.9277     6.5284     8.1344     8.2081
 1672.0000    71.1339    10.3847     0.0223     2.5237   -43.6112     6.5326     8.1396     8.2120
 1672.5000    72.0365    10.3858     0.0224     2.5170   -43.3063     6.5917     8.1437     8.2726
