~VERSION INFORMATION
 VERS.                2.0:   CWLS LOG ASCII STANDARD - VERSION 2.0
 WRAP.                 NO:   ONE LINE PER DEPTH STEP
~WELL INFORMATION
#MNEM.UNIT      DATA TYPE    INFORMATION
#----------   ------------   ------------------------------
 STRT.F            0.0000:   START DEPTH
 STOP.F         4030.0000:   STOP DEPTH
 STEP.F            0.5000:   STEP LENGTH
 NULL.          -999.2500:   NO VALUE
 COMP.  FENIX AND SCISSON:   COMPANY
 WELL.  FENIX "LX" #33-10:   WELL
 FLD . TEAPOT DOME (NPR #3):   FIELD
 LOC .      S10 T38N R78W:   LOCATION
 CNTY.            NATRONA:   COUNTY
 STAT.            WYOMING:   STATE
 CTRY. UNITED STATES OF AMERICA:   COUNTRY
 SRVC.       SCHLUMBERGER:   SERVICE COMPANY
 DATE.        03-APR-1978:   LOGDATE
 API .     49025105980000:   API NUMBER
~CURVE INFORMATION
#MNEM.UNIT       API CODE    CURVE DESCRIPTION
#----------   ------------   ------------------------------
 DEPT.F                  :   
 SPR .MV     07 010 01 00:   SPONTANEOUS POTENTIAL
 ILD .OHMM   07 120 46 00:   DEEP INDUCTION RESISTIVITY
 SFL .OHMM   07 220 01 00:   SHALLOW FOCUSED LOG RESISTIVITY
 ILM .OHMM   07 120 44 00:   INDUCTION LOG MEDIUM RESISTIVITY
 NPHI.DEC    42 890 03 00:   NEUTRON POROSITY SANDSTONE
 GRD .GAPI   45 310 01 00:   GAMMA RAY FROM DENSITY LOG
 CALD.IN     45 280 60 00:   CALIPER FROM DENSITY LOG
 RHOB.G/C3   45 350 01 00:   BULK DENSITY
 CORR.G/C3   45 356 01 00:   DENSITY CORRECTION
~PARAMETER INFORMATION
#MNEM.UNIT          VALUE    DESCRIPTION
#----------   ------------   ------------------------------
 EKB .F         5232.0000:   Kelly bushing
 EGL .F         5222.0000:   Ground level
 EDF .F            0.0000:   Drilling floor
 EPD .F         5222.0000:   Permanent datum
 TD  .F         4040.0000:   Total depth
 DATE.        03-APR-1978:   Date logged
 CLNT.            A2DTECH:   Client Code
 SL  . 1700' FNL & 1700' FWL:   Surface Location
 PD  .                 GL:   Permanent Datum
 DD  .F              4040:   Depth driller
 DL  .F              4031:   Depth logger
 BLI .F              4025:   Bottom log interval
 CS1 .IN            8.625:   Casing size
 CBD1.      8.625" @ 503':   Casing driller 1
 CBL1.F               504:   Casing logger 1
 BS1 .IN            7.875:   Bit size
 DFT .           CHEM GEL:   Type fluid in hole
 DFD .                9.5:   Density
 DFV .                 43:   Viscosity
 DFPH.               11.5:   pH
 DFL .                4.4:   Fluid loss
 MSS .            MUD PIT:   Source of sample
 RMS .OHMM           1.16:   Rm
 MST .F                80:   Rm Meas. temp.
 RMF .OHMM           0.93:   Rmf
 MFST.F                80:   Rmf Meas. temp.
 RMC .OHMM           1.74:   Rmc
 MCST.F                80:   Rmc Meas. temp.
 MFSS.               MEAS:   Source Rmf.
 RMB .OHMM          0.742:   Rm. at BHT
 BHT .F               125:   BHT.
 TCS .HRS            0800:   Time Circ. stopped
 MRT .F               125:   Maximum recorded temp.
 LUN .               7660:   Logging unit number
 LUL .                GLT:   Logging unit location
 ENGI.            TOEPPER:   Recorded By
 WITN.           MCGINLEY:   Witnessed by
 ORIG.         2.5" PRINT:   Origin of data
 UWI .     49025105980000:   Unique Well ID
 DICO. A2D TECHNOLOGIES, INC.:   Digitizing Company
 DAPD.                 10:   Feet Above Permanent Datum
 BSD1.               4040:   Depth drilled with bit1
 MCSS.               CALC:   Source Rmc.
 LMF .                 KB:   Log Measured From
 DMF .                 KB:   Drilling Measured From
 TLI .                504:   Top log interval
 TLAB.               1000:   Time logger at bottom
~OTHER INFORMATION
~A    DEPT     SPR        ILD        SFL        ILM       NPHI         GRD      CALD       RHOB       CORR   
# ...
 3285.0000   -32.3720     4.4770     5.7710     5.0980     0.2480   116.1340     9.0790     2.5100     0.0430
 3285.5000   -32.0470     4.3490     6.0540     4.8570     0.2650   120.0540     9.0760     2.5190     0.0680
 3286.0000   -32.0720     4.2700     5.9140     4.5950     0.2810   123.3620     9.0740     2.5020     0.0410
 3286.5000   -32.0760     4.1600     5.4640     4.5450     0.2910   127.0190     9.0540     2.4770     0.0180
 3287.0000   -32.0660     4.0500     5.0140     4.4460     0.2840   125.3120     9.0330     2.4960     0.0330
 3287.5000   -32.0680     3.9400     4.4290     4.3480     0.2770   123.0930     9.0120     2.5490     0.0520
 3288.0000   -32.0900     3.8290     4.5690     4.2490     0.2710   120.6800     8.9900     2.5380     0.0470
 3288.5000   -32.0280     3.7190     4.7620     4.1500     0.2820   118.4830     8.9680     2.5200     0.0370
 3289.0000   -32.3910     3.6090     4.9550     4.0400     0.2910   116.1400     8.9550     2.5120     0.0370
 3289.5000   -32.4870     3.5520     5.1310     4.0200     0.3010   116.1670     8.9570     2.5030     0.0410
 3290.0000   -32.4390     3.6050     4.9420     3.9980     0.3070   117.3300     8.9560     2.5110     0.0450
 3290.5000   -32.7860     3.6530     4.7670     3.9750     0.3030   118.3950     8.9560     2.5250     0.0490
 3291.0000   -32.8710     3.7010     4.5920     3.9520     0.2940   119.4150     8.9560     2.5160     0.0550
 3291.5000   -32.8780     3.7490     4.4290     3.9290     0.2790   120.6640     8.9580     2.5370     0.0610
 3292.0000   -32.8600     3.7980     4.5560     3.8940     0.2740   120.1030     8.9390     2.5260     0.0600
 3292.5000   -32.8750     3.9080     4.7450     3.9970     0.2620   117.9500     8.8970     2.5190     0.0530
 3293.0000   -32.8650     4.0920     4.9340     4.2180     0.2510   115.9860     8.8580     2.5380     0.0370
 3293.5000   -32.8660     4.2760     5.0380     4.4390     0.2350   113.9900     8.8150     2.5220     0.0180
 3294.0000   -32.8930     4.4600     5.6850     4.6600     0.2380   112.2660     8.8050     2.5030     0.0030
 3294.5000   -33.1140     4.6440     6.3000     4.8810     0.2440   111.3220     8.8270     2.5160     0.0110
 3295.0000   -33.5800     4.8280     7.0140     5.1020     0.2490   110.4710     8.8450     2.5250     0.0270
 3295.5000   -33.7060     5.0110     6.8060     5.2530     0.2550   108.8690     8.8640     2.5070     0.0400
 3296.0000   -33.3530     5.2260     6.5160     5.3230     0.2590   106.0710     8.8830     2.5120     0.0480
 3296.5000   -33.2590     5.2840     6.2810     5.3820     0.2500   103.0680     8.9020     2.5270     0.0570
 3297.0000   -33.2620     5.3540     6.2810     5.4530     0.2430   102.5360     8.9210     2.5390     0.0670
 3297.5000   -33.2800     5.4220     6.4510     5.5230     0.2410   105.1810     8.9410     2.5260     0.0760
 3298.0000   -33.1930     5.2050     6.8530     5.6250     0.2500   109.4310     8.9560     2.5490     0.0820
 3298.5000   -32.9990     4.9910     7.2760     5.6250     0.2650   113.4930     8.9580     2.5420     0.0690
 3299.0000   -32.5370     4.7780     6.9370     5.4720     0.2810   117.7350     8.9600     2.5230     0.0570
 3299.5000   -32.4770     4.5650     6.3800     5.2210     0.3000   118.5030     8.9610     2.5030     0.0440
 3300.0000   -32.4530     4.3520     5.8240     4.9710     0.2970   118.1640     8.9630     2.4950     0.0430
 3300.5000   -32.4750     4.1390     5.2680     4.7200     0.2930   118.1040     8.9640     2.4940     0.0500
 3301.0000   -32.5390     3.9670     4.7110     4.4700     0.2880   116.3840     8.9660     2.5090     0.0570
 3301.5000   -32.9260     3.8550     4.5950     4.2190     0.2830   113.5940     8.9670     2.5250     0.0580
 3302.0000   -32.8110     3.8050     4.8100     4.1150     0.2800   111.7880     8.9680     2.5480     0.0520
 3302.5000   -33.1950     3.7540     5.1760     4.1800     0.2850   114.6840     8.9700     2.5390     0.0480
 3303.0000   -33.2690     3.7540     5.5430     4.2350     0.2900   117.0640     8.9710     2.5180     0.0450
 3303.5000   -33.2740     3.7540     5.6250     4.2900     0.2970   120.9140     8.9730     2.5300     0.0640
 3304.0000   -33.2610     3.8410     5.6250     4.3450     0.3060   126.6040     8.9740     2.5380     0.0870
 3304.5000   -33.2730     3.9320     5.6250     4.3990     0.3040   134.4850     8.9760     2.5120     0.0750
 3305.0000   -33.2590     4.0220     5.6250     4.4540     0.3010   132.7540     8.9770     2.5330     0.0610
 3305.5000   -33.2790     4.1120     5.1650     4.5120     0.2780   123.9610     8.9790     2.5240     0.0370
 3306.0000   -33.2640     4.2020     4.7690     4.6070     0.2380   116.9840     8.9800     2.5800     0.0630
 3306.5000   -33.1900     4.2920     4.5120     4.7780     0.2390   109.7910     8.9820     2.5690     0.0460
 3307.0000   -32.8430     4.3820     5.9450     4.9490     0.2470   105.3700     8.9830     2.5410     0.0150
 3307.5000   -32.7060     4.4720     7.5490     5.1310     0.2540   107.7030     8.9850     2.5160     0.0400
 3308.0000   -32.4430     4.5620     7.1840     5.0380     0.2500   108.5920     8.9860     2.5560     0.0600
 3308.5000   -32.4660     4.6530     6.7620     5.1600     0.2430   107.0650     8.9880     2.5440     0.0580
 3309.0000   -32.4910     4.7430     6.0540     5.2400     0.2390   107.9430     8.9890     2.5500     0.0560
 3309.5000   -32.4390     4.7970     6.2380     5.3200     0.2450   110.5140     8.9910     2.5580     0.0550
 3310.0000   -32.6310     4.8370     6.8010     5.4000     0.2530   112.2430     8.9920     2.5490     0.0560
 3310.5000   -32.4440     4.8780     7.4110     5.4220     0.2610   111.8390     8.9940     2.5570     0.0640
 3311.0000   -32.4830     4.9180     7.2510     5.4220     0.2670   111.5050     8.9970     2.5740     0.0720
 3311.5000   -32.4630     5.0150     6.9380     5.4220     0.2560   108.7460     8.9830     2.5660     0.0790
 3312.0000   -32.4810     5.2360     6.6250     5.4220     0.2430   105.3170     8.9530     2.5810     0.0750
 3312.5000   -32.4330     5.4580     6.2810     5.7350     0.2300   101.6410     8.9250     2.5970     0.0660
 3313.0000   -32.8380     5.6800     7.1070     6.0180     0.2170   100.9920     8.8960     2.5810     0.0570
 3313.5000   -33.2830     5.9020     8.0250     6.3010     0.2040   103.4590     8.8690     2.5760     0.0490
 3314.0000   -33.2410     6.1240     8.9430     6.5840     0.1930   107.2580     8.8390     2.5970     0.0410
 3314.5000   -33.5660     6.3460     9.8600     6.8670     0.1980   110.9290     8.8300     2.5770     0.0650
 3315.0000   -34.0460     6.5680    10.7050     7.0140     0.2070   113.7190     8.8210     2.5590     0.0550
 3315.5000   -34.0840     6.7900    10.1390     7.3130     0.2160   113.4910     8.8130     2.5390     0.0150
 3316.0000   -33.8470     7.0120     9.5920     7.5900     0.2190   110.4440     8.8050     2.5480     0.0410
 3316.5000   -33.6440     7.2340     9.4120     7.8670     0.2140   105.0400     8.7980     2.5710     0.0480
 3317.0000   -33.6730     7.4560    10.0580     8.1440     0.2040   101.1440     8.7980     2.5690     0.0440
 3317.5000   -33.6710     7.6780    10.8020     8.4220     0.1960    99.8170     8.7980     2.5780     0.0600
 3318.0000   -33.6310     7.9000    11.5460     8.6990     0.1980    98.5300     8.7980     2.5470     0.0510
 3318.5000   -33.8680     8.1230    12.4010     8.9760     0.2010    97.3810     8.7980     2.5570     0.0310
 3319.0000   -33.7590     8.3460    12.4010     9.2530     0.1990    96.5090     8.7980     2.5610     0.0280
 3319.5000   -33.6480     8.5680    12.4010     9.5300     0.1980    97.1460     8.7980     2.5560     0.0290
 3320.0000   -33.2830     8.7910    12.7750     9.8070     0.1970    97.7450     8.7980     2.5540     0.0400
 3320.5000   -33.2830     9.0140    14.1040    10.1300     0.1980    98.3230     8.7980     2.6050     0.0500
 3321.0000   -33.2570     9.2370    14.0350    10.1900     0.1960    98.5980     8.7980     2.6000     0.0620
