~VERSION INFORMATION
 VERS.                2.0:   CWLS LOG ASCII STANDARD - VERSION 2.0
 WRAP.                 NO:   ONE LINE PER DEPTH STEP
~WELL INFORMATION
#MNEM.UNIT      DATA TYPE    INFORMATION
#----------   ------------   ------------------------------
 STRT.F          208.0000:   START DEPTH
 STOP.F         2980.0000:   STOP DEPTH
 STEP.F            0.5000:   STEP LENGTH
 NULL.          -999.2500:   NO VALUE
 COMP. FENIX & SCISSON INC:   COMPANY
 WELL. FENIX  32AX #28-28:   WELL
 FLD .        TEAPOT DOME:   FIELD
 LOC .      S28 T39N R78W:   LOCATION
 CNTY.            NATRONA:   COUNTY
 STAT.            WYOMING:   STATE
 CTRY. UNITED STATES OF AMERICA:   COUNTRY
 SRVC.           BIRDWELL:   SERVICE COMPANY
 DATE.        09-OCT-1977:   LOGDATE
 API .     49025104430000:   API NUMBER
~CURVE INFORMATION
#MNEM.UNIT       API CODE    CURVE DESCRIPTION
#----------   ------------   ------------------------------
 DEPT.F                  :   
 SPR .MV     05 010 01 00:   SPONTANEOUS POTENTIAL
 ILD .OHMM   05 120 46 00:   DEEP INDUCTION RESISTIVITY
 SN  .OHMM   05 040 16 00:   SHORT NORMAL
 GRD .GAPI   45 310 01 00:   GAMMA RAY FROM DENSITY LOG
 CALD.IN     45 280 60 00:   CALIPER FROM DENSITY LOG
 CORR.G/C3   45 356 01 00:   DENSITY CORRECTION
 DEN .G/C3   45 350 01 00:   BULK DENSITY
~PARAMETER INFORMATION
#MNEM.UNIT          VALUE    DESCRIPTION
#----------   ------------   ------------------------------
 EKB .F         5005.0000:   Kelly bushing
 EGL .F         4995.0000:   Ground level
 EDF .F            0.0000:   Drilling floor
 EPD .F         4995.0000:   Permanent datum
 TD  .F         2980.0000:   Total depth
 DATE.        09-OCT-1977:   Date logged
 CLNT.            A2DTECH:   Client Code
 SL  . 990' FNL & 1650' FWL:   Surface Location
 PD  .                 GL:   Permanent Datum
 DAPD.F                10:   Feet Above Permanent Datum
 DD  .F              2980:   Depth driller
 DL  .F              2979:   Depth logger
 BLI .F              2974:   Bottom log interval
 TLI .F               221:   Top log interval
 CS1 .IN            8.625:   Casing size
 CBD1.      8.625" @ 211':   Casing driller 1
 CBL1.F               221:   Casing logger 1
 BS1 .IN            7.875:   Bit size
 BSD1.F              2980:   Depth drilled with bit1
 DFT .            KCL GEL:   Type fluid in hole
 DFD .                8.8:   Density
 DFV .                 33:   Viscosity
 DFPH.                 11:   pH
 DFL .                6.4:   Fluid loss
 MSS .           FLOWLINE:   Source of sample
 RMS .OHMM            .52:   Rm
 MST .F                59:   Rm Meas. temp.
 RMF .OHMM            .67:   Rmf
 MFST.F                54:   Rmf Meas. temp.
 RMC .OHMM            .45:   Rmc
 MCST.F                56:   Rmc Meas. temp.
 MFSS.               MEAS:   Source Rmf.
 MCSS.               MEAS:   Source Rmc.
 RMB .OHMM            .35:   Rm. at BHT
 BHT .F                91:   BHT.
 TCS .HRS               3:   Time Circ. stopped
 MRT .F                91:   Maximum recorded temp.
 LUN .               2958:   Logging unit number
 LUL .             CASPER:   Logging unit location
 ENGI.                LAW:   Recorded By
 WITN.       W. PENINGELL:   Witnessed by
 ORIG.           5" PRINT:   Origin of data
 UWI .     49025104430000:   Unique Well ID
 DICO. A2D TECHNOLOGIES, INC.:   Digitizing Company
~OTHER INFORMATION
~A   DEPT      SPR        ILD         SN         GRD      CALD       CORR        DEN   
# ...
 2028.0000   -50.5410     5.0460     6.1170   127.6390     7.9460     0.0200     2.4530
 2028.5000   -50.2080     5.1850     6.2310   122.2490     7.9460     0.0150     2.4610
 2029.0000   -49.4680     5.0300     6.2770   121.8150     7.9460     0.0220     2.4720
 2029.5000   -49.9340     4.9080     6.3880   123.2160     7.9460     0.0230     2.4830
 2030.0000   -49.4920     5.0380     6.5780   120.3500     7.9460     0.0210     2.4930
 2030.5000   -49.6610     5.3730     6.8430   118.4570     7.9460     0.0200     2.4890
 2031.0000   -50.2590     5.7070     7.1090   121.7600     7.9460     0.0220     2.4850
 2031.5000   -50.5560     6.0620     7.3750   120.9160     7.9460     0.0280     2.4910
 2032.0000   -50.2560     6.1400     7.5560   119.6050     7.9460     0.0280     2.5060
 2032.5000   -49.9610     6.1830     7.4730   118.2070     7.9460     0.0390     2.5150
 2033.0000   -50.2400     6.2270     7.3980   115.1750     7.9460     0.0270     2.5200
 2033.5000   -50.6060     6.2880     7.3460   119.1290     7.9460     0.0150     2.5070
 2034.0000   -50.6210     6.2290     7.3350   116.2700     7.9460     0.0140     2.5010
 2034.5000   -50.2560     6.1270     7.3230   112.0440     7.9460     0.0130     2.5170
 2035.0000   -49.9560     6.0240     7.3110   111.6920     7.9460     0.0070     2.4990
 2035.5000   -50.1280     6.0060     7.2990   113.5450     7.9460     0.0050     2.4870
 2036.0000   -50.3810     6.1170     7.2840   116.1520     7.9460     0.0090     2.4930
 2036.5000   -50.5340     6.1000     7.4900   108.0930     7.9460     0.0140     2.4980
 2037.0000   -50.1710     6.0800     7.8390   110.7610     7.9460     0.0160     2.5020
 2037.5000   -49.8660     6.0620     7.8150   111.5710     7.9460     0.0140     2.5070
 2038.0000   -49.5720     6.1540     7.7810   109.3900     7.9460     0.0120     2.5030
 2038.5000   -49.3680     6.2860     7.7460   110.1100     7.9460     0.0130     2.4980
 2039.0000   -49.4620     6.3460     7.6960   108.2600     7.9460     0.0140     2.4980
 2039.5000   -49.5280     6.3100     7.7620   110.2540     7.9460     0.0120     2.4960
 2040.0000   -49.2480     6.2880     7.9840   111.8940     7.9460     0.0090     2.4850
 2040.5000   -48.9870     6.5900     7.7710   112.8760     7.9460     0.0150     2.4900
 2041.0000   -49.1870     6.8930     7.7890   111.3470     7.9460     0.0230     2.5000
 2041.5000   -49.2580     6.6420     7.8390   114.8520     7.9460     0.0300     2.5080
 2042.0000   -49.0250     6.3460     7.7540   113.1090     7.9460     0.0220     2.5010
 2042.5000   -50.1530     6.2270     7.5600   115.4390     7.9460     0.0190     2.5010
 2043.0000   -50.3800     6.1740     7.3170   115.9480     7.9460     0.0240     2.5060
 2043.5000   -50.5980     5.8140     6.9440   120.0960     7.9460     0.0280     2.5060
 2044.0000   -50.6810     5.4790     6.5710   120.9240     7.9460     0.0280     2.4990
 2044.5000   -50.5680     5.1850     6.4330   125.4560     7.9460     0.0270     2.5040
 2045.0000   -50.4150     5.1850     6.3730   127.4300     7.9460     0.0260     2.5030
 2045.5000   -50.2150     5.1850     6.3460   129.7190     7.9460     0.0270     2.4940
 2046.0000   -50.0120     5.1850     6.5320   129.4220     7.9460     0.0310     2.4940
 2046.5000   -49.8080     5.1850     6.6450   132.3770     7.9460     0.0190     2.5000
 2047.0000   -49.7690     5.1850     6.7610   130.1670     7.9350     0.0170     2.4980
 2047.5000   -49.7680     5.1990     6.8300   132.3490     7.9080     0.0200     2.4920
 2048.0000   -49.7680     5.2600     6.7540   130.1620     7.8810     0.0220     2.4920
 2048.5000   -49.7690     5.3300     6.7310   130.2640     7.8670     0.0240     2.4880
 2049.0000   -49.7750     5.2860     6.7090   135.1420     7.8680     0.0160     2.4780
 2049.5000   -49.7510     5.2190     6.6870   139.4810     7.8690     0.0130     2.4680
 2050.0000   -49.3410     5.1850     6.6640   132.9350     7.8700     0.0110     2.4650
 2050.5000   -49.2570     5.3230     6.6450   134.9710     7.8720     0.0120     2.4690
 2051.0000   -49.1750     5.4290     6.7350   139.1950     7.8730     0.0160     2.4740
 2051.5000   -49.1710     5.5810     6.8330   142.9230     7.8740     0.0190     2.4860
 2052.0000   -49.1710     5.8110     6.9320   139.8650     7.8760     0.0230     2.5000
 2052.5000   -49.1240     5.4790     6.9570   143.0900     7.8770     0.0260     2.5100
 2053.0000   -49.0330     5.4880     6.9570   135.9430     7.8780     0.0180     2.5040
 2053.5000   -49.2940     5.5110     6.8180   134.8380     7.8790     0.0140     2.4960
 2054.0000   -49.9000     5.5300     6.6210   130.5490     7.8810     0.0270     2.5160
 2054.5000   -50.0010     5.2820     6.4230   133.1490     7.8820     0.0220     2.5190
 2055.0000   -49.9380     5.3790     6.2830   134.7990     7.8830     0.0130     2.5150
 2055.5000   -49.9130     4.9980     6.2710   130.3350     7.8840     0.0140     2.5180
 2056.0000   -49.8850     5.1850     6.2590   127.9680     7.8860     0.0170     2.5220
 2056.5000   -49.8550     5.0800     6.2470   124.6580     7.8860     0.0130     2.5160
 2057.0000   -49.8250     5.0060     6.2350   121.1420     7.8860     0.0150     2.5180
 2057.5000   -49.7960     4.9530     6.2310   120.2930     7.8860     0.0180     2.5210
 2058.0000   -49.7690     5.1380     6.2880   127.3850     7.8860     0.0140     2.5110
 2058.5000   -49.7680     5.0940     6.2880   132.7360     7.8860     0.0140     2.5130
 2059.0000   -49.7680     4.9980     6.2880   134.7950     7.8860     0.0150     2.5100
 2059.5000   -49.7690     5.0490     6.2590   136.8460     7.8860     0.0150     2.4880
 2060.0000   -49.7660     5.1200     6.1700   141.0700     7.8860     0.0060     2.4710
 2060.5000   -49.6930     5.1380     6.0810   145.3570     7.8860     0.0100     2.4750
 2061.0000   -49.6120     4.9820     6.0060   150.2310     7.8860     0.0100     2.4800
 2061.5000   -49.2060     4.8630     6.0330   147.8570     7.8860     0.0080     2.4730
 2062.0000   -48.6710     5.0450     6.0680   144.4450     7.8860     0.0130     2.4670
 2062.5000   -48.8330     4.9630     6.1170   147.3950     7.8860     0.0130     2.4770
 2063.0000   -48.9780     4.7810     6.0840   154.7130     7.8860     0.0130     2.4740
 2063.5000   -49.0050     4.8180     6.0030   156.8360     7.8860     0.0160     2.4840
 2064.0000   -49.0930     4.6810     5.9210   164.3880     7.8860     0.0220     2.4980
 2064.5000   -49.1960     4.5550     5.8430   170.4070     7.8830     0.0160     2.4930
 2065.0000   -49.8110     4.5360     5.8540   175.7540     7.8780     0.0080     2.4890
 2065.5000   -50.1620     4.5170     5.8710   180.2220     7.8720     0.0130     2.4900
 2066.0000   -50.1640     4.4980     5.8880   175.3020     7.8660     0.0180     2.4920
 2066.5000   -50.2130     4.4770     5.9160   169.8410     7.8670     0.0170     2.4930
 2067.0000   -50.3250     4.5010     5.9560   166.7720     7.8670     0.0050     2.4770
 2067.5000   -50.4360     4.6100     5.9950   165.6970     7.8680    -0.0100     2.4750
 2068.0000   -50.5520     4.7890     6.3830   160.7080     7.8680     0.0010     2.4770
 2068.5000   -50.3110     4.9250     6.8300   161.8530     7.8690     0.0160     2.4790
 2069.0000   -49.9720     4.9760     6.8730   158.9170     7.8690     0.0280     2.4660
 2069.5000   -49.9660     5.1810     7.0170   158.0530     7.8700     0.0290     2.4670
 2070.0000   -49.9670     5.5050     7.3570   156.4640     7.8700     0.0320     2.4710
 2070.5000   -49.9670     5.8300     7.6970   157.6760     7.8700     0.0340     2.4700
 2071.0000   -49.9220     6.0770     7.8030   158.6720     7.8710     0.0230     2.4660
 2071.5000   -49.5470     6.3030     7.8390   156.3670     7.8710     0.0190     2.4620
 2072.0000   -49.3740     6.5240     7.8200   155.8280     7.8720     0.0140     2.4580
 2072.5000   -49.3910     6.3010     7.8010   158.0950     7.8720     0.0160     2.4610
 2073.0000   -49.0590     6.0060     7.7820   160.0220     7.8730     0.0240     2.4660
