~VERSION INFORMATION
 VERS.                2.0:   CWLS LOG ASCII STANDARD - VERSION 2.0
 WRAP.                 NO:   ONE LINE PER DEPTH STEP
~WELL INFORMATION
#MNEM.UNIT      DATA TYPE    INFORMATION
#----------   ------------   ------------------------------
 STRT.F          176.0000:   START DEPTH
 STOP.F         3380.0000:   STOP DEPTH
 STEP.F            0.5000:   STEP LENGTH
 NULL.          -999.2500:   NO VALUE
 COMP.    PENIX & SCISSON:   COMPANY
 WELL.  FENIX "AX" #85-15:   WELL
 FLD .             NPR #3:   FIELD
 LOC .      S15 T38N R78W:   LOCATION
 CNTY.            NATRONA:   COUNTY
 STAT.            WYOMING:   STATE
 CTRY. UNITED STATES OF AMERICA:   COUNTRY
 SRVC.       SCHLUMBERGER:   SERVICE COMPANY
 DATE.        28-APR-1981:   LOGDATE
 API .     49025108700000:   API NUMBER
~CURVE INFORMATION
#MNEM.UNIT       API CODE    CURVE DESCRIPTION
#----------   ------------   ------------------------------
 DEPT.F                  :   
 TEND.LBS    45 635 01 00:   TENSION FROM DENSITY LOG
 CALD.IN     45 280 60 00:   CALIPER FROM DENSITY LOG
 CORR.G/C3   45 356 01 00:   DENSITY CORRECTION
 GRD .GAPI   45 310 01 00:   GAMMA RAY FROM DENSITY LOG
 RHOB.G/C3   45 350 01 00:   BULK DENSITY
 SFL .OHMM   07 220 01 00:   SHALLOW FOCUSED LOG RESISTIVITY
 ILD .OHMM   07 120 46 00:   INDUCTIONLOG DEEP RESISTIVITY
 ILM .OHMM   07 120 44 00:   INDUCTION LOG MEDIUM RESISTIVITY
 TENR.LBS    07 635 01 00:   TENSION FROM RESISTIVITY
 SPR .MV     07 010 01 00:   SPONTANEOUS POTENTIAL
~PARAMETER INFORMATION
#MNEM.UNIT          VALUE    DESCRIPTION
#----------   ------------   ------------------------------
 EKB .F         5259.0000:   Kelly bushing
 EGL .F         5249.0000:   Ground level
 EDF .F            0.0000:   Drilling floor
 TD  .F         3333.0000:   Total depth
 DATE.        28-APR-1981:   Date logged
 CLNT.            A2DTECH:   Client Code
 SL  . 1927' FSL & 140' FEL:   Surface Location
 PD  .                 GL:   Permanent Datum
 DD  .F              3333:   Depth driller
 DL  .F              3382:   Depth logger
 BLI .F              3376:   Bottom log interval
 TLI .F               182:   Top log interval
 CS1 .IN            8.625:   Casing size
 CBD1.      8.625" @ 181':   Casing driller 1
 CBL1.F               182:   Casing logger 1
 BS1 .IN            7.875:   Bit size
 BSD1.F              3333:   Depth drilled with bit1
 DFT .                GEL:   Type fluid in hole
 DFD .                8.7:   Density
 DFV .                 35:   Viscosity
 DFPH.                9.5:   pH
 DFL .                  7:   Fluid loss
 MSS .               TANK:   Source of sample
 RMS .OHMM           1.79:   Rm
 MST .F                58:   Rm Meas. temp.
 RMF .OHMM           1.43:   Rmf
 MFST.F                58:   Rmf Meas. temp.
 MFSS.               MEAS:   Source Rmf.
 RMB .OHMM            .93:   Rm. at BHT
 BHT .F               112:   BHT.
 TCS .HRS             800:   Time Circ. stopped
 TLAB.HRS             200:   Time logger at bottom
 MRT .F               112:   Maximum recorded temp.
 LUN .               8039:   Logging unit number
 LUL .               CAPR:   Logging unit location
 ENGI.           HARRINER:   Recorded By
 WITN.              SCOTT:   Witnessed by
 ORIG.           5" PRINT:   Origin of data
 UWI .     49025108700000:   Unique Well ID
 DICO. A2D TECHNOLOGIES, INC.:   Digitizing Company
 EPD .               5249:   Elevation Permanent Datum
 LMF .                 KB:   Log Measured From
 DMF .                 KB:   Drilling Measured From
 DAPD.                 10:   Feet Above Permanent Datum
~OTHER INFORMATION
~A   DEPT     TEND       CALD       CORR         GRD      RHOB        SFL        ILD        ILM       TENR        SPR   
# ...
 2889.5000  1643.5640     8.6450     0.0230    91.7430     2.4290    24.2200    18.7090    14.9580  1697.8060   -20.2740
 2890.0000  1643.5640     8.6470     0.0140    93.1100     2.4300    25.3040    18.2700    14.8370  1699.4440   -20.2060
 2890.5000  1643.5640     8.6480     0.0040    95.1440     2.4390    23.7280    18.2700    14.7040  1701.0820   -19.7410
 2891.0000  1659.7230     8.6500     0.0060    95.8230     2.4500    22.3240    18.2700    14.7040  1702.7209   -19.4800
 2891.5000  1683.1680     8.6520     0.0140    94.4010     2.4630    20.7370    18.6040    14.7040  1704.3590   -19.1180
 2892.0000  1683.1680     8.6530     0.0220    93.3220     2.4750    21.6010    18.6040    14.7420  1705.9969   -19.0970
 2892.5000  1683.1680     8.6550     0.0300    93.2700     2.4890    22.5940    18.6040    14.7860  1707.6350   -19.0920
 2893.0000  1722.7720     8.6570     0.0350    93.0350     2.4980    23.9670    18.6040    14.8300  1709.2340   -19.0980
 2893.5000  1722.7720     8.6580     0.0260    92.6130     2.4860    23.8220    18.2700    14.8740  1716.6990   -19.0910
 2894.0000  1722.7720     8.6600     0.0160    92.0360     2.4640    23.1360    18.2700    14.9180  1728.7820   -19.1020
 2894.5000  1722.7720     8.6620     0.0070    92.5130     2.4620    22.4500    18.2700    14.9620  1740.8640   -19.0890
 2895.0000  1719.6780     8.6630     0.0020    93.4200     2.4740    21.8940    17.9420    14.9720  1748.5270   -19.0880
 2895.5000  1715.4320     8.6650     0.0020    94.1880     2.4820    22.6140    17.6210    14.6320  1709.2340   -19.1770
 2896.0000  1711.1870     8.6670     0.0000    96.1390     2.4840    23.1150    16.9820    14.0170  1709.2340   -19.5440
 2896.5000  1706.9410     8.6680     0.0060   102.1310     2.4860    22.1360    16.4240    13.4020  1709.2340   -19.8560
 2897.0000  1702.6949     8.6700     0.0130   106.0270     2.4810    20.2540    15.8080    12.7220  1709.2340   -20.2910
 2897.5000  1698.4490     8.6720     0.0190   103.9140     2.4770    18.3720    15.7050    12.7220  1709.2340   -20.6560
 2898.0000  1694.2030     8.6730     0.0170   101.4930     2.4760    16.6900    15.5900    12.7570  1709.2340   -20.6510
 2898.5000  1689.9580     8.6750     0.0140    98.7880     2.4850    17.7610    15.4740    12.8090  1709.2340   -20.7050
 2899.0000  1685.7120     8.6770     0.0110    98.2840     2.4920    18.9430    15.3590    12.8610  1709.2340   -20.3260
 2899.5000  1681.4659     8.6780     0.0080   100.0800     2.5010    18.9430    15.2460    12.9130  1709.2340   -19.6570
 2900.0000  1677.2200     8.6800     0.0050   101.7410     2.4990    20.3650    14.9720    12.9550  1709.2340   -19.0690
 2900.5000  1672.9740     8.6820     0.0010   103.4680     2.4880    19.9410    14.9720    12.9550  1709.2340   -18.3590
 2901.0000  1668.7290     8.6830    -0.0020   105.1780     2.4790    18.8550    14.9720    12.7220  1709.2340   -18.2770
 2901.5000  1664.4830     8.6850    -0.0020   105.4000     2.4690    17.7680    14.7040    12.6290  1709.2340   -18.1890
 2902.0000  1660.2371     8.6860     0.0110   103.1560     2.4700    16.3900    14.7040    12.5500  1709.2340   -18.1360
 2902.5000  1655.9910     8.6860     0.0190   100.4260     2.4720    16.6340    14.7040    12.4700  1709.2340   -18.0570
 2903.0000  1651.7450     8.6860     0.0150   100.8980     2.4670    17.3050    14.4400    12.3910  1709.2340   -17.9940
 2903.5000  1647.4990     8.6860     0.0130   103.0070     2.4530    17.3050    14.2440    12.3110  1709.2340   -17.9190
 2904.0000  1643.5640     8.6860     0.0100   103.4970     2.4480    16.8060    14.0670    12.2700  1709.2340   -17.9090
 2904.5000  1643.5640     8.6860     0.0080   102.3170     2.4440    16.3900    13.8900    12.2700  1709.2340   -18.0230
 2905.0000  1662.7570     8.6860     0.0050   101.5050     2.4380    16.7070    13.7130    12.1760  1709.2340   -18.4360
 2905.5000  1685.2400     8.6860     0.0020   100.4200     2.4420    16.9940    13.5360    11.9650  1709.2340   -18.8710
 2906.0000  1707.7230     8.6860     0.0000   102.5280     2.4470    16.9940    13.1910    11.7540  1709.2340   -19.1200
 2906.5000  1730.2061     8.6860     0.0050   105.1220     2.4550    16.4520    13.0010    11.5440  1752.8490   -19.0790
 2907.0000  1752.6880     8.6860     0.0050   107.6740     2.4610    15.9150    12.8120    11.3210  1827.1121   -19.0930
 2907.5000  1762.3760     8.6860     0.0050   105.7620     2.4690    15.3770    12.6230    11.0810  1821.0000   -18.8430
 2908.0000  1784.9810     8.6860     0.0070   103.7370     2.4790    15.2460    12.4340    10.8400  1810.2600   -18.6110
 2908.5000  1762.4980     8.6860     0.0120   101.4230     2.4930    15.2460    12.2700    10.5990  1799.5200   -18.2680
 2909.0000  1740.0150     8.6860     0.0170   101.1580     2.5010    14.6860    12.2700    10.3590  1787.8190   -18.3680
 2909.5000  1717.5320     8.6860     0.0200   102.1880     2.4940    14.1900    12.3830    10.2390  1748.5270   -18.4830
 2910.0000  1695.0500     8.6860     0.0140   103.0370     2.4800    13.6940    12.5060    10.5780  1748.5270   -18.6320
 2910.5000  1672.5670     8.6860     0.0090   104.2740     2.4640    13.4320    12.6300    11.0680  1748.5270   -18.7260
 2911.0000  1650.0840     8.6860     0.0170   102.7320     2.4740    17.3020    12.7220    11.5590  1748.5270   -18.7580
 2911.5000  1627.6010     8.6860     0.0260    99.5280     2.5100    20.9350    12.7220    12.0500  1748.5270   -18.8010
 2912.0000  1605.1180     8.6860     0.0280    97.8320     2.5100    22.2940    12.4930    11.9400  1748.5270   -18.8410
 2912.5000  1582.6350     8.6860     0.0230    99.9040     2.4760    20.1160    12.2700    11.4360  1748.5270   -18.8820
 2913.0000  1564.3560     8.6860     0.0230   101.7560     2.4390    17.4370    12.4940    10.9320  1748.5270   -18.9180
 2913.5000  1683.1680     8.6860     0.0230   103.9400     2.4270    14.7590    12.3840    10.6160  1748.5270   -18.9690
 2914.0000  1683.1680     8.6860     0.0230   103.6460     2.4170    12.2700    12.3160    10.6160  1748.5270   -18.9950
 2914.5000  1722.7720     8.6860     0.0170   102.6170     2.4140    12.6550    12.2700    10.4260  1748.5270   -19.0400
 2915.0000  1712.6510     8.6860     0.0090   101.4640     2.4110    13.7810    12.0500    10.4260  1748.5270   -19.1610
 2915.5000  1701.8260     8.6860     0.0000   100.4080     2.4170    14.9070    11.6400    10.4260  1748.5270   -19.5270
 2916.0000  1691.0010     8.6860    -0.0050   100.7820     2.4190    16.3900    11.0680    10.0560  1748.5270   -19.4700
 2916.5000  1683.1680     8.6860    -0.0010   106.8600     2.4350    15.5330    10.4950     9.4960  1748.5270   -19.5000
 2917.0000  1683.1680     8.6860     0.0120   112.5810     2.4550    13.6560     9.9230     8.9410  1748.5270   -19.4710
 2917.5000  1684.1490     8.6860     0.0250   118.9460     2.4740    11.9650     9.3500     8.3860  1748.5270   -19.5240
 2918.0000  1685.0770     8.6860     0.0390   123.8030     2.4890    10.2730     8.7770     7.8310  1748.5270   -19.1770
 2918.5000  1686.0050     8.6860     0.0480   128.1330     2.4630     8.5820     8.0930     7.3930  1748.5270   -19.0860
 2919.0000  1686.9330     8.6860     0.0390   126.9560     2.4350     6.8770     7.8050     7.3930  1748.5270   -19.1330
 2919.5000  1687.8600     8.6860     0.0260   121.9930     2.4070     6.6320     7.8050     7.6650  1748.5270   -19.3200
 2920.0000  1688.7880     8.6860     0.0130   112.8580     2.3810    10.1040     9.0080     8.0910  1748.5270   -19.3690
 2920.5000  1689.7159     8.6860     0.0060   104.1220     2.4110    13.0490    10.0280     8.8740  1748.5270   -19.8460
 2921.0000  1690.6440     8.6860     0.0110    98.5700     2.4430    15.9940    11.0480     9.6560  1748.5270   -19.5810
 2921.5000  1691.5720     8.6860     0.0190    99.5890     2.4780    18.6040    12.0680    10.4390  1748.5270   -19.3220
 2922.0000  1692.5000     8.6860     0.0180    99.5290     2.4880    19.2890    13.0880    11.2210  1748.5270   -18.9170
 2922.5000  1693.4280     8.6860     0.0100    98.9080     2.4730    18.5420    14.1090    12.2700  1748.5270   -18.5770
