~VERSION INFORMATION
 VERS.                2.0:   CWLS LOG ASCII STANDARD - VERSION 2.0
 WRAP.                 NO:   ONE LINE PER DEPTH STEP
~WELL INFORMATION
#MNEM.UNIT      DATA TYPE    INFORMATION
#----------   ------------   ------------------------------
 STRT.F          207.0000:   START DEPTH
 STOP.F         3130.0000:   STOP DEPTH
 STEP.F            0.5000:   STEP LENGTH
 NULL.          -999.2500:   NO VALUE
 COMP. FENIX & SCISSON U.S. NAVY:   COMPANY
 WELL.    FENIX "A" #61-3:   WELL
 FLD .             NPR #3:   FIELD
 LOC .       S3 T38N R78W:   LOCATION
 CNTY.            NATRONA:   COUNTY
 STAT.            WYOMING:   STATE
 CTRY. UNITED STATES OF AMERICA:   COUNTRY
 SRVC.              WELEX:   SERVICE COMPANY
 DATE.        13-MAY-1977:   LOGDATE
 API .     49025103630000:   API NUMBER
~CURVE INFORMATION
#MNEM.UNIT       API CODE    CURVE DESCRIPTION
#----------   ------------   ------------------------------
 DEPT.F                  :   
 SPR .MV     07 010 01 00:   SPONTANEOUS POTENTIAL
 SFLU.OHMM   07 220 01 00:   SPHERICALLY FOCUSED LOG UNAVERAGED RESISTIVITY
 ILD .OHMM   07 120 46 00:   INDUCTION LOG DEEP RESISTIVITY
 ILM .OHMM   07 120 44 00:   INDUCTION LOG MEDIUM RESISTIVITY
 CALD.IN     45 280 60 00:   CALIPER FROM DENSITY LOG
 GRD .GAPI   45 310 01 00:   GAMMA RAY FROM DENSITY LOG
 RHOB.G/C3   45 350 01 00:   BULK DENSITY
 CORR.G/C3   45 356 01 00:   DENSITY CORRECTION
~PARAMETER INFORMATION
#MNEM.UNIT          VALUE    DESCRIPTION
#----------   ------------   ------------------------------
 EKB .F         5109.0000:   Kelly bushing
 EGL .F         5099.0000:   Ground level
 EDF .F            0.0000:   Drilling floor
 TD  .F         3130.0000:   Total depth
 DATE.        13-MAY-1977:   Date logged
 CLNT.            A2DTECH:   Client Code
 SL  . 330' FNL & 1650' FEL:   Surface Location
 PD  .                 GL:   Permanent Datum
 EPD .F              5099:   Elevation Permanent Datum
 LMF .                 KB:   Log Measured From
 DMF .                 KB:   Drilling Measured From
 DAPD.F                10:   Feet Above Permanent Datum
 DD  .F              3126:   Depth driller
 DL  .F              3129:   Depth logger
 BLI .F              3127:   Bottom log interval
 TLI .F               210:   Top log interval
 CS1 .IN            8.625:   Casing size
 CBD1.      8.625" @ 200':   Casing driller 1
 CBL1.F               216:   Casing logger 1
 BS1 .IN            7.875:   Bit size
 BSD1.F              3126:   Depth drilled with bit1
 DFT .            KCL MUD:   Type fluid in hole
 DFD .                9.1:   Density
 DFV .                 32:   Viscosity
 DFPH.                  8:   pH
 DFL .                8.4:   Fluid loss
 MSS .           FLOWLINE:   Source of sample
 RMS .OHMM            .29:   Rm
 MST .F                68:   Rm Meas. temp.
 RMF .OHMM            .28:   Rmf
 MFST.F                68:   Rmf Meas. temp.
 RMC .OHMM            .43:   Rmc
 MCST.F                68:   Rmc Meas. temp.
 MFSS.           FANN KIT:   Source Rmf.
 MCSS.           FANN KIT:   Source Rmc.
 RMB .OHMM            .16:   Rm. at BHT
 BHT .F               123:   BHT.
 TCS .HRS             2.5:   Time Circ. stopped
 MRT .F               123:   Maximum recorded temp.
 LUN .               9685:   Logging unit number
 LUL .           BRIGHTON:   Logging unit location
 ENGI.          T. JOYNER:   Recorded By
 WITN.      B. HARRINGTON:   Witnessed by
 ORIG.           5" PRINT:   Origin of data
 UWI .     49025103630000:   Unique Well ID
 DICO. A2D TECHNOLOGIES, INC.:   Digitizing Company
~OTHER INFORMATION
~A   DEPT      SPR       SFLU        ILD        ILM       CALD        GRD       RHOB       CORR   
# ...
 1179.0000   -34.1578     8.3374     6.5619     6.9347     9.0035   113.1407     2.5146     0.0151
 1179.5000   -33.9588     8.5710     6.6839     6.9347     9.0037   113.1447     2.5156     0.0192
 1180.0000   -33.9598     8.6503     6.8082     6.9989     8.9841   111.9604     2.5156     0.0192
 1180.5000   -34.1608     8.9749     6.9347     7.0637     8.9646   110.7762     2.5166     0.0232
 1181.0000   -33.7619     9.0580     6.9989     7.0637     8.9648   110.3841     2.5176     0.0212
 1181.5000   -33.7629     9.0580     7.0637     7.1290     8.9650   110.3881     2.5186     0.0213
 1182.0000   -33.9639     9.1418     6.9989     7.1290     8.9454   110.3520     2.5216     0.0193
 1182.5000   -33.7649     9.1418     7.0637     7.1290     8.9654   109.9599     2.5226     0.0193
 1183.0000   -33.7659     9.1418     6.9989     7.1290     8.9854   109.1726     2.5226     0.0214
 1183.5000   -33.7669     9.1418     6.9347     7.1290     8.9856   108.3852     2.5217     0.0194
 1184.0000   -33.7679     9.1418     7.0637     7.1290     9.0056   107.5979     2.5187     0.0194
 1184.5000   -33.5689     9.1418     7.0637     7.1290     9.0058   106.8106     2.5147     0.0194
 1185.0000   -33.3699     9.1418     7.1290     7.1290     8.9861   106.0232     2.5097     0.0155
 1185.5000   -33.3709     9.1418     7.3288     7.1290     8.9863   105.2317     2.5067     0.0155
 1186.0000   -33.1719     9.1418     7.2616     7.1290     9.0063   104.0475     2.5089     0.0156
 1186.5000   -33.1729     9.2264     7.2616     7.1950     9.0065   103.2593     2.5119     0.0156
 1187.0000   -33.1735     9.3979     7.2616     7.3288     9.0265   103.2633     2.5159     0.0176
 1187.5000   -33.0452     9.7506     7.3288     7.6038     9.0267   102.8712     2.5189     0.0196
 1188.0000   -32.9170     9.8408     7.3966     7.9621     9.0467   102.4790     2.5189     0.0197
 1188.5000   -32.7771     9.9318     7.4650     8.1102     9.0469   101.3348     2.5210     0.0217
 1189.0000   -32.9779    10.0237     7.7452     8.1102     9.0471   102.0909     2.5220     0.0217
 1189.5000   -32.9789    10.0237     7.7452     8.2610     9.0671   102.4909     2.5190     0.0198
 1190.0000   -33.1799    10.0237     7.7452     8.2610     9.0475   102.8908     2.5130     0.0198
 1190.5000   -33.1809    10.0237     7.7452     8.2610     9.0477   103.2908     2.5050    -0.0002
 1191.0000   -32.9819     9.9318     7.7452     8.2610     9.0479   103.2948     2.5000    -0.0001
 1191.5000   -32.9829    10.0237     7.7452     8.2610     9.0481   103.2987     2.4950    -0.0001
 1192.0000   -32.9839    10.0237     7.8891     8.1102     9.0483   103.3026     2.4900    -0.0001
 1192.5000   -32.9849    10.1165     7.9621     8.1102     9.0485   103.3066     2.4851    -0.0001
 1193.0000   -32.9859    10.1165     8.0358     8.1102     9.0685   103.3105     2.4859     0.0000
 1193.5000   -32.9869    10.1165     8.0358     8.1102     9.0489   103.3144     2.4899     0.0000
 1194.0000   -32.9879    10.2101     8.0358     8.1102     9.0689   103.3168     2.4939     0.0000
 1194.5000   -32.9889    10.2101     8.0358     8.1852     9.0295   103.3207     2.4979     0.0001
 1195.0000   -32.9899    10.2101     8.0358     8.2610     9.0495   103.3278     2.4979     0.0001
 1195.5000   -32.9909    10.2101     8.1102     8.3374     9.0497   102.9341     2.4969     0.0001
 1196.0000   -32.7919    10.2101     8.1102     8.4924     9.0301   102.9381     2.4969     0.0062
 1196.5000   -32.7929    10.2101     8.1102     8.6503     9.0303   102.5460     2.4999     0.0062
 1197.0000   -32.5939    10.2101     8.1852     8.7303     9.0305   102.5499     2.5019     0.0062
 1197.5000   -32.5949    10.2101     8.1852     8.8111     9.0109   102.9499     2.4981     0.0042
 1198.0000   -32.5959    10.2101     8.2610     8.8111     9.0111   102.9538     2.4942     0.0003
 1198.5000   -32.9969    10.2101     8.3374     8.8111     9.0113   102.9578     2.4912     0.0003
 1199.0000   -32.7979    10.3046     8.4145     8.8111     9.0115   102.5657     2.4902     0.0003
 1199.5000   -32.7989    10.0237     8.4145     8.8111     8.9919   102.1735     2.4902     0.0004
 1200.0000   -32.1999    10.1165     8.4924     8.8111     9.0317   101.7814     2.4942     0.0004
 1200.5000   -32.5519    10.2940     8.5695     8.8099     8.9802   100.7929     2.4964     0.0044
 1201.0000   -32.6000    10.4936     8.6478     8.8092     8.9727    99.8499     2.4982     0.0044
 1201.5000   -32.4000    10.6872     8.6471     8.8083     8.9531    99.4578     2.4982     0.0045
 1202.0000   -32.4000    11.1894     8.7260     9.0537     8.9335    99.4618     2.4982     0.0045
 1202.5000   -32.2000    11.5014     8.8870     9.3058     8.9535    99.0697     2.4942     0.0025
 1203.0000   -32.0000    11.9304     9.0511     9.3910     8.9537    99.0736     2.4913     0.0005
 1203.5000   -32.0000    11.8204     9.3895     9.6525     8.9341    98.6815     2.4843     0.0005
 1204.0000   -32.0000    12.2623     9.9211     9.9222     8.9343    97.8534     2.4823     0.0006
 1204.5000   -32.0000    13.0771     9.9203    10.0124     8.9147    97.8573     2.4843    -0.0014
 1205.0000   -32.2000    13.0754    10.0108    10.2918     8.8951    97.8597     2.4893    -0.0014
 1205.5000   -32.0000    13.3166    10.1955    10.8744     8.8953    97.7843     2.4923    -0.0014
 1206.0000   -32.2000    13.5627    10.3837    10.9742     8.8955    97.7089     2.4903     0.0026
 1206.5000   -32.2000    13.8126    10.6732    11.4892     8.8956    97.6335     2.4943     0.0107
 1207.0000   -32.4000    14.0678    10.8701    11.5942     8.8563    97.5581     2.5003     0.0147
 1207.5000   -32.2000    14.1961    11.1731    11.9174     8.8366    97.4850     2.5053     0.0187
 1208.0000   -32.2000    14.3255    11.4846    12.0251     8.8368    95.9048     2.5114     0.0187
 1208.5000   -32.2000    14.4557    11.6965    12.0241     8.8370    95.9087     2.5144     0.0187
 1209.0000   -32.0000    14.5874    11.9123    12.0232     8.8373    97.4969     2.5144     0.0208
 1209.5000   -32.4000    14.5855    11.9108    12.0213     8.8373    99.4811     2.5134     0.0208
 1210.0000   -32.8000    14.5835    11.9092    12.0197     8.8376   100.2772     2.5134     0.0208
 1210.5000   -32.8000    14.5819    11.9076    12.1289     8.8180   100.2811     2.5134     0.0188
 1211.0000   -33.0000    14.5799    11.7969    12.1273     8.8183   100.2851     2.5154     0.0188
 1211.5000   -33.0000    14.3120    11.6872    12.1260     8.8184   101.4772     2.5184     0.0188
 1212.0000   -33.0000    14.1785    11.4724    12.1244     8.8186   102.6693     2.5214     0.0189
 1212.5000   -33.0000    13.9187    11.2616    12.1228     8.8187   102.2772     2.5224     0.0189
 1213.0000   -33.0000    13.5369    10.9533    11.5755     8.8190   102.2811     2.5205     0.0189
 1213.5000   -33.2000    13.4114    10.3630    11.0532     8.8191   102.6811     2.5175     0.0169
 1214.0000   -33.2000    13.2867    10.0796    10.7506     8.8194   103.4772     2.5143     0.0110
 1214.5000   -33.4000    13.0428     9.7138    10.5531     8.8196   103.8772     2.5153     0.0150
 1215.0000   -33.2000    12.4537     9.5353    10.3591     8.8198   104.2772     2.5183     0.0150
 1215.5000   -33.2000    12.4514     9.3601    10.1691     8.8002   103.4891     2.5223     0.0170
 1216.0000   -33.4000    12.4507     9.1881    10.0748     8.8796   102.3049     2.5185     0.0170
 1216.5000   -33.2000    12.4487     9.1869     9.7985     8.8798   103.1017     2.5145     0.0131
 1217.0000   -33.4000    12.4477     9.1016     9.7972     8.8800   103.1049     2.5095     0.0131
 1217.5000   -33.6000    12.3316     9.1004     9.7962     8.8802   103.9009     2.5185     0.0111
 1218.0000   -33.4000    12.3300     9.0992     9.7949     8.8804   103.9049     2.5236     0.0131
 1218.5000   -33.4000    12.2154     9.0980     9.7937     8.8806   102.3247     2.5216     0.0131
 1219.0000   -33.2000    12.1015     9.0968     9.7921     8.8214   101.5365     2.5196     0.0132
