~VERSION INFORMATION
 VERS.                2.0:   CWLS LOG ASCII STANDARD - VERSION 2.0
 WRAP.                 NO:   ONE LINE PER DEPTH STEP
~WELL INFORMATION
#MNEM.UNIT      DATA TYPE    INFORMATION
#----------   ------------   ------------------------------
 STRT.F           16.0000:   START DEPTH
 STOP.F         2860.0000:   STOP DEPTH
 STEP.F            0.5000:   STEP LENGTH
 NULL.          -999.2500:   NO VALUE
 COMP.    FENIX & SCISSON:   COMPANY
 WELL. FENIX NPR 3 "AX" #22-21:   WELL
 FLD .  TEAPOT DOME - NPR:   FIELD
 LOC .      S21 T39N R78W:   LOCATION
 CNTY.            NATRONA:   COUNTY
 STAT.            WYOMING:   STATE
 CTRY. UNITED STATES OF AMERICA:   COUNTRY
 SRVC.      DRESSER ATLAS:   SERVICE COMPANY
 DATE.        07-AUG-1978:   LOGDATE
 API .     49025106790000:   API NUMBER
~CURVE INFORMATION
#MNEM.UNIT       API CODE    CURVE DESCRIPTION
#----------   ------------   ------------------------------
 DEPT.F                  :   
 CALD.IN     45 280 60 00:   CALIPER FROM DENSITY LOG
 GRD .GAPI   45 310 01 00:   GAMMA RAY FROM DENSITY LOG
 CORR.G/C3   45 356 01 00:   DENSITY CORRECTION
 RHOB.G/C3   45 350 01 00:   BULK DENSITY
 SPR .MV     05 010 01 00:   SPONTANEOUS POTENTIAL
 ILD .OHMM   05 120 46 00:   DEEP INDUCTION RESISTIVITY
 SN  .OHMM   05 040 00 00:   SHORT NORMAL
~PARAMETER INFORMATION
#MNEM.UNIT          VALUE    DESCRIPTION
#----------   ------------   ------------------------------
 EKB .F         4989.0000:   Kelly bushing
 EGL .F         4979.0000:   Ground level
 EDF .F            0.0000:   Drilling floor
 TD  .F         2847.0000:   Total depth
 DATE.        07-AUG-1978:   Date logged
 CLNT.            A2DTECH:   Client Code
 SL  . 880' FNL & 660' FWL:   Surface Location
 PD  .                 GL:   Permanent Datum
 DD  .F              2845:   Depth driller
 DL  .F              2847:   Depth logger
 BLI .F              2841:   Bottom log interval
 CS1 .IN            8.625:   Casing size
 CBD1.      8.625" @ 240':   Casing driller 1
 CBL1.F               240:   Casing logger 1
 BS1 .IN            7.875:   Bit size
 DFT .                KCL:   Type fluid in hole
 DFD .                9.2:   Density
 DFV .                 31:   Viscosity
 DFPH.               10.5:   pH
 MSS .           FLOWLINE:   Source of sample
 RMS .OHMM           1.25:   Rm
 MST .F                74:   Rm Meas. temp.
 RMF .OHMM            1.8:   Rmf
 MFST.F                76:   Rmf Meas. temp.
 RMC .OHMM              3:   Rmc
 MCST.F                78:   Rmc Meas. temp.
 MFSS.               MEAS:   Source Rmf.
 TCS .HRS               4:   Time Circ. stopped
 LUN .               3006:   Logging unit number
 LUL .               CASP:   Logging unit location
 ENGI.             MILLER:   Recorded By
 WITN.           MCGINLEY:   Witnessed by
 ORIG.           5" PRINT:   Origin of data
 UWI .     49025106790000:   Unique Well ID
 DICO. A2D TECHNOLOGIES, INC.:   Digitizing Company
 DAPD.                 10:   Feet Above Permanent Datum
 BSD1.F              2845:   Depth drilled with bit1
 EPD .F              4970:   Elevation Permanent Datum
 LMF .                 KB:   Log Measured From
 DMF .                 KB:   Drilling Measured From
 TLI .                240:   Top log interval
~OTHER INFORMATION
~A   DEPT     CALD         GRD      CORR       RHOB        SPR        ILD         SN   
# ...
 1608.5000     8.2300   108.6020     0.0720     2.4770    -8.7520     5.1060     8.2410
 1609.0000     7.9330   110.5390     0.0380     2.5080    -8.1120     5.0300     7.9080
 1609.5000     8.0020   112.4510     0.0110     2.4910    -7.9230     4.9420     7.5740
 1610.0000     8.0660   113.7580     0.0160     2.4730    -7.7530     4.7850     7.2540
 1610.5000     8.1270   112.8470     0.0200     2.4490    -7.7060     4.6000     6.9930
 1611.0000     7.9200   112.1790     0.0270     2.4530    -7.7090     4.3220     7.0270
 1611.5000     8.0880   112.2490     0.0280     2.4690    -7.7090     4.3270     7.0670
 1612.0000     8.2890   117.3790     0.0200     2.4830    -7.7080     4.5930     7.1070
 1612.5000     7.9650   123.3300     0.0100     2.4950    -7.7080     4.8580     7.1480
 1613.0000     8.0660   122.7110     0.0080     2.4870    -7.7080     5.1260     7.1880
 1613.5000     8.0780   123.2950     0.0060     2.4770    -7.7060     5.0690     7.2290
 1614.0000     8.0800   123.6610     0.0060     2.4770    -7.7110     5.0120     7.3520
 1614.5000     8.1020   124.3860     0.0090     2.4790    -7.6720     4.9550     7.6130
 1615.0000     8.1100   126.4960     0.0120     2.4800    -7.6090     5.0210     7.8740
 1615.5000     8.1030   128.7010     0.0150     2.4770    -7.5510     5.1240     8.0940
 1616.0000     8.0760   128.8440     0.0170     2.4750    -7.4950     5.2270     8.0940
 1616.5000     8.0500   126.8200     0.0170     2.4770    -7.4350     5.3170     8.0940
 1617.0000     8.0360   124.8230     0.0180     2.4720    -7.3790     5.2720     8.0940
 1617.5000     8.0630   124.8760     0.0180     2.4650    -7.3200     5.2320     8.0940
 1618.0000     8.0920   123.4610     0.0190     2.4720    -7.2860     5.1930     8.0940
 1618.5000     8.1210   121.4690     0.0190     2.4710    -7.2210     5.1530     8.0470
 1619.0000     8.1490   119.3360     0.0200     2.4630    -7.1620     5.1120     7.9950
 1619.5000     8.1080   119.2540     0.0200     2.4510    -7.0990     5.0670     7.9480
 1620.0000     8.0490   119.2690     0.0210     2.4320    -7.0380     5.0210     7.7680
 1620.5000     8.0880   119.4070     0.0270     2.4140    -6.9770     4.9750     7.5050
 1621.0000     8.1070   119.4170     0.0300     2.3920    -6.9150     4.8620     7.2430
 1621.5000     8.1290   119.5810     0.0600     2.3810    -6.8540     4.5600     6.9810
 1622.0000     8.1450   119.0990     0.0920     2.3540    -6.7920     4.2580     6.7180
 1622.5000     8.1620   117.0060     0.1210     2.5080    -6.7310     3.9690     6.4560
 1623.0000     8.1800   113.2360     0.0620     2.4770    -6.6690     3.9960     6.1940
 1623.5000     8.1970   111.0760     0.0450     2.4810    -6.6090     4.0350     5.9310
 1624.0000     8.2130   109.5620     0.0330     2.4790    -6.5450     4.0290     5.6690
 1624.5000     8.2350   108.8070     0.0260     2.4840    -6.5210     3.9700     5.4640
 1625.0000     8.2270   107.9180     0.0290     2.4640    -6.5260     3.9100     5.3170
 1625.5000     8.2430   106.9400     0.0320     2.4460    -6.5740     3.8260     5.5490
 1626.0000     8.2520   106.7390     0.0290     2.4590    -6.6250     3.8650     6.2150
 1626.5000     8.7940   107.6490     0.0270     2.4690    -6.6770     3.9300     6.1240
 1627.0000     8.6460   108.4890     0.0240     2.4740    -6.7290     3.9960     5.9420
 1627.5000     8.3620   109.3250     0.0210     2.4750    -6.7810     4.0610     5.7200
 1628.0000     8.2870   110.6870     0.0170     2.4670    -6.8310     4.1160     5.7200
 1628.5000     8.2360   111.9580     0.0270     2.4460    -6.8920     4.1160     5.7200
 1629.0000     8.2210   112.5020     0.0520     2.4360    -6.8380     4.1160     5.8030
 1629.5000     8.2090   112.3540     0.0750     2.4280    -6.5810     4.1160     5.8910
 1630.0000     8.1960   112.4370     0.0560     2.4800    -6.6580     4.1160     6.3920
 1630.5000     8.1950   112.2770     0.0190     2.5360    -6.8470     4.3160     6.9930
 1631.0000     8.1940   116.1260     0.0190     2.5360    -7.0330     4.5940     6.9930
 1631.5000     8.1950   120.4800     0.0200     2.5370    -7.2150     4.8720     7.1220
 1632.0000     8.1940   122.3680     0.0230     2.5370    -7.3990     5.1260     7.1220
 1632.5000     8.1940   121.7770     0.0240     2.5360    -7.5970     5.1260     7.1220
 1633.0000     8.1850   121.5720     0.0260     2.5360    -7.7360     5.1260     7.1220
 1633.5000     8.1740   121.6810     0.0280     2.5360    -7.7770     5.3290     7.5750
 1634.0000     8.1630   121.7470     0.0270     2.5350    -7.8350     5.5180     8.2520
 1634.5000     8.1550   121.9040     0.0240     2.5360    -7.8900     5.7080     9.0320
 1635.0000     8.1560   121.8270     0.0220     2.5350    -7.9440     5.8970     9.0420
 1635.5000     8.1480   121.3710     0.0200     2.5340    -8.0000     6.0420     9.0640
 1636.0000     8.1340   121.1650     0.0170     2.5170    -8.0540     5.9950     9.0850
 1636.5000     8.1210   120.7340     0.0190     2.5000    -8.1010     5.9380     9.1070
 1637.0000     8.1080   124.0060     0.0240     2.4910    -8.1020     5.8800     9.1290
 1637.5000     8.0950   126.6250     0.0280     2.5000    -8.1030     5.8230     9.1510
 1638.0000     8.0820   127.7260     0.0270     2.5010    -8.1020     5.7660     9.1720
 1638.5000     8.0690   125.4090     0.0270     2.4930    -8.1030     5.7200     9.1990
 1639.0000     8.0560   124.1310     0.0250     2.4960    -8.1030     5.7200     9.1230
 1639.5000     8.0430   124.5010     0.0250     2.4990    -8.1030     5.7200     8.9240
 1640.0000     8.0300   124.6570     0.0260     2.4900    -8.1030     5.7200     8.7250
 1640.5000     8.0170   124.3330     0.0340     2.4810    -8.1030     5.7200     8.3950
 1641.0000     8.0050   124.0390     0.0420     2.4830    -8.1030     5.6770     8.4220
 1641.5000     7.9920   124.1220     0.0370     2.4890    -8.1030     5.6410     8.5500
 1642.0000     7.9790   124.9040     0.0270     2.4960    -8.1030     5.5150     8.5220
 1642.5000     7.9660   126.1580     0.0180     2.4730    -8.1030     5.4220     8.4380
 1643.0000     7.9530   126.8970     0.0270     2.4590    -8.1030     5.3230     8.3530
 1643.5000     7.9400   127.0980     0.0390     2.4750    -8.1030     5.2230     8.2690
 1644.0000     7.9270   128.0800     0.0280     2.5040    -8.1020     5.1240     8.2000
 1644.5000     7.9170   129.3300     0.0130     2.4970    -8.1030     5.0330     8.0560
 1645.0000     7.9170   130.2070     0.0050     2.4880    -8.1040     5.1260     7.9120
 1645.5000     7.9170   134.6030     0.0100     2.4780    -8.0990     5.3130     7.6960
 1646.0000     7.9170   141.1500     0.0120     2.4680    -8.1470     5.5260     7.8410
 1646.5000     7.9190   149.0760     0.0060     2.4560    -8.3020     5.7390     8.5140
 1647.0000     7.9120   159.1660     0.0090     2.4430    -8.4810     5.9520     9.1870
 1647.5000     7.9220   166.3520     0.0140     2.4310    -8.4990     6.1650     9.8600
 1648.0000     7.9180   169.3220     0.0270     2.4180    -8.4930     6.5000    10.6470
 1648.5000     7.8870   167.1120     0.0390     2.4180    -8.5590     6.4040    10.6180
 1649.0000     7.8940   163.7480     0.0490     2.4200    -8.7350     6.1780    10.5490
 1649.5000     7.6210   166.5870     0.0410     2.4300    -8.8740     5.9520    10.4810
 1650.0000     8.9080   174.1680     0.0250     2.4570    -8.8880     5.7260    10.4540
 1650.5000     8.5820   181.6710     0.0080     2.4570    -8.5110     5.5000     9.4390
 1651.0000     8.2780   185.6730    -0.0010     2.4530    -8.0570     5.2330     8.5950
 1651.5000     7.8690   187.1110    -0.0020     2.4450    -7.4220     5.2570     8.3240
 1652.0000     7.7740   188.5180    -0.0020     2.4310    -6.9500     5.3040     8.2430
 1652.5000     7.8010   190.7280     0.0010     2.4230    -7.4250     5.3810     8.2430
 1653.0000     7.8290   194.4780     0.0040     2.4190    -8.1550     5.5790     8.8090
 1653.5000     7.8380   198.4730     0.0040     2.4200    -8.9230     5.8820     9.9130
