~VERSION INFORMATION
 VERS.                2.0:   CWLS LOG ASCII STANDARD - VERSION 2.0
 WRAP.                 NO:   ONE LINE PER DEPTH STEP
~WELL INFORMATION
#MNEM.UNIT      DATA TYPE    INFORMATION
#----------   ------------   ------------------------------
 STRT.F          520.0000:   START DEPTH
 STOP.F         3092.0000:   STOP DEPTH
 STEP.F            0.5000:   STEP LENGTH
 NULL.          -999.2500:   NO VALUE
 COMP.    FENIX & SCISSON:   COMPANY
 WELL. FENIX 87 "AX" #3-3:   WELL
 FLD .              N P R:   FIELD
 LOC .       S3 T38N R78W:   LOCATION
 CNTY.            NATRONA:   COUNTY
 STAT.            WYOMING:   STATE
 CTRY. UNITED STATES OF AMERICA:   COUNTRY
 SRVC.              WELEX:   SERVICE COMPANY
 DATE.        30-OCT-1980:   LOGDATE
 API .     49025108510000:   API NUMBER
~CURVE INFORMATION
#MNEM.UNIT       API CODE    CURVE DESCRIPTION
#----------   ------------   ------------------------------
 DEPT.F                  :   
 CALD.IN     45 280 60 00:   CALIPER FROM DENSITY LOG
 GRD .GAPI   45 310 01 00:   GAMMA RAY FROM DENSITY LOG
 RHOB.G/C3   45 350 01 00:   BULK DENSITY
 CORR.G/C3   45 356 01 00:   DENSITY CORRECTION
 SPR .MV     07 010 01 00:   SPONTANEOUS POTENTIAL
 ILD .OHMM   07 120 46 00:   DEEP INDUCTION RESISTIVITY
 ILM .OHMM   07 120 44 00:   INDUCTION LOG MEDIUM RESISTIVITY
 SGRD.OHMM   07 220 05 00:   SHALLOW SHORT GUARD RESISTIVITY
~PARAMETER INFORMATION
#MNEM.UNIT          VALUE    DESCRIPTION
#----------   ------------   ------------------------------
 EKB .F         5131.0000:   Kelly bushing
 EGL .F         5121.0000:   Ground level
 TD  .F         3095.0000:   Total depth
 DATE.        30-OCT-1980:   Date logged
 CLNT.            A2DTECH:   Client Code
 SL  . 910' FWL & 95' FEL:   Surface Location
 PD  .                 GL:   Permanent Datum
 EPD .F              5121:   Elevation Permanent Datum
 LMF .                 KB:   Log Measured From
 DMF .                 KB:   Drilling Measured From
 DD  .F              3095:   Depth driller
 DL  .F              3094:   Depth logger
 BLI .F              3092:   Bottom log interval
 TLI .F               525:   Top log interval
 CS1 .IN            9.625:   Casing size
 CBD1.      9.625" @ 525':   Casing driller 1
 CBL1.F               525:   Casing logger 1
 BS1 .IN            7.875:   Bit size
 DFT .          DISPERSED:   Type fluid in hole
 DFD .                  9:   Density
 DFV .                 40:   Viscosity
 DFPH.                 10:   pH
 DFL .                  8:   Fluid loss
 MSS .             MUDPIT:   Source of sample
 RMS .OHMM           2.40:   Rm
 MST .F                68:   Rm Meas. temp.
 MFST.F                68:   Rmf Meas. temp.
 RMC .OHMM            2.8:   Rmc
 MCST.F                68:   Rmc Meas. temp.
 MFSS.F              MEAS:   Source Rmf.
 RMB .OHMM           1.36:   Rm. at BHT
 BHT .F               120:   BHT.
 TCS .HRS             5.5:   Time Circ. stopped
 MRT .F               120:   Maximum recorded temp.
 LUN .               1891:   Logging unit number
 LUL .             CASPER:   Logging unit location
 ENGI.          PFERIMMER:   Recorded By
 WITN.              FIVAS:   Witnessed by
 ORIG.           5" PRINT:   Origin of data
 UWI .     49025108510000:   Unique Well ID
 DICO. A2D TECHNOLOGIES, INC.:   Digitizing Company
 DAPD.F                10:   Feet Above Permanent Datum
 BSD1.F              3095:   Depth drilled with bit1
 RMF .OHMM           1.92:   Rmf
 MCSS.               MEAS:   Source Rmc.
~OTHER INFORMATION
~A   DEPT     CALD        GRD       RHOB       CORR        SPR          ILD        ILM      SGRD  
# ...
  682.0000     9.3520    80.1210     2.4410     0.0350   -26.8520     8.4790     9.4420    10.9630
  682.5000     9.3640    79.7540     2.4510     0.0400   -26.8590     8.4370     9.3820    10.8630
  683.0000     9.3750    79.5780     2.4570     0.0390   -26.8650     8.3950     9.3210    10.7630
  683.5000     9.3870    80.0170     2.4400     0.0330   -26.8720     8.3530     9.2610    10.6640
  684.0000     9.3990    80.4510     2.4230     0.0270   -26.8780     8.3110     9.2000    10.5640
  684.5000     9.4100    80.8820     2.4070     0.0210   -26.8850     8.2690     9.1400    10.4640
  685.0000     9.4210    81.3130     2.3990     0.0160   -26.8910     8.2270     9.0790    10.3640
  685.5000     9.4250    81.7430     2.4220     0.0130   -26.8980     8.1850     9.0190    10.2650
  686.0000     9.4290    82.1740     2.4390     0.0140   -26.9040     8.1430     8.9580    10.1650
  686.5000     9.4340    82.6060     2.4550     0.0150   -26.9100     8.1010     8.8980    10.0650
  687.0000     9.4380    83.0360     2.4530     0.0160   -26.9170     8.0590     8.8370     9.9650
  687.5000     9.4420    83.3360     2.4500     0.0220   -26.9230     8.0170     8.7770     9.8660
  688.0000     9.4460    83.0060     2.4570     0.0290   -26.9300     7.9750     8.7160     9.7660
  688.5000     9.4500    82.6860     2.4580     0.0360   -26.9360     7.9330     8.6560     9.6780
  689.0000     9.4550    82.3690     2.4540     0.0420   -26.9430     7.8900     8.5950     9.5000
  689.5000     9.4590    82.0510     2.4490     0.0400   -26.9490     7.8480     8.5350     9.5520
  690.0000     9.4530    81.9710     2.4450     0.0370   -26.9560     7.7510     8.4740     9.6450
  690.5000     9.4330    82.1310     2.4430     0.0340   -26.9620     7.6800     8.4140     9.7370
  691.0000     9.4220    82.2910     2.4540     0.0320   -26.9690     7.6850     8.3470     9.8930
  691.5000     9.4250    82.4610     2.4630     0.0290   -26.9750     7.6930     8.4170    10.0420
  692.0000     9.4390    82.1580     2.4680     0.0270   -26.9820     7.7010     8.5170    10.0420
  692.5000     9.4530    81.6730     2.4620     0.0280   -26.9880     7.7090     8.6180    10.0420
  693.0000     9.4820    81.1840     2.4560     0.0290   -26.9940     7.7170     8.7180    10.0020
  693.5000     9.4650    80.6930     2.4510     0.0300   -26.9980     7.7250     8.8180     9.9030
  694.0000     9.4400    80.1960     2.4600     0.0320   -26.9980     7.7320     8.9190     9.8040
  694.5000     9.4200    80.5480     2.4700     0.0350   -26.9980     7.7400     8.9880     9.7060
  695.0000     9.4080    81.0140     2.4810     0.0450   -26.9980     7.7480     8.8530     9.6070
  695.5000     9.3960    81.4800     2.4910     0.0550   -26.9980     7.7510     8.7500     9.5080
  696.0000     9.3840    81.9370     2.4770     0.0610   -26.9980     7.7500     8.6470     9.4100
  696.5000     9.3720    81.9840     2.4590     0.0540   -26.9980     7.7530     8.5450     9.3110
  697.0000     9.3600    81.4550     2.4410     0.0470   -26.9980     7.5860     8.4420     9.2300
  697.5000     9.3480    80.9330     2.4310     0.0400   -26.9980     7.4720     8.3400     9.1930
  698.0000     9.3360    80.4080     2.4330     0.0330   -26.9980     7.3580     8.2370     9.1570
  698.5000     9.3240    79.8820     2.4300     0.0270   -26.9980     7.2440     8.1180     9.1200
  699.0000     9.3120    79.3560     2.4210     0.0320   -26.9980     7.1300     8.0600     9.0840
  699.5000     9.3000    78.9900     2.4260     0.0370   -26.9980     7.0020     7.9870     9.0710
  700.0000     9.2870    79.6460     2.4380     0.0420   -26.9980     7.0020     7.9150     9.2310
  700.5000     9.2840    80.2930     2.4510     0.0470   -26.9980     6.9370     7.8420     9.3580
  701.0000     9.2840    80.9360     2.4660     0.0520   -26.9980     7.0000     7.8230     9.4850
  701.5000     9.2840    81.5810     2.4820     0.0510   -26.9980     7.0840     7.8960     9.6120
  702.0000     9.2840    82.1910     2.4970     0.0500   -26.9980     7.1690     7.9700     9.7390
  702.5000     9.2840    82.2100     2.5080     0.0490   -26.9980     7.2530     8.0640     9.8660
  703.0000     9.2840    82.2070     2.5130     0.0480   -26.9980     7.3370     8.1550     9.9930
  703.5000     9.2840    82.2060     2.5120     0.0450   -26.9980     7.4220     8.2450    10.1200
  704.0000     9.2840    82.2060     2.4990     0.0360   -26.9980     7.5060     8.3360    10.2480
  704.5000     9.2840    82.2040     2.4760     0.0260   -26.9980     7.5390     8.4240    10.3750
  705.0000     9.2840    82.2140     2.4500     0.0170   -26.9980     7.5200     8.4240    10.4210
  705.5000     9.2840    82.5070     2.4110     0.0200   -26.9980     7.4960     8.4240    10.4210
  706.0000     9.2860    82.8110     2.3720     0.0230   -26.9980     7.4720     8.3470    10.3090
  706.5000     9.2900    83.1140     2.3360     0.0260   -26.9980     7.4480     8.2700    10.0900
  707.0000     9.2930    83.4150     2.2790     0.0290   -26.9980     7.4250     8.2060     9.8720
  707.5000     9.2970    83.7180     2.2170     0.0300   -26.9980     7.4010     8.0960     9.6540
  708.0000     9.3010    84.2210     2.1550     0.0290   -26.9980     7.3770     7.9870     9.4350
  708.5000     9.3040    85.7470     2.1290     0.0280   -26.9980     7.3540     7.8770     9.2170
  709.0000     9.3080    87.2780     2.2650     0.0270   -26.9900     7.3330     7.7680     8.9880
  709.5000     9.3120    87.8880     2.3850     0.0260   -26.9810     7.1440     7.6580     9.1390
  710.0000     9.3160    88.0460     2.4030     0.0250   -26.9710     6.9460     7.5480     9.3390
  710.5000     9.3190    88.1960     2.4170     0.0270   -26.9620     6.7470     7.4390     9.5000
  711.0000     9.3230    88.3470     2.4260     0.0290   -26.9520     6.5490     7.3290     9.5000
  711.5000     9.3270    88.4990     2.4340     0.0290   -26.9430     6.3500     7.2200     9.1440
  712.0000     9.3300    88.6500     2.4510     0.0280   -26.9340     6.1520     7.1100     8.8160
  712.5000     9.3340    88.7990     2.4630     0.0280   -26.9240     5.9530     7.0010     8.4880
  713.0000     9.3380    88.9330     2.4620     0.0270   -26.9150     5.7550     6.8910     8.1610
  713.5000     9.3420    89.6380     2.4600     0.0270   -26.9050     5.5570     6.8100     7.8330
  714.0000     9.3450    90.3960     2.4600     0.0270   -26.8960     5.4290     6.7470     7.4700
  714.5000     9.3490    91.1480     2.4560     0.0260   -26.8870     5.2830     6.7470     7.4010
  715.0000     9.3530    91.5490     2.4580     0.0280   -26.8770     5.1380     6.6850     7.4410
  715.5000     9.3560    91.3460     2.4570     0.0310   -26.8680     4.9920     6.6850     7.4700
  716.0000     9.3600    91.1510     2.4400     0.0330   -26.8580     4.8470     6.6850     7.4700
  716.5000     9.3650    90.9550     2.4230     0.0350   -26.8490     4.7010     6.6850     7.2860
  717.0000     9.3750    90.7600     2.4050     0.0370   -26.8400     4.5560     6.6240     7.1380
  717.5000     9.3850    90.5650     2.4020     0.0400   -26.8300     4.4100     6.4480     6.9910
  718.0000     9.3950    90.3690     2.4120     0.0370   -26.8210     4.2640     6.2070     6.8430
  718.5000     9.4050    90.1740     2.4200     0.0330   -26.8110     4.1190     5.9670     6.6950
  719.0000     9.4150    89.9780     2.4150     0.0280   -26.8070     4.0580     5.7130     6.5470
  719.5000     9.4240    89.7820     2.4230     0.0230   -26.8440     4.0580     5.6600     6.4430
  720.0000     9.4340    89.5860     2.4330     0.0180   -26.8820     4.0580     5.8720     6.6160
  720.5000     9.4440    89.3950     2.4450     0.0190   -26.9190     4.0580     6.1060     6.7510
  721.0000     9.4540    89.3670     2.4570     0.0220   -26.9560     4.1080     6.3400     6.8850
  721.5000     9.4640    89.6810     2.4650     0.0260   -26.9940     4.1720     6.5630     7.0190
  722.0000     9.4740    89.9890     2.4640     0.0290   -27.0310     4.2360     6.6580     7.1540
