~VERSION INFORMATION
 VERS.                2.0:   CWLS LOG ASCII STANDARD - VERSION 2.0
 WRAP.                 NO:   ONE LINE PER DEPTH STEP
~WELL INFORMATION
#MNEM.UNIT      DATA TYPE    INFORMATION
#----------   ------------   ------------------------------
 STRT.F            0.5000:   START DEPTH
 STOP.F         1380.0000:   STOP DEPTH
 STEP.F            0.5000:   STEP LENGTH
 NULL.          -999.2500:   NO VALUE
 COMP.       FLUOR DANIEL:   COMPANY
 WELL. FLUOR 84 "X" #1-14:   WELL
 FLD .          N.P.R. #3:   FIELD
 LOC .      S14 T38N R78W:   LOCATION
 CNTY.            NATRONA:   COUNTY
 STAT.            WYOMING:   STATE
 CTRY. UNITED STATES OF AMERICA:   COUNTRY
 SRVC.     ATLAS WIRELINE:   SERVICE COMPANY
 DATE.        24-AUG-1994:   LOGDATE
 API .     49025226370000:   API NUMBER
~CURVE INFORMATION
#MNEM.UNIT       API CODE    CURVE DESCRIPTION
#----------   ------------   ------------------------------
 DEPT.F                  :   
 GRR .GAPI   07 310 01 00:   GAMMA RAY FROM RESISTIVITY
 RILD.OHMM   07 120 46 00:   INDUCTION LOG DEEP RESISTIVITY
 RILM.OHMM   07 120 44 00:   INDUCTION LOG MEDIUM RESISTIVITY
 TENR.LBS    07 635 01 00:   TENSION FROM RESISTIVITY
~PARAMETER INFORMATION
#MNEM.UNIT          VALUE    DESCRIPTION
#----------   ------------   ------------------------------
 EKB .F         5326.0000:   Kelly bushing
 EGL .F         5316.0000:   Ground level
 EDF .F         5325.0000:   Drilling floor
 TD  .F         1368.0000:   Total depth
 CLNT.            A2DTECH:   Client Code
 PD  .                 GL:   Permanent Datum
 EPD .F              5316:   Elevation Permanent Datum
 LMF .                 KB:   Log Measured From
 DMF .                 KB:   Drilling Measured From
 DAPD.F                10:   Feet Above Permanent Datum
 DATE.        24-AUG-1994:   Date Logged [DD-MMM-YYYY]
 DD  .F              1368:   Depth driller
 DL  .F              1364:   Depth logger
 BLI .F              1356:   Bottom log interval
 TLI .F                 0:   Top log interval
 CS1 .IN            9.625:   Casing size
 CBD1.       9.625" @ 56':   Casing driller 1
 CBL1.F                56:   Casing logger 1
 BS1 .IN             8.75:   Bit size
 BSD1.F              1368:   Depth drilled with bit1
 DFT .                AIR:   Type fluid in hole
 LUN .            HL 6530:   Logging unit number
 LUL .             CASPER:   Logging unit location
 WITN.        GARY STRONG:   Witnessed by
 ORIG.         2.5" PRINT:   Origin of data
 UWI .     49025226370000:   Unique Well ID
 DICO. A2D TECHNOLOGIES, INC.:   Digitizing Company
 SL  . 2551' FNL & 575' FEL:   Surface Location
~OTHER INFORMATION
~A    DEPT      GRR      RILD       RILM       TENR   
# ...
  146.5000   132.4511     6.2992     6.4372   -44.2190
  147.0000   132.6886     6.3841     6.6162   -45.4842
  147.5000   132.2705     6.6518     6.7073   -46.7494
  148.0000   131.4717     6.7406     6.7997   -48.0146
  148.5000   126.6725     6.8314     6.7992   -49.2797
  149.0000   125.4660     6.9234     6.7988   -50.4677
  149.5000   126.6548     6.9204     6.7983   -35.2374
  150.0000   121.8556     6.9175     6.7050   -32.3932
  150.5000   118.2539     6.8200     6.6130   -19.6588
  151.0000   117.0475     6.7238     6.4333   -34.1632
  151.5000   118.8351     6.6053     6.3450   -33.7537
  152.0000   120.6228     6.5093     6.3446   -33.3828
  152.5000   117.6148     6.3552     6.3441   -33.0119
  153.0000   117.6627     6.2660     6.4315   -32.6409
  153.5000   119.5858     6.3504     6.4311   -32.2700
  154.0000   123.7844     6.4354     6.4306   -31.8991
  154.5000   126.5665     6.5220     6.3424   -31.5282
  155.0000   126.4471     6.5193     6.3420   -31.1573
  155.5000   125.0888     6.3821     6.3415   -30.7863
  156.0000   122.9472     6.3368     6.3411   -30.4154
  156.5000   126.7026     6.3342     6.3407   -30.0445
  157.0000   127.1212     6.4194     6.4280   -29.6736
  157.5000   124.8852     6.5957     6.5443   -29.3027
  158.0000   121.1155     6.6850     6.7292   -28.9317
  158.5000   125.4671     6.8687     6.8249   -28.5608
  159.0000   128.2375     7.0578     7.0177   -28.1899
  159.5000   129.4701     7.2522     7.2160   -27.8190
  160.0000   128.5429     7.4519     7.4198   -27.4481
  160.5000   122.5379     7.6572     7.6294   -27.0771
  161.0000   118.0641     7.7603     7.7379   -26.7062
  161.5000   117.4565     7.8650     7.7873   -26.3353
  162.0000   118.0479     7.9709     7.7868   -25.9644
  162.5000   113.8460     7.7509     7.7862    -5.1929
  163.0000   113.5309     7.5370     7.7856     4.4510
  163.5000   118.6188     7.4263     7.5740    -1.3850
  164.0000   121.0052     7.2203     7.4701   -24.4807
  164.5000   120.9963     7.0180     7.2670   -24.1098
  165.0000   120.3887     6.8213     7.0694   -23.7389
  165.5000   120.9790     6.6437     6.7834   -23.3679
  166.0000   120.9699     6.5338     6.5089   -22.9970
  166.5000   123.9550     6.4389     6.2455   -22.6261
  167.0000   127.5390     6.2794     6.0757   -22.2552
  167.5000   127.4600     6.2531     5.9923   -21.8843
  168.0000   125.0140     6.1623     5.9101   -21.4424
  168.5000   121.2166     6.1010     5.9097   -21.0755
  169.0000   117.8244     6.1836     5.9093   -20.7085
  169.5000   116.7164     6.2151     5.9089   -20.3416
  170.0000   119.1028     6.2638     5.9085   -19.9746
  170.5000   117.5739     6.2612     5.9189   -19.6077
  171.0000   115.1278     6.2586     6.0724   -19.2407
  171.5000   113.6856     6.2970     6.1726   -18.8738
  172.0000   115.0978     6.2535     6.2604   -18.5068
  172.5000   116.6617     6.2509     6.4144   -18.1399
  173.0000   117.5170     6.2478     6.4139   -17.7729
  173.5000   116.3573     6.2453     6.4134   -17.4060
  174.0000   114.8224     6.5064     6.4443   -17.0391
  174.5000   113.3034     6.6855     6.5914   -16.6721
  175.0000   112.0759     6.6828     6.7206   -16.3052
  175.5000   111.8157     6.6801     6.9105   -15.9382
  176.0000   116.5973     6.6774     7.1057   -15.5713
  176.5000   118.3848     6.7673     7.2551   -15.2043
  177.0000   118.5429     6.9537     7.3550   -14.8368
  177.5000   119.5648     7.2444     7.3545   -14.4659
  178.0000   118.9572     7.5473     7.3539   -14.0949
  178.5000   112.3615     7.6490     7.3534   -13.7240
  179.0000   109.3587     7.5411     7.3529   -13.3531
  179.5000   106.9546     7.4312     7.3524   -12.9822
  180.0000   107.5446     7.2296     7.3519   -12.6113
  180.5000   112.9250     7.2266     7.3514   -12.2403
  181.0000   117.7086     7.3241     7.3509   -11.8694
  181.5000   117.3638     7.5596     7.4522   -14.4406
  182.0000   116.4910     7.8612     7.7654   -26.0048
  182.5000   115.8184     8.1934     8.2038   -25.5935
  183.0000   113.8204     8.4227     8.3168   -25.2226
  183.5000   110.1556     8.6243     8.3162   -24.8516
  184.0000   105.0379     8.6203     8.3156   -24.4807
  184.5000   103.8724     8.4987     8.2015   -24.1098
  185.0000   108.5629     8.3349     8.0835   -38.6399
  185.5000   112.0190     8.1476     7.9604   -38.2047
  186.0000   114.6587     7.9836     7.7491   -37.8338
  186.5000   116.4119     7.7598     7.5501   -37.4629
  187.0000   116.6547     7.6471     7.4286   -37.0920
  187.5000   118.1387     7.4883     7.3235   -36.7211
  188.0000   122.3394     7.3248     7.1213   -36.3501
  188.5000   126.5878     7.1784     6.9247   -36.1770
  189.0000   128.0798     7.0772     6.7335   -36.0723
  189.5000   127.1330     6.9774     6.5777   -35.9676
  190.0000   117.5433     6.8791     6.5443   -35.8629
  190.5000   118.7335     6.7821     6.3985   -35.7582
  191.0000   118.1916     6.5950     6.2736   -35.6535
  191.5000   122.9060     6.5020     6.1848   -35.5488
  192.0000   123.0339     6.3226     6.1387   -35.4441
  192.5000   122.7744     6.1481     6.0545   -35.3394
  193.0000   124.6760     6.1456     6.0540   -35.2348
  193.5000   124.6671     6.1431     6.0536   -35.1301
  194.0000   123.4607     6.1406     6.1369   -35.0254
  194.5000   124.6495     6.1381     6.1365   -34.9207
  195.0000   126.4370     6.1356     6.1361   -34.8160
  195.5000   127.6258     6.1331     6.1357   -34.7113
  196.0000   127.5848     6.1305     6.1352   -34.6066
  196.5000   123.7506     6.1280     6.1348   -34.5019
  197.0000   117.1237     6.1254     6.1344   -34.3972
  197.5000   114.4169     6.1229     6.1340   -34.2925
  198.0000   121.4571     6.0366     6.1230   -34.1878
  198.5000   123.9800     6.0341     6.1332   -34.0831
  199.0000   123.6547     6.0542     6.1328   -33.9785
  199.5000   119.7165     6.1132     6.1323   -33.8738
  200.0000   112.7802     6.1102     6.1319   -33.7691
  200.5000   110.7685     5.9943     5.9939   -33.6644
  201.0000   112.9900     5.9383     5.9919   -33.5597
  201.5000   117.8783     5.9355     6.0779   -33.4550
  202.0000   121.7485     6.0034     6.3268   -33.3503
  202.5000   119.2016     6.0955     6.3246   -33.2456
  203.0000   118.4910     6.0926     6.3120   -33.1409
  203.5000   119.6168     6.0897     6.1368   -33.0362
  204.0000   122.6188     6.0434     5.9535   -32.9315
  204.5000   122.3573     5.7938     5.7076   -32.8268
  205.0000   119.9401     5.5118     5.4116   -32.7222
  205.5000   119.9381     5.2523     5.1894   -32.6175
  206.0000   120.8144     5.0776     5.0454   -32.5128
  206.5000   123.5868     4.9372     4.9053   -32.4081
  207.0000   126.9382     4.8672     4.8352   -32.3034
  207.5000   128.7126     4.7983     4.7858   -32.1987
  208.0000   123.1593     4.7303     4.7841   -32.0940
  208.5000   118.3570     4.7281     4.7825   -31.9893
  209.0000   116.5487     4.7917     4.8047   -31.8846
  209.5000   116.3293     4.8559     4.9129   -31.7799
  210.0000   117.1257     4.9890     5.0484   -31.6752
  210.5000   117.7107     5.1261     5.2174   -31.5705
  211.0000   120.6928     5.2669     5.4370   -31.4659
  211.5000   123.0762     5.4116     5.6659   -31.3612
  212.0000   120.6691     5.5602     5.8627   -31.2565
  212.5000   118.8608     5.7129     5.9858   -31.1518
  213.0000   120.0465     5.8699     6.1525   -31.0471
  213.5000   121.8311     5.8671     6.1453   -30.9424
  214.0000   126.0108     5.9457     6.1043   -30.8377
  214.5000   126.1098     5.9428     6.1022   -30.7330
  215.0000   125.9870     5.8586     6.0163   -30.6283
  215.5000   126.5748     5.8558     5.9320   -30.5236
  216.0000   125.9633     5.8530     5.8489   -30.4154
  216.5000   120.5622     5.8419     5.7669   -44.8902
  217.0000   119.3527     5.7673     5.6861   -29.6736
  217.5000   122.3348     5.7645     5.6573   -14.4659
  218.0000   125.9158     5.7617     5.6046   -14.0950
  218.5000   127.1018     5.7589     5.5261   -13.7240
  219.0000   126.4908     5.7561     5.5242   -13.3531
