~VERSION INFORMATION
 VERS.                2.0:   CWLS LOG ASCII STANDARD - VERSION 2.0
 WRAP.                 NO:   ONE LINE PER DEPTH STEP
~WELL INFORMATION
#MNEM.UNIT      DATA TYPE    INFORMATION
#----------   ------------   ------------------------------
 STRT.F            0.0000:   START DEPTH
 STOP.F         3083.0000:   STOP DEPTH
 STEP.F            0.5000:   STEP LENGTH
 NULL.          -999.2500:   NO VALUE
 COMP. LAWRENCE & ALLISON & ASSOCIATES:   COMPANY
 WELL. LAWRENCE 71 "AX" #3-29:   WELL
 FLD .              N P R:   FIELD
 LOC .      S29 T38N R78W:   LOCATION
 CNTY.            NATRONA:   COUNTY
 STAT.            WYOMING:   STATE
 CTRY. UNITED STATES OF AMERICA:   COUNTRY
 SRVC.      DRESSER ATLAS:   SERVICE COMPANY
 DATE.        12-MAR-1985:   LOGDATE
 API .     49025110160000:   API NUMBER
~CURVE INFORMATION
#MNEM.UNIT       API CODE    CURVE DESCRIPTION
#----------   ------------   ------------------------------
 DEPT.F                  :   
 GRR .GAPI   07 310 01 00:   GAMMA RAY FROM RESISTIVITY
 SPR .MV     07 010 01 00:   SPONTANEOUS POTENTIAL
 TENR.LBS    07 635 01 00:   TENSION FROM RESISTIVITY
 RFOC.OHMM   07 220 04 00:   RESISTIVITY FOCUSED LOG RES.
 RILD.OHMM   07 120 46 00:   DEEP INDUCTION RESISTIVITY
 RILM.OHMM   07 120 44 00:   INDUCTION LOG MEDIUM RESISTIVITY
 TEND.LBS    45 635 01 00:   TENSION FROM DENSITY LOG
 DEN .G/C3   45 350 01 00:   BULK DENSITY
 CORR.G/C3   45 356 01 00:   DENSITY CORRECTION
 CNC .DEC    42 890 01 00:   NEUTRON PORISITY LIMESTONE
 CALD.IN     45 280 60 00:   CALIPER FROM DENSITY LOG
~PARAMETER INFORMATION
#MNEM.UNIT          VALUE    DESCRIPTION
#----------   ------------   ------------------------------
 EKB .F         4983.0000:   Kelly bushing
 EGL .F         4971.0000:   Ground level
 TD  .F         3082.0000:   Total depth
 DATE.        12-MAR-1985:   Date logged
 CLNT.            A2DTECH:   Client Code
 SL  . 568' FNL AND 829' FEL:   Surface Location
 PD  .                 GL:   Permanent Datum
 EPD .F              4971:   Elevation Permanent Datum
 LMF .                 KB:   Log Measured From
 DMF .                 KB:   Drilling Measured From
 DD  .F              3080:   Depth driller
 DL  .F              3082:   Depth logger
 BLI .F              3080:   Bottom log interval
 TLI .F              2100:   Top log interval
 CS1 .IN            8.625:   Casing size
 CBD1.      8.625" @ 311':   Casing driller 1
 BS1 .IN            7.875:   Bit size
 DFT .            KCL GEL:   Type fluid in hole
 DFD .                9.1:   Density
 DFV .                 38:   Viscosity
 DFPH.                  8:   pH
 DFL .               10.4:   Fluid loss
 MSS .           FLOWLINE:   Source of sample
 RMS .OHMM            .47:   Rm
 MST .F                60:   Rm Meas. temp.
 RMF .OHMM            .35:   Rmf
 MFST.F                61:   Rmf Meas. temp.
 RMC .OHMM            .53:   Rmc
 MCST.F                61:   Rmc Meas. temp.
 MFSS.               CLAC:   Source Rmf.
 RMB .OHMM           .209:   Rm. at BHT
 BHT .F               134:   BHT.
 TCS .HRS               3:   Time Circ. stopped
 MRT .F               134:   Maximum recorded temp.
 LUN .               6234:   Logging unit number
 LUL .               CLTE:   Logging unit location
 ENGI.      MACK/ EDWARDS:   Recorded By
 WITN.             STRONG:   Witnessed by
 PWI .                  -:   Primary Well Identifier
 ORIG.           5" PRINT:   Origin of data
 UWI .     49025110160000:   Unique Well ID
 DICO. A2D TECHNOLOGIES, INC.:   Digitizing Company
 DAPD.F                12:   Feet Above Permanent Datum
 BSD1.F              3080:   Depth drilled with bit1
 MCSS.               CALC:   Source Rmc.
~OTHER INFORMATION
~A    DEPT      GRR       SPR       TENR       RFOC       RILD       RILM       TEND        DEN       CORR        CNC       CALD   
# ...
 1769.0000   119.9070   -50.6730   -76.7330    10.5760     8.6930     8.8450  -999.2500  -999.2500  -999.2500  -999.2500  -999.2500
 1769.5000   119.9990   -50.5120   -76.7330    10.7450     8.7080     8.9370  -999.2500  -999.2500  -999.2500  -999.2500  -999.2500
 1770.0000   118.6470   -50.3450   -76.7330    11.0060     8.7230     9.0050  -999.2500  -999.2500  -999.2500  -999.2500  -999.2500
 1770.5000   116.7000   -50.2980   -76.7330    10.9650     8.7380     9.0050  -999.2500  -999.2500  -999.2500  -999.2500  -999.2500
 1771.0000   117.2940   -50.2960   -76.7330    10.8750     8.7530     9.0050  -999.2500  -999.2500  -999.2500  -999.2500  -999.2500
 1771.5000   119.1900   -50.2940   -76.7330    10.8070     8.7680     9.0050  -999.2500  -999.2500  -999.2500  -999.2500  -999.2500
 1772.0000   120.2640   -50.3070   -76.7330    11.0060     8.7830     9.0050  -999.2500  -999.2500  -999.2500  -999.2500  -999.2500
 1772.5000   118.5700   -50.6210   -76.7330    10.9710     8.7980     9.0050  -999.2500  -999.2500  -999.2500  -999.2500  -999.2500
 1773.0000   115.9340   -50.9390   -76.7330    10.9170     8.8130     9.0050  -999.2500  -999.2500  -999.2500  -999.2500  -999.2500
 1773.5000   111.5560   -51.2550   -76.7330    10.8620     8.8280     8.9890  -999.2500  -999.2500  -999.2500  -999.2500  -999.2500
 1774.0000   109.4160   -51.5690   -76.7330    10.8070     8.8420     8.9720  -999.2500  -999.2500  -999.2500  -999.2500  -999.2500
 1774.5000   111.0240   -51.8810   -76.7330    10.7530     8.7970     8.9560  -999.2500  -999.2500  -999.2500  -999.2500  -999.2500
 1775.0000   112.7440   -52.0340   -76.7330    10.7090     8.7630     8.9400  -999.2500  -999.2500  -999.2500  -999.2500  -999.2500
 1775.5000   114.4920   -51.9320   -77.2740    10.8800     8.7900     8.9230  -999.2500  -999.2500  -999.2500  -999.2500  -999.2500
 1776.0000   114.6230   -51.8330   -78.6410    11.0930     8.8140     8.9230  -999.2500  -999.2500  -999.2500  -999.2500  -999.2500
 1776.5000   114.5080   -51.7320   -80.0080    11.3110     8.8420     8.8400  -999.2500  -999.2500  -999.2500  -999.2500  -999.2500
 1777.0000   115.0060   -51.6320   -81.3750    11.3110     8.6730     8.6990  -999.2500  -999.2500  -999.2500  -999.2500  -999.2500
 1777.5000   115.0590   -51.5310   -82.7420    11.1260     8.4560     8.5570  -999.2500  -999.2500  -999.2500  -999.2500  -999.2500
 1778.0000   114.8760   -51.4300   -84.1090    11.0310     8.2390     8.4150  -999.2500  -999.2500  -999.2500  -999.2500  -999.2500
 1778.5000   116.7270   -51.3290   -85.4760    11.3110     8.0220     8.2960  -999.2500  -999.2500  -999.2500  -999.2500  -999.2500
 1779.0000   119.5660   -51.1890   -86.6340    10.6060     7.9260     8.2200  -999.2500  -999.2500  -999.2500  -999.2500  -999.2500
 1779.5000   121.8390   -51.0210   -86.3700     9.8690     8.0000     8.2720  -999.2500  -999.2500  -999.2500  -999.2500  -999.2500
 1780.0000   120.2390   -50.8520   -86.0180     9.0880     8.0790     8.3410  -999.2500  -999.2500  -999.2500  -999.2500  -999.2500
 1780.5000   117.7590   -50.6830   -85.6670     9.0050     8.1570     8.4100  -999.2500  -999.2500  -999.2500  -999.2500  -999.2500
 1781.0000   117.7880   -50.5130   -85.3150    10.3250     8.2360     8.4790  -999.2500  -999.2500  -999.2500  -999.2500  -999.2500
 1781.5000   118.6030   -50.3390   -84.9640    10.5780     8.3140     8.5480  -999.2500  -999.2500  -999.2500  -999.2500  -999.2500
 1782.0000   117.4640   -50.2980   -84.6120    10.7240     8.3920     8.6170  -999.2500  -999.2500  -999.2500  -999.2500  -999.2500
 1782.5000   115.6920   -50.2960   -84.2610    10.7520     8.4710     8.6860  -999.2500  -999.2500  -999.2500  -999.2500  -999.2500
 1783.0000   112.8270   -50.2960   -83.9090    10.7810     8.5490     8.7620  -999.2500  -999.2500  -999.2500  -999.2500  -999.2500
 1783.5000   109.2250   -50.2910   -83.5580    10.8070     8.6040     8.7620  -999.2500  -999.2500  -999.2500  -999.2500  -999.2500
 1784.0000   107.6970   -50.4950   -83.2070    11.1090     8.6040     8.7620  -999.2500  -999.2500  -999.2500  -999.2500  -999.2500
 1784.5000   110.1660   -50.8320   -82.8550    11.3830     8.6040     8.7620  -999.2500  -999.2500  -999.2500  -999.2500  -999.2500
 1785.0000   113.7670   -51.3670   -82.5040    11.0140     8.6040     8.7620  -999.2500  -999.2500  -999.2500  -999.2500  -999.2500
 1785.5000   117.1930   -51.8890   -82.1520    10.5620     8.5750     8.7620  -999.2500  -999.2500  -999.2500  -999.2500  -999.2500
 1786.0000   115.9100   -52.3310   -81.8010    10.1390     8.5320     8.7620  -999.2500  -999.2500  -999.2500  -999.2500  -999.2500
 1786.5000   112.3130   -52.5200   -81.4490    10.3210     8.4890     8.7620  -999.2500  -999.2500  -999.2500  -999.2500  -999.2500
 1787.0000   110.7710   -52.6090   -81.0980    10.7130     8.4470     8.7620  -999.2500  -999.2500  -999.2500  -999.2500  -999.2500
 1787.5000   109.1870   -52.3340   -80.7460    11.0060     8.4040     8.7620  -999.2500  -999.2500  -999.2500  -999.2500  -999.2500
 1788.0000   107.4580   -52.0680   -80.3950    10.7500     8.3720     8.7620  -999.2500  -999.2500  -999.2500  -999.2500  -999.2500
 1788.5000   106.2550   -51.8030   -80.0430    10.5150     8.4360     8.7620  -999.2500  -999.2500  -999.2500  -999.2500  -999.2500
 1789.0000   108.9550   -51.5380   -79.6920    10.6430     8.5260     8.7740  -999.2500  -999.2500  -999.2500  -999.2500  -999.2500
 1789.5000   111.7360   -51.2730   -79.3400    10.7950     8.5170     8.7880  -999.2500  -999.2500  -999.2500  -999.2500  -999.2500
 1790.0000   114.4000   -51.0060   -78.9890    11.0060     8.5060     8.8030  -999.2500  -999.2500  -999.2500  -999.2500  -999.2500
 1790.5000   115.5630   -50.7360   -78.6370    10.9150     8.4950     8.8170  -999.2500  -999.2500  -999.2500  -999.2500  -999.2500
 1791.0000   117.9600   -50.7830   -78.2860    10.6160     8.4840     8.8310  -999.2500  -999.2500  -999.2500  -999.2500  -999.2500
 1791.5000   119.3840   -50.8840   -77.9340    10.6360     8.4720     8.8420  -999.2500  -999.2500  -999.2500  -999.2500  -999.2500
 1792.0000   119.1340   -50.8200   -77.5830    10.6760     8.4620     8.7670  -999.2500  -999.2500  -999.2500  -999.2500  -999.2500
 1792.5000   117.0210   -50.7490   -77.2310    10.7090     8.4510     8.6910  -999.2500  -999.2500  -999.2500  -999.2500  -999.2500
 1793.0000   117.7970   -50.6900   -76.8800    10.4200     8.3840     8.6160  -999.2500  -999.2500  -999.2500  -999.2500  -999.2500
 1793.5000   120.9340   -50.7310   -76.5280    10.7770     8.3030     8.5400  -999.2500  -999.2500  -999.2500  -999.2500  -999.2500
 1794.0000   125.2810   -50.9570   -76.1770    11.2080     8.2210     8.4650  -999.2500  -999.2500  -999.2500  -999.2500  -999.2500
 1794.5000   123.0920   -51.1850   -75.8250    10.8860     8.1400     8.3720  -999.2500  -999.2500  -999.2500  -999.2500  -999.2500
 1795.0000   119.0420   -51.1410   -75.4740    10.3200     7.9990     8.3910  -999.2500  -999.2500  -999.2500  -999.2500  -999.2500
 1795.5000   115.8850   -50.9010   -75.1220     9.9550     8.0010     8.4170  -999.2500  -999.2500  -999.2500  -999.2500  -999.2500
 1796.0000   115.6150   -50.7680   -74.7710    10.2670     8.0060     8.4480  -999.2500  -999.2500  -999.2500  -999.2500  -999.2500
 1796.5000   115.6430   -51.3480   -74.4190    10.5930     8.0110     8.2960  -999.2500  -999.2500  -999.2500  -999.2500  -999.2500
 1797.0000   117.6230   -51.9350   -74.0680    11.0060     8.0160     8.3780  -999.2500  -999.2500  -999.2500  -999.2500  -999.2500
 1797.5000   119.8400   -52.1320   -73.7160    10.9730     8.0210     8.6040  -999.2500  -999.2500  -999.2500  -999.2500  -999.2500
 1798.0000   120.2780   -52.2270   -73.3650    10.9110     8.0260     8.4890  -999.2500  -999.2500  -999.2500  -999.2500  -999.2500
 1798.5000   116.0950   -52.4320   -73.0130    10.8490     8.0310     8.2960  -999.2500  -999.2500  -999.2500  -999.2500  -999.2500
 1799.0000   113.0900   -52.4060   -72.6620    10.7200     8.0360     8.2960  -999.2500  -999.2500  -999.2500  -999.2500  -999.2500
