~VERSION INFORMATION
 VERS.                2.0:   CWLS LOG ASCII STANDARD - VERSION 2.0
 WRAP.                 NO:   ONE LINE PER DEPTH STEP
~WELL INFORMATION
#MNEM.UNIT      DATA TYPE    INFORMATION
#----------   ------------   ------------------------------
 STRT.F            0.0000:   START DEPTH
 STOP.F         4000.0000:   STOP DEPTH
 STEP.F            0.5000:   STEP LENGTH
 NULL.          -999.2500:   NO VALUE
 COMP. LAWRENCE &  ALLISON ASSOC.:   COMPANY
 WELL. LAWRENCE NPR 3 "TX" #14-28:   WELL
 FLD .              N P R:   FIELD
 LOC .      S28 T39N R78W:   LOCATION
 CNTY.            NATRONA:   COUNTY
 STAT.            WYOMING:   STATE
 CTRY. UNITED STATES OF AMERICA:   COUNTRY
 SRVC.      DRESSER ATLAS:   SERVICE COMPANY
 DATE.        11-APR-1984:   LOGDATE
 API .     49025109710000:   API NUMBER
~CURVE INFORMATION
#MNEM.UNIT       API CODE    CURVE DESCRIPTION
#----------   ------------   ------------------------------
 DEPT.F                  :   
 RHOB.G/C3   45 350 01 00:   BULK DENSITY
 CORR.G/C3   45 356 01 00:   DENSITY CORRECTION
 TEND.LBS    45 635 01 00:   TENSION FROM DENSITY LOG
 CNC .DEC    42 890 03 00:   NEUTRON PORISITY SANDSTONE
 DT  .US/F   60 520 00 00:   DELTA TIME
 TENS.LBS    60 635 01 00:   TENSION FROM SONIC LOG
 GRR .GAPI   07 310 01 00:   GAMMA RAY FROM RESISTIVITY
 SPR .MV     07 010 01 00:   SPONTANEOUS POTENTIAL
 CALR.IN     07 280 01 00:   CALIPER FROM RESISTIVITY
 TENR.LBS    07 635 01 00:   TENSION
 RILD.OHMM   07 120 46 00:   INDUCTION LOG DEEP RESISTIVITY
 RILM.OHMM   07 120 44 00:   INDUCTION LOG MEDIUM RESISTIVITY
 RFOC.OHMM   07 220 01 00:   RESISTIVITY FOCUSED LOG RES.
~PARAMETER INFORMATION
#MNEM.UNIT          VALUE    DESCRIPTION
#----------   ------------   ------------------------------
 EKB .F         5024.0000:   Kelly bushing
 EGL .F         5014.0000:   Ground level
 TD  .F         3996.0000:   Total depth
 DATE.        11-APR-1984:   Date logged
 CLNT.            A2DTECH:   Client Code
 SL  . 250' FWL & 2100' FNL:   Surface Location
 PD  .                 GL:   Permanent Datum
 EPD .F              5014:   Elevation Permanent Datum
 LMF .                 KB:   Log Measured From
 DMF .                 KB:   Drilling Measured From
 DD  .F              3996:   Depth driller
 DL  .F              3994:   Depth logger
 BLI .F              3992:   Bottom log interval
 CS1 .IN            8.625:   Casing size
 CBD1.      8.625" @ 404':   Casing driller 1
 CBL1.F               404:   Casing logger 1
 BS1 .IN            7.875:   Bit size
 DFT .            GEL/KCL:   Type fluid in hole
 DFD .                9.1:   Density
 DFV .                 38:   Viscosity
 DFPH.                  8:   pH
 DFL .                 14:   Fluid loss
 MSS .           FLOWLINE:   Source of sample
 RMS .OHMM           .417:   Rm
 MST .F                90:   Rm Meas. temp.
 RMF .OHMM           .313:   Rmf
 MFST.F                90:   Rmf Meas. temp.
 RMC .OHMM           .521:   Rmc
 MCST.F                90:   Rmc Meas. temp.
 MFSS.               CALC:   Source Rmf.
 RMB .OHMM            .25:   Rm. at BHT
 BHT .F               150:   BHT.
 TCS .HRS               3:   Time Circ. stopped
 MRT .F               150:   Maximum recorded temp.
 LUN .               6307:   Logging unit number
 LUL .               GLTE:   Logging unit location
 ENGI.           FAHLSING:   Recorded By
 WITN.             STRONG:   Witnessed by
 ORIG.           5" PRINT:   Origin of data
 UWI .     49025109710000:   Unique Well ID
 DICO. A2D TECHNOLOGIES, INC.:   Digitizing Company
 DAPD.F                10:   Feet Above Permanent Datum
 BSD1.F              3996:   Depth drilled with bit1
 MCSS.               CALC:   Source Rmc.
~OTHER INFORMATION
~A    DEPT    RHOB       CORR       TEND        CNC         DT       TENS         GRR       SPR       CALR       TENR       RILD       RILM       RFOC   
# ...
  650.0000  -999.2500  -999.2500  -999.2500  -999.2500  -999.2500  -999.2500   100.2790   -46.3580     9.0970   -25.4490    11.4750     9.7480     8.9620
  650.5000  -999.2500  -999.2500  -999.2500  -999.2500  -999.2500  -999.2500   103.6990   -46.3580     9.0980   -25.4490    11.4810     9.6740     8.9000
  651.0000  -999.2500  -999.2500  -999.2500  -999.2500  -999.2500  -999.2500   105.9540   -46.3580     9.1000   -25.4490    11.4590     9.6000     8.8120
  651.5000  -999.2500  -999.2500  -999.2500  -999.2500  -999.2500  -999.2500   103.4730   -46.3460     9.1010   -25.4490    11.4410     9.5260     8.7240
  652.0000  -999.2500  -999.2500  -999.2500  -999.2500  -999.2500  -999.2500   102.2840   -46.3060     9.1020   -25.4490    11.4240     9.4520     8.6360
  652.5000  -999.2500  -999.2500  -999.2500  -999.2500  -999.2500  -999.2500   110.1500   -46.2660     9.1030   -25.4490    11.4070     9.3780     8.5470
  653.0000  -999.2500  -999.2500  -999.2500  -999.2500  -999.2500  -999.2500   108.7940   -46.2260     9.1040   -25.4490    11.3890     9.3040     8.4590
  653.5000  -999.2500  -999.2500  -999.2500  -999.2500  -999.2500  -999.2500   102.7980   -46.1870     9.1050   -25.4490    11.3720     9.2300     8.3710
  654.0000  -999.2500  -999.2500  -999.2500  -999.2500  -999.2500  -999.2500    96.8770   -46.1470     9.1060   -25.4490    11.3540     9.1560     8.2820
  654.5000  -999.2500  -999.2500  -999.2500  -999.2500  -999.2500  -999.2500    96.9060   -46.1070     9.1070   -25.4490    11.3370     9.0820     8.1940
  655.0000  -999.2500  -999.2500  -999.2500  -999.2500  -999.2500  -999.2500   101.7200   -46.0680     9.1080   -25.4490    11.3200     9.0080     8.1020
  655.5000  -999.2500  -999.2500  -999.2500  -999.2500  -999.2500  -999.2500   107.2410   -46.0280     9.1090   -25.4490    11.3020     8.9340     8.0810
  656.0000  -999.2500  -999.2500  -999.2500  -999.2500  -999.2500  -999.2500   109.4770   -45.9880     9.1100   -25.4490    11.2850     8.8600     8.0590
  656.5000  -999.2500  -999.2500  -999.2500  -999.2500  -999.2500  -999.2500   110.2510   -45.9460     9.1110   -25.4490    11.2680     8.7990     8.0380
  657.0000  -999.2500  -999.2500  -999.2500  -999.2500  -999.2500  -999.2500    99.6060   -45.8980     9.1120   -25.4490    11.2500     8.8560     8.0160
  657.5000  -999.2500  -999.2500  -999.2500  -999.2500  -999.2500  -999.2500   103.3970   -45.8500     9.1130   -25.4490    11.2330     8.9050     7.9940
  658.0000  -999.2500  -999.2500  -999.2500  -999.2500  -999.2500  -999.2500   104.9160   -45.8040     9.1140   -25.4490    11.2150     8.9530     7.9720
  658.5000  -999.2500  -999.2500  -999.2500  -999.2500  -999.2500  -999.2500   101.8920   -45.8650     9.1150   -25.4490    11.1980     9.0010     7.9550
  659.0000  -999.2500  -999.2500  -999.2500  -999.2500  -999.2500  -999.2500    97.1890   -46.3540     9.1160   -25.4490    11.1810     9.0500     8.0360
  659.5000  -999.2500  -999.2500  -999.2500  -999.2500  -999.2500  -999.2500    92.8070   -46.8320     9.1170   -25.4490    11.1630     9.0980     8.1020
  660.0000  -999.2500  -999.2500  -999.2500  -999.2500  -999.2500  -999.2500    93.1840   -47.3090     9.1180   -25.4490    11.1460     9.1460     8.3760
  660.5000  -999.2500  -999.2500  -999.2500  -999.2500  -999.2500  -999.2500    94.2990   -47.7830     9.1190   -25.4490    11.1290     9.1950     8.6460
  661.0000  -999.2500  -999.2500  -999.2500  -999.2500  -999.2500  -999.2500    95.3890   -48.1160     9.1210   -25.4490    11.1110     9.2280     8.8810
  661.5000  -999.2500  -999.2500  -999.2500  -999.2500  -999.2500  -999.2500    96.4780   -48.0180     9.1240   -25.4490    11.0940     9.2520     8.6970
  662.0000  -999.2500  -999.2500  -999.2500  -999.2500  -999.2500  -999.2500    97.5690   -47.9290     9.1270   -25.4490    11.0760     9.2770     8.5470
  662.5000  -999.2500  -999.2500  -999.2500  -999.2500  -999.2500  -999.2500    98.6450   -47.8400     9.1300   -25.4490    11.0590     9.3010     8.4050
  663.0000  -999.2500  -999.2500  -999.2500  -999.2500  -999.2500  -999.2500    99.4120   -47.7510     9.1330   -25.4490    11.0420     9.3260     8.3380
  663.5000  -999.2500  -999.2500  -999.2500  -999.2500  -999.2500  -999.2500    98.5110   -47.6630     9.1360   -25.4490    11.0240     9.3500     8.2750
  664.0000  -999.2500  -999.2500  -999.2500  -999.2500  -999.2500  -999.2500    95.5420   -47.5740     9.1390   -25.4490    11.0070     9.3830     8.2110
  664.5000  -999.2500  -999.2500  -999.2500  -999.2500  -999.2500  -999.2500    92.7620   -47.4860     9.1420   -25.4490    10.9890     9.3240     8.1470
  665.0000  -999.2500  -999.2500  -999.2500  -999.2500  -999.2500  -999.2500    91.9880   -47.3970     9.1440   -25.4490    10.9720     9.2360     8.0840
  665.5000  -999.2500  -999.2500  -999.2500  -999.2500  -999.2500  -999.2500    92.7570   -47.3080     9.1470   -25.4490    10.9470     9.1480     8.0200
  666.0000  -999.2500  -999.2500  -999.2500  -999.2500  -999.2500  -999.2500    93.3700   -47.2200     9.1500   -25.4490    10.9180     9.0600     7.9560
  666.5000  -999.2500  -999.2500  -999.2500  -999.2500  -999.2500  -999.2500    94.5110   -47.1340     9.1530   -25.4490    10.8900     8.9620     7.8930
  667.0000  -999.2500  -999.2500  -999.2500  -999.2500  -999.2500  -999.2500    95.6690   -47.0730     9.1560   -25.4490    10.8610     9.0030     7.8100
  667.5000  -999.2500  -999.2500  -999.2500  -999.2500  -999.2500  -999.2500    96.8210   -47.0120     9.1590   -25.4490    10.8320     9.0470     7.8510
  668.0000  -999.2500  -999.2500  -999.2500  -999.2500  -999.2500  -999.2500    97.9330   -46.9500     9.1620   -25.4490    10.8040     9.0920     7.9080
  668.5000  -999.2500  -999.2500  -999.2500  -999.2500  -999.2500  -999.2500   101.3640   -46.8880     9.1650   -25.4490    10.7750     9.1360     7.9660
  669.0000  -999.2500  -999.2500  -999.2500  -999.2500  -999.2500  -999.2500   105.3580   -46.8260     9.1680   -25.4490    10.7470     9.1810     8.0230
  669.5000  -999.2500  -999.2500  -999.2500  -999.2500  -999.2500  -999.2500   109.5260   -46.7640     9.1710   -25.4490    10.7200     9.2260     8.0810
  670.0000  -999.2500  -999.2500  -999.2500  -999.2500  -999.2500  -999.2500   109.6270   -46.7010     9.1740   -25.4490    10.6920     9.2700     8.1380
  670.5000  -999.2500  -999.2500  -999.2500  -999.2500  -999.2500  -999.2500   107.3340   -46.6400     9.1770   -25.4490    10.6650     9.3150     8.1960
  671.0000  -999.2500  -999.2500  -999.2500  -999.2500  -999.2500  -999.2500   105.0820   -46.5720     9.1790   -25.4490    10.6370     9.3600     8.2540
  671.5000  -999.2500  -999.2500  -999.2500  -999.2500  -999.2500  -999.2500   102.9160   -46.8760     9.1770   -25.4490    10.6100     9.4040     8.3110
  672.0000  -999.2500  -999.2500  -999.2500  -999.2500  -999.2500  -999.2500   101.2570   -47.3740     9.1750   -25.4490    10.5820     9.4490     8.3690
  672.5000  -999.2500  -999.2500  -999.2500  -999.2500  -999.2500  -999.2500    99.2880   -47.4820     9.1730   -25.4490    10.5550     9.4930     8.4050
  673.0000  -999.2500  -999.2500  -999.2500  -999.2500  -999.2500  -999.2500    97.3040   -47.4030     9.1710   -25.4490    10.5280     9.5570     8.3590
  673.5000  -999.2500  -999.2500  -999.2500  -999.2500  -999.2500  -999.2500    95.3050   -47.3200     9.1690   -25.4490    10.5000     9.4990     8.3250
  674.0000  -999.2500  -999.2500  -999.2500  -999.2500  -999.2500  -999.2500    94.6780   -47.2360     9.1670   -25.4490    10.4730     9.3990     8.2910
  674.5000  -999.2500  -999.2500  -999.2500  -999.2500  -999.2500  -999.2500    97.5900   -47.1500     9.1650   -25.4490    10.4450     9.3000     8.2580
  675.0000  -999.2500  -999.2500  -999.2500  -999.2500  -999.2500  -999.2500   101.8070   -47.3090     9.1630   -25.4490    10.4180     9.2000     8.2240
  675.5000  -999.2500  -999.2500  -999.2500  -999.2500  -999.2500  -999.2500   106.2330   -47.4930     9.1610   -25.4490    10.3900     9.1010     8.1900
