~VERSION INFORMATION
 VERS.                2.0:   CWLS LOG ASCII STANDARD - VERSION 2.0
 WRAP.                 NO:   ONE LINE PER DEPTH STEP
~WELL INFORMATION
#MNEM.UNIT      DATA TYPE    INFORMATION
#----------   ------------   ------------------------------
 STRT.F            5.0000:   START DEPTH
 STOP.F         4012.0000:   STOP DEPTH
 STEP.F            0.5000:   STEP LENGTH
 NULL.          -999.2500:   NO VALUE
 COMP.   LAWRENCE ALLISON:   COMPANY
 WELL. LAWRENCE "X" 51 #1-15:   WELL
 FLD .                NPR:   FIELD
 LOC .      S15 T38N R78W:   LOCATION
 CNTY.            NATRONA:   COUNTY
 STAT.            WYOMING:   STATE
 CTRY. UNITED STATES OF AMERICA:   COUNTRY
 SRVC.      DRESSER ATLAS:   SERVICE COMPANY
 DATE.        03-JUN-1985:   LOGDATE
 API .     49025110270000:   API NUMBER
~CURVE INFORMATION
#MNEM.UNIT       API CODE    CURVE DESCRIPTION
#----------   ------------   ------------------------------
 DEPT.F                  :   
 NPHI.DEC    42 890 03 00:   NEUTRON POROSITY SANDSTONE
 RHOB.G/C3   45 350 01 00:   BULK DENSITY
 CORR.G/C3   45 356 01 00:   DENSITY CORRECTION
 TEND.LBS    45 635 01 00:   TENSION FROM DENSITY LOG
 CALD.IN     45 280 60 00:   CALIPER FROM DENSITY LOG
 GRR .GAPI   07 310 01 00:   GAMMA RAY FROM RESISTIVITY
 SPR .MV     07 010 01 00:   SPONTANEOUS POTENTIAL
 RSFL.OHMM   07 220 01 00:   SPHERICALLY FOCUSED LOG RES.
 RILD.OHMM   07 120 46 00:   DEEP INDUCTION RESISTIVITY
 RILM.OHMM   07 120 44 00:   INDUCTION LOG MEDIUM RESISTIVITY
 TENR.LBS    07 635 01 00:   TENSION
~PARAMETER INFORMATION
#MNEM.UNIT          VALUE    DESCRIPTION
#----------   ------------   ------------------------------
 EKB .F         5235.0000:   Kelly bushing
 EGL .F         5222.0000:   Ground level
 EDF .F            0.0000:   Drilling floor
 TD  .F         4010.0000:   Total depth
 DATE.        03-JUN-1985:   Date logged
 CLNT.            A2DTECH:   Client Code
 SL  . 202' FNL & 2478' FEL:   Surface Location
 PD  .                 GL:   Permanent Datum
 EPD .F              5222:   Elevation Permanent Datum
 LMF .                 KB:   Log Measured From
 DMF .                 KB:   Drilling Measured From
 DAPD.F                13:   Feet Above Permanent Datum
 DD  .F              4010:   Depth driller
 DL  .F              4005:   Depth logger
 BLI .F              4003:   Bottom log interval
 CS1 .IN            8.625:   Casing size
 CBD1.      8.625" @ 605':   Casing driller 1
 CBL1.F               608:   Casing logger 1
 BS1 .IN            7.875:   Bit size
 BSD1.F              4010:   Depth drilled with bit1
 DFT .            KCL/GEL:   Type fluid in hole
 DFD .                  9:   Density
 DFV .                 45:   Viscosity
 DFPH.                  8:   pH
 DFL .                9.8:   Fluid loss
 MSS .           FLOWLINE:   Source of sample
 RMS .OHMM            .40:   Rm
 MST .F                65:   Rm Meas. temp.
 RMF .OHMM            .32:   Rmf
 MFST.F                65:   Rmf Meas. temp.
 RMC .OHMM            .50:   Rmc
 MCST.F                65:   Rmc Meas. temp.
 MFSS.               MEAS:   Source Rmf.
 MCSS.               CALC:   Source Rmc.
 RMB .OHMM            .20:   Rm. at BHT
 BHT .F               130:   BHT.
 TCS .HRS               3:   Time Circ. stopped
 MRT .F               130:   Maximum recorded temp.
 LUN .               6274:   Logging unit number
 LUL .               GLTE:   Logging unit location
 ENGI.             RAUTIO:   Recorded By
 WITN.             STRONG:   Witnessed by
 ORIG.     2.5", 5" PRINT:   Origin of data
 UWI .     49025110270000:   Unique Well ID
 DICO. A2D TECHNOLOGIES, INC.:   Digitizing Company
~OTHER INFORMATION
~A    DEPT    NPHI       RHOB       CORR       TEND       CALD        GRR        SPR       RSFL       RILD       RILM       TENR   
# ...
 3299.0000     0.2750     2.4690    -0.0180    15.3550     9.3800   138.4650   -84.9650     6.0120     3.9510     4.0970   -48.8770
 3299.5000     0.2720     2.4640    -0.0320    16.7240     9.3800   139.2680   -85.1640     5.4720     3.8440     4.0830   -49.1290
 3300.0000     0.2670     2.4590    -0.0240    18.0920     9.3800   138.1190   -85.0980     5.1090     3.7370     3.9410   -49.3800
 3300.5000     0.2610     2.4540    -0.0160    19.4610     9.3800   136.5550   -84.9320     5.0010     3.6300     3.7900   -49.6310
 3301.0000     0.2590     2.4520    -0.0190    17.5420     9.3800   136.1660   -84.7630     5.0350     3.5230     3.6560   -49.8820
 3301.5000     0.2560     2.4520    -0.0310    15.6230     9.3800   135.7440   -84.5940     5.0660     3.4170     3.5890   -50.1340
 3302.0000     0.2470     2.4510    -0.0430    13.7030     9.3800   135.3260   -84.4250     5.0940     3.3650     3.5570   -50.3850
 3302.5000     0.2430     2.4370    -0.0490    11.7840     9.3800   135.2600   -84.2560     4.6140     3.3650     3.5690   -50.6360
 3303.0000     0.2450     2.4230    -0.0450     9.8650     9.3800   135.4920   -84.0880     4.1590     3.4010     3.6650   -50.8880
 3303.5000     0.2480     2.4170    -0.0400     7.9460     9.3800   133.9480   -83.9190     4.2030     3.4820     3.7590   -51.1390
 3304.0000     0.2470     2.4350    -0.0360     6.0260     9.3800   131.8960   -83.7500     4.2630     3.6420     3.8870   -51.3900
 3304.5000     0.2470     2.4580    -0.0200     4.1070     9.3800   129.1630   -83.5810     4.3220     3.8020     4.0150   -51.6410
 3305.0000     0.2460     2.4840    -0.0080     2.1880     9.3800   126.4450   -83.4120     4.3820     3.9610     4.1790   -51.8930
 3305.5000     0.2460     2.4910     0.0070     0.2690     9.3800   123.7160   -83.2440     4.5630     4.1210     4.4190   -52.1440
 3306.0000     0.2450     2.4980     0.0020    -2.6380     9.3800   121.8020   -83.0750     5.0800     4.2810     4.6580   -52.3950
 3306.5000     0.2430     2.5040    -0.0190    -6.2020     9.3800   120.5470   -82.9060     5.5980     4.4410     4.8980   -52.6470
 3307.0000     0.2380     2.5050    -0.0230    -9.7660     9.3800   119.3000   -82.7370     6.1240     4.6030     5.0940   -52.8980
 3307.5000     0.2360     2.5030    -0.0170   -13.3300     9.3800   118.9680   -82.5680     6.1240     4.6920     5.0940   -53.1490
 3308.0000     0.2390     2.5010    -0.0120   -16.8950     9.3800   119.9670   -82.4000     6.0090     4.7830     5.0940   -53.4000
 3308.5000     0.2410     2.5000    -0.0050   -20.4590     9.3800   122.0630   -82.2310     5.8630     4.8870     5.0940   -53.6520
 3309.0000     0.2360     2.4970     0.0030   -20.4590     9.3800   124.1740   -82.0620     5.7170     4.9370     5.2030   -53.9030
 3309.5000     0.2320     2.4840     0.0110   -20.4590     9.3800   126.3030   -81.8930     5.6890     4.9830     5.3120   -54.1540
 3310.0000     0.2290     2.4780     0.0200   -20.4590     9.3800   126.8670   -81.7230     5.8530     5.0290     5.4220   -54.4060
 3310.5000     0.2410     2.4890     0.0280   -20.4590     9.3800   127.3590   -81.6970     5.9690     5.0750     5.5310   -54.6570
 3311.0000     0.2500     2.4990     0.0390   -20.4590     9.3800   127.0290   -82.0580     6.0420     5.1210     5.6370   -54.9080
 3311.5000     0.2510     2.5100     0.0320   -20.4590     9.3800   126.0430   -82.4210     6.1120     5.1680     5.6760   -55.0000
 3312.0000     0.2520     2.5100     0.0150   -20.4590     9.3800   125.2920   -82.7820     6.1820     5.2140     5.7220   -55.0000
 3312.5000     0.2560     2.4950    -0.0020   -20.4590     9.3800   126.1460   -83.1440     6.2520     5.2600     5.7690   -55.0000
 3313.0000     0.2650     2.4880    -0.0200   -20.4590     9.3800   127.0270   -83.5050     6.3230     5.3030     5.7950   -55.0000
 3313.5000     0.2690     2.4830    -0.0360   -20.4590     9.3800   126.1830   -83.8670     6.3930     5.3770     5.7550   -55.0000
 3314.0000     0.2630     2.4840    -0.0550   -20.4590     9.3800   124.8620   -84.2290     6.4630     5.4500     5.7680   -55.0000
 3314.5000     0.2540     2.4900    -0.0340   -20.4590     9.3800   123.4830   -84.5870     6.4720     5.5230     5.7800   -55.0000
 3315.0000     0.2570     2.4960    -0.0070   -20.4590     9.3800   123.8570   -84.8250     6.0870     5.5970     5.7930   -55.0000
 3315.5000     0.2630     2.4980     0.0310   -20.4590     9.3800   124.2300   -84.8210     5.6890     5.6700     5.8480   -55.0000
 3316.0000     0.2710     2.4990     0.0170   -20.4590     9.3800   120.5690   -84.8210     5.8760     5.7430     6.1200   -55.0000
 3316.5000     0.2660     2.5000    -0.0220   -20.4590     9.3800   117.3540   -84.8120     6.3390     5.8080     6.3470   -55.0000
 3317.0000     0.2620     2.5020    -0.0490   -20.4590     9.3800   117.2730   -84.7870     7.0310     5.8530     6.5200   -54.6770
 3317.5000     0.2600     2.5080    -0.0480   -20.4590     9.3800   118.4150   -84.7610     7.0040     5.9020     6.6930   -54.0320
 3318.0000     0.2600     2.5160    -0.0480   -20.4590     9.3800   119.5670   -84.7360     6.9670     5.9570     6.7770   -53.3870
 3318.5000     0.2600     2.5240    -0.0270   -20.4590     9.3800   119.0130   -84.7100     7.4810     5.9570     6.4840   -52.7420
 3319.0000     0.2660     2.5240    -0.0110   -20.4590     9.3800   117.3210   -84.6850     8.0730     5.9570     6.2780   -52.0970
 3319.5000     0.2710     2.5240     0.0080   -20.4590     9.3800   117.2710   -84.6590     7.9990     5.9040     6.1080   -51.4530
 3320.0000     0.2770     2.5240     0.0250   -20.4590     9.3800   118.5600   -84.6340     7.6460     5.7430     5.9890   -50.8080
 3320.5000     0.2730     2.5220     0.0410   -20.4590     9.3800   122.1070   -84.6280     7.2690     5.5820     5.8710   -50.1630
 3321.0000     0.2700     2.5200     0.0280   -20.4590     9.3800   125.6320   -84.6360     6.8920     5.4210     5.7520   -49.5180
 3321.5000     0.2660     2.5180     0.0150   -20.4590     9.3800   129.0460   -84.6440     6.5150     5.2600     5.6330   -48.8730
 3322.0000     0.2630     2.5220    -0.0010   -20.4590     9.3800   129.0380   -84.6520     6.1240     5.0940     5.5340   -48.2280
 3322.5000     0.2610     2.5220    -0.0090   -20.4590     9.3800   128.8800   -84.6600     6.1650     5.0770     5.5340   -47.5830
 3323.0000     0.2540     2.5220    -0.0060   -20.4590     9.3800   129.5320   -84.6680     6.2080     5.0470     5.5680   -46.9380
 3323.5000     0.2460     2.5220    -0.0040   -18.3210     9.3800   131.5350   -84.6760     6.2500     5.0470     5.5920   -46.2940
 3324.0000     0.2400     2.5220    -0.0020   -12.9740     9.3800   133.5360   -84.6840     6.2930     5.0010     5.6170   -45.6490
 3324.5000     0.2420     2.5220     0.0000    -7.6280     9.3800   134.3120   -84.6920     6.3360     5.0000     5.6370   -45.0000
 3325.0000     0.2450     2.5210     0.0020    -2.2810     9.3800   134.3180   -84.7000     6.3790     5.0010     5.5860   -38.2430
 3325.5000     0.2460     2.5200     0.0040     3.0650     9.3800   134.3260   -84.7080     6.4130     5.0090     5.5430   -31.4460
 3326.0000     0.2440     2.5190     0.0070     8.4120     9.3800   134.9840   -84.7160     6.4130     5.0220     5.5000   -24.6490
 3326.5000     0.2430     2.5160     0.0000    13.7580     9.3800   138.6670   -84.7240     6.4130     5.0350     5.4830   -17.8510
 3327.0000     0.2430     2.5130    -0.0080    19.1050     9.3800   142.2910   -84.7320     6.4130     5.0490     5.4330   -11.0540
 3327.5000     0.2470     2.5110    -0.0160    24.4510     9.3800   145.9210   -84.7400     6.3100     5.0620     5.3830    -4.2570
 3328.0000     0.2590     2.5060    -0.0120    29.7980     9.3800   149.6160   -84.7480     6.1210     5.0760     5.4760     2.5410
 3328.5000     0.2720     2.5050    -0.0020    35.1440     9.3800   149.3460   -84.7560     5.9320     5.0950     5.5870     4.1100
 3329.0000     0.2790     2.5130     0.0070    39.4210     9.3800   146.7410   -84.7640     5.9020     5.0940     5.6990     2.0850
