~VERSION INFORMATION
 VERS.                2.0:   CWLS LOG ASCII STANDARD - VERSION 2.0
 WRAP.                 NO:   ONE LINE PER DEPTH STEP
~WELL INFORMATION
#MNEM.UNIT      DATA TYPE    INFORMATION
#----------   ------------   ------------------------------
 STRT.F          204.0000:   START DEPTH
 STOP.F         3024.0000:   STOP DEPTH
 STEP.F            0.5000:   STEP LENGTH
 NULL.          -999.2500:   NO VALUE
 COMP.    FENIX & SCISSON:   COMPANY
 WELL. FENIX NPR 3 "AX" #87-33:   WELL
 FLD .      NPR - WILDCAT:   FIELD
 LOC .      S33 T39N R78W:   LOCATION
 CNTY.            NATRONA:   COUNTY
 STAT.            WYOMING:   STATE
 CTRY. UNITED STATES OF AMERICA:   COUNTRY
 SRVC.              WELEX:   SERVICE COMPANY
 DATE.        20-JUN-1977:   LOGDATE
 API .     49025103840000:   API NUMBER
~CURVE INFORMATION
#MNEM.UNIT       API CODE    CURVE DESCRIPTION
#----------   ------------   ------------------------------
 DEPT.F                  :   
 SPR .MV     07 010 01 00:   SPONTANEOUS POTENTIAL
 ILD .OHMM   07 120 46 00:   DEEP INDUCTION RESISTIVITY
 ILM .OHMM   07 120 44 00:   INDUCTION LOG MEDIUM RESISTIVITY
 SGRD.OHMM   07 220 05 00:   SHALLOW SHORT GUARD RESISTIVITY
 CALD.IN     45 280 60 00:   CALIPER FROM DENSITY LOG
 GRD .GAPI   45 310 01 00:   GAMMA RAY FROM DENSITY LOG
 RHOB.G/C3   45 350 01 00:   BULK DENSITY
 CORR.G/C3   45 356 01 00:   DENSITY CORRECTION
~PARAMETER INFORMATION
#MNEM.UNIT          VALUE    DESCRIPTION
#----------   ------------   ------------------------------
 EKB .F         5170.0000:   Kelly bushing
 EGL .F         5160.0000:   Ground level
 TD  .F         3040.0000:   Total depth
 DATE.        20-JUN-1977:   Date logged
 CLNT.            A2DTECH:   Client Code
 SL  . 800' FSL & 100' FEL:   Surface Location
 PD  .                 GL:   Permanent Datum
 EPD .F              5160:   Elevation Permanent Datum
 LMF .                 KB:   Log Measured From
 DMF .                 KB:   Drilling Measured From
 DD  .F              3040:   Depth driller
 DL  .F              3027:   Depth logger
 BLI .F              3025:   Bottom log interval
 TLI .F               200:   Top log interval
 CS1 .IN            8.625:   Casing size
 CBD1.      8.625" @ 230':   Casing driller 1
 CBL1.F               210:   Casing logger 1
 BS1 .IN            7.875:   Bit size
 BSD1.F              3040:   Depth drilled with bit1
 DFT .                KCL:   Type fluid in hole
 DFD .                9.2:   Density
 DFV .                 38:   Viscosity
 DFPH.                7.5:   pH
 DFL .                5.4:   Fluid loss
 MSS .           FLOWLINE:   Source of sample
 RMS .OHMM            .60:   Rm
 MST .F                92:   Rm Meas. temp.
 RMF .OHMM            .29:   Rmf
 MFST.F                92:   Rmf Meas. temp.
 RMC .OHMM            .76:   Rmc
 MCST.F                92:   Rmc Meas. temp.
 MFSS.               MEAS:   Source Rmf.
 MCSS.               MEAS:   Source Rmc.
 RMB .OHMM            .49:   Rm. at BHT
 BHT .F               112:   BHT.
 TCS .HRS               2:   Time Circ. stopped
 MRT .F               112:   Maximum recorded temp.
 LUN .               8611:   Logging unit number
 LUL .           GILLETTE:   Logging unit location
 ENGI.            C. DOAK:   Recorded By
 WITN.      B. HARRINGTON:   Witnessed by
 ORIG.     2.5", 5" PRINT:   Origin of data
 UWI .     49025103840000:   Unique Well ID
 DICO. A2D TECHNOLOGIES, INC.:   Digitizing Company
~OTHER INFORMATION
~A   DEPT      SPR        ILD        ILM       SGRD         CALD       GRD        RHOB      CORR  
# ...
  933.0000   -55.6640     9.7500     9.5310     9.6120    10.0580    98.2160     2.3920     0.0690
  933.5000   -55.6640     9.5570     9.2240     9.3480    10.0690    97.5690     2.3810     0.0580
  934.0000   -55.6640     9.3530     9.0210     9.0840    10.0800    96.8390     2.4120     0.0440
  934.5000   -55.6640     9.3530     9.0210     8.8590    10.0910    96.1110     2.4330     0.0410
  935.0000   -55.6640     9.4320     9.0210     8.7070    10.1000    95.4440     2.4390     0.0390
  935.5000   -55.6640     9.6540     9.2550     8.5750    10.0910    95.0700     2.4280     0.0280
  936.0000   -55.6640     9.8750     9.4990     9.0210    10.0810    94.4650     2.4480     0.0180
  936.5000   -55.6640    10.0560     9.6980     8.7910    10.0570    93.8080     2.4990     0.0200
  937.0000   -55.6890    10.2940     9.9670     8.3910    10.0300    93.1620     2.5050     0.0270
  937.5000   -55.7230    10.4960    10.2390     8.7060    10.0040    92.5290     2.5050     0.0300
  938.0000   -55.7560    10.6160    10.2170     9.0210     9.9770    91.8970     2.5020     0.0270
  938.5000   -55.7880    10.6160    10.1900     8.9000     9.9500    91.2680     2.4970     0.0250
  939.0000   -55.8210    10.6160    10.1630     8.7800     9.9390    90.6380     2.4920     0.0220
  939.5000   -55.8540    10.6160    10.1360     8.6600     9.9340    90.6180     2.4890     0.0190
  940.0000   -55.8870    10.6160    10.1080     8.5440     9.9290    91.2100     2.4950     0.0240
  940.5000   -55.9200    10.6160    10.0810     8.5440     9.9230    91.8830     2.4990     0.0290
  941.0000   -55.9520    10.6160    10.0560     8.5440     9.9410    92.6470     2.4820     0.0220
  941.5000   -55.9860    10.5890    10.1110     8.7570     9.9610    92.1050     2.4670     0.0150
  942.0000   -56.0170    10.5450    10.1610     9.0810     9.9810    91.4440     2.4630     0.0090
  942.5000   -56.0490    10.5020    10.2140     9.5760     9.9660    91.2940     2.4620     0.0070
  943.0000   -55.9820    10.4580    10.2410     9.8750     9.9490    91.6390     2.4600     0.0040
  943.5000   -55.9030    10.3820    10.2390     9.7730     9.8800    91.6210     2.4610     0.0020
  944.0000   -55.8150    10.2260    10.2390     9.6790     9.7900    90.5350     2.4680     0.0000
  944.5000   -55.7380    10.0560    10.2390     9.5850     9.7310    89.4780     2.4790     0.0000
  945.0000   -55.6770     9.8810    10.2390     9.4910     9.7060    88.3890     2.4770    -0.0010
  945.5000   -55.8140     9.6900    10.2390     9.3530     9.7230    88.5180     2.4740    -0.0010
  946.0000   -55.9390     9.5240    10.2390     9.4710     9.7430    88.7910     2.4720    -0.0020
  946.5000   -56.0740     9.4530    10.2390     9.6920     9.7640    90.1140     2.4780    -0.0020
  947.0000   -56.2040     9.3900    10.2390     9.9130     9.7470    91.4550     2.4840    -0.0030
  947.5000   -56.3350     9.3280    10.2390    10.1350     9.7270    92.8780     2.4880    -0.0030
  948.0000   -56.4660     9.2650    10.2390    10.3590     9.7060    94.3910     2.4930    -0.0030
  948.5000   -56.5970     9.2020    10.2390    10.5820     9.7070    95.7590     2.4970    -0.0010
  949.0000   -56.7290     9.1390    10.2390    10.8060     9.7080    96.8090     2.5020     0.0000
  949.5000   -56.8590     9.0770    10.2400    11.0300     9.7090    97.8470     2.5020     0.0020
  950.0000   -56.9910     9.0140    10.2420    11.2090     9.7110    98.8790     2.4940     0.0020
  950.5000   -57.1230     8.9510    10.2350    10.8950     9.7120    99.2630     2.4840     0.0000
  951.0000   -57.2240     8.8890    10.1520    10.6320     9.7130    98.4590     2.4850    -0.0010
  951.5000   -57.2250     8.8260    10.0690    10.3700     9.7150    97.3900     2.4870    -0.0020
  952.0000   -57.2280     8.7630     9.9840    10.0560     9.7160    96.2960     2.4900    -0.0030
  952.5000   -57.2260     8.7000     9.8980    10.0200     9.7170    97.0630     2.4910    -0.0020
  953.0000   -57.2270     8.6760     9.8140     9.9750     9.7180    98.6560     2.4930    -0.0010
  953.5000   -57.2270     8.6510     9.7280     9.9300     9.7200    98.5920     2.4950    -0.0010
  954.0000   -57.2270     8.6270     9.6430     9.8860     9.7210    98.0540     2.4930     0.0000
  954.5000   -57.2270     8.6030     9.5580     9.8410     9.7220    97.5050     2.4890     0.0010
  955.0000   -57.2270     8.5780     9.5240     9.7960     9.7240    97.0060     2.4920     0.0010
  955.5000   -57.2270     8.5540     9.4640     9.7520     9.7250    97.6020     2.4950     0.0020
  956.0000   -57.2270     8.5290     9.4150     9.6990     9.7300    98.2360     2.4980     0.0020
  956.5000   -57.2270     8.5050     9.3650     9.6720     9.7360    97.7340     2.4980     0.0020
  957.0000   -57.2270     8.4800     9.3150     9.6390     9.7420    96.3940     2.4950     0.0020
  957.5000   -57.2270     8.4560     9.2650     9.6050     9.7490    95.0680     2.4910     0.0010
  958.0000   -57.2270     8.4310     9.2150     9.5720     9.7550    93.7550     2.4870    -0.0010
  958.5000   -57.2270     8.4070     9.1850     9.5380     9.7610    92.7020     2.4830    -0.0020
  959.0000   -57.2270     8.3820     9.1850     9.4790     9.7670    93.0010     2.4790    -0.0040
  959.5000   -57.2270     8.3580     9.1860     9.4010     9.7740    93.2830     2.4750    -0.0070
  960.0000   -57.2270     8.3330     9.1860     9.3240     9.7800    94.0240     2.4720    -0.0100
  960.5000   -57.2270     8.3090     9.1860     9.2470     9.7840    96.6380     2.4690    -0.0110
  961.0000   -57.2270     8.2850     9.1860     9.1860     9.7800    98.7010     2.4710    -0.0110
  961.5000   -57.2270     8.2600     9.1860     9.3450     9.7750    99.4390     2.4790    -0.0090
  962.0000   -57.2270     8.2410     9.1860     9.4770     9.7710    98.2270     2.4890    -0.0020
  962.5000   -57.2270     8.1900     9.1830     9.6100     9.7670    96.8500     2.5030     0.0030
  963.0000   -57.2270     8.1470     9.2190     9.7430     9.7630    96.6490     2.5060     0.0050
  963.5000   -57.2260     8.1050     9.2810     9.8750     9.7590    96.8990     2.5060     0.0070
  964.0000   -57.2270     8.0620     9.3430     9.9900     9.7550    98.0300     2.5000     0.0060
  964.5000   -57.2270     8.0200     9.4030    10.1050     9.7510    98.5740     2.4950     0.0040
  965.0000   -57.2260     7.9780     9.4640    10.2200     9.7460    97.6230     2.4930     0.0030
  965.5000   -57.2280     7.9350     9.5240    10.3340     9.7510    96.6890     2.4920     0.0010
  966.0000   -57.2240     7.8930     9.3770    10.4260     9.7590    95.8770     2.4880     0.0000
  966.5000   -57.2270     7.8500     9.2300    10.0690     9.7680    96.3050     2.4780    -0.0020
  967.0000   -57.2460     7.8080     9.0830     9.7710     9.7770    96.7480     2.4750    -0.0020
  967.5000   -57.4690     7.7650     8.9360     9.3530     9.7850    97.3670     2.4740    -0.0030
  968.0000   -57.6060     7.7230     8.7890     9.3820     9.7940    98.5680     2.4780    -0.0040
  968.5000   -57.5610     7.6810     8.7000     9.4290     9.8020    98.6270     2.4820    -0.0050
  969.0000   -57.5190     7.6380     8.7000     9.4770     9.8110    98.6190     2.4870    -0.0050
  969.5000   -57.4710     7.5960     8.7000     9.5240     9.8190    98.6160     2.4840    -0.0050
  970.0000   -57.4270     7.5280     8.7000     9.2790     9.8280    98.6170     2.4850    -0.0040
  970.5000   -57.3810     7.5300     8.7000     9.0340     9.8370    98.6160     2.4850    -0.0040
  971.0000   -57.3360     7.5370     8.7000     8.7890     9.8440    98.6140     2.4830    -0.0020
  971.5000   -57.2900     7.5440     8.7000     8.5440     9.8440    98.6270     2.4830    -0.0010
  972.0000   -57.2450     7.5500     8.7000     9.5240     9.8440    99.1480     2.4870     0.0010
  972.5000   -57.1990     7.5570     8.7000     8.6690     9.8440    99.7060     2.4900     0.0020
  973.0000   -57.1540     7.5630     8.7000     8.2410     9.8440   100.2630     2.4860     0.0050
