~VERSION INFORMATION
 VERS.                2.0:   CWLS LOG ASCII STANDARD - VERSION 2.0
 WRAP.                 NO:   ONE LINE PER DEPTH STEP
~WELL INFORMATION
#MNEM.UNIT      DATA TYPE    INFORMATION
#----------   ------------   ------------------------------
 STRT.F            0.0000:   START DEPTH
 STOP.F         3358.0000:   STOP DEPTH
 STEP.F            0.5000:   STEP LENGTH
 NULL.          -999.2500:   NO VALUE
 COMP. LAWRENCE ALLISON & ASSOC.:   COMPANY
 WELL. LAWRENCE NPR 3 "X" #14-11:   WELL
 FLD .                NPR:   FIELD
 LOC .      S11 T38N R78W:   LOCATION
 CNTY.            NATRONA:   COUNTY
 STAT.            WYOMING:   STATE
 CTRY. UNITED STATES OF AMERICA:   COUNTRY
 SRVC.      DRESSER ATLAS:   SERVICE COMPANY
 DATE.        25-SEP-1985:   LOGDATE
 API .     49025110470000:   API NUMBER
~CURVE INFORMATION
#MNEM.UNIT       API CODE    CURVE DESCRIPTION
#----------   ------------   ------------------------------
 DEPT.F                  :   
 TENR.LBS    07 635 01 00:   TENSION
 SPR .MV     07 010 01 00:   SPONTANEOUS POTENTIAL
 SFL .OHMM   07 220 01 00:   SHALLOW FOCUSED LOG RESISTIVITY
 ILD .OHMM   07 120 46 00:   DEEP INDUCTION RESISTIVITY
 ILM .OHMM   07 120 44 00:   INDUCTION LOG MEDIUM RESISTIVITY
 TENS.LBS    60 635 01 00:   TENSION FROM SONIC LOG
 DT  .US/F   60 520 00 00:   DELTA TIME
 TEND.LBS    45 635 01 00:   TENSION FROM DENSITY LOG
 RHOB.G/C3   45 350 01 00:   BULK DENSITY
 CORR.G/C3   45 356 01 00:   DENSITY CORRECTION
 NPHI.DEC    42 890 01 00:   NEUTRON POROSITY LIMESTONE
 GRR .GAPI   07 310 01 00:   GAMMA RAY FROM RESISTIVITY
~PARAMETER INFORMATION
#MNEM.UNIT          VALUE    DESCRIPTION
#----------   ------------   ------------------------------
 EKB .F         5184.0000:   Kelly bushing
 EGL .F         5173.0000:   Ground level
 EDF .F            0.0000:   Drilling floor
 TD  .F         3353.0000:   Total depth
 DATE.        25-SEP-1985:   Date logged
 CLNT.            A2DTECH:   Client Code
 SL  . 473' FWL & 2360' FNL:   Surface Location
 PD  .                 GL:   Permanent Datum
 EPD .F              5173:   Elevation Permanent Datum
 LMF .                 KB:   Log Measured From
 DMF .                 KB:   Drilling Measured From
 DAPD.F                11:   Feet Above Permanent Datum
 DD  .F              3353:   Depth driller
 DL  .F              3346:   Depth logger
 BLI .F              3344:   Bottom log interval
 CS1 .IN            8.625:   Casing size
 CBD1.      8.625" @ 586':   Casing driller 1
 CBL1.F               585:   Casing logger 1
 BS1 .IN            7.875:   Bit size
 BSD1.F              3353:   Depth drilled with bit1
 DFT .     GEL/KCL/STAFLO:   Type fluid in hole
 DFD .                8.9:   Density
 DFV .                 39:   Viscosity
 DFPH.                  8:   pH
 DFL .                8.9:   Fluid loss
 MSS .           FLOWLINE:   Source of sample
 RMS .OHMM            .45:   Rm
 MST .F                80:   Rm Meas. temp.
 RMF .OHMM            .33:   Rmf
 MFST.F                80:   Rmf Meas. temp.
 RMC .OHMM            .56:   Rmc
 MCST.F                80:   Rmc Meas. temp.
 MFSS.               CALC:   Source Rmf.
 MCSS.               CALC:   Source Rmc.
 RMB .OHMM            .27:   Rm. at BHT
 BHT .F               130:   BHT.
 TCS .HRS               3:   Time Circ. stopped
 MRT .F               135:   Maximum recorded temp.
 LUN .               6274:   Logging unit number
 LUL .               GLTE:   Logging unit location
 ENGI.               MACK:   Recorded By
 WITN.             STRONG:   Witnessed by
 ORIG.           5" PRINT:   Origin of data
 UWI .     49025110470000:   Unique Well ID
 DICO. A2D TECHNOLOGIES, INC.:   Digitizing Company
~OTHER INFORMATION
~A    DEPT    TENR        SPR        SFL        ILD        ILM       TENS         DT       TEND       RHOB       CORR       NPHI         GRR  
# ...
 1148.0000   -81.0140   -59.2430     6.9060     6.7890     6.6660  -999.2500  -999.2500  -999.2500  -999.2500  -999.2500  -999.2500    49.7690
 1148.5000   -81.0140   -59.4530     7.0520     6.7900     6.6660  -999.2500  -999.2500  -999.2500  -999.2500  -999.2500  -999.2500    50.8050
 1149.0000   -81.0140   -59.5850     7.0350     6.7880     6.6660  -999.2500  -999.2500  -999.2500  -999.2500  -999.2500  -999.2500    49.7680
 1149.5000   -81.0140   -60.0170     7.0420     6.7960     6.6660  -999.2500  -999.2500  -999.2500  -999.2500  -999.2500  -999.2500    47.1770
 1150.0000   -81.0140   -59.7350     7.0140     6.7260     6.6060  -999.2500  -999.2500  -999.2500  -999.2500  -999.2500  -999.2500    45.7090
 1150.5000   -81.0140   -59.3620     6.9880     6.6060     6.4860  -999.2500  -999.2500  -999.2500  -999.2500  -999.2500  -999.2500    47.4550
 1151.0000   -81.0140   -58.9580     6.9620     6.5450     6.4270  -999.2500  -999.2500  -999.2500  -999.2500  -999.2500  -999.2500    49.1770
 1151.5000   -81.0140   -58.5980     6.9370     6.5320     6.4130  -999.2500  -999.2500  -999.2500  -999.2500  -999.2500  -999.2500    49.6040
 1152.0000   -81.0140   -58.1780     6.9160     6.4990     6.3810  -999.2500  -999.2500  -999.2500  -999.2500  -999.2500  -999.2500    50.1970
 1152.5000   -81.0140   -58.1350     6.8840     6.4660     6.3480  -999.2500  -999.2500  -999.2500  -999.2500  -999.2500  -999.2500    49.7930
 1153.0000   -81.0140   -58.1260     6.8060     6.4270     6.3100  -999.2500  -999.2500  -999.2500  -999.2500  -999.2500  -999.2500    48.7810
 1153.5000   -81.0140   -58.2200     6.7280     6.4270     6.3100  -999.2500  -999.2500  -999.2500  -999.2500  -999.2500  -999.2500    47.8870
 1154.0000   -81.0140   -58.6210     6.6510     6.4270     6.3100  -999.2500  -999.2500  -999.2500  -999.2500  -999.2500  -999.2500    47.7810
 1154.5000   -81.0140   -58.6610     6.5730     6.4270     6.3100  -999.2500  -999.2500  -999.2500  -999.2500  -999.2500  -999.2500    48.3600
 1155.0000   -81.0140   -58.7820     6.5450     6.4270     6.3100  -999.2500  -999.2500  -999.2500  -999.2500  -999.2500  -999.2500    49.6760
 1155.5000   -81.0140   -58.8530     6.5450     6.4270     6.3100  -999.2500  -999.2500  -999.2500  -999.2500  -999.2500  -999.2500    50.5970
 1156.0000   -81.0140   -58.9250     6.5450     6.4280     6.3110  -999.2500  -999.2500  -999.2500  -999.2500  -999.2500  -999.2500    51.6550
 1156.5000   -81.0140   -58.9710     6.5450     6.4160     6.2990  -999.2500  -999.2500  -999.2500  -999.2500  -999.2500  -999.2500    50.4630
 1157.0000   -81.0140   -59.4330     6.6660     6.3890     6.2730  -999.2500  -999.2500  -999.2500  -999.2500  -999.2500  -999.2500    48.9090
 1157.5000   -81.0140   -59.9830     6.6450     6.3630     6.2470  -999.2500  -999.2500  -999.2500  -999.2500  -999.2500  -999.2500    47.5020
 1158.0000   -81.0140   -59.7450     6.6200     6.3370     6.2220  -999.2500  -999.2500  -999.2500  -999.2500  -999.2500  -999.2500    48.3120
 1158.5000   -81.0140   -59.0010     6.5950     6.3100     6.1960  -999.2500  -999.2500  -999.2500  -999.2500  -999.2500  -999.2500    49.9970
 1159.0000   -81.0140   -58.3360     6.5700     6.2840     6.1700  -999.2500  -999.2500  -999.2500  -999.2500  -999.2500  -999.2500    51.7920
 1159.5000   -81.0140   -57.8060     6.5450     6.2580     6.1450  -999.2500  -999.2500  -999.2500  -999.2500  -999.2500  -999.2500    53.3160
 1160.0000   -81.0140   -57.4700     6.5200     6.2320     6.1190  -999.2500  -999.2500  -999.2500  -999.2500  -999.2500  -999.2500    54.0540
 1160.5000   -81.0140   -57.5140     6.4950     6.2060     6.0930  -999.2500  -999.2500  -999.2500  -999.2500  -999.2500  -999.2500    52.9640
 1161.0000   -81.0140   -57.6680     6.4690     6.1800     6.0680  -999.2500  -999.2500  -999.2500  -999.2500  -999.2500  -999.2500    51.6160
 1161.5000   -81.0140   -57.8140     6.4420     6.1540     6.0420  -999.2500  -999.2500  -999.2500  -999.2500  -999.2500  -999.2500    50.1960
 1162.0000   -81.0140   -57.9500     6.4250     6.1270     6.0160  -999.2500  -999.2500  -999.2500  -999.2500  -999.2500  -999.2500    49.9170
 1162.5000   -81.0140   -58.0940     6.4270     6.1000     5.9900  -999.2500  -999.2500  -999.2500  -999.2500  -999.2500  -999.2500    50.0870
 1163.0000   -81.0140   -58.2360     6.4270     6.0820     5.9720  -999.2500  -999.2500  -999.2500  -999.2500  -999.2500  -999.2500    50.7350
 1163.5000   -81.0140   -58.3750     6.4260     6.0950     5.9850  -999.2500  -999.2500  -999.2500  -999.2500  -999.2500  -999.2500    51.4450
 1164.0000   -81.0140   -58.5190     6.4270     6.1220     6.0110  -999.2500  -999.2500  -999.2500  -999.2500  -999.2500  -999.2500    52.8740
 1164.5000   -81.0140   -58.5300     6.4270     6.1490     6.0370  -999.2500  -999.2500  -999.2500  -999.2500  -999.2500  -999.2500    54.1040
 1165.0000   -81.0140   -58.5320     6.4260     6.1740     6.0620  -999.2500  -999.2500  -999.2500  -999.2500  -999.2500  -999.2500    54.4620
 1165.5000   -81.3700   -58.5300     6.4270     6.1990     6.0870  -999.2500  -999.2500  -999.2500  -999.2500  -999.2500  -999.2500    54.0300
 1166.0000   -81.7570   -58.5310     6.4250     6.2260     6.1130  -999.2500  -999.2500  -999.2500  -999.2500  -999.2500  -999.2500    52.4120
 1166.5000   -82.1440   -58.5310     6.4280     6.2520     6.1380  -999.2500  -999.2500  -999.2500  -999.2500  -999.2500  -999.2500    50.7300
 1167.0000   -82.5300   -58.4780     6.4810     6.2780     6.1640  -999.2500  -999.2500  -999.2500  -999.2500  -999.2500  -999.2500    49.6100
 1167.5000   -82.9170   -58.4010     6.5260     6.3030     6.1890  -999.2500  -999.2500  -999.2500  -999.2500  -999.2500  -999.2500    49.5240
 1168.0000   -83.3040   -58.3210     6.5660     6.4270     6.3100  -999.2500  -999.2500  -999.2500  -999.2500  -999.2500  -999.2500    50.1380
 1168.5000   -83.6910   -58.2570     6.6140     6.5710     6.4520  -999.2500  -999.2500  -999.2500  -999.2500  -999.2500  -999.2500    50.3790
 1169.0000   -84.0780   -58.1490     6.6660     6.7250     6.6030  -999.2500  -999.2500  -999.2500  -999.2500  -999.2500  -999.2500    47.4490
 1169.5000   -84.4650   -58.3420     6.6660     6.8780     6.7530  -999.2500  -999.2500  -999.2500  -999.2500  -999.2500  -999.2500    44.7770
 1170.0000   -84.8510   -58.7870     7.4440     6.9150     6.7900  -999.2500  -999.2500  -999.2500  -999.2500  -999.2500  -999.2500    42.0860
 1170.5000   -85.2380   -59.1940     8.1160     6.9150     6.7900  -999.2500  -999.2500  -999.2500  -999.2500  -999.2500  -999.2500    39.5830
 1171.0000   -85.6250   -59.6030     8.7890     6.9150     6.7900  -999.2500  -999.2500  -999.2500  -999.2500  -999.2500  -999.2500    41.0380
 1171.5000   -86.0120   -60.0160     9.6150     6.9150     6.7900  -999.2500  -999.2500  -999.2500  -999.2500  -999.2500  -999.2500    44.3870
 1172.0000   -86.3990   -60.1180     9.1070     6.9150     6.7900  -999.2500  -999.2500  -999.2500  -999.2500  -999.2500  -999.2500    47.6070
 1172.5000   -86.7850   -60.1190     6.9150     6.7900     6.6660  -999.2500  -999.2500  -999.2500  -999.2500  -999.2500  -999.2500    49.9050
 1173.0000   -87.1720   -60.1080     6.9500     6.8510     6.7270  -999.2500  -999.2500  -999.2500  -999.2500  -999.2500  -999.2500    49.0460
 1173.5000   -87.5590   -60.1000     7.0410     6.9300     6.8050  -999.2500  -999.2500  -999.2500  -999.2500  -999.2500  -999.2500    47.3040
 1174.0000   -87.9460   -59.5190     7.1330     7.0100     6.8820  -999.2500  -999.2500  -999.2500  -999.2500  -999.2500  -999.2500    45.2720
 1174.5000   -88.3330   -58.7320     7.2240     7.0890     6.9600  -999.2500  -999.2500  -999.2500  -999.2500  -999.2500  -999.2500    45.3090
 1175.0000   -88.7200   -57.9490     7.3150     7.1680     7.0380  -999.2500  -999.2500  -999.2500  -999.2500  -999.2500  -999.2500    46.8880
 1175.5000   -89.1060   -57.3560     7.4060     7.2470     7.1150  -999.2500  -999.2500  -999.2500  -999.2500  -999.2500  -999.2500    48.1010
