~VERSION INFORMATION
 VERS.                2.0:   CWLS LOG ASCII STANDARD - VERSION 2.0
 WRAP.                 NO:   ONE LINE PER DEPTH STEP
~WELL INFORMATION
#MNEM.UNIT      DATA TYPE    INFORMATION
#----------   ------------   ------------------------------
 STRT.F         2496.0000:   START DEPTH
 STOP.F         4120.0000:   STOP DEPTH
 STEP.F            0.5000:   STEP LENGTH
 NULL.          -999.2500:   NO VALUE
 COMP. LAWRENCE ALLISON AND ASSOCIATES:   COMPANY
 WELL. LAWRENCE "X" #85-10:   WELL
 FLD .              N P R:   FIELD
 LOC .      S10 T38N R78W:   LOCATION
 CNTY.            NATRONA:   COUNTY
 STAT.            WYOMING:   STATE
 CTRY. UNITED STATES OF AMERICA:   COUNTRY
 SRVC.      DRESSER ATLAS:   SERVICE COMPANY
 DATE.        20-JAN-1984:   LOGDATE
 API .     49025109580000:   API NUMBER
~CURVE INFORMATION
#MNEM.UNIT       API CODE    CURVE DESCRIPTION
#----------   ------------   ------------------------------
 DEPT.F                  :   
 SPR .MV     07 010 01 00:   SPONTANEOUS POTENTIAL
 TENR.LBS    07 635 01 00:   TENSION FROM RESISTIVITY
 ILD .OHMM   07 120 46 00:   DEEP INDUCTION RESISTIVITY
 ILM .OHMM   07 120 44 00:   INDUCTION LOG MEDIUM RESISTIVITY
 RFOC.OHMM   07 220 04 00:   RESISTIVITY FOCUSED LOG RES.
 GRD .GAPI   45 310 01 00:   GAMMA RAY FROM DENSITY LOG
 CALD.IN     45 280 60 00:   CALIPER FROM DENSITY LOG
 TEND.LBS    45 635 01 00:   TENSION FROM DENSITY LOG
 RHOB.G/C3   45 350 01 00:   BULK DENSITY
 CORR.G/C3   45 356 01 00:   DENSITY CORRECTION
 CN  .DEC    42 890 03 00:   NEUTRON POROSITY SANDSTONE
~PARAMETER INFORMATION
#MNEM.UNIT          VALUE    DESCRIPTION
#----------   ------------   ------------------------------
 EKB .F         5231.0000:   Kelly bushing
 EGL .F         5221.0000:   Ground level
 EDF .F            0.0000:   Drilling floor
 TD  .F         4115.0000:   Total depth
 DATE.        20-JAN-1984:   Date logged
 CLNT.            A2DTECH:   Client Code
 SL  . 2159' FSL & 292' FEL:   Surface Location
 PD  .                 GL:   Permanent Datum
 EPD .F              5221:   Elevation Permanent Datum
 LMF .                 KB:   Log Measured From
 DMF .                 KB:   Drilling Measured From
 DD  .F              4115:   Depth driller
 DL  .F              4111:   Depth logger
 BLI .F              4109:   Bottom log interval
 TLI .F              2496:   Top log interval
 CS1 .IN            8.625:   Casing size
 CBD1.       8.625 @ 537':   Casing driller 1
 BS1 .IN            7.875:   Bit size
 DFT .            GEL KCL:   Type fluid in hole
 DFD .                8.8:   Density
 DFV .                 40:   Viscosity
 DFPH.                  9:   pH
 DFL .                9.8:   Fluid loss
 MSS .           FLOWLINE:   Source of sample
 RMS .OHMM           0.61:   Rm
 MST .F                77:   Rm Meas. temp.
 RMF .OHMM           0.51:   Rmf
 MFST.F                69:   Rmf Meas. temp.
 RMC .OHMM           0.76:   Rmc
 MCST.F                77:   Rmc Meas. temp.
 MFSS.               MEAS:   Source Rmf.
 RMB .OHMM           0.38:   Rm. at BHT
 BHT .F               122:   BHT.
 TCS .HRS               4:   Time Circ. stopped
 MRT .F               122:   Maximum recorded temp.
 LUN .               6307:   Logging unit number
 LUL .               GLTE:   Logging unit location
 ENGI.            DEYOUNG:   Recorded By
 WITN.           R. SCOTT:   Witnessed by
 ORIG.           5" PRINT:   Origin of data
 UWI .     49025109580000:   Unique Well ID
 DICO. A2D TECHNOLOGIES, INC.:   Digitizing Company
 DAPD.                 10:   Feet Above Permanent Datum
 MCSS.               CALC:   Source Rmc.
~OTHER INFORMATION
~A  DEPT       SPR       TENR        ILD        ILM       RFOC        GRD       CALD       TEND       RHOB       CORR         CN   
# ...
 3014.5000   -57.5120   -33.7040    21.2260    16.3440    14.2190    60.3470     8.0580   -30.7150     2.3140     0.0800     0.1950
 3015.0000   -57.5620   -33.8680    20.3930    15.3850    13.4690    60.1840     8.0580   -30.5220     2.3260     0.0770     0.1980
 3015.5000   -57.6120   -33.3240    19.5590    14.4260    12.7200    59.9610     8.0580   -30.3290     2.3230     0.0750     0.2010
 3016.0000   -57.6620   -32.8200    18.7260    13.4670    12.4480    59.7410     8.0580   -30.1360     2.3220     0.0690     0.2040
 3016.5000   -57.7110   -32.3160    17.8920    12.6020    12.3930    59.5230     8.0580   -29.9430     2.3250     0.0640     0.2070
 3017.0000   -57.7600   -31.8120    17.0590    12.3130    12.3390    59.3040     8.0580   -29.7490     2.3300     0.0680     0.2100
 3017.5000   -57.8190   -31.3080    16.2250    12.0500    12.2840    58.6770     8.0580   -29.4780     2.3410     0.0800     0.2100
 3018.0000   -58.2940   -30.8040    15.3920    11.7860    12.1170    57.5270     8.0580   -29.1930     2.3480     0.0970     0.2090
 3018.5000   -58.8200   -30.3000    14.5580    11.5230    11.8440    56.5510     8.0580   -28.9070     2.3550     0.1060     0.2080
 3019.0000   -59.3460   -29.7960    13.7250    11.2600    11.5710    57.8400     8.0580   -28.6220     2.3610     0.1130     0.2100
 3019.5000   -59.8690   -29.2920    12.8370    10.9970    11.2790    61.2710     8.0580   -28.3360     2.3680     0.1190     0.2170
 3020.0000   -60.2100   -28.7880    13.0150    10.7100    10.6610    65.6280     8.0580   -28.0500     2.3720     0.1250     0.2240
 3020.5000   -60.0880   -28.2840    13.2050    10.2780    10.0960    70.0540     8.0580   -27.7650     2.3740     0.1310     0.2310
 3021.0000   -59.9720   -27.7800    13.3960     9.9110    10.0960    73.0770     8.0580   -27.4790     2.3700     0.1270     0.2220
 3021.5000   -59.8570   -27.2760    13.5860    10.9890    10.8520    73.0420     8.0580   -27.1930     2.3650     0.1170     0.2130
 3022.0000   -59.7420   -26.7720    13.7770    12.1210    12.2140    70.8240     8.0580   -26.9080     2.3520     0.1040     0.2040
 3022.5000   -59.6260   -26.2680    13.8210    12.9560    13.0760    68.7050     8.0580   -26.6220     2.3310     0.0370     0.1950
 3023.0000   -59.5100   -25.7640    13.1360    12.1230    12.8810    67.7560     8.0580   -26.3360     2.3100     0.0400     0.1880
 3023.5000   -59.3950   -25.2600    12.4120    10.8770    12.0260    71.7260     8.0580   -26.0510     2.3080     0.0470     0.1930
 3024.0000   -59.2790   -24.7560    11.6880     9.1200    10.9830    76.2640     8.0580   -25.7650     2.3440     0.0550     0.2000
 3024.5000   -59.1630   -24.2520    10.9640     9.4250     9.9410    80.8570     8.0580   -25.7030     2.3900     0.0660     0.2090
 3025.0000   -59.0470   -23.7470    10.2400     9.9420     8.8980    83.8950     8.0580   -25.7030     2.4360     0.0870     0.2070
 3025.5000   -58.9310   -23.2430    10.0300    10.4590     7.8550    85.9040     8.0580   -25.7030     2.4730     0.1200     0.2030
 3026.0000   -58.8240   -22.7390     9.9490    11.1760     7.2390    87.5130     8.0580   -25.7030     2.4610     0.1550     0.2000
 3026.5000   -58.9300   -22.2350     9.8670    10.9070     8.6770    86.4780     8.0580   -25.7030     2.4400     0.1790     0.1980
 3027.0000   -59.0430   -21.8900     9.6470    10.1400     9.8650    78.4950     8.0580   -25.7030     2.4270     0.1790     0.2010
 3027.5000   -59.1550   -22.0980     9.2760     9.3730    11.0530    68.7550     8.0580   -25.7030     2.4340     0.1550     0.2040
 3028.0000   -59.2670   -22.3060     8.9050     8.6060    11.4900    61.4100     8.0580   -25.7030     2.4450     0.1320     0.2060
 3028.5000   -59.3790   -22.5130     8.5490     7.8390    10.9210    57.8440     8.0580   -25.7030     2.4560     0.1090     0.2090
 3029.0000   -59.4910   -22.7210     7.8440     7.0720    10.2420    62.5970     8.0580   -25.7030     2.4660     0.1170     0.2160
 3029.5000   -59.6030   -22.9290     7.1680     6.3050     9.5620    72.2310     8.0580   -25.7030     2.4750     0.1280     0.2250
 3030.0000   -59.7150   -23.1370     6.4910     5.5380     7.9710    86.4430     8.0580   -25.7030     2.4840     0.1320     0.2330
 3030.5000   -59.8270   -23.3450     5.8140     4.8210     6.2250   100.7250     8.0580   -25.7030     2.4930     0.1350     0.2370
 3031.0000   -59.9390   -23.5530     5.5380     4.8210     4.6040   113.1840     8.0580   -25.7030     2.4880     0.1390     0.2360
 3031.5000   -60.0510   -23.7610     6.0180     5.0530     5.2880   119.0690     8.0580   -25.7030     2.4710     0.1490     0.2390
 3032.0000   -60.1630   -23.9680     6.0090     5.2350     6.3040   109.1490     8.0580   -25.7030     2.4370     0.1590     0.2440
 3032.5000   -60.2750   -24.1760     5.9910     5.4180     7.3200    95.2360     8.0580   -25.7030     2.4030     0.1580     0.2380
 3033.0000   -60.3870   -24.3840     5.9630     5.6000     8.2390    81.4910     8.0710   -25.7030     2.3720     0.1120     0.2260
 3033.5000   -60.4990   -24.5920     6.0820     5.8000     7.9480    70.8260     8.1090   -25.7030     2.3730     0.1130     0.2140
 3034.0000   -60.6110   -24.8000     6.3220     6.1490     7.3660    70.4880     8.1460   -25.7030     2.3990     0.1140     0.2030
 3034.5000   -60.7230   -25.0080     6.5610     6.5370     6.8490    71.0110     8.1840   -25.7030     2.4220     0.1180     0.2010
 3035.0000   -60.8230   -25.2150     6.8010     6.7530     6.7860    70.9220     8.1990   -25.7030     2.4390     0.1220     0.2110
 3035.5000   -60.8150   -25.4230     7.0400     6.8110     7.4570    70.4240     8.1990   -25.7030     2.4480     0.1260     0.2170
 3036.0000   -60.3730   -25.6310     7.2800     6.8600     8.0570    69.9170     8.2000   -25.7030     2.4510     0.1300     0.2130
 3036.5000   -59.8870   -25.8390     7.5190     6.8920     8.6570    69.7340     8.2000   -25.7030     2.4770     0.1290     0.2070
 3037.0000   -59.4010   -26.0470     7.6520     6.9130     9.2900    70.5470     8.2000   -25.7030     2.5070     0.1060     0.2010
 3037.5000   -58.9170   -26.2550     7.3960     6.8320     8.3510    74.0050     8.2010   -25.7030     2.5370     0.0960     0.1980
 3038.0000   -58.4300   -26.4620     7.2050     6.7720     6.7860    83.0360     8.2010   -25.7030     2.5660     0.0930     0.2050
 3038.5000   -58.1830   -26.6700     7.0140     6.7120     6.8080    88.2670     8.2010   -25.7030     2.5440     0.1190     0.2160
 3039.0000   -58.1190   -26.8780     6.8230     6.6380     6.8370    85.8410     8.2020   -25.8800     2.4920     0.1330     0.2250
 3039.5000   -58.0560   -27.0860     6.6320     6.4960     6.8660    82.6170     8.2020   -26.1440     2.4380     0.1090     0.2180
 3040.0000   -58.0160   -27.2940     6.4410     6.3530     6.8950    80.7080     8.2020   -26.4070     2.4240     0.0820     0.2100
 3040.5000   -58.0160   -27.5020     6.2500     6.2100     6.9240    82.6370     8.2030   -26.6700     2.4470     0.0550     0.2020
 3041.0000   -58.0140   -27.7090     6.0590     6.0680     6.9530    84.5070     8.2030   -26.9340     2.4700     0.0460     0.1940
 3041.5000   -58.0260   -27.9170     5.8680     5.9250     6.9770    87.1060     8.2030   -27.1970     2.4920     0.0710     0.1980
 3042.0000   -58.3800   -28.1250     5.6770     5.7830     6.6180    92.0200     8.2040   -27.4600     2.5150     0.0850     0.2010
 3042.5000   -58.7470   -28.3330     5.4860     5.6400     6.3180    96.7770     8.2040   -27.7240     2.5260     0.0780     0.2030
 3043.0000   -58.9540   -28.5410     5.2950     5.4980     5.9630   100.4990     8.2040   -27.9870     2.5280     0.0700     0.2000
 3043.5000   -59.1220   -28.7490     5.1040     5.3410     6.0010   102.0390     8.2050   -28.2510     2.5280     0.0620     0.1950
 3044.0000   -59.2890   -28.9560     4.9130     5.1330     6.0480   102.2160     8.2050   -28.5140     2.5250     0.0700     0.1970
 3044.5000   -59.4160   -29.1640     4.7220     4.9250     6.0950   102.4460     8.2050   -28.7770     2.5210     0.0730     0.2030
