~VERSION INFORMATION
 VERS.                2.0:   CWLS LOG ASCII STANDARD - VERSION 2.0
 WRAP.                 NO:   ONE LINE PER DEPTH STEP
~WELL INFORMATION
#MNEM.UNIT      DATA TYPE    INFORMATION
#----------   ------------   ------------------------------
 STRT.F          196.5000:   START DEPTH
 STOP.F         2376.0000:   STOP DEPTH
 STEP.F            0.5000:   STEP LENGTH
 NULL.          -999.2500:   NO VALUE
 COMP.    FENIX & SCISSON:   COMPANY
 WELL. FENIX & SCISSON NPR-3 #55-10:   WELL
 FLD .  TEAPOT DOME NPR-3:   FIELD
 LOC .      S10 T38N R78W:   LOCATION
 CNTY.            NATRONA:   COUNTY
 STAT.            WYOMING:   STATE
 CTRY. UNITED STATES OF AMERICA:   COUNTRY
 SRVC.           BIRDWELL:   SERVICE COMPANY
 DATE.        09-MAY-1979:   LOGDATE
 API .     49025107780000:   API NUMBER
~CURVE INFORMATION
#MNEM.UNIT       API CODE    CURVE DESCRIPTION
#----------   ------------   ------------------------------
 DEPT.F                  :   
 CALD.IN     45 280 60 00:   CALIPER FROM DENSITY LOG
 GRD .GAPI   45 310 01 00:   GAMMA RAY FROM DENSITY LOG
 RHOB.G/C3   45 350 01 00:   BULK DENSITY
 CORR.G/C3   45 356 01 00:   DENSITY CORRECTION
~PARAMETER INFORMATION
#MNEM.UNIT          VALUE    DESCRIPTION
#----------   ------------   ------------------------------
 EKB .F         5203.0000:   Kelly bushing
 EGL .F         5193.0000:   Ground level
 EDF .F            0.0000:   Drilling floor
 TD  .F         2376.0000:   Total depth
 CLNT.            A2DTECH:   Client Code
 SL  . 2283' FSL & 2107' FEL:   Surface Location
 PD  .                 GL:   Permanent Datum
 EPD .F              5193:   Elevation Permanent Datum
 LMF .                 KB:   Log Measured From
 DMF .                 KB:   Drilling Measured From
 DAPD.F                10:   Feet Above Permanent Datum
 DATE.        09-MAY-1979:   Date Logged [DD-MMM-YYYY]
 DD  .F              2360:   Depth driller
 DL  .F              2376:   Depth logger
 BLI .F              2376:   Bottom log interval
 TLI .F               196:   Top log interval
 CS1 .IN            9.625:   Casing size
 CBD1.             9.625":   Casing driller 1
 CBL1.F               545:   Casing logger 1
 BS1 .IN             8.75:   Bit size
 BSD1.F              2360:   Depth drilled with bit1
 DFT .                AIR:   Type fluid in hole
 TCS .HRS               3:   Time Circ. stopped
 LUN .               2959:   Logging unit number
 LUL .             CASPER:   Logging unit location
 ENGI.         B. ROLLINS:   Recorded By
 WITN.             RHODES:   Witnessed by
 ORIG.           5" PRINT:   Origin of data
 UWI .     49025107780000:   Unique Well ID
 DICO. A2D TECHNIOLOGIES,INC.:   Digitizing Company
~OTHER INFORMATION
~A  DEPTH     CALD        GRD       RHOB       CORR
# ...
 1291.5000     9.0746   118.8021     2.5191     0.0859
 1292.0000     9.0602   119.2583     2.5349     0.0828
 1292.5000     9.0459   120.1663     2.5515     0.0918
 1293.0000     9.0468   121.5267     2.5590     0.1008
 1293.5000     9.0475   123.3396     2.5598     0.1038
 1294.0000     9.0483   122.8901     2.5454     0.0825
 1294.5000     9.0490   120.9323     2.4919     0.0431
 1295.0000     9.0498   120.3312     2.4768     0.0188
 1295.5000     9.0505   123.8040     2.4783     0.0066
 1296.0000     9.0513   128.1811     2.4873     0.0020
 1296.5000     9.0522   129.4396     2.4948     0.0004
 1297.0000     9.0680   123.7879     2.5001     0.0035
 1297.5000     9.0838   118.3561     2.5252     0.0188
 1298.0000     9.0997   117.9366     2.5363     0.0275
 1298.5000     9.1306   123.7553     2.5322     0.0305
 1299.0000     9.1313   127.5964     2.5408     0.0395
 1299.5000     9.1168   127.4478     2.5355     0.0485
 1300.0000     9.1177   127.1491     2.5264     0.0534
 1300.5000     9.1032   126.8511     2.5271     0.0607
 1301.0000     9.0888   125.6475     2.5309     0.0659
 1301.5000     9.0898   121.5781     2.5279     0.0629
 1302.0000     9.0754   118.4136     2.5263     0.0568
 1302.5000     9.0611   117.3600     2.5361     0.0554
 1303.0000     9.0467   119.0229     2.5369     0.0629
 1303.5000     9.0475   119.7800     2.5368     0.0674
 1304.0000     9.0483   120.3863     2.5421     0.0720
 1304.5000     9.0492   119.7860     2.5527     0.0765
 1305.0000     9.0499   119.2963     2.5559     0.0765
 1305.5000     9.0506   121.4510     2.5435     0.0600
 1306.0000     9.0514   122.2082     2.5406     0.0464
 1306.5000     9.0521   122.2117     2.5519     0.0525
 1307.0000     9.0529   122.2147     2.5537     0.0721
 1307.5000     9.0536   122.2176     2.5610     0.0915
 1308.0000     9.0544   125.6897     2.5670     0.1111
 1308.5000     9.0551   127.6527     2.5700     0.1201
 1309.0000     9.0558   121.3215     2.5700     0.1276
 1309.5000     9.0415   119.9663     2.5700     0.1291
 1310.0000     9.0573   120.8750     2.5655     0.1141
 1310.5000     9.0581   122.0846     2.5549     0.0975
 1311.0000     9.0588   122.0954     2.5353     0.0764
 1311.5000     9.0155   119.9609     2.5202     0.0523
 1312.0000     9.0157   114.9340     2.5232     0.0176
 1312.5000     9.0158   114.8566     2.5262     0.0176
 1313.0000     9.0311   118.9327     2.5277     0.0237
 1313.5000     9.0312   124.2147     2.5277     0.0299
 1314.0000     9.0163   128.8934     2.5231     0.0342
 1314.5000     9.0165   129.6497     2.5094     0.0236
 1315.0000     9.0166   127.9943     2.5058     0.0176
 1315.5000     9.0168   125.4332     2.5156     0.0357
 1316.0000     9.0169   124.6813     2.5201     0.0447
 1316.5000     9.0321   126.3441     2.5096     0.0327
 1317.0000     9.0625   128.4586     2.5050     0.0236
 1317.5000     9.0777   131.4782     2.5080     0.0312
 1318.0000     9.0929   132.8386     2.5110     0.0372
 1318.5000     9.1232   131.9296     2.5133     0.0312
 1319.0000     9.1234   132.1268     2.5171     0.0373
 1319.5000     9.1386   133.7532     2.5374     0.0483
 1320.0000     9.1388   134.8120     2.5517     0.0568
 1320.5000     9.1389   130.1393     2.5321     0.0477
 1321.0000     9.1240   124.5615     2.5154     0.0477
 1321.5000     9.0940   120.9446     2.5140     0.0492
 1322.0000     9.0790   117.0260     2.5095     0.0508
 1322.5000     9.0641   119.1405     2.5261     0.0538
 1323.0000     9.0643   120.9535     2.5307     0.0613
 1323.5000     9.0493   121.8614     2.5356     0.0719
 1324.0000     9.0344   121.5627     2.5637     0.0915
 1324.5000     9.0345   120.5099     2.5743     0.1080
 1325.0000     9.0347   119.1554     2.5682     0.1171
 1325.5000     9.0198   118.5328     2.5396     0.0940
 1326.0000     9.0199   121.3649     2.5049     0.0629
 1326.5000     9.0050   125.1982     2.5064     0.0236
 1327.0000     9.0051   125.3520     2.5019     0.0055
 1327.5000     9.0053   124.4499     2.4988    -0.0020
 1328.0000     9.0055   123.8496     2.5245     0.0236
 1328.5000     9.0207   124.3050     2.5546     0.0492
 1329.0000     9.0057   126.4196     2.5697     0.0779
 1329.5000     9.0210   130.6458     2.5644     0.0990
 1330.0000     9.0211   133.3637     2.5440     0.0764
 1330.5000     9.0364   133.0650     2.5320     0.0462
 1331.0000     9.0516   131.5597     2.5351     0.0342
 1331.5000     9.0668   129.9035     2.5349     0.0266
 1332.0000     9.0519   128.9934     2.5319     0.0270
 1332.5000     9.0370   127.9337     2.5440     0.0553
 1333.0000     9.0220   126.9945     2.5500     0.0719
 1333.5000     9.0071   125.8430     2.5470     0.0719
 1334.0000     9.0073   130.0699     2.5410     0.0719
 1334.5000     9.0074   129.6203     2.5440     0.0734
 1335.0000     9.0226   127.2100     2.5560     0.0854
 1335.5000     9.0228   126.6089     2.5636     0.0990
 1336.0000     9.0229   128.4226     2.5560     0.1080
 1336.5000     9.0231   130.3864     2.5251     0.0824
 1337.0000     9.0232   130.9926     2.5130     0.0598
 1337.5000     9.0234   130.2414     2.5138     0.0447
 1338.0000     9.0235   126.4737     2.5303     0.0386
 1338.5000     9.0237   124.0634     2.5462     0.0357
 1339.0000     9.0238   123.1534     2.5605     0.0688
 1339.5000     9.0240   122.2022     2.5712     0.0930
 1340.0000     9.0241   121.8098     2.5771     0.1020
 1340.5000     9.0243   127.3942     2.5537     0.1050
 1341.0000     9.0245   130.2629     2.5228     0.0779
 1341.5000     9.0246   132.0759     2.4956     0.0477
 1342.0000     9.0248   132.2296     2.4896     0.0221
 1342.5000     8.9797   131.7801     2.4971     0.0101
 1343.0000     8.9647   130.2748     2.5273     0.0296
 1343.5000     8.9497   124.3954     2.5529     0.0583
 1344.0000     8.9499   120.0243     2.5589     0.0811
 1344.5000     8.9652   119.2731     2.5619     0.0962
 1345.0000     8.9653   121.6893     2.5649     0.1080
 1345.5000     9.0107   125.3154     2.5679     0.1111
 1346.0000     9.0101   127.3120     2.5468     0.0839
 1346.5000     8.9959   128.2073     2.5121     0.0538
 1347.0000     9.0112   128.3377     2.5016     0.0191
 1347.5000     9.0264   126.8331     2.4939    -0.0171
 1348.0000     9.0266   123.8195     2.4710    -0.0352
 1348.5000     9.0267   121.4092     2.4623    -0.0442
 1349.0000     9.0269   122.3171     2.4653    -0.0276
 1349.5000     9.0421   123.3759     2.4827    -0.0307
 1350.0000     9.0724   122.4738     2.5030    -0.0533
 1350.5000     9.0876   120.3652     2.5272    -0.0237
 1351.0000     9.0878   119.0107     2.5601     0.0175
 1351.5000     9.0879   118.8456     2.5811     0.0613
 1352.0000     9.0881   120.5249     2.5860     0.0869
 1352.5000     9.0731   123.1118     2.5754     0.0960
 1353.0000     9.0563   126.5096     2.5483     0.0764
 1353.5000     9.0282   129.3635     2.5044     0.0598
 1354.0000     9.0284   131.4440     2.4976     0.0462
 1354.5000     9.0285   126.1760     2.5249     0.0342
 1355.0000     9.0136   125.8810     2.5279     0.0236
 1355.5000     9.0288   127.0986     2.5309     0.0176
 1356.0000     9.0290   127.8616     2.5528     0.0221
 1356.5000     9.0291   125.4572     2.5589     0.0555
 1357.0000     9.0293   122.8899     2.5589     0.0675
 1357.5000     9.0294   120.7818     2.5589     0.0719
 1358.0000     9.0145   120.5063     2.5634     0.0839
 1358.5000     9.0224   121.1207     2.5703     0.0975
 1359.0000     8.9927   121.8837     2.5803     0.1126
 1359.5000     8.9782   123.0991     2.5883     0.1201
 1360.0000     8.9789   124.1638     2.5808     0.1307
 1360.5000     8.9643   123.1168     2.5542     0.1126
 1361.0000     8.9650   120.5615     2.5133     0.0794
 1361.5000     8.9656   119.0621     2.4974     0.0342
 1362.0000     8.9813   118.7650     2.5166    -0.0005
 1362.5000     8.9819   120.6509     2.5324    -0.0035
 1363.0000     8.9976   123.7496     2.5119    -0.0050
 1363.5000     9.0134   126.7919     2.5036    -0.0065
 1364.0000     9.0291   128.7616     2.4998    -0.0020
