~VERSION INFORMATION
 VERS.                2.0:   CWLS LOG ASCII STANDARD - VERSION 2.0
 WRAP.                 NO:   ONE LINE PER DEPTH STEP
~WELL INFORMATION
#MNEM.UNIT      DATA TYPE    INFORMATION
#----------   ------------   ------------------------------
 STRT.F          218.0000:   START DEPTH
 STOP.F         2860.0000:   STOP DEPTH
 STEP.F            0.5000:   STEP LENGTH
 NULL.          -999.2500:   NO VALUE
 COMP.    FENIX & SCISSON:   COMPANY
 WELL.  FENIX "AX" #76-20:   WELL
 FLD . TEAPOT DOME NPR -3:   FIELD
 LOC .      S20 T39N R78W:   LOCATION
 CNTY.            NATRONA:   COUNTY
 STAT.            WYOMING:   STATE
 CTRY. UNITED STATES OF AMERICA:   COUNTRY
 SRVC.           BIRDWELL:   SERVICE COMPANY
 DATE.        21-AUG-1978:   LOGDATE
 API .     49025106920000:   API NUMBER
~CURVE INFORMATION
#MNEM.UNIT       API CODE    CURVE DESCRIPTION
#----------   ------------   ------------------------------
 DEPT.F                  :   
 SPR .MV     05 010 01 00:   SPONTANEOUS POTENTIAL FROM RES.
 ILD .OHMM   05 120 46 00:   INDUCTION LOG DEEP
 SN  .OHMM   05 040 16 00:   SHORT NORMAL 16"
 RHOB.G/C3   45 350 01 00:   BULK DENSITY
 CALD.IN     45 280 60 00:   CALIPER FROM DENSITY LOG
 DCOR.G/C3   45 356 01 00:   DENSITY CORRECTION
 GRD .GAPI   45 310 01 00:   GAMMA RAY FROM DENSITY LOG
~PARAMETER INFORMATION
#MNEM.UNIT          VALUE    DESCRIPTION
#----------   ------------   ------------------------------
 EKB .F         5062.0000:   Kelly bushing
 EGL .F         5052.0000:   Ground level
 EDF .F            0.0000:   Drilling floor
 EPD .F            0.0000:   Permanent datum
 TD  .F         2854.0000:   Total depth
 DATE.        21-AUG-1978:   Date logged
 CLNT.            A2DTECH:   Client Code
 SL  . 1500' FNL & 1200' FEL:   Surface Location
 PD  .                 GL:   Permanent Datum
 DD  .F              2850:   Depth driller
 DL  .F              2854:   Depth logger
 BLI .F              2848:   Bottom log interval
 CS1 .IN            8.625:   Casing size
 CBD1.      8.625" @ 200':   Casing driller 1
 CBL1.F               235:   Casing logger 1
 BS1 .IN            7.875:   Bit size
 DFT .                KCL:   Type fluid in hole
 DFD .                9.2:   Density
 DFV .                 30:   Viscosity
 DFL .                8.4:   Fluid loss
 MSS .           FLOWLINE:   Source of sample
 RMS .OHMM            1.2:   Rm
 MST .F                86:   Rm Meas. temp.
 RMF .OHMM            0.8:   Rmf
 MFST.F                68:   Rmf Meas. temp.
 RMC .OHMM            1.6:   Rmc
 MCST.F                70:   Rmc Meas. temp.
 MFSS.              PRESS:   Source Rmf.
 BHT .F               102:   BHT.
 TCS .HRS               3:   Time Circ. stopped
 MRT .F               102:   Maximum recorded temp.
 LUN .               2968:   Logging unit number
 LUL .             CASPER:   Logging unit location
 ENGI.           REYNOLDS:   Recorded By
 ORIG.           5" PRINT:   Origin of data
 UWI .     49025106920000:   Unique Well ID
 DICO. A2D TECHNOLOGIES, INC.:   Digitizing Company
 DAPD.                 12:   Feet Above Permanent Datum
 BSD1.               2850:   Depth drilled with bit1
 MCSS.               MEAS:   Source Rmc.
 TLI .                230:   Top log interval
~OTHER INFORMATION
~A   DEPT      SPR        ILD         SN       RHOB       CALD       DCOR          GRD 
# ...
 2629.5000   -68.5980     4.4500     5.5940     2.5280     6.9540     0.0330   141.5030
 2630.0000   -68.4930     4.4390     5.5250     2.5230     6.9540     0.0280   139.0270
 2630.5000   -68.3890     4.4390     5.4570     2.5180     6.9540     0.0350   136.8870
 2631.0000   -68.2830     4.4440     5.3890     2.5300     6.9510     0.0420   131.6820
 2631.5000   -68.1770     4.4600     5.3050     2.5460     6.9440     0.0400   137.3300
 2632.0000   -68.1740     4.4760     5.3180     2.5460     6.9360     0.0340   139.1060
 2632.5000   -68.2150     4.4910     5.3640     2.5370     6.9290     0.0280   137.4230
 2633.0000   -68.3820     4.5070     5.4110     2.5280     6.9220     0.0280   138.9690
 2633.5000   -68.5450     4.5230     5.4560     2.5190     6.9140     0.0290   139.4940
 2634.0000   -68.7080     4.5230     5.4560     2.5120     6.9130     0.0300   138.4430
 2634.5000   -68.8700     4.5520     5.5080     2.5230     6.9140     0.0430   138.0100
 2635.0000   -69.0330     4.6230     5.5710     2.5380     6.8910     0.0570   138.0130
 2635.5000   -69.1950     4.6950     5.6700     2.5400     6.8710     0.0600   138.0260
 2636.0000   -69.3580     4.7660     5.7720     2.5300     6.8490     0.0590   137.8290
 2636.5000   -69.5280     4.7850     5.7830     2.5210     6.8250     0.0570   133.9710
 2637.0000   -69.5270     4.7340     5.8020     2.5250     6.8020     0.0560   130.1810
 2637.5000   -69.4540     4.7270     5.8220     2.5290     6.7790     0.0550   127.2380
 2638.0000   -69.3800     4.7200     5.8420     2.5270     6.7560     0.0630   130.1040
 2638.5000   -69.3050     4.7130     5.8620     2.5320     6.7330     0.0850   133.8300
 2639.0000   -69.2290     4.7060     5.8810     2.5360     6.7310     0.0940   134.5860
 2639.5000   -69.1560     4.7000     5.9010     2.5310     6.7760     0.1020   134.4710
 2640.0000   -69.0820     4.6960     5.9210     2.5250     6.8380     0.1180   136.2610
 2640.5000   -69.0090     4.6960     5.9410     2.5400     6.8750     0.1370   135.7320
 2641.0000   -68.9350     4.7020     5.9600     2.5470     6.8500     0.1560   133.9680
 2641.5000   -68.8620     4.7360     5.9800     2.5490     6.8440     0.1740   141.1280
 2642.0000   -68.7890     4.7690     6.0000     2.5530     6.8380     0.1930   143.9870
 2642.5000   -68.7160     4.7850     6.0200     2.5680     6.8310     0.2260   138.9010
 2643.0000   -68.6420     4.6850     6.0390     2.5920     6.8250     0.2790   133.7260
 2643.5000   -68.5780     4.5490     6.0490     2.6160     6.8190     0.3090   123.1460
 2644.0000   -68.6350     4.4130     5.9990     2.6400     6.8130     0.2970   117.4520
 2644.5000   -68.6930     4.3160     5.8290     2.6590     6.8060     0.2810   124.4780
 2645.0000   -68.7500     4.3160     5.6590     2.6460     6.8000     0.2140   131.7170
 2645.5000   -68.8080     4.3160     5.4890     2.6230     6.7940     0.1450   134.2370
 2646.0000   -68.8650     4.3160     5.3190     2.5790     6.8030     0.0780   135.3700
 2646.5000   -68.9210     4.3160     5.2550     2.5400     6.8160     0.0450   127.5140
 2647.0000   -68.9720     4.3160     5.2550     2.5310     6.8290     0.0450   124.8710
 2647.5000   -69.0160     4.3160     5.2550     2.5300     6.8430     0.0450   123.2380
 2648.0000   -69.1670     4.4390     5.2550     2.5310     6.8570     0.0460   121.6570
 2648.5000   -69.1670     4.5230     5.2550     2.5350     6.8700     0.0450   120.7870
 2649.0000   -69.1520     4.5840     5.2550     2.5390     6.8950     0.0440   122.8750
 2649.5000   -69.1370     4.6660     5.2550     2.5430     6.8840     0.0440   132.5130
 2650.0000   -69.1210     4.7480     5.3800     2.5460     6.8680     0.0440   134.2300
 2650.5000   -69.1060     4.8310     5.5900     2.5400     6.8510     0.0440   135.2830
 2651.0000   -69.0900     4.8750     5.7400     2.5330     6.8350     0.0460   135.5700
 2651.5000   -69.0750     4.8750     5.8890     2.5290     6.8190     0.0560   134.8190
 2652.0000   -69.0590     4.8540     6.0390     2.5490     6.8130     0.0700   133.6900
 2652.5000   -69.0440     4.6740     6.1640     2.5650     6.8140     0.0850   132.7490
 2653.0000   -69.0290     4.4030     6.2220     2.5760     6.8200     0.0910   131.5780
 2653.5000   -69.0130     4.1320     5.9150     2.5800     6.8260     0.0880   129.9400
 2654.0000   -68.9980     3.8620     5.4920     2.5760     6.8330     0.0850   125.5670
 2654.5000   -68.9820     3.5910     5.0700     2.5690     6.8200     0.0850   118.9260
 2655.0000   -68.9760     3.3820     4.6470     2.5690     6.8020     0.0900   113.2890
 2655.5000   -68.9740     3.3890     4.2240     2.5690     6.7840     0.0840   115.1640
 2656.0000   -68.9620     3.3960     3.8010     2.5560     6.7660     0.0680   119.6180
 2656.5000   -68.9490     3.4030     3.6110     2.5290     6.7540     0.0570   123.1760
 2657.0000   -68.9360     3.4100     3.6800     2.5040     6.8220     0.0650   126.2770
 2657.5000   -68.9230     3.4460     3.7140     2.4960     6.8920     0.0760   131.5240
 2658.0000   -68.9100     3.9370     4.2600     2.4880     6.9620     0.0860   146.1990
 2658.5000   -68.8980     4.3900     4.6380     2.4820     6.9900     0.0900   162.9900
 2659.0000   -68.8850     4.8430     5.0160     2.5110     6.9740     0.0750   184.1810
 2659.5000   -68.8720     5.4050     5.3940     2.5450     6.9870     0.0600   184.2990
 2660.0000   -68.8590     5.3030     5.7720     2.5530     7.0700     0.0450   163.4040
 2660.5000   -68.8470     5.1680     6.1640     2.5610     7.1680     0.0390   134.8690
 2661.0000   -68.8340     5.0330     6.2220     2.5580     7.0530     0.0410   117.1980
 2661.5000   -68.8210     4.8980     6.2800     2.5540     6.9370     0.0430   106.9230
 2662.0000   -68.8080     4.7400     6.3390     2.5520     6.9330     0.0440   107.0950
 2662.5000   -68.7960     4.7520     6.2580     2.5610     6.9280     0.0460   111.5260
 2663.0000   -68.7830     4.7670     6.0610     2.5630     6.9130     0.0470   115.3150
 2663.5000   -68.7750     4.7820     5.8640     2.5480     6.9550     0.0480   116.2870
 2664.0000   -68.7750     4.7970     5.7720     2.5360     7.0210     0.0520   114.3050
 2664.5000   -68.7750     4.8130     5.7720     2.5280     7.0350     0.0730   110.5570
 2665.0000   -68.7430     4.8280     5.7720     2.5380     7.0340     0.0910   110.4930
 2665.5000   -68.6780     4.8750     5.7960     2.5510     7.0340     0.0870   111.9400
 2666.0000   -68.6140     4.7790     5.8490     2.5530     7.0340     0.0850   113.7030
 2666.5000   -68.5490     4.6240     5.9030     2.5590     7.0340     0.0880   115.0050
 2667.0000   -68.4850     4.4700     5.9570     2.5730     7.0350     0.0920   118.7830
 2667.5000   -68.4210     4.3150     5.9930     2.5860     7.0340     0.0890   122.7220
 2668.0000   -68.3690     4.1600     5.7570     2.5680     7.0800     0.0730   127.1000
 2668.5000   -68.3540     4.0050     5.4270     2.5400     7.2740     0.0630   128.2680
 2669.0000   -68.5850     3.8560     5.0960     2.5210     7.4700     0.0780   127.3610
 2669.5000   -68.5930     3.8560     4.7650     2.5100     7.4970     0.0930   122.2250
 2670.0000   -68.6090     3.8560     4.4350     2.5040     7.5080     0.1310   120.1840
 2670.5000   -68.6230     3.8560     4.1040     2.5440     7.5190     0.2090   124.6070
 2671.0000   -68.6370     3.8560     3.7730     2.5750     7.5300     0.2210   142.5630
 2671.5000   -68.6500     3.8930     3.6800     2.5680     7.5410     0.2300   160.4440
 2672.0000   -68.6640     4.3910     4.2310     2.5620     7.5520     0.2390   178.1740
 2672.5000   -68.6770     4.8440     5.1570     2.5810     7.5640     0.2380   195.9540
 2673.0000   -68.6910     5.2970     5.9370     2.6030     7.5750     0.2360   212.0920
 2673.5000   -68.7040     5.7000     6.1220     2.6250     7.5590     0.2310   211.1440
 2674.0000   -68.7170     5.8860     6.3040     2.6420     7.5190     0.2220   191.7340
 2674.5000   -68.7310     6.0730     6.4870     2.6520     7.4790     0.2130   165.3900
