~VERSION INFORMATION
 VERS.                2.0:   CWLS LOG ASCII STANDARD - VERSION 2.0
 WRAP.                 NO:   ONE LINE PER DEPTH STEP
~WELL INFORMATION
#MNEM.UNIT      DATA TYPE    INFORMATION
#----------   ------------   ------------------------------
 STRT.F           34.0000:   START DEPTH
 STOP.F         2909.0000:   STOP DEPTH
 STEP.F            0.5000:   STEP LENGTH
 NULL.          -999.2500:   NO VALUE
 COMP.   TESORO PETROLEUM:   COMPANY
 WELL. TESORO NPR "A" #3-28:   WELL
 FLD .             TEAPOT:   FIELD
 LOC .      S28 T39N R78W:   LOCATION
 CNTY.            NATRONA:   COUNTY
 STAT.            WYOMING:   STATE
 CTRY. UNITED STATES OF AMERICA:   COUNTRY
 SRVC.              WELEX:   SERVICE COMPANY
 DATE.        22-JUL-1968:   LOGDATE
 API .     49025102620000:   API NUMBER
~CURVE INFORMATION
#MNEM.UNIT       API CODE    CURVE DESCRIPTION
#----------   ------------   ------------------------------
 DEPT.F                  :   
 GRD .GAPI   45 310 01 00:   GAMMA RAY FROM DENSITY LOG
 SPR .MV     05 010 01 00:   SPONTANEOUS POTENTIAL FROM RES.
 ASN .OHMM   05 041 16 00:   AMPLIFIED SHORT NORMAL 16"
 ILD .OHMM   05 120 46 00:   INDUCTION LOG DEEP
~PARAMETER INFORMATION
#MNEM.UNIT          VALUE    DESCRIPTION
#----------   ------------   ------------------------------
 EKB .F         5050.0000:   Kelly bushing
 EGL .F         5039.0000:   Ground level
 EDF .F            0.0000:   Drilling floor
 EPD .F         5039.0000:   Permanent datum
 TD  .F         2906.0000:   Total depth
 CLNT.            A2DTECH:   Client Code
 DATE.       22-JULY-1968:   Date Logged [DD-MMM-YYYY]
 DD  .F              2906:   Depth driller
 DL  .F              2906:   Depth logger
 BLI .F              2901:   Bottom log interval
 TLI .F               356:   Top log interval
 CS1 .              10.75:   Casing size
 CBD1.      10.75" @ 356':   Casing driller 1
 CBL1.IN              356:   Casing logger 1
 BS1 .IN                9:   Bit size
 DFT .     WATER BASE MUD:   Type fluid in hole
 DFD .                9.6:   Density
 DFV .                 60:   Viscosity
 DFPH.                9.0:   pH
 DFL .                  6:   Fluid loss
 MSS .               CTRC:   Source of sample
 RMS .OHMM            2.1:   Rm
 MST .F                74:   Rm Meas. temp.
 RMF .OHMM            1.6:   Rmf
 MFST.F                71:   Rmf Meas. temp.
 MFSS.               MEAS:   Source Rmf.
 RMC .OHMM            3.0:   Rmc
 MCST.F                66:   Rmc Meas. temp.
 RMB .OHMM            1.3:   Rm. at BHT
 BHT .F               120:   BHT.
 MRT .F               120:   Maximum recorded temp.
 LUN .               6869:   Logging unit number
 ORIG.         2.5" PRINT:   Origin of data
 UWI .     49025102620000:   Unique Well ID
 DICO. A2D TECHNOLOGIES, INC.:   Digitizing Company
 LUL .          NEWCASTLE:   Logging unit location
~OTHER INFORMATION
~A   DEPT      GRD        SPR         ASN         ILD 
# ...
  983.0000  -999.2500   -30.5566     9.9597     9.5961
  983.5000  -999.2500   -30.5550     9.9903     9.6664
  984.0000  -999.2500   -30.5535    10.1132     9.8247
  984.5000  -999.2500   -30.7244    10.2203     9.8262
  985.0000  -999.2500   -31.1790     9.8559     9.8277
  985.5000  -999.2500   -32.1208    10.2672     9.8292
  986.0000  -999.2500   -32.4340    10.5748     9.8307
  986.5000  -999.2500   -31.8033    10.7252     9.9890
  987.0000  -999.2500   -31.8018    10.8756     9.9906
  987.5000  -999.2500   -31.4858    10.8687     9.9922
  988.0000  -999.2500   -31.4759    10.7044     9.9937
  988.5000  -999.2500   -31.1385    10.6764     9.9953
  989.0000  -999.2500   -30.8522    10.5015     9.9968
  989.5000  -999.2500   -30.8506    10.1695     9.9209
  990.0000  -999.2500   -30.8491     9.8900     9.8433
  990.5000  -999.2500   -31.1622     9.7270     9.8451
  991.0000  -999.2500   -31.1604     9.9114     9.6897
  991.5000  -999.2500   -31.1588     9.9693     9.6914
  992.0000  -999.2500   -31.1572     9.9883     9.6929
  992.5000  -999.2500   -31.4701    10.0129     9.6944
  993.0000  -999.2500   -31.4683    10.0047     9.6959
  993.5000  -999.2500   -31.4668     9.9976     9.6975
  994.0000  -999.2500   -31.4653    10.0220     9.6991
  994.5000  -999.2500   -31.4638    10.0136     9.7006
  995.0000  -999.2500   -31.4622    10.0067     9.7022
  995.5000  -999.2500   -31.4607     9.9684     9.7037
  996.0000  -999.2500   -31.4591     9.9301     9.7053
  996.5000  -999.2500   -31.4576     9.8604     9.7069
  997.0000  -999.2500   -31.4560     9.7592     9.7085
  997.5000  -999.2500   -31.1399     9.6895     9.7103
  998.0000  -999.2500   -31.1384     9.6510     9.7118
  998.5000  -999.2500   -30.9916     9.6438     9.5564
  999.0000  -999.2500   -30.8208     9.6255     9.5581
  999.5000  -999.2500   -30.5044     9.6293     9.5596
 1000.0000  -999.2500   -30.5029     9.6636     9.4044
 1000.5000  -999.2500   -31.1336     9.6343     9.4060
 1001.0000  -999.2500   -30.9895     9.5770     9.4027
 1001.5000  -999.2500   -30.8223     9.5183     9.3341
 1002.0000  -999.2500   -30.8242     9.4597     9.2655
 1002.5000  -999.2500   -30.8257     9.4011     9.1969
 1003.0000  -999.2500   -31.1417     9.3425     9.1195
 1003.5000  -999.2500   -31.4577     9.2533     8.9623
 1004.0000  -999.2500   -31.5052     9.2252     8.8050
 1004.5000  -999.2500   -31.1463     9.1469     8.6478
 1005.0000  -999.2500   -31.1478     9.1208     8.4906
 1005.5000  -999.2500   -31.1493     9.0800     8.4801
 1006.0000  -999.2500   -31.1510     9.0826     8.3333
 1006.5000  -999.2500   -30.8379     9.1322     8.1761
 1007.0000  -999.2500   -30.9161     9.0928     8.1761
 1007.5000  -999.2500   -31.1556     9.1712     8.3333
 1008.0000  -999.2500   -31.1572     9.2361     8.3333
 1008.5000  -999.2500   -31.2966     9.3010     8.4906
 1009.0000  -999.2500   -31.4749     9.3047     8.6478
 1009.5000  -999.2500   -31.4764     9.2775     8.8050
 1010.0000  -999.2500   -31.1638     9.2817     8.8050
 1010.5000  -999.2500   -30.5361     9.4077     8.9623
 1011.0000  -999.2500   -30.5378     9.5644     8.9623
 1011.5000  -999.2500   -30.5393     9.8128     8.9623
 1012.0000  -999.2500   -30.5409     9.4495     9.1195
 1012.5000  -999.2500   -30.2278     9.5476     9.2767
 1013.0000  -999.2500   -30.2295     9.6738     9.2872
 1013.5000  -999.2500   -30.2311     9.7706     9.4340
 1014.0000  -999.2500   -30.2327     9.8114     9.4654
 1014.5000  -999.2500   -30.2343     9.9338     9.6331
 1015.0000  -999.2500   -30.2361    10.0535     9.8008
 1015.5000  -999.2500   -30.2377    10.1185     9.9686
 1016.0000  -999.2500   -30.2392     9.9083    10.0629
 1016.5000  -999.2500   -30.2407     9.9121    10.1467
 1017.0000  -999.2500   -30.2422     9.9159    10.3774
 1017.5000  -999.2500   -30.5582    10.0726    10.5346
 1018.0000  -999.2500   -30.5597    10.0764    10.6918
 1018.5000  -999.2500   -30.5613    10.2332    10.8491
 1019.0000  -999.2500   -30.5629    10.2752    11.0063
 1019.5000  -999.2500   -30.5645    10.5467    11.1635
 1020.0000  -999.2500   -30.4822    10.7221    11.1635
 1020.5000  -999.2500   -30.2529    10.8725    11.3208
 1021.0000  -999.2500   -30.2547    11.0236    11.3208
 1021.5000  -999.2500   -30.2563    11.1738    11.3208
 1022.0000  -999.2500   -30.2579    11.3239    11.3627
 1022.5000  -999.2500   -30.2597    11.4741    11.4780
 1023.0000  -999.2500   -30.2613    11.6244    11.5409
 1023.5000  -999.2500   -30.2628    11.6171    11.6352
 1024.0000  -999.2500   -30.5788    11.7680    11.7191
 1024.5000  -999.2500   -30.5803    11.8021    11.9497
 1025.0000  -999.2500   -30.5818    11.9115    11.9497
 1025.5000  -999.2500   -30.5833    11.9033    12.1069
 1026.0000  -999.2500   -30.5849    12.1269    12.2642
 1026.5000  -999.2500   -30.5865    12.2875    12.4214
 1027.0000  -999.2500   -30.5880    12.3538    12.5786
 1027.5000  -999.2500   -30.5896    12.5039    12.5786
 1028.0000  -999.2500   -30.5912    12.4959    12.5786
 1028.5000  -999.2500   -30.5928    12.4891    12.5786
 1029.0000  -999.2500   -30.5943    12.4822    12.6100
 1029.5000  -999.2500   -30.5959    12.4754    12.7358
 1030.0000  -999.2500   -30.5975    12.4686    12.7358
 1030.5000  -999.2500   -30.5993    12.4615    12.7358
 1031.0000  -999.2500   -30.6009    12.4544    12.7358
 1031.5000  -999.2500   -30.6024    12.4788    12.7358
 1032.0000  -999.2500   -30.6039    12.5984    12.7358
 1032.5000  -999.2500   -30.6054    12.5904    12.8931
 1033.0000  -999.2500   -30.6070    12.7419    12.8931
 1033.5000  -999.2500   -30.6085    12.8069    12.8931
 1034.0000  -999.2500   -30.6101    12.8837    13.0503
 1034.5000  -999.2500   -30.6593    13.0338    13.0503
 1035.0000  -999.2500   -30.9277    13.0256    13.0503
 1035.5000  -999.2500   -30.9292    13.0187    13.0608
 1036.0000  -999.2500   -30.9308    13.1698    13.2075
 1036.5000  -999.2500   -30.9324    13.3195    13.3962
 1037.0000  -999.2500   -30.9340    13.4699    13.7211
 1037.5000  -999.2500   -30.9355    13.6203    13.8365
 1038.0000  -999.2500   -31.2519    13.6134    13.9937
 1038.5000  -999.2500   -31.2534    13.7843    13.9937
 1039.0000  -999.2500   -30.9405    13.9142    13.9937
 1039.5000  -999.2500   -30.9420    13.7073    13.8365
 1040.0000  -999.2500   -30.9435    13.3228    13.5220
 1040.5000  -999.2500   -30.6305    12.9489    13.2075
 1041.0000  -999.2500   -30.6321    12.7846    13.0503
 1041.5000  -999.2500   -30.6142    12.8614    13.0503
 1042.0000  -999.2500   -30.3207    13.2408    13.2075
 1042.5000  -999.2500   -30.3223    13.7056    13.5220
 1043.0000  -999.2500   -30.3239    14.3277    13.8470
 1043.5000  -999.2500   -30.3255    14.7926    14.3082
 1044.0000  -999.2500   -30.3270    14.8072    14.3082
 1044.5000  -999.2500   -30.3286    14.3072    14.2662
 1045.0000  -999.2500   -30.3302    13.8286    13.9413
 1045.5000  -999.2500   -30.3318    13.3394    13.6163
 1046.0000  -999.2500   -30.3336    12.8500    13.2075
 1046.5000  -999.2500   -30.3351    12.4867    12.9665
 1047.0000  -999.2500   -30.3366    11.9869    12.5786
 1047.5000  -999.2500   -30.3382    11.5920    12.4214
 1048.0000  -999.2500   -30.3397    11.4290    12.4214
 1048.5000  -999.2500   -30.3412    11.6512    12.4214
 1049.0000  -999.2500   -30.3427    11.8852    12.4214
 1049.5000  -999.2500   -30.3444    12.0354    12.5786
 1050.0000  -999.2500   -30.3459    12.1855    12.5786
 1050.5000  -999.2500   -30.6620    12.1775    12.7358
 1051.0000  -999.2500   -30.6635    12.3279    12.7568
 1051.5000  -999.2500   -30.6651    12.3211    12.8931
 1052.0000  -999.2500   -30.9811    12.3142    13.0503
 1052.5000  -999.2500   -30.9827    12.3074    13.0503
 1053.0000  -999.2500   -31.2987    12.4578    13.0503
 1053.5000  -999.2500   -31.3006    12.4504    13.1237
 1054.0000  -999.2500   -31.3021    12.4434    13.2075
 1054.5000  -999.2500   -31.3036    12.4363    13.0503
 1055.0000  -999.2500   -31.3052    12.5876    13.0503
 1055.5000  -999.2500   -31.3067    12.5794    13.0503
