~VERSION INFORMATION
 VERS.                2.0:   CWLS LOG ASCII STANDARD - VERSION 2.0
 WRAP.                 NO:   ONE LINE PER DEPTH STEP
~WELL INFORMATION
#MNEM.UNIT      DATA TYPE    INFORMATION
#----------   ------------   ------------------------------
 STRT.F           85.5000:   START DEPTH
 STOP.F         2750.0000:   STOP DEPTH
 STEP.F            0.5000:   STEP LENGTH
 NULL.          -999.2500:   NO VALUE
 COMP.          INTEX OIL:   COMPANY
 WELL. INTEX NPR 3 "AX" #74-20:   WELL
 FLD .             TEAPOT:   FIELD
 LOC .      S20 T39N R78W:   LOCATION
 CNTY.            NATRONA:   COUNTY
 STAT.            WYOMING:   STATE
 CTRY. UNITED STATES OF AMERICA:   COUNTRY
 SRVC.       SCHLUMBERGER:   SERVICE COMPANY
 DATE.        08-MAY-1966:   LOGDATE
 API .     49025095210000:   API NUMBER
~CURVE INFORMATION
#MNEM.UNIT       API CODE    CURVE DESCRIPTION
#----------   ------------   ------------------------------
 DEPT.F                  :   
 CALD.IN     45 280 60 00:   CALIPER FROM DENSITY LOG
 GRD .GAPI   45 310 01 00:   GAMMA RAY FROM DENSITY LOG
 RHOB.G/C3   45 350 01 00:   BULK DENSITY
 CORR.G/C3   45 356 01 00:   DENSITY CORRECTION
 SPR .MV     05 010 01 00:   SPONTANEOUS POTENTIAL FROM RES.
 ILD .OHMM   05 120 46 00:   INDUCTION LOG DEEP
 SN  .OHMM   05 040 00 00:   SHORT NORMAL
~PARAMETER INFORMATION
#MNEM.UNIT          VALUE    DESCRIPTION
#----------   ------------   ------------------------------
 EKB .F         5018.3000:   Kelly bushing
 EGL .F         5008.0000:   Ground level
 EDF .F            0.0000:   Drilling floor
 EPD .F         5008.0000:   Permanent datum
 TD  .F         2750.0000:   Total depth
 DATE.        08-MAY-1966:   Date logged
 CLNT.            A2DTECH:   Client Code
 DAPD.F              10.3:   Feet Above Permanent Datum
 DD  .F              2750:   Depth driller
 DL  .F              2749:   Depth logger
 BLI .F              2748:   Bottom log interval
 TLI .F                87:   Top log interval
 CS1 .IN            10.75:   Casing size
 CBD1.       10.75" @ 30':   Casing driller 1
 BS1 .IN            7.875:   Bit size
 BSD1.F              2750:   Depth drilled with bit1
 DFT .           OIL EMUL:   Type fluid in hole
 DFD .               10.1:   Density
 DFV .                 54:   Viscosity
 MSS .         CIRCULATED:   Source of sample
 RMS .OHMM           1.90:   Rm
 MST .F                72:   Rm Meas. temp.
 RMF .OHMM           1.15:   Rmf
 MFST.F                72:   Rmf Meas. temp.
 MFSS.                 FP:   Source Rmf.
 RMB .OHMM           1.23:   Rm. at BHT
 BHT .F               111:   BHT.
 TCS .HRS             1.5:   Time Circ. stopped
 MRT .F               111:   Maximum recorded temp.
 LUN .               4507:   Logging unit number
 LUL .               CSPR:   Logging unit location
 ENGI.               HAUG:   Recorded By
 WITN.             TUTTLE:   Witnessed by
 ORIG.        2" 5" PRINT:   Origin of data
 UWI .     49025095210000:   Unique Well ID
 DICO. A2D TECHNOLOGIES, INC.:   Digitizing Company
~OTHER INFORMATION
~A   DEPT     CALD        GRD       RHOB       CORR        SPR        ILD         SN   
# ...
 2633.5000     8.0450   148.3080     2.5430     0.0710   -32.1160     4.1010     5.6950
 2634.0000     7.9840   160.0550     2.5940     0.1110   -32.1430     4.7690     6.8180
 2634.5000     7.9210   169.5780     2.6050     0.1250   -32.1720     5.3970     7.8590
 2635.0000     7.8600   156.4630     2.5980     0.1100   -32.2010     6.0490     9.0650
 2635.5000     7.7980   134.6220     2.5850     0.1040   -32.2290     6.6980     9.0080
 2636.0000     7.7340   108.3820     2.5750     0.1090   -32.2580     7.1890     8.7910
 2636.5000     7.6810    92.5480     2.5630     0.0920   -32.2860     6.9900     8.5440
 2637.0000     7.6430    91.3880     2.5740     0.0990   -32.3150     6.7270     8.3370
 2637.5000     7.6340    91.4790     2.5690     0.1050   -32.3440     6.4510     8.1050
 2638.0000     7.6490    93.3210     2.5570     0.0960   -32.3730     6.1830     7.8840
 2638.5000     7.6650    95.6140     2.5530     0.0840   -32.4010     5.8510     7.6620
 2639.0000     7.6790    97.1880     2.5670     0.0840   -32.4290     5.4380     7.4360
 2639.5000     7.6930    98.2080     2.5780     0.0970   -32.4610     5.0190     7.2020
 2640.0000     7.7190    99.4580     2.5510     0.0900   -32.4510     4.6010     6.8220
 2640.5000     7.7550   102.3360     2.5190     0.0710   -32.3530     4.1810     6.4340
 2641.0000     7.7520   105.9830     2.5270     0.0650   -32.2570     3.7610     6.0450
 2641.5000     7.7310   109.6430     2.5420     0.0860   -32.1580     3.3500     5.6550
 2642.0000     7.6640   112.6100     2.5190     0.0670   -32.0610     2.8980     5.2650
 2642.5000     7.6370   114.9960     2.4950     0.0680   -31.9630     2.6510     4.8850
 2643.0000     7.6530   117.1410     2.4670     0.0720   -31.8650     2.6800     4.4600
 2643.5000     7.6730   126.9290     2.4540     0.0790   -31.7650     2.6760     4.2770
 2644.0000     7.6360   137.4440     2.4700     0.0970   -31.6950     2.6570     4.3890
 2644.5000     7.5600   149.4020     2.5090     0.1170   -31.6950     2.8590     4.6730
 2645.0000     7.4900   154.4990     2.5660     0.1380   -31.6930     3.3710     5.2620
 2645.5000     7.4660   150.6010     2.5980     0.1490   -31.6940     3.8490     5.8300
 2646.0000     7.5980   144.5280     2.5980     0.1250   -31.6930     4.3560     6.4120
 2646.5000     7.8520   130.3720     2.5870     0.1000   -31.6930     4.8330     6.9600
 2647.0000     8.0280   118.6220     2.5610     0.0790   -31.6930     5.3850     7.5260
 2647.5000     8.1160   106.2620     2.5670     0.0690   -31.6930     5.6560     7.8360
 2648.0000     8.1530   102.7860     2.5730     0.0610   -31.6930     5.9450     7.8550
 2648.5000     8.1580   101.3200     2.5590     0.0460   -31.6930     6.2000     7.9300
 2649.0000     8.1690   103.6250     2.5480     0.0370   -31.6930     6.2360     7.9900
 2649.5000     8.1770   106.6520     2.5540     0.0440   -31.6920     6.2630     8.0500
 2650.0000     8.1820   109.5590     2.5610     0.0490   -31.6930     6.2830     8.1160
 2650.5000     8.1610   112.6670     2.5520     0.0490   -31.6910     6.3100     8.1730
 2651.0000     8.1420   112.6060     2.5430     0.0380   -31.6930     6.3320     8.2420
 2651.5000     8.1220   110.3060     2.5350     0.0430   -31.6900     6.3570     8.3130
 2652.0000     8.1020   111.6630     2.5250     0.0320   -31.6870     6.3800     8.3920
 2652.5000     8.0820   113.0050     2.5300     0.0470   -31.5330     6.4040     8.4220
 2653.0000     8.0710   112.9800     2.5460     0.0620   -31.3330     6.4280     8.4520
 2653.5000     8.0840   114.3020     2.5470     0.0560   -31.1380     6.4510     8.4800
 2654.0000     8.0980   117.2870     2.5400     0.0510   -30.9360     6.4750     8.5100
 2654.5000     8.1120   120.3500     2.5590     0.0570   -30.7460     6.4980     8.5390
 2655.0000     8.1260   121.3840     2.5630     0.0540   -30.5330     6.5210     8.5680
 2655.5000     8.1420   121.6680     2.5750     0.0510   -30.5420     6.5450     8.5970
 2656.0000     8.1320   120.0290     2.5740     0.0580   -30.5740     6.5670     8.5930
 2656.5000     8.0760   118.3590     2.5670     0.0640   -30.6120     6.5920     8.6430
 2657.0000     8.0230   116.1710     2.5730     0.0690   -30.6420     6.6160     8.7710
 2657.5000     7.9660   116.8370     2.5630     0.0620   -30.6780     6.6090     8.8900
 2658.0000     7.9530   120.4690     2.5330     0.0510   -30.7110     6.4540     9.0160
 2658.5000     7.9770   123.6270     2.5460     0.0700   -30.7440     6.2910     9.1370
 2659.0000     7.9980   126.5430     2.5560     0.0660   -30.7790     6.1250     9.1850
 2659.5000     8.0230   127.7960     2.5690     0.0720   -30.8120     5.9620     8.9280
 2660.0000     8.0000   125.0480     2.5760     0.0900   -30.8440     5.7980     8.5940
 2660.5000     7.9010   122.4490     2.5600     0.1000   -30.8870     5.6340     8.2710
 2661.0000     7.8020   120.1430     2.5450     0.0710   -30.8560     5.4690     7.9320
 2661.5000     7.7080   120.1520     2.5360     0.0470   -30.6770     5.3100     7.6200
 2662.0000     7.6420   120.7930     2.5440     0.0710   -30.5080     5.1280     7.2530
 2662.5000     7.7050   122.6890     2.5570     0.0570   -30.3320     5.0380     7.3090
 2663.0000     7.7700   124.6830     2.5770     0.0620   -30.1580     5.0550     7.4210
 2663.5000     7.8100   122.9470     2.5890     0.0780   -29.9870     5.3530     7.5370
 2664.0000     7.8560   120.8410     2.5710     0.0670   -29.8040     5.7540     7.6640
 2664.5000     7.9000   119.5970     2.5480     0.0550   -29.7190     6.1500     7.7280
 2665.0000     7.9450   120.7510     2.5600     0.0660   -29.7300     6.5410     8.2400
 2665.5000     7.9570   118.4040     2.5440     0.0640   -29.7240     6.9370     9.0980
 2666.0000     7.9660   120.6840     2.5510     0.0550   -29.7300     7.3320     9.8810
 2666.5000     7.9740   118.4620     2.5740     0.0680   -29.7290     7.7210    10.6610
 2667.0000     7.9840   116.3730     2.5810     0.0810   -29.9410     8.1270    11.5250
 2667.5000     7.9880   114.5440     2.5890     0.0840   -30.2530     8.5030    12.0330
 2668.0000     7.9560   116.8040     2.5940     0.0740   -30.5540     8.9530    12.1170
 2668.5000     7.9080   112.4620     2.6070     0.0810   -30.8550     8.9220    11.9930
 2669.0000     7.8630   108.4360     2.6280     0.0940   -31.1710     8.7470    11.7850
 2669.5000     7.8210   110.5490     2.6190     0.0860   -31.2890     8.5690    11.5780
 2670.0000     7.7630   113.9590     2.6010     0.0610   -31.0610     8.4000    11.3830
 2670.5000     7.8260   114.3320     2.5830     0.0560   -30.8750     8.2220    11.1760
 2671.0000     7.9190   114.5340     2.5980     0.0840   -30.6740     8.0530    10.9760
 2671.5000     7.9140   118.0140     2.5880     0.1010   -30.4780     7.8730    10.7820
 2672.0000     7.9480   122.1880     2.6050     0.1060   -30.2790     7.8030    10.6360
 2672.5000     7.8680   123.3430     2.6000     0.1120   -30.1320     7.8100    10.6520
 2673.0000     7.7850   122.0320     2.5850     0.0960   -30.2130     7.8090    10.8890
 2673.5000     7.7510   121.5460     2.5690     0.0690   -30.2820     7.8090    11.1030
 2674.0000     7.8120   122.8280     2.5550     0.0500   -30.3630     7.8100    11.3220
 2674.5000     7.8570   124.0570     2.5400     0.0380   -30.4380     7.8190    11.5510
 2675.0000     7.7500   123.6860     2.5510     0.0520   -30.5180     7.8030    11.7600
 2675.5000     7.6530   121.4360     2.5770     0.0640   -30.5910     7.9990    11.9940
 2676.0000     7.5770   118.4290     2.5940     0.0760   -30.6820     8.5440    12.2240
 2676.5000     7.7430   114.3080     2.5820     0.0760   -30.7440     8.9730    12.8830
 2677.0000     8.0080   115.7640     2.5690     0.0670   -30.8500     9.6990    13.4970
 2677.5000     7.9170   120.3130     2.5480     0.0600   -30.9830    10.6420    14.9430
 2678.0000     7.8190   120.2520     2.5260     0.0520   -32.2480    13.0300    16.8260
 2678.5000     7.7100   112.5110     2.5130     0.0820   -34.1300    16.1200    19.0460
