~VERSION INFORMATION
 VERS.                2.0:   CWLS LOG ASCII STANDARD - VERSION 2.0
 WRAP.                 NO:   ONE LINE PER DEPTH STEP
~WELL INFORMATION
#MNEM.UNIT      DATA TYPE    INFORMATION
#----------   ------------   ------------------------------
 STRT.F          199.0000:   START DEPTH
 STOP.F         2951.0000:   STOP DEPTH
 STEP.F            0.5000:   STEP LENGTH
 NULL.          -999.2500:   NO VALUE
 COMP.    FENIX & SCISSON:   COMPANY
 WELL. FENIX & SCISSON "A" #3-21:   WELL
 FLD .              XPR-3:   FIELD
 LOC .      S21 T39N R78W:   LOCATION
 CNTY.            NATRONA:   COUNTY
 STAT.            WYOMING:   STATE
 CTRY. UNITED STATES OF AMERICA:   COUNTRY
 SRVC.              WELEX:   SERVICE COMPANY
 DATE.        27-JUN-1977:   LOGDATE
 API .     49025103880000:   API NUMBER
~CURVE INFORMATION
#MNEM.UNIT       API CODE    CURVE DESCRIPTION
#----------   ------------   ------------------------------
 DEPT.F                  :   
 CALD.IN     45 280 60 00:   CALIPER FROM DENSITY LOG
 GRD .GAPI   45 310 01 00:   GAMMA RAY FROM DENSITY LOG
 CORR.G/C3   45 356 01 00:   DENSITY CORRECTION
 RHOB.G/C3   45 350 01 00:   BULK DENSITY
 SPR .MV     07 010 01 00:   SPONTANEOUS POTENTIAL
 ILD .OHMM   07 120 46 00:   DEEP INDUCTION RESISTIVITY
 ILM .OHMM   07 120 44 00:   INDUCTION LOG MEDIUM RESISTIVITY
 SGRD.OHMM   07 220 05 00:   SHALLOW SHORT GUARD RESISTIVITY
~PARAMETER INFORMATION
#MNEM.UNIT          VALUE    DESCRIPTION
#----------   ------------   ------------------------------
 EKB .F         4981.0000:   Kelly bushing
 EGL .F         4971.0000:   Ground level
 TD  .F         2953.0000:   Total depth
 CLNT.            A2DTECH:   Client Code
 SL  . 330' FSL & 1650' FWL:   Surface Location
 DATE.        27-JUN-1977:   Date Logged [DD-MMM-YYYY]
 DD  .F              2930:   Depth driller
 DL  .F              2953:   Depth logger
 BLI .F              2951:   Bottom log interval
 TLI .F               200:   Top log interval
 CS1 .              8.625:   Casing size
 CBD1.      8.625" @ 217':   Casing driller 1
 BS1 .IN            7.875:   Bit size
 BSD1.F              2930:   Depth drilled with bit1
 DFT .            KCL MUD:   Type fluid in hole
 DFD .                9.4:   Density
 DFV .                 37:   Viscosity
 DFPH.                9.0:   pH
 DFL .               16.0:   Fluid loss
 MSS .           FLOWLINE:   Source of sample
 RMS .OHMM           1.10:   Rm
 MST .F                92:   Rm Meas. temp.
 RMF .OHMM           0.85:   Rmf
 MFST.F                92:   Rmf Meas. temp.
 MFSS.           FANN KIT:   Source Rmf.
 RMC .OHMM           1.44:   Rmc
 MCST.F                92:   Rmc Meas. temp.
 MCSS.           FANN KIT:   Source Rmc.
 RMB .OHMM           0.93:   Rm. at BHT
 BHT .F               109:   BHT.
 TCS .HRS            0230:   Time Circ. stopped
 MRT .F               109:   Maximum recorded temp.
 LUN .               8611:   Logging unit number
 LUL .             CASPER:   Logging unit location
 ENGI.         G. BENTSEN:   Recorded By
 WITN.  MR. W. PETTINGILL:   Witnessed by
 ORIG.      2.5" 5" PRINT:   Origin of data
 UWI .     49025103880000:   Unique Well ID
 DICO. A2D TECHNOLOGIES, INC.:   Digitizing Company
 PD  .                 GL:   Permanent Datum
 EPD .               4971:   Elevation Permanent Datum
 LMF .                 KB:   Log Measured From
 DMF .                 KB:   Drilling Measured From
 DAPD.                 10:   Feet Above Permanent Datum
~OTHER INFORMATION
~A   DEPT       CALD       GRD       CORR        RHOB      SPR        ILD        ILM       SGRD   
# ...
 1454.5000     9.0144   102.7295     0.0030     2.5530   -40.4769     6.8122     7.6170    11.1600
 1455.0000     9.0139   103.3426     0.0030     2.5561   -40.6080     6.8150     7.5148    11.5341
 1455.5000     9.0134   103.9556     0.0029     2.5569   -40.5800     6.8178     7.4648     9.5146
 1456.0000     9.0130   104.5687     0.0029     2.5562   -40.5622     6.8206     7.5709     9.8686
 1456.5000     9.0125   105.1826     0.0029     2.5530   -40.5400     6.8235     7.5730    10.5687
 1457.0000     9.0121   104.5564     0.0044     2.5507   -40.3698     6.8263     7.5226    10.5635
 1457.5000     9.0116   103.3118     0.0060     2.5498   -40.3378     6.8291     7.4735    10.6411
 1458.0000     9.0111   101.4481     0.0060     2.5532   -39.8816     6.8319     7.4756    10.3447
 1458.5000     8.9797   100.2036     0.0060     2.5609   -39.7115     6.8347     7.5293    10.5414
 1459.0000     8.9792    98.9590     0.0091     2.5669   -39.6890     6.8376     7.5835    11.5072
 1459.5000     8.9788    97.7145     0.0090     2.5658   -39.6666     6.8404     7.6380    10.8063
 1460.0000     8.9783    97.0892     0.0090     2.5629   -39.7929     6.8432     7.7461    10.9619
 1460.5000     8.9779    95.8446     0.0073     2.5629   -39.7697     6.8460     7.8018    10.9664
 1461.0000     8.9774    95.2193     0.0059     2.5613   -39.7473     6.8489     7.6438    10.9709
 1461.5000     8.9769    94.5940     0.0059     2.5613   -40.0208     6.8990     7.6464    11.1265
 1462.0000     8.9765    93.9686     0.0041     2.5613   -40.1519     6.9496     7.6485    10.4620
 1462.5000     8.9760    93.9625     0.0027     2.5612   -40.2774     6.9524     7.6506    11.2914
 1463.0000     8.9756    94.5755    -0.0004     2.5612   -40.4029     7.0033     7.7589    11.9360
 1463.5000     8.9751    95.8078    -0.0004     2.5612   -40.5284     7.0062     7.8687    11.5367
 1464.0000     8.9705    97.6592     0.0058     2.5782   -40.6540     7.0091     7.8709    11.3042
 1464.5000     8.9385   100.1298     0.0120     2.5921   -40.7795     7.0605     7.9275    11.8688
 1465.0000     8.9066   102.6005     0.0182     2.6013   -40.6035     7.1613     7.9845    11.6308
 1465.5000     8.8804   104.4519     0.0244     2.6090   -40.5811     7.2636     7.9867    11.7970
 1466.0000     8.8799   103.2074     0.0307     2.6152   -40.5587     7.3168     7.9889    12.2999
 1466.5000     8.8727   100.7244     0.0338     2.6198   -40.5363     7.4212     7.9357    11.9693
 1467.0000     8.8480    98.2293     0.0369     2.6244   -40.6674     7.4756     7.8839    12.2243
 1467.5000     8.8475    95.7274     0.0368     2.6228   -40.6394     7.4787     7.8861    10.9541
 1468.0000     8.8470    93.2509     0.0306     2.6166   -40.6170     7.4818     8.2211    11.5795
 1468.5000     8.8466    91.3776     0.0243     2.6089   -40.5992     7.4849     8.6893    13.7615
 1469.0000     8.8461    90.1672     0.0181     2.5996   -40.5769     7.4366     8.8123    17.6420
 1469.5000     8.8456    89.4894     0.0150     2.5856   -40.7033     7.2876     8.5751    21.4041
 1470.0000     8.8452    88.8545     0.0056     2.5671   -40.6804     7.1416     8.2871    12.1717
 1470.5000     8.8447    87.6722     0.0025     2.5562   -40.6583     7.0469     7.8991    10.3201
 1471.0000     8.8443    90.4651    -0.0038     2.5516   -40.6360     6.9057     7.7927    10.7611
 1471.5000     8.8749    94.7401    -0.0069     2.5516   -40.6136     6.8141     7.5835    10.9903
 1472.0000     8.9054    97.8581    -0.0069     2.5515   -40.2953     6.6776     7.2784    10.6226
 1472.5000     8.9177   101.4862    -0.0069     2.5500   -40.1250     6.5438     7.1657    10.1967
 1473.0000     8.9487   103.3558    -0.0038     2.5499   -39.8067     6.5465     6.9744     9.8555
 1473.5000     8.9658   104.3536     0.0024     2.5607   -39.6364     6.4596     6.7065     9.9277
 1474.0000     8.9653   102.3529     0.0055     2.5700   -39.4660     6.4180     6.6618    10.4945
 1474.5000     8.9649    99.7150     0.0117     2.5808   -39.1478     6.5096     6.6641    10.7911
 1475.0000     8.9644    97.2136     0.0179     2.5900   -38.9774     6.5573     6.8522     9.8708
 1475.5000     8.9639    94.8763     0.0210     2.5946   -38.6591     6.6969     7.0943    10.0821
 1476.0000     8.9635    93.7965     0.0272     2.5837   -38.6367     6.7459     7.3957    11.1074
 1476.5000     8.9630    95.2104     0.0241     2.5775   -38.6143     6.8423     7.6570    11.9045
 1477.0000     8.9625    97.0713     0.0116     2.5760   -38.8878     6.8924     7.7568    12.4120
 1477.5000     8.9621    98.5141     0.0054     2.5760   -39.0189     6.8952     7.8363    12.7640
 1478.0000     8.9615   100.3838     0.0054     2.5761   -39.1388     6.8981     7.8770    12.0004
 1478.5000     8.9611   102.0341     0.0085     2.5807   -39.1164     6.9009     7.8792    12.6868
 1479.0000     8.9606   103.5045     0.0178     2.5852   -39.0940     6.9038     7.5103    10.3937
 1479.5000     8.9601   105.1362     0.0209     2.5797   -39.0716     6.8592     7.2082    10.1143
 1480.0000     8.9597   106.3778     0.0178     2.5743   -39.0491     6.8150     7.1116    10.8401
 1480.5000     8.9592   107.8760     0.0084     2.5794   -39.3282     6.7246     7.2122     9.9167
 1481.0000     8.9588   108.4146     0.0053     2.5838   -39.3048     6.6354     7.2142     9.9207
 1481.5000     8.9583   103.4957     0.0021     2.5804   -39.2826     6.5926     7.1174    10.2726
 1482.0000     8.9579    95.7279    -0.0010     2.5678   -39.2604     6.4605     7.1194    10.4915
 1482.5000     8.9574    94.9224    -0.0041     2.5647   -39.2381     6.4189     7.0725    10.1404
 1483.0000     8.9569    98.3342    -0.0041     2.5615   -39.2160     6.4215     6.9297     9.7329
 1483.5000     8.9565   101.1395    -0.0042     2.5561   -39.1937     6.3801     6.8840     9.8730
 1484.0000     8.9560   102.6872    -0.0073     2.5468   -39.1713     6.3389     6.7451    10.2938
 1484.5000     8.9246   104.5480    -0.0073     2.5378   -39.1489     6.3416     6.7470    10.6590
 1485.0000     8.9241   106.4086    -0.0074     2.5324   -39.1265     6.3442     6.7488    10.0916
 1485.5000     8.9236   107.6501    -0.0105     2.5418   -39.1041     6.3906     6.8443     9.7529
 1486.0000     8.9232   109.1517    -0.0105     2.5522   -39.0816     6.3933     6.9412    10.0306
 1486.5000     8.9227   109.7647    -0.0105     2.5555   -39.0592     6.3959     6.9911    10.0347
 1487.0000     8.8913   105.4230    -0.0105     2.5488   -39.1847     6.3986     7.0414    10.2485
 1487.5000     8.8908   103.5592    -0.0105     2.5462   -39.1623     6.4012     7.0433     9.9046
 1488.0000     8.8904   102.9339    -0.0105     2.5462   -39.2878     6.4038     6.9969    10.8381
 1488.5000     8.8899   102.9277    -0.0102     2.5467   -39.7092     6.4065     6.9508    10.7681
 1489.0000     8.8894   102.9216    -0.0074     2.5498   -39.9827     6.3652     6.9049    10.0544
 1489.5000     8.8890   103.5346    -0.0075     2.5544   -40.1138     6.3241     6.8594     9.9895
 1490.0000     8.8885   103.5285    -0.0071     2.5618   -40.0858     6.2833     6.8613    10.3449
 1490.5000     8.8881   102.9031    -0.0044     2.5683   -40.2169     6.2428     6.8632    10.4207
 1491.0000     8.8886   102.8970    -0.0008     2.5736   -40.1889     6.2025     6.8651    10.0029
 1491.5000     8.9181   102.8909     0.0023     2.5776   -40.1665     6.2480     6.7730     9.9381
 1492.0000     8.9177   101.6463     0.0054     2.5784   -40.2976     6.2937     6.7284    10.0803
 1492.5000     8.9172    98.5442     0.0117     2.5739   -40.5710     6.3836     6.7302     9.9465
 1493.0000     8.9477    96.0613     0.0148     2.5669   -40.5430     6.4304     6.7786     9.8143
 1493.5000     8.9472    93.5783     0.0173     2.5591   -40.5252     6.4330     6.9221     9.9547
 1494.0000     8.9468    92.3338     0.0204     2.5575   -40.5030     6.4801     6.9719    10.3791
 1494.5000     8.9463    91.7085     0.0211     2.5668   -40.4808     6.4828     6.9738    10.8963
