~VERSION INFORMATION
 VERS.                2.0:   CWLS LOG ASCII STANDARD - VERSION 2.0
 WRAP.                 NO:   ONE LINE PER DEPTH STEP
~WELL INFORMATION
#MNEM.UNIT      DATA TYPE    INFORMATION
#----------   ------------   ------------------------------
 STRT.F           30.0000:   START DEPTH
 STOP.F         3240.0000:   STOP DEPTH
 STEP.F            0.5000:   STEP LENGTH
 NULL.          -999.2500:   NO VALUE
 COMP. LAWRENCE-ALLISON ASSOCIATES WES:   COMPANY
 WELL. LAWRENCE "AX" #87AX28:   WELL
 FLD .   TEAPOT N.P.R. #3:   FIELD
 LOC .      S28 T39N R78W:   LOCATION
 CNTY.            NATRONA:   COUNTY
 STAT.            WYOMING:   STATE
 CTRY. UNITED STATES OF AMERICA:   COUNTRY
 SRVC.       SCHLUMBERGER:   SERVICE COMPANY
 DATE.        28-MAY-1982:   LOGDATE
 API .     49025108860000:   API NUMBER
~CURVE INFORMATION
#MNEM.UNIT       API CODE    CURVE DESCRIPTION
#----------   ------------   ------------------------------
 DEPT.F                  :   
 TENR.LBS    07 635 01 00:   TENSION FROM RESISTIVITY
 GRR .GAPI   07 310 01 00:   GAMMA RAY FROM RESISTIVITY
 SPR .MV     07 010 01 00:   SPONTANEOUS POTENTIAL FROM RES.
 ILD .OHMM   07 120 46 00:   DEEP INDUCTION RESISTIVITY
 ILM .OHMM   07 120 44 00:   INDUCTION LOG MEDIUM RESISTIVITY
 SFL .OHMM   07 220 01 00:   SHALLOW FOCUSED LOG RESISITIVITY
 TEND.LBS    45 635 01 00:   TENSION FORM DENSITY LOG
 NPHI.DEC    42 890 03 00:   NEUTRON POROSITY SANDSTONE
 CALD.IN     45 280 60 00:   CALIPER FROM DENSITY LOG
 CORR.G/C3   45 356 01 00:   DENSITY CORRECTION
 RHOB.G/C3   45 350 01 00:   BULK DENSITY
~PARAMETER INFORMATION
#MNEM.UNIT          VALUE    DESCRIPTION
#----------   ------------   ------------------------------
 EKB .F         5070.0000:   Kelly bushing
 EGL .F         5060.0000:   Ground level
 TD  .F         3220.0000:   Total depth
 CLNT.            A2DTECH:   Client Code
 SL  . 1341' FSL & 162' FEL:   Surface Location
 PD  .                 GL:   Permanent Datum
 EPD .F              5060:   Elevation Permanent Datum
 LMF .                 KB:   Log Measured From
 DMF .                 KB:   Drilling Measured From
 DAPD.F                10:   Feet Above Permanent Datum
 DATE.        28-MAY-1982:   Date Logged [DD-MMM-YYYY]
 DD  .F              3220:   Depth driller
 DL  .F              3215:   Depth logger
 BLI .F              3212:   Bottom log interval
 TLI .F               489:   Top log interval
 CS1 .IN            9.625:   Casing size
 CBD1.      9.625" @ 461':   Casing driller 1
 CBL1.F               489:   Casing logger 1
 BS1 .IN            9.750:   Bit size
 BSD1.F              3220:   Depth drilled with bit1
 DFT .          POLY./KCL:   Type fluid in hole
 DFD .                8.8:   Density
 DFV .                 44:   Viscosity
 DFPH.                7.0:   pH
 DFL .                8.0:   Fluid loss
 MSS .           MUD TANK:   Source of sample
 RMS .OHMM          0.778:   Rm
 MST .F                65:   Rm Meas. temp.
 RMF .OHMM          0.710:   Rmf
 MFST.F                67:   Rmf Meas. temp.
 MFSS.               MEAS:   Source Rmf.
 RMB .OHMM          0.447:   Rm. at BHT
 BHT .F               118:   BHT.
 TCS .HRS            2000:   Time Circ. stopped
 TLAB.HRS            2430:   Time logger at bottom
 MRT .F               118:   Maximum recorded temp.
 LUN .               8043:   Logging unit number
 LUL .               CSPR:   Logging unit location
 ENGI.             DENNIS:   Recorded By
 WITN.             STRONG:   Witnessed by
 ORIG.           5" PRINT:   Origin of data
 UWI .     49025108860000:   Unique Well ID
 DICO. A2D TECHNOLOGIES, INC.:   Digitizing Company
~OTHER INFORMATION
~A   DEPT     TENR         GRR       SPR        ILD        ILM        SFL       TEND       NPHI       CALD       CORR       RHOB   
# ...
 3171.5000  1597.1276   115.5025   -29.0867     4.6706     4.6699     6.7067  1796.1595    -0.1023     8.3460     0.0047     2.4864
 3172.0000  1597.3977   117.5802   -28.8758     4.8070     4.7708     6.6179  1794.2184    -0.1106     8.3462     0.0048     2.4880
 3172.5000  1597.6678   119.1992   -28.7212     4.9121     4.8765     6.3910  1792.2761    -0.1225     8.3463     0.0072     2.4920
 3173.0000  1597.9381   118.0659   -28.4134     4.9859     4.9840     6.3492  1790.3350    -0.1176     8.3465     0.0080     2.4975
 3173.5000  1598.2083   117.6173   -28.2588     5.0928     5.0940     6.5859  1788.3938    -0.1131     8.3466     0.0088     2.5021
 3174.0000  1598.4784   118.5516   -27.9510     5.1673     5.1693     6.9281  1786.4202    -0.1208     8.3621     0.0096     2.5022
 3174.5000  1598.7487   118.7910   -27.6432     5.1684     5.2457     6.9451  1799.4576    -0.1309     8.3623     0.0105     2.4999
 3175.0000  1599.0188   117.4317   -27.4885     5.1695     5.2477     6.6957  1797.5165    -0.1352     8.3624     0.0113     2.5023
 3175.5000  1599.2889   112.6287   -27.4867     5.0972     5.2123     6.5590  1811.4921    -0.1298     8.3626     0.0138     2.5055
 3176.0000  1599.5592   110.3486   -27.6387     4.9902     5.1772     6.6123  1809.0651    -0.1191     8.3474     0.0184     2.5110
 3176.5000  1599.8293   113.1710   -27.9435     4.9205     5.1423     6.6646  1807.1238    -0.1087     8.3476     0.0208     2.5157
 3177.0000  1600.0995   116.9901   -28.2483     4.9215     5.1816     6.5753  1805.1826    -0.1076     8.3477     0.0185     2.5142
 3177.5000  1600.3698   119.1047   -28.8590     4.9579     5.1836     6.3953  1803.2404    -0.1097     8.3479     0.0169     2.5088
 3178.0000  1600.6399   115.9105   -29.3169     4.9944     5.2228     6.4002  1816.7313    -0.1134     8.3480     0.0139     2.5058
 3178.5000  1600.9100   109.5020   -29.7748     5.0676     5.2622     6.4970  1814.3043    -0.1202     8.3482     0.0124     2.5051
 3179.0000  1601.1803   103.5521   -30.2327     5.1415     5.3020     6.7861  1819.8563    -0.1257     8.3483     0.0124     2.5052
 3179.5000  1601.4504   102.4155   -30.5375     5.1794     5.3040     7.3016  1826.1772    -0.1279     8.3485     0.0133     2.5028
 3180.0000  1601.7206   107.4782   -30.6892     5.2176     5.3441     8.0089  1823.9119    -0.1301     8.3486     0.0164     2.5014
 3180.5000  1601.9907   112.3082   -30.6876     5.3317     5.3479     8.3058  1821.9706    -0.1359     8.3488     0.0196     2.5108
 3181.0000  1602.2610   115.5327   -30.8393     5.3328     5.3866     8.1363  1820.0616    -0.1390     8.3489     0.0204     2.5155
 3181.5000  1602.5311   118.0691   -30.9906     5.3339     5.4278     7.7461  1818.0558    -0.1378     8.3491     0.0204     2.5124
 3182.0000  1602.8013   119.4587   -30.9891     5.3366     5.4298     7.2186  1831.5791    -0.1370     8.3493     0.0213     2.5125
 3182.5000  1603.0715   118.7652   -30.9876     5.3305     5.3167     7.1205  1829.1521    -0.1367     8.3494     0.0213     2.5141
 3183.0000  1603.3417   116.5804   -30.9861     5.1504     5.2060     7.1783  1827.2098    -0.1376     8.3495     0.0221     2.5174
 3183.5000  1603.6118   114.6860   -30.9847     5.0064     5.0612     7.2352  1825.2687    -0.1423     8.3497     0.0253     2.5235
 3184.0000  1603.8821   113.0940   -30.9831     4.8665     4.9205     7.1221  1823.3274    -0.1484     8.3499     0.0316     2.5290
 3184.5000  1604.1522   111.2726   -30.9816     4.7304     4.7496     6.1078  1836.8829    -0.1429     8.3500     0.0370     2.5306
 3185.0000  1604.4224   111.0534   -30.9801     4.5330     4.5836     5.7326  1834.8760    -0.1285     8.3654     0.0394     2.5229
 3185.5000  1604.6926   111.5289   -30.9871     4.3129     4.4482     5.7781  1832.8701    -0.1179     8.3656     0.0402     2.5152
 3186.0000  1604.9628   113.1479   -31.1302     4.1625     4.2718     5.7825  1845.9399    -0.1171     8.3658     0.0371     2.5051
 3186.5000  1605.2329   115.2256   -31.4346     3.9871     4.0945     5.7049  1859.4309    -0.1202     8.3659     0.0279     2.4937
 3187.0000  1605.5032   112.2574   -31.7398     3.8186     3.9241     5.4314  1857.4896    -0.1171     8.3661     0.0241     2.4914
 3187.5000  1605.7733   109.7480   -32.0442     3.6630     3.7609     4.9899  1855.5485    -0.1092     8.3662     0.0225     2.4930
 3188.0000  1606.0435   109.0734   -32.3880     3.5353     3.6044     4.6463  1869.0383    -0.1001     8.3664     0.0187     2.4885
 3188.5000  1606.3137   108.6282   -32.8069     3.4365     3.4545     4.3342  1867.0972    -0.0662     8.3665     0.0094     2.4730
 3189.0000  1606.5839   109.1777   -33.1117     3.3404     3.3345     4.3686  1865.1235    -0.0729     8.3514     0.0048     2.4599
 3189.5000  1606.8540   111.4108   -33.5696     3.2470     3.2413     4.4032  1862.7289    -0.0806     8.3516     0.0064     2.4689
 3190.0000  1607.1243   113.2558   -33.8744     3.2015     3.1263     4.5018  1860.7877    -0.0865     8.3517     0.0096     2.4802
 3190.5000  1607.3944   110.9790   -34.1792     3.1569     3.0425     4.5052  1858.8464    -0.0880     8.3518     0.0096     2.4818
 3191.0000  1607.6646   110.3011   -34.4913     3.1128     3.0217     4.4766  1857.0991    -0.0864     8.3520     0.0097     2.4687
 3191.5000  1607.9348   111.6941   -34.8095     3.0913     3.0448     4.3852  1860.7606    -0.0791     8.3521     0.0128     2.4649
 3192.0000  1608.2050   116.2947   -35.2466     3.0700     3.0460     4.4200  1868.5186    -0.0771     8.3676     0.0191     2.4727
 3192.5000  1608.4751   120.8953   -35.5514     3.0708     3.0252     4.2998  1866.5127    -0.0842     8.3372     0.0285     2.4876
 3193.0000  1608.7454   122.7437   -36.0093     3.0934     3.0048     3.9503  1864.5057    -0.0857     8.3373     0.0387     2.5046
 3193.5000  1609.0155   122.2984   -36.1610     3.1162     3.0714     3.6034  1862.5000    -0.0723     8.3375     0.0464     2.5069
 3194.0000  1609.2856   117.9541   -36.1591     3.2072     3.1846     3.5041  1860.2023    -0.0650     8.3376     0.0333     2.4892
 3194.5000  1609.5559   113.3424   -36.1576     3.3482     3.3311     3.9033  1858.4873    -0.0663     8.3378     0.0240     2.4800
 3195.0000  1609.8260   113.3945   -36.1561     3.5206     3.5224     4.9776  1856.3198    -0.0946     8.3379     0.0217     2.4800
 3195.5000  1610.0962   115.2457   -36.0015     3.7556     3.7310     5.5833  1854.3785    -0.1083     8.3392     0.0287     2.4878
 3196.0000  1610.3665   116.1732   -35.8468     3.9835     3.9239     5.7083  1852.4364    -0.1071     8.3535     0.0382     2.4918
 3196.5000  1610.6366   111.8322   -35.9985     4.2416     4.0392     5.8985  1850.4628  -999.2500     8.3384     0.0265     2.4802
 3197.0000  1610.9067   110.2368   -35.9969     4.2729     4.1579     6.3634  1848.0681  -999.2500     8.3386     0.0170     2.4749
 3197.5000  1611.1770   112.5473   -35.9951     4.1830     4.1298     6.5993  1846.4502  -999.2500     8.3387     0.0126     2.4858
 3198.0000  1611.4471   117.1479   -36.1471     4.0954     4.0150     6.6044  1859.6180  -999.2500     8.3388     0.0150     2.4951
 3198.5000  1611.7173   120.3724   -36.1453     4.0669     3.9595     5.7722  1857.6768  -999.2500     8.3390     0.0212     2.5021
 3199.0000  1611.9875   120.4621   -36.1438     4.0680     4.0605     5.1173  1855.7346  -999.2500     8.3435     0.0291     2.5045
 3199.5000  1612.2577   118.3351   -36.2958     4.0398     4.0647     4.6347  1853.7933  -999.2500     8.3540     0.0353     2.4945
 3200.0000  1612.5278   115.8257   -36.6006     4.0697     4.1285     4.4437  1851.8522  -999.2500     8.3547     0.0299     2.4814
 3200.5000  1612.7981   114.4630   -37.2112     4.1587     4.1922     4.5132  1849.8453  -999.2500     8.3556     0.0212     2.4753
 3201.0000  1613.0682   114.4771   -37.8223     4.2802     4.3184     4.6154  1847.4839  -999.2500     8.3564     0.0184     2.4769
 3201.5000  1613.3384   114.9521   -38.2802     4.4051     4.4483     5.1871  1845.5427  -999.2500     8.3416     0.0262     2.4878
