~VERSION INFORMATION
 VERS.                2.0:   CWLS LOG ASCII STANDARD - VERSION 2.0
 WRAP.                 NO:   ONE LINE PER DEPTH STEP
~WELL INFORMATION
#MNEM.UNIT      DATA TYPE    INFORMATION
#----------   ------------   ------------------------------
 STRT.F          508.0000:   START DEPTH
 STOP.F         3170.0000:   STOP DEPTH
 STEP.F            0.5000:   STEP LENGTH
 NULL.          -999.2500:   NO VALUE
 COMP. FENIX & SCISSON - U.S. NAVY:   COMPANY
 WELL. FENIX NPR-3 "A" #58-34:   WELL
 FLD .                NPR:   FIELD
 LOC .      S34 T39N R78W:   LOCATION
 CNTY.            NATRONA:   COUNTY
 STAT.            WYOMING:   STATE
 CTRY. UNITED STATES OF AMERICA:   COUNTRY
 SRVC.       SCHLUMBERGER:   SERVICE COMPANY
 DATE.        15-MAR-1977:   LOGDATE
 API .     49025103180000:   API NUMBER
~CURVE INFORMATION
#MNEM.UNIT       API CODE    CURVE DESCRIPTION
#----------   ------------   ------------------------------
 DEPT.F                  :   
 CALD.IN     45 280 60 00:   CALIPER FROM DENSITY LOG
 GRD .GAPI   45 310 01 00:   GAMMA RAY FROM DENSITY LOG
 RHOB.G/C3   45 350 01 00:   BULK DENSITY
 CORR.G/C3   45 356 01 00:   DENSITY CORRECTION
 SPR .MV     07 010 01 00:   SPONTANEOUS POTENTIAL
 LL8 .OHMM   07 220 08 00:   LATEROLOG-8 RES.
 ILD .OHMM   07 120 46 00:   DEEP INDUCTION RESISTIVITY
 ILM .OHMM   07 120 44 00:   INDUCTION LOG MEDIUM RESISTIVITY
~PARAMETER INFORMATION
#MNEM.UNIT          VALUE    DESCRIPTION
#----------   ------------   ------------------------------
 EKB .F         5129.0000:   Kelly bushing
 EGL .F         5117.0000:   Ground level
 EDF .F            0.0000:   Drilling floor
 EPD .F            0.0000:   Permanent datum
 TD  .F         3170.0000:   Total depth
 DATE.        15-MAR-1977:   Date logged
 CLNT.            A2DTECH:   Client Code
 SL  . 2310' FEL & 330' FSL:   Surface Location
 PD  .                 GL:   Permanent Datum
 DAPD.F                12:   Feet Above Permanent Datum
 DD  .F              3170:   Depth driller
 DL  .F              3170:   Depth logger
 BLI .F              3169:   Bottom log interval
 TLI .F               508:   Top log interval
 CS1 .IN            8.625:   Casing size
 CBD1.      8.625" @ 524':   Casing driller 1
 CBL1.F               522:   Casing logger 1
 BS1 .IN            7.875:   Bit size
 BSD1.F              3170:   Depth drilled with bit1
 DFT .                KCL:   Type fluid in hole
 DFD .                9.2:   Density
 DFV .                 36:   Viscosity
 DFPH.                  9:   pH
 DFL .                  9:   Fluid loss
 MSS .                PIT:   Source of sample
 RMS .OHMM             .3:   Rm
 MST .F                58:   Rm Meas. temp.
 RMF .OHMM            .29:   Rmf
 MFST.F                58:   Rmf Meas. temp.
 MFSS.               MEAS:   Source Rmf.
 RMB .OHMM            .15:   Rm. at BHT
 BHT .F               120:   BHT.
 TCS .HRS               6:   Time Circ. stopped
 MRT .F               120:   Maximum recorded temp.
 LUN .               7711:   Logging unit number
 LUL .               CSPR:   Logging unit location
 ENGI.             SAYLER:   Recorded By
 WITN.               JAPP:   Witnessed by
 ORIG.           5" PRINT:   Origin of data
 UWI .     49025103180000:   Unique Well ID
 DICO. A2D TECHNOLOGIES, INC.:   Digitizing Company
~OTHER INFORMATION
~A   DEPT       CALD       GRD      RHOB        CORR       SPR        LL8        ILD        ILM   
# ...
 2776.0000     9.0374   122.4370     2.5081     0.0159   -33.3806    14.9613    12.2965    11.7425
 2776.5000     9.0382   112.9218     2.5011     0.0119   -32.2816    15.0968    12.5216    11.9582
 2777.0000     9.0390   104.7971     2.4901     0.0109   -31.4040    15.2319    12.6340    12.2897
 2777.5000     9.0993   102.4207     2.4831     0.0119   -30.5265    15.0885    12.7474    12.4000
 2778.0000     9.1001   102.8255     2.4731     0.0150   -30.0919    14.5403    12.7438    12.5113
 2778.5000     9.1404   106.8020     2.4702     0.0140   -30.1000    14.5363    12.5078    12.5078
 2779.0000     9.1612   115.7393     2.4742     0.0130   -30.1082    14.6664    12.0515    12.3897
 2779.5000     9.1819   123.6829     2.4903     0.0090   -30.5592    14.6624    11.8302    11.9377
 2780.0000     9.1630   130.2391     2.5053     0.0031   -31.6743    13.8726    11.1894    11.3974
 2780.5000     9.1834   136.9921     2.5073     0.0111   -32.1252    12.1950    10.7817    10.3741
 2781.0000     9.2041   139.3811     2.5023     0.0162   -32.7975    11.7520    10.3889    10.1058
 2781.5000     9.2247   141.3734     2.4954     0.0122   -32.8056    11.8571    10.1965     9.8278
 2782.0000     9.2453   141.5797     2.4834     0.0102   -33.2564    12.0736     9.9148     9.5573
 2782.5000     9.2263   141.3892     2.4814     0.0132   -33.4859    11.8506     9.5547     9.3803
 2783.0000     9.2271   140.6033     2.4865     0.0153   -33.7154    11.5254     9.4645     9.1222
 2783.5000     9.2276   139.4207     2.5005     0.0143   -34.1662    11.4169     9.2040     8.9533
 2784.0000     9.2287   139.0333     2.4945     0.0103   -35.0613    11.1037     8.9508     8.7874
 2784.5000     9.2295   140.0318     2.4926     0.0134   -35.5120    10.6025     8.8663     8.7045
 2785.0000     9.2499   141.6271     2.5016     0.0184   -35.2987    10.2173     8.7021     8.5428
 2785.5000     9.2509   143.2225     2.5016     0.0214   -36.6348    10.1211     8.6199     8.3846
 2786.0000     9.2517   143.2304     2.5017     0.0175   -37.9708     9.9342     8.6175     8.2293
 2786.5000     9.2723   144.0320     2.5047     0.0155   -38.8641     9.8407     8.3031     8.1516
 2787.0000     9.2725   144.6352     2.5087     0.0105   -39.7574     9.8380     8.3008     8.0747
 2787.5000     9.2739   145.0400     2.4907     0.0075   -40.4293     9.7454     8.1471     8.0724
 2788.0000     9.2747   144.8495     2.5018     0.0136   -41.1012     9.6536     8.1449     7.9962
 2788.5000     9.2556   143.8652     2.5098     0.0076   -41.1091     9.7400     7.9940     7.9207
 2789.0000     9.2763   143.6747     2.5028     0.0036   -41.1171     9.9178     7.9918     7.8460
 2789.5000     9.2770   145.0716     2.5039     0.0056   -41.1250     9.9151     7.8438     7.7719
 2790.0000     9.2580   145.8732     2.5089     0.0097   -41.3542     9.9124     7.8416     7.6985
 2790.5000     9.2985   147.8655     2.5109     0.0137   -41.3621     9.2927     7.9120     7.6259
 2791.0000     9.2993   148.0718     2.5130     0.0178   -41.1488     9.0377     7.8016     7.5539
 2791.5000     9.3199   147.8813     2.5230     0.0208   -41.1567     8.7892     7.6922     7.4826
 2792.0000     9.3207   147.8892     2.5220     0.0148   -40.9433     8.7873     7.6900     7.2767
 2792.5000     9.3215   147.8987     2.5191     0.0118   -41.1725     8.9477     7.5476     7.0116
 2793.0000     9.3421   149.6909     2.5121     0.0119   -41.6230     9.1110     7.4078     6.8817
 2793.5000     9.3231   151.2847     2.5051     0.0169   -41.8522     8.9428     7.2706     6.8167
 2794.0000     9.3437   153.0785     2.5392     0.0230   -42.0829     8.6969     7.1360     6.6905
 2794.5000     9.3246   154.2770     2.5352     0.0130   -42.0908     8.4583     7.1340     6.6273
 2795.0000     9.3453   154.4817     2.5292     0.0090   -42.3200     8.4560     7.0667     6.5648
 2795.5000     9.3461   154.8881     2.5303     0.0090   -42.9916     8.6103     7.0647     6.5630
 2796.0000     9.2873   152.5148     2.5443     0.0161   -43.4419     8.4513     7.0628     6.6218
 2796.5000     9.3080   145.3823     2.5493     0.0171   -43.6710     8.0698     7.0608     6.7431
 2797.0000     9.2889   143.0090     2.5534     0.0161   -43.9001     8.1411     7.1242     6.9300
 2797.5000     9.2897   135.2781     2.5614     0.0182   -43.9080     8.2162     7.3894     7.1222
 2798.0000     9.2905   130.9221     2.5604     0.0132   -44.1371    10.2399     8.1749     7.8474
 2798.5000     9.2913   120.2147     2.5715     0.0042   -44.3661    11.5329     8.7975     8.4503
 2799.0000     9.2724   115.6634     2.5755     0.0082   -44.8164    12.4086     9.2100     8.8500
 2799.5000     9.2930   116.2619     2.5755     0.0123   -44.8242    12.9887     9.6414     9.2681
 2800.0000     9.2938   118.0557     2.5706     0.0133   -45.0533    12.9852    10.0929     9.3761
 2800.5000     9.2946   121.4566     2.5756     0.0217   -45.0617    12.7825    10.2632     9.4568
 2801.0000     9.2954   121.6433     2.5776     0.0214   -45.0687    12.1701    10.3705     9.4581
 2801.5000     9.2565   122.4449     2.5767     0.0164   -44.8552    11.7284    10.2729     9.3692
 2802.0000     9.2374   124.2387     2.5697     0.0094   -44.8629    11.7255     9.8990     8.8629
 2802.5000     9.2382   128.6122     2.5688     0.0085   -45.0918    11.6149     9.1090     8.1560
 2803.0000     9.2390   133.5809     2.5698     0.0085   -45.3207    11.5065     8.3824     7.3685
 2803.5000     9.2200   143.9057     2.5688     0.0116   -45.5496     9.7507     7.5731     6.8435
 2804.0000     9.2208   157.8006     2.5709     0.0096   -45.9997     8.7313     7.0986     6.2397
 2804.5000     9.2216   175.6658     2.5539     0.0086   -46.8969     7.7470     6.5926     5.7951
 2805.0000     9.2224   179.6423     2.5550     0.0097   -46.6788     7.4658     6.1229     5.4321
 2805.5000     9.2231   182.4283     2.5620     0.0137   -47.1289     6.9990     5.6345     5.1864
 2806.0000     9.2041   185.8080     2.5520     0.0128   -47.3578     6.2673     5.2331     5.0439
 2806.5000     9.2049   188.3939     2.5381     0.0128   -47.3655     5.8757     5.1364     4.9962
 2807.0000     9.1858   178.2850     2.5511     0.0138   -47.1520     5.9832     5.1352     4.9950
 2807.5000     9.2065   168.3729     2.5562     0.0119   -46.9400     6.7401     5.1337     5.0400
 2808.0000     9.2073   168.3793     2.5392     0.0039   -47.3901     7.1858     5.1799     5.1799
 2808.5000     9.1882   170.3731     2.5382     0.0059   -47.3978     6.8620     5.2266     5.4230
 2809.0000     9.1890   173.3559     2.5463     0.0090   -47.4055     6.5523     5.3225     5.7296
 2809.5000     9.1700   170.1873     2.5483     0.0161   -47.4133     6.6721     5.6757     6.0536
 2810.0000     9.1707   160.0784     2.5584     0.0111   -47.6422     7.3119     5.7280     6.5148
 2810.5000     9.1715   148.7789     2.5674     0.0161   -47.4287     8.8651     6.2666     7.0111
 2811.0000     9.1128   141.2464     2.5714     0.0192   -47.6576    10.9469     6.8558     7.4761
 2811.5000     9.0742   141.0559     2.5715     0.0152   -47.6653    11.5640     7.5005     7.2707
 2812.0000     9.0349   143.0481     2.5745     0.0122   -47.6730    11.4555     7.8977     7.5416
 2812.5000     9.0556   143.4529     2.5736     0.0113   -47.4595    10.6417     7.9688     7.8227
 2813.0000     9.0564   143.2624     2.5716     0.0123   -47.2460     9.8857     8.0398     7.9661
 2813.5000     9.0374   142.2782     2.5716     0.0154   -46.5901     9.3536     8.1122     8.0379
 2814.0000     9.0382   141.0955     2.5697     0.0184   -45.9342     9.1812     8.1103     8.0359
 2814.5000     9.0390   140.1113     2.5737     0.0104   -45.9419     9.1789     8.1083     8.0340
 2815.0000     8.9802   138.9286     2.5518     0.0055   -45.5072     9.7858     8.1063     7.9584
 2815.5000     8.9810   136.5569     2.5658     0.0085   -45.2938    10.1494     8.0301     7.8836
 2816.0000     8.9818   134.3837     2.5558     0.0055   -45.0803    10.2405     7.9546     7.8094
