~VERSION INFORMATION
 VERS.                2.0:   CWLS LOG ASCII STANDARD - VERSION 2.0
 WRAP.                 NO:   ONE LINE PER DEPTH STEP
~WELL INFORMATION
#MNEM.UNIT      DATA TYPE    INFORMATION
#----------   ------------   ------------------------------
 STRT.F          200.0000:   START DEPTH
 STOP.F         3014.0000:   STOP DEPTH
 STEP.F            0.5000:   STEP LENGTH
 NULL.          -999.2500:   NO VALUE
 COMP.    FENIX & SCISSON:   COMPANY
 WELL. FENIX NPR 3 "AX" #45-28:   WELL
 FLD .                NPR:   FIELD
 LOC .      S28 T39N R78W:   LOCATION
 CNTY.            NATRONA:   COUNTY
 STAT.            WYOMING:   STATE
 CTRY. UNITED STATES OF AMERICA:   COUNTRY
 SRVC.              WELEX:   SERVICE COMPANY
 DATE.        30-SEP-1977:   LOGDATE
 API .     49025104230000:   API NUMBER
~CURVE INFORMATION
#MNEM.UNIT       API CODE    CURVE DESCRIPTION
#----------   ------------   ------------------------------
 DEPT.F                  :   
 SPR .MV     07 010 01 00:   SPONTANEOUS POTENTIAL
 TENR.LBS    07 635 01 00:   TENSION
 SFL .OHMM   07 220 01 00:   SHALLOW FOCUSED LOG RESISTIVITY
 ILD .OHMM   07 120 46 00:   INDUCTION LOG DEEP RESISTIVITY
 ILM .OHMM   07 120 44 00:   INDUCTION LOG MEDIUM RESISTIVITY
 TEND.LBS    45 635 01 00:   TENSION FROM DENSITY LOG
 CALD.IN     45 280 60 00:   CALIPER FROM DENSITY LOG
 RHOB.G/C3   45 350 01 00:   BULK DENSITY
 CORR.G/C3   45 356 01 00:   DENSITY CORRECTION
 GRD .GAPI   45 310 01 00:   GAMMA RAY FROM DENSITY LOG
~PARAMETER INFORMATION
#MNEM.UNIT          VALUE    DESCRIPTION
#----------   ------------   ------------------------------
 EKB .F         5075.0000:   Kelly bushing
 EGL .F         5065.0000:   Ground level
 EDF .F            0.0000:   Drilling floor
 E TD.F         3008.0000:   Total depth
 DATE.        30-SEP-1977:   Date logged
 CLNT.            A2DTECH:   Client Code
 SL  . 2210' FSL & 2310' FWL:   Surface Location
 PD  .                 GL:   Permanent Datum
 EPD .F              5065:   Elevation Permanent Datum
 LMF .                 KB:   Log Measured From
 DMF .                 KB:   Drilling Measured From
 DAPD.F                10:   Feet Above Permanent Datum
 DD  .F              3005:   Depth driller
 DL  .F              3008:   Depth logger
 BLI .F              3006:   Bottom log interval
 TLI .F               200:   Top log interval
 CS1 .IN            8.625:   Casing size
 CBD1.      8.625" @ 205':   Casing driller 1
 CBL1.F               220:   Casing logger 1
 BS1 .IN            7.875:   Bit size
 BSD1.F              3005:   Depth drilled with bit1
 DFT .            KCL/MUD:   Type fluid in hole
 DFD .                9.1:   Density
 DFV .                 38:   Viscosity
 DFPH.                 11:   pH
 DFL .                6.8:   Fluid loss
 MSS .           FLOWLINE:   Source of sample
 RMS .OHMM            .31:   Rm
 MST .F                78:   Rm Meas. temp.
 RMF .OHMM            .15:   Rmf
 MFST.F                78:   Rmf Meas. temp.
 RMC .OHMM           1.02:   Rmc
 MCST.F                78:   Rmc Meas. temp.
 MFSS.               FANN:   Source Rmf.
 MCSS.                KIT:   Source Rmc.
 RMB .OHMM            .20:   Rm. at BHT
 BHT .F               117:   BHT.
 TCS .HRS               3:   Time Circ. stopped
 MRT .F               117:   Maximum recorded temp.
 LUN .               8611:   Logging unit number
 LUL .             CASPER:   Logging unit location
 ENGI.         G. BENTSEN:   Recorded By
 WITN.         HARRINGTON:   Witnessed by
 ORIG.           5" PRINT:   Origin of data
 UWI .     49025104230000:   Unique Well ID
 DICO. A2D TECHNOLOGIES, INC.:   Digitizing Company
~OTHER INFORMATION
~A   DEPT      SPR        TENR       SFL        ILD        ILM       TEND       CALD       RHOB       CORR        GRD   
# ...
 1305.5000   -66.3740   571.8250    10.3620     8.2620     9.7130   752.1530     9.8290     2.5100     0.0040    87.4890
 1306.0000   -66.3610   571.8920    10.2830     8.2290     9.6240   752.2320     9.8320     2.5130     0.0040    87.5830
 1306.5000   -66.3490   571.9590    10.2050     8.1970     9.5340   752.3100     9.8340     2.5120     0.0030    87.3810
 1307.0000   -66.3360   572.0260    10.1260     8.1640     9.4450   752.3890     9.8370     2.5180     0.0030    85.5640
 1307.5000   -66.3240   572.0930    10.0470     8.1320     9.3550   752.4670     9.8390     2.5240     0.0030    83.7620
 1308.0000   -66.3110   572.1600     9.9640     8.1000     9.2660   752.5450     9.8410     2.5180     0.0030    84.9770
 1308.5000   -66.3040   572.2270    10.1280     8.0580     9.1700   752.6240     9.8440     2.5110     0.0030    86.6030
 1309.0000   -66.3140   572.2930    10.3020     8.1350     9.2670   752.7020     9.8460     2.5080     0.0030    84.6600
 1309.5000   -66.3240   572.3600    10.4760     8.2420     9.3710   752.7810     9.8490     2.5050     0.0030    82.6840
 1310.0000   -66.3330   572.4270    10.6510     8.3480     9.4760   752.8590     9.8510     2.4980     0.0030    80.7090
 1310.5000   -66.3420   572.4940    10.8250     8.4540     9.5800   752.9370     9.8540     2.4960     0.0030    78.7270
 1311.0000   -66.3510   572.5610    11.0000     8.5600     9.6850   753.0160     9.8560     2.4910     0.0030    77.0780
 1311.5000   -66.3610   572.6280    11.1740     8.6660     9.7890   753.0940     9.8590     2.4880     0.0030    79.7010
 1312.0000   -66.3700   572.6950    11.3380     8.7720     9.8940   753.1730     9.8610     2.4980     0.0030    82.3160
 1312.5000   -66.3790   572.7610    11.5870     8.8790     9.9980   753.2510     9.8640     2.5070     0.0040    84.8720
 1313.0000   -66.3880   572.8280    11.7640     9.0020    10.0560   753.3290     9.8660     2.5160     0.0040    86.1250
 1313.5000   -66.3980   572.8950    11.6500     8.9260     9.9860   753.4080     9.8600     2.5260     0.0040    86.0890
 1314.0000   -66.4070   572.9620    11.5590     8.8350     9.9300   753.4860     9.8510     2.5270     0.0040    84.2710
 1314.5000   -66.4160   573.0290    11.4670     8.7430     9.8740   753.5650     9.8410     2.5200     0.0040    82.5390
 1315.0000   -66.4250   573.0960    11.3750     8.6520     9.8180   753.6430     9.8310     2.5200     0.0050    81.9550
 1315.5000   -66.4350   573.1620    11.1680     8.5610     9.7620   753.7210     9.8210     2.5240     0.0050    81.3470
 1316.0000   -66.4440   573.2290    10.8830     8.4700     9.7060   753.8000     9.8110     2.5270     0.0050    83.6580
 1316.5000   -66.4530   573.2960    10.5310     8.3790     9.6500   753.8780     9.8010     2.5270     0.0050    86.5790
 1317.0000   -66.4620   573.3630    10.6230     8.2840     9.6030   753.9570     9.7920     2.5260     0.0050    89.5500
 1317.5000   -66.4720   573.4300    10.7430     8.3860     9.7260   754.0350     9.7820     2.5140     0.0060    91.7310
 1318.0000   -66.4810   573.4970    10.8630     8.4920     9.8310   754.1130     9.7720     2.5020     0.0060    91.1110
 1318.5000   -66.4900   573.5640    10.9830     8.5990     9.9370   754.1920     9.7680     2.5050     0.0060    89.8010
 1319.0000   -66.4960   573.6300    11.1030     8.7560    10.0430   754.2700     9.7710     2.5120     0.0060    87.8190
 1319.5000   -66.6010   573.6970    11.2340     8.7160    10.1480   754.3490     9.7750     2.5180     0.0060    85.7790
 1320.0000   -66.7180   573.7640    11.1090     8.6380    10.2440   754.4270     9.7780     2.5350     0.0070    86.3980
 1320.5000   -66.8360   573.8310    10.9710     8.5600    10.0850   754.5050     9.7810     2.5400     0.0070    83.8410
 1321.0000   -66.9540   573.8980    10.8330     8.4820     9.9410   754.5840     9.7850     2.5420     0.0070    80.9110
 1321.5000   -67.0770   573.9650    10.6960     8.4040     9.7970   754.6620     9.7870     2.5440     0.0070    79.3050
 1322.0000   -66.9860   574.0320    10.5580     8.3260     9.6530   754.7410     9.7840     2.5410     0.0080    81.6040
 1322.5000   -66.8470   574.0980    10.4210     8.2480     9.5090   754.8190     9.7790     2.5390     0.0080    82.9340
 1323.0000   -66.7040   574.1650    10.2830     8.1700     9.3650   754.8980     9.7730     2.5360     0.0080    84.8060
 1323.5000   -66.5680   574.2320    10.1490     8.0920     9.2550   754.9760     9.7670     2.5370     0.0080    86.6670
 1324.0000   -66.2780   574.2990    10.3220     7.9950     9.4430   755.0540     9.7610     2.5360     0.0080    88.3860
 1324.5000   -66.2780   574.3660    10.4890     8.0710     9.5950   755.1330     9.7550     2.5350     0.0080    86.1730
 1325.0000   -66.2640   574.4330    10.6570     8.2120     9.7480   755.2110     9.7490     2.5320     0.0080    83.3930
 1325.5000   -66.2470   574.4990    10.8240     8.3520     9.9000   755.2900     9.7430     2.5210     0.0080    80.5700
 1326.0000   -66.2300   574.5660    10.9920     8.4300    10.0560   755.3680     9.7370     2.5100     0.0080    77.7390
 1326.5000   -66.2130   574.6330    11.1310     8.3490     9.9280   755.4460     9.7310     2.5120     0.0080    79.2640
 1327.0000   -66.1970   574.7000    10.8600     8.2840     9.7960   755.5250     9.7250     2.5250     0.0080    81.2180
 1327.5000   -66.1800   574.7670    10.6280     8.2190     9.6650   755.6030     9.7190     2.5400     0.0080    83.4080
 1328.0000   -66.1640   574.8340    10.3970     8.1540     9.5340   755.6820     9.7130     2.5520     0.0080    86.2970
 1328.5000   -66.1470   574.9010    10.1490     8.0580     9.3400   755.7600     9.7060     2.5510     0.0080    89.0490
 1329.0000   -66.1300   574.9670    10.2920     8.1240     9.3970   755.8380     9.6900     2.5500     0.0080    90.5380
 1329.5000   -66.1140   575.0340    10.4450     8.2490     9.5060   755.9170     9.6740     2.5490     0.0080    91.9810
 1330.0000   -66.1110   575.1010    10.5990     8.3750     9.6140   755.9950     9.6580     2.5430     0.0080    90.6030
 1330.5000   -66.1330   575.1680    10.7520     8.5000     9.7220   756.0740     9.6430     2.5420     0.0080    88.0670
 1331.0000   -66.1540   575.2350    10.9050     8.6250     9.8300   756.1520     9.6290     2.5410     0.0080    85.4930
 1331.5000   -66.1750   575.3020    11.0590     8.7510     9.9380   756.2300     9.6430     2.5350     0.0080    82.9130
 1332.0000   -66.1960   575.3690    11.2200     8.9190    10.0470   756.3090     9.6570     2.5290     0.0080    80.8790
 1332.5000   -66.2170   575.4350    11.1280     8.8460    10.1490   756.3870     9.6720     2.5320     0.0080    82.0140
 1333.0000   -66.2380   575.5020    11.0040     8.7330    10.0430   756.4660     9.6860     2.5250     0.0080    83.4630
 1333.5000   -66.2590   575.5690    10.8800     8.6210     9.9420   756.5440     9.7000     2.5170     0.0080    84.8960
 1334.0000   -66.2800   575.6360    10.7570     8.5090     9.8400   756.6220     9.7140     2.5110     0.0080    86.3420
 1334.5000   -66.3020   575.7030    10.6330     8.3970     9.7390   756.7010     9.7280     2.5120     0.0080    86.6320
 1335.0000   -66.3230   575.7700    10.4470     8.2840     9.6370   756.7790     9.7370     2.5080     0.0080    86.2430
 1335.5000   -66.3440   575.8360    10.5070     8.4430     9.5140   756.8580     9.7460     2.5040     0.0080    86.7540
 1336.0000   -66.3650   575.9030    10.6910     8.6020     9.6610   756.9360     9.7550     2.5090     0.0080    87.8500
 1336.5000   -66.3860   575.9700    10.8750     8.7600     9.8460   757.0140     9.7640     2.5150     0.0080    88.0670
 1337.0000   -66.4070   576.0370    11.0590     8.9190    10.0310   757.0930     9.7720     2.5160     0.0080    88.2160
 1337.5000   -66.4280   576.1040    11.2430     9.0850    10.2170   757.1710     9.7810     2.5180     0.0080    89.2020
 1338.0000   -66.4490   576.1710    11.4270     8.9810    10.3380   757.2500     9.7900     2.5190     0.0080    88.3840
 1338.5000   -66.4700   576.2380    11.5490     8.8710    10.1560   757.3280     9.7990     2.5160     0.0080    86.1040
