~VERSION INFORMATION
 VERS.                2.0:   CWLS LOG ASCII STANDARD - VERSION 2.0
 WRAP.                 NO:   ONE LINE PER DEPTH STEP
~WELL INFORMATION
#MNEM.UNIT      DATA TYPE    INFORMATION
#----------   ------------   ------------------------------
 STRT.F            6.0000:   START DEPTH
 STOP.F         3190.0000:   STOP DEPTH
 STEP.F            0.5000:   STEP LENGTH
 NULL.          -999.2500:   NO VALUE
 COMP. LAWRENCE ALLISON & ASSOCIATES:   COMPANY
 WELL. LAWRENCE N. P. R. 73AX #3-3:   WELL
 FLD .              N P R:   FIELD
 LOC .       S3 T38N R78W:   LOCATION
 CNTY.            NATRONA:   COUNTY
 STAT.            WYOMING:   STATE
 CTRY. UNITED STATES OF AMERICA:   COUNTRY
 SRVC.      DRESSER ATLAS:   SERVICE COMPANY
 DATE.        04-JUN-1986:   LOGDATE
 API .     49025110910000:   API NUMBER
~CURVE INFORMATION
#MNEM.UNIT       API CODE    CURVE DESCRIPTION
#----------   ------------   ------------------------------
 DEPT.F                  :   
 CALD.IN     45 280 60 00:   CALIPER FROM DENSITY LOG
 DEN .LBS    45 635 01 00:   BUCK DENSITY
 CORR.G/C3   45 356 01 00:   DENSITY CORRECTION
 TEND.LBS    45 635 01 00:   TENSION FROM DENSITY LOG
 SPR .MV     07 010 01 00:   SPONTANEOUS POTENTIAL
 GRR .GAPI   07 310 01 00:   GAMMA RAY FROM RESISTIVITY
 SFLU.OHMM   07 220 01 00:   SPHERICALLY FOCUSED LOG UNAVERAGED RESISTIVITY
 ILD .OHMM   07 120 46 00:   DEEP INDUCTION RESISTIVITY
 ILM .OHMM   07 120 44 00:   INDUCTION LOG MEDIUM RESISTIVITY
 TENR.LBS    07 635 01 00:   TENSION FROM RESISTIVITY
 CNC .DEC    42 890 01 00:   NEUTRON PORISITY LIMESTONE
~PARAMETER INFORMATION
#MNEM.UNIT          VALUE    DESCRIPTION
#----------   ------------   ------------------------------
 EKB .F         5173.0000:   Kelly bushing
 EGL .F         5161.0000:   Ground level
 TD  .F         3170.0000:   Total depth
 DATE.        04-JUN-1986:   Date logged
 CLNT.            A2DTECH:   Client Code
 PD  .                 GL:   Permanent Datum
 EPD .F              5161:   Elevation Permanent Datum
 LMF .                 KB:   Log Measured From
 DMF .                 KB:   Drilling Measured From
 DAPD.F                12:   Feet Above Permanent Datum
 DD  .F              3170:   Depth driller
 DL  .F              3168:   Depth logger
 BLI .F               8.9:   Bottom log interval
 TLI .F                38:   Top log interval
 CS1 .IN            8.625:   Casing size
 CBD1.      8.625" @ 603':   Casing driller 1
 CBL1.F               602:   Casing logger 1
 BS1 .IN            7.875:   Bit size
 BSD1.F              3170:   Depth drilled with bit1
 DFT .        KCL/POLYMER:   Type fluid in hole
 DFD .                8.9:   Density
 DFV .                 38:   Viscosity
 DFPH.                9.0:   pH
 DFL .               13.2:   Fluid loss
 MSS .           FLOWLINE:   Source of sample
 RMS .OHMM           .446:   Rm
 MST .F                64:   Rm Meas. temp.
 RMF .OHMM           .361:   Rmf
 MFST.F                64:   Rmf Meas. temp.
 RMC .OHMM            .56:   Rmc
 MCST.F                64:   Rmc Meas. temp.
 MFSS.               MEAS:   Source Rmf.
 MCSS.               CALC:   Source Rmc.
 RMB .OHMM           .242:   Rm. at BHT
 BHT .F               118:   BHT.
 TCS .HRS               3:   Time Circ. stopped
 MRT .F               118:   Maximum recorded temp.
 LUN .               6274:   Logging unit number
 LUL .           GILLETTE:   Logging unit location
 WITN.             STRONG:   Witnessed by
 ORIG.           5" PRINT:   Origin of data
 UWI .     49025110910000:   Unique Well ID
 DICO. A2D TECHNOLOGIES, INC.:   Digitizing Company
~OTHER INFORMATION
~A    DEPT    CALD        DEN       CORR       TEND        SPR         GRR      SFLU        ILD        ILM       TENR        CNC   
# ...
 2476.5000    10.4709     2.5608     0.0318   -46.1329   -50.0252    97.5313     5.9089     5.7304     5.7452   -38.1452     0.2724
 2477.0000    10.4709     2.5658     0.0384   -46.1814   -50.0247    98.3383     6.1322     5.7673     5.7452   -48.2258     0.2597
 2477.5000    10.4711     2.5739     0.0464   -46.2299   -50.0242    99.5484     6.5436     5.8044     5.7988   -48.2258     0.2507
 2478.0000    10.4712     2.5749     0.0444   -46.2784   -50.0237   100.3555     6.6045     5.8544     5.7988   -38.1452     0.2515
 2478.5000    10.4713     2.5729     0.0344   -46.3269   -50.0232   100.3565     6.5436     5.8544     5.8528   -48.2258     0.2531
 2479.0000    10.4340     2.5688     0.0062   -46.3754   -50.0227   103.1790     6.4233     5.7723     5.8528   -48.2258     0.2579
 2479.5000    10.4110     2.5628     0.0143   -46.4239   -50.0222   105.5984     6.2471     5.6913     5.8528   -48.2258     0.2624
 2480.0000    10.3910     2.5638     0.0566   -46.4724   -50.0217   106.8086     5.9089     5.6115     5.7452   -58.3065     0.2749
 2480.5000    10.3910     2.5648     0.0727   -36.4524   -50.6259   106.8093     5.7468     5.5328     5.5876   -48.2258     0.2833
 2481.0000    10.3320     2.5648     0.0546   -36.5009   -50.6592   105.6015     5.6937     5.4552     5.4342   -38.1452     0.2773
 2481.5000    10.3106     2.5648     0.0485   -46.6275   -50.6924   104.7971     5.8544     5.3787     5.2851   -38.1452     0.2668
 2482.0000    10.3107     2.5638     0.0505   -46.6760   -50.7257   104.7975     5.8544     5.2866     5.2363   -48.2258     0.2551
 2482.5000    10.3108     2.5618     0.0566   -46.7245   -50.7590   106.4108     5.6937     5.2866     5.1880   -38.1452     0.2519
 2483.0000    10.3109     2.5538     0.0526   -46.7730   -50.7922   107.2181     5.5891     5.2866     5.2363   -38.1452     0.2527
 2483.5000    10.3110     2.5477     0.0506   -36.7528   -50.8255   107.2191     5.4864     5.3358     5.2363   -38.1452     0.2551
 2484.0000    10.3111     2.5407     0.0244   -36.8012   -50.8588   106.8171     5.6412     5.3358     5.2851   -38.1452     0.2563
 2484.5000    10.3112     2.5357     0.0163   -36.8497   -50.8920   106.0120     5.9089     5.3855     5.2851   -38.1452     0.2608
 2485.0000    10.3113     2.5357    -0.0018   -46.9670   -50.9253   104.8037     5.9640     5.3855     5.2851   -48.2258     0.2668
 2485.5000    10.2913     2.5377     0.0003   -57.0844   -50.9586   103.9987     5.9640     5.3358     5.3344   -48.2258     0.2717
 2486.0000    10.2914     2.5377     0.0023   -57.1329   -50.9919   103.9998     6.0195     5.2866     5.2363   -48.2258     0.2814
 2486.5000    10.2915     2.5306     0.0023   -57.1815   -51.0251   104.0008     5.8003     5.2378     5.1401   -48.2258     0.2745
 2487.0000    10.3117     2.5256     0.0023   -47.1609   -51.0584   103.1956     5.5375     5.1894     4.9990   -48.2258     0.2588
 2487.5000    10.3119     2.5236     0.0043   -47.2094   -51.0917   102.7935     5.2866     5.0940     4.9990   -48.2258     0.2419
 2488.0000    10.3119     2.5226     0.0144   -37.1887   -51.1249   100.3757     5.1415     4.9542     4.9072   -48.2258     0.2398
 2488.5000    10.3120     2.5357     0.0205   -57.3854   -51.1582    97.9580     5.1415     4.7885     4.8170   -48.2258     0.2479
 2489.0000    10.3121     2.5508     0.0326   -57.4339   -51.1915    98.3621     5.1415     4.6282     4.7725   -48.2258     0.2548
 2489.5000    10.3122     2.5568     0.0346   -57.4825   -51.2216    98.3630     5.1415     4.4734     4.5987   -48.2258     0.2588
 2490.0000    10.3123     2.5407     0.0185   -57.5310   -51.3285    98.7672     5.1415     4.3237     4.4725   -48.2258     0.2612
 2490.5000    10.3124     2.5286     0.0165   -47.5101   -51.4354   105.2185     5.1415     4.1790     4.2304   -48.2258     0.2649
 2491.0000    10.2520     2.5206     0.0447   -47.5586   -51.5423   108.0416     5.1415     4.0392     4.1526   -48.2258     0.2822
 2491.5000    10.2521     2.5266     0.0708   -47.6071   -51.6492   111.6712     5.0004     3.9040     3.9645   -38.1452     0.2895
 2492.0000    10.2523     2.5347     0.0708   -37.5860   -51.7561   111.6724     4.7297     3.7734     3.7848   -48.2258     0.2911
 2492.5000    10.2322     2.5317     0.0386   -37.6248   -51.8235   111.6735     4.2316     3.6471     3.6470   -38.1452     0.2907
 2493.0000    10.1919     2.5216     0.0326   -57.8223   -51.6871   113.2872     4.0025     3.5810     3.5799   -48.2258     0.2915
 2493.5000    10.1921     2.5035     0.0104   -67.9406   -51.5508   115.7074     3.9656     3.5336     3.4817   -58.3065     0.2927
 2494.0000    10.1922     2.4964     0.0084   -47.8496   -51.4145   115.7085     3.9656     3.4869     3.4177   -48.2258     0.2895
 2494.5000    10.1519     2.4964     0.0145   -57.9680   -51.2781   112.8874     4.0025     3.4187     3.4496   -58.3065     0.2846
 2495.0000    10.1721     2.4995     0.0367   -47.9563   -51.1418   109.6631     4.2710     3.4187     3.4817   -58.3065     0.2842
 2495.5000    10.1447     2.4985     0.0608   -48.0048   -51.0141   111.2769     4.5154     3.5089     3.5799   -58.3065     0.2859
 2496.0000    10.0918     2.4833     0.0729   -48.0533   -51.0139   113.2940     4.4737     3.6015     3.6470   -68.3871     0.2859
 2496.5000    10.1322     2.4199    -0.0540   -68.2419   -51.0242   116.1175     4.1155     3.6965     3.7499   -68.3871     0.2742
 2497.0000    10.1323     2.4078    -0.0721   -58.2205   -51.0345   113.2962     4.0775     3.7940     3.8201   -58.3065     0.2701
 2497.5000    10.1122     2.4219    -0.0378   -48.1989   -51.0448   109.6685     4.3510     3.8927     3.8916   -48.2258     0.2697
 2498.0000    10.1123     2.4753    -0.0016   -48.2474   -51.0551   110.0728     4.8183     3.8927     4.0014   -48.2258     0.2766
 2498.5000    10.0922     2.5136     0.0166   -48.2959   -51.0654   112.8966     4.9542     3.9598     4.0763   -38.1452     0.2827
 2499.0000    10.0924     2.5307     0.0206   -48.3444   -51.0757   112.8977     4.9085     4.0281     4.1913   -48.2258     0.2855
 2499.5000    10.0925     2.5377     0.0255   -58.4632   -51.0860   112.8988     4.8183     4.0976     4.1913   -68.3871     0.2786
 2500.0000    10.0522     2.5418     0.0408   -58.5118   -51.0963   113.7064     4.6861     4.1682     4.2698   -78.4677     0.2702
 2500.5000    10.0157     2.5488     0.0408   -68.4331   -51.1066   113.7066     4.6861     4.2401     4.2698   -58.3065     0.2737
 2501.0000     9.9718     2.5589     0.0669   -58.5216   -51.1169   113.7086     4.7297     4.3132     4.3498   -68.3871     0.2814
 2501.5000     9.9517     2.5629     0.0649   -68.5930   -51.1272   112.9037     4.8183     4.3915     4.3903   -78.4677     0.2883
 2502.0000     9.9115     2.5589     0.0546   -68.5942   -51.1375   113.0820     4.9085     4.3915     4.4725   -68.3871     0.2903
 2502.5000     9.9115     2.5468     0.0468   -58.5249   -51.1478   113.3092     5.0470     4.5312     4.7284   -58.3065     0.2883
 2503.0000     9.9116     2.5368     0.0468   -48.4558   -51.1581   114.1164     5.3855     4.6753     4.8619   -58.3065     0.2830
 2503.5000     9.9117     2.5287     0.0468   -48.4569   -51.1684   114.9240     5.5375     4.8241     4.9990   -48.2258     0.2738
 2504.0000     9.9118     2.5277     0.0488   -38.3879   -51.1787   115.7317     5.9089     4.9775     5.1401   -28.0645     0.2746
 2504.5000     9.9119     2.5398     0.0569   -48.4591   -51.1890   116.9426     6.0195     5.1358     5.2851   -48.2258     0.2842
 2505.0000     9.9120     2.5398     0.0710   -48.4602   -51.1993   116.1372     6.0756     5.2992     5.3841   -48.2258     0.2895
 2505.5000     9.9120     2.5348     0.0629   -48.4613   -51.4076   111.7024     6.2471     5.4864     5.6396   -58.3065     0.2757
 2506.0000     9.9121     2.5287     0.0247   -28.3226   -51.3947   111.3005     6.2471     5.5375     5.6922   -68.3871     0.2548
 2506.5000     9.9122     2.5318     0.0268   -58.5333   -51.3818   114.5278     6.1894     5.5852     5.7988   -58.3065     0.2523
