~VERSION INFORMATION
 VERS.                2.0:   CWLS LOG ASCII STANDARD - VERSION 2.0
 WRAP.                 NO:   ONE LINE PER DEPTH STEP
~WELL INFORMATION
#MNEM.UNIT      DATA TYPE    INFORMATION
#----------   ------------   ------------------------------
 STRT.F         3500.0000:   START DEPTH
 STOP.F         6855.0000:   STOP DEPTH
 STEP.F            0.5000:   STEP LENGTH
 NULL.          -999.2500:   NO VALUE
 COMP.          U.S. NAVY:   COMPANY
 WELL.  US NAVY "G" #1-10:   WELL
 FLD . TEAPOT NAVAL RESERVE:   FIELD
 LOC .      S10 T38N R78W:   LOCATION
 CNTY.            NATRONA:   COUNTY
 STAT.            WYOMING:   STATE
 CTRY. UNITED STATES OF AMERICA:   COUNTRY
 SRVC.         LANE WELLS:   SERVICE COMPANY
 DATE.        23-MAR-1952:   LOGDATE
 API .     49025063380000:   API NUMBER
~CURVE INFORMATION
#MNEM.UNIT       API CODE    CURVE DESCRIPTION
#----------   ------------   ------------------------------
 DEPT.F                  :   
 GRN .GAPI   35 310 01 00:   GAMMA RAY
 NEUT.NAPI   35 330 01 00:   NEUTRON
~PARAMETER INFORMATION
#MNEM.UNIT          VALUE    DESCRIPTION
#----------   ------------   ------------------------------
 EKB .F         5195.0000:   Kelly bushing
 EGL .F         5184.0000:   Ground level
 EDF .F         5195.0000:   Drilling floor
 EPD .F            0.0000:   Permanent datum
 TD  .F         6861.0000:   Total depth
 CLNT.            A2DTECH:   Client Code
 PD  .                 GL:   Permanent Datum
 DATE.        23-MAR-1952:   Date Logged [DD-MMM-YYYY]
 DD  .F              6861:   Depth driller
 DL  .F              6861:   Depth logger
 BLI .F              6855:   Bottom log interval
 TLI .F              3500:   Top log interval
 BSD1.F              6861:   Depth drilled with bit1
 DFT .                MUD:   Type fluid in hole
 ENGI.            GAMBERG:   Recorded By
 WITN.           GRIBBENS:   Witnessed by
 ORIG.         2.5" PRINT:   Origin of data
 UWI .     49025063380000:   Unique Well ID
 DICO. A2D TECHNOLOGIES, INC.:   Digitizing Company
~OTHER INFORMATION
~A  DEPT       GRN        NEUT  
 3500.0000   150.4482    96.2963
 3500.5000   152.1616    85.7564
 3501.0000   153.3331    79.1065
 3501.5000   155.0277    91.1827
 3502.0000   156.0103   109.2363
 3502.5000   157.7265   128.4801
 3503.0000   159.6871   164.8464
 3503.5000   159.6527   197.8842
 3504.0000   158.7184   205.3387
 3504.5000   158.6520   205.3858
 3505.0000   158.4832   210.3712
 3505.5000   158.4890   215.8215
 3506.0000   159.4728   225.2802
 3506.5000   162.1669   216.6572
 3507.0000   166.3280   202.1420
 3507.5000   170.2447   187.5282
 3508.0000   174.6896   172.2801
 3508.5000   175.9855   176.1566
 3509.0000   177.1670   181.1419
 3509.5000   176.6698   176.2508
 3510.0000   173.0228   117.0386
 3510.5000   170.8672   107.2092
 3511.0000   171.0130   126.1101
 3511.5000   169.5506   158.6298
 3512.0000   165.3988   196.0445
 3512.5000   164.4254   216.6660
 3513.0000   164.7794   208.5650
 3513.5000   167.6975   179.1203
 3514.0000   173.2028   174.2222
 3514.5000   177.4364   179.2145
 3515.0000   179.3804   164.4468
 3515.5000   180.8370   149.6791
 3516.0000   181.8197   150.4183
 3516.5000   181.8958   171.8686
 3517.0000   181.0955   194.6359
 3517.5000   180.0896   214.4481
 3518.0000   179.6377   225.1853
 3518.5000   180.5134   208.0025
 3519.0000   181.4540   164.8472
 3519.5000   181.8533   140.2030
 3520.0000   182.8371   120.4970
 3520.5000   189.9322   108.1984
 3521.0000   194.3378   103.3072
 3521.5000   199.9667   127.5156
 3522.0000   201.8975   157.7663
 3522.5000   204.2462   180.9882
 3523.0000   204.5215   201.7409
 3523.5000   205.3651   222.5037
 3524.0000   205.6142   244.3542
 3524.5000   206.1078   256.7469
 3525.0000   202.4450   264.2014
 3525.5000   200.2494   266.7177
 3526.0000   199.9871   244.0833
 3526.5000   197.8150   213.4340
 3527.0000   194.3966   190.0733
 3527.5000   190.7338   187.8938
 3528.0000   186.8265   207.2736
 3528.5000   185.3251   205.1828
 3529.0000   184.5902   199.9528
 3529.5000   183.6920   220.2045
 3530.0000   180.8308   237.5356
 3530.5000   176.9340   252.3975
 3531.0000   173.1647   232.6915
 3531.5000   171.7024   206.9374
 3532.0000   169.7510   178.6384
 3532.5000   167.0662   155.2652
 3533.0000   167.0807   132.8320
 3533.5000   167.8811   113.3558
 3534.0000   168.7922   100.3468
 3534.5000   168.5330    79.9584
 3535.0000   163.8783    89.8820
 3535.5000   161.1917   104.7440
 3536.0000   160.2550   114.6676
 3536.5000   159.7707   117.1838
 3537.0000   159.2863   103.9462
 3537.5000   156.8460    77.1605
 3538.0000   155.8726    71.1754
 3538.5000   155.5812    56.2154
 3539.0000   154.1908    43.7472
 3539.5000   150.6514    75.5147
 3540.0000   147.2867    70.6173
 3540.5000   143.4287    75.6089
 3541.0000   140.7439    85.5326
 3541.5000   141.7265    98.1584
 3542.0000   142.9536   121.6760
 3542.5000   142.9748   132.5875
 3543.0000   144.0365   130.1655
 3543.5000   147.3984   146.0479
 3544.0000   149.8030   136.2851
 3544.5000   151.5322   108.0988
 3545.0000   152.7638   120.5009
 3545.5000   149.8344   135.3628
 3546.0000   144.9491   137.8790
 3546.5000   143.4867   165.0867
 3547.0000   142.4415   180.5875
 3547.5000   136.7642   199.7487
 3548.0000   134.6407   174.1179
 3548.5000   133.1230   150.1482
 3549.0000   128.7981   139.9251
 3549.5000   124.4068   149.8527
 3550.0000   120.5387   162.9708
 3550.5000   120.2430   170.4253
 3551.0000   121.7704   190.2255
 3551.5000   123.4866   214.9640
 3552.0000   124.5381   245.1682
 3552.5000   125.6475   268.3996
 3553.0000   128.5215   286.7102
 3553.5000   131.2033   270.9625
 3554.0000   135.0417   242.9617
 3554.5000   139.8982   218.5144
 3555.0000   140.0325   183.2185
 3555.5000   139.1740   176.9917
 3556.0000   138.9340   183.3127
 3556.5000   138.9389   178.4198
 3557.0000   138.9830   190.8143
 3557.5000   139.5028   179.8352
 3558.0000   139.9307   147.7277
 3558.5000   138.2543   118.7711
 3559.0000   132.8518   141.2527
 3559.5000   130.1670   182.4817
 3560.0000   127.7266   220.7502
 3560.5000   124.3083   230.6738
 3561.0000   122.3373   218.3752
 3561.5000   120.0731   203.6075
 3562.0000   118.6439   198.6832
 3562.5000   117.8892   208.6420
 3563.0000   117.9464   200.3944
 3563.5000   119.0037   196.3885
 3564.0000   122.8761   201.3827
 3564.5000   125.5702   200.2721
 3565.0000   126.7974   193.7452
 3565.5000   127.2910   184.2548
 3566.0000   127.2958   189.2402
 3566.5000   127.6363   223.8552
 3567.0000   129.1311   268.3468
 3567.5000   131.3206   321.1138
 3568.0000   134.4124   348.5421
 3568.5000   135.2388   357.3827
 3569.0000   135.1491   356.5930
 3569.5000   134.9095   349.3134
 3570.0000   136.3816   323.6226
 3570.5000   140.0930   268.7001
 3571.0000   142.0506   236.6484
 3571.5000   142.3259   212.0042
 3572.0000   142.0048   211.2609
 3572.5000   139.2901   229.4232
 3573.0000   134.2762   235.2119
 3573.5000   128.1034   254.2941
 3574.0000   124.4406   259.1533
 3574.5000   121.2667   241.9164
 3575.0000   118.8264   277.7867
 3575.5000   117.7748   321.0466
 3576.0000   116.4795   350.7233
 3576.5000   115.6618   348.3012
 3577.0000   116.3653   323.6570
 3577.5000   117.6445   306.4202
 3578.0000   119.3456   341.4364
 3578.5000   118.1277   346.4619
 3579.0000   116.6654   366.0571
 3579.5000   116.4255   376.6680
 3580.0000   114.7835   385.3505
 3580.5000   109.3666   411.3523
 3581.0000   104.5774   452.4525
 3581.5000    99.9066   487.0675
 3582.0000    93.9564   509.3368
 3582.5000    88.0931   524.1987
 3583.0000    78.8944   531.6532
 3583.5000    70.5855   489.3594
 3584.0000    63.4142   425.2918
 3584.5000    59.2623   376.1964
 3585.0000    53.3990   349.7979
 3585.5000    50.7142   339.1619
 3586.0000    49.9853   354.1816
 3586.5000    53.1008   351.7596
 3587.0000    56.9055   350.9129
 3587.5000    62.1434   371.6069
 3588.0000    67.3844   391.7360
 3588.5000    72.7957   421.0838
 3589.0000    79.5998   394.9189
 3589.5000    85.2279   394.0175
 3590.0000    88.1666   401.4815
 3590.5000    91.3497   378.1272
 3591.0000    94.9148   315.1701
 3591.5000    99.0358   223.8592
 3592.0000   101.6341   184.4001
 3592.5000   102.1278   169.6324
 3593.0000   101.6434   182.0252
 3593.5000   101.1589   202.7749
 3594.0000   100.1857   225.8173
 3594.5000   101.3647   245.9028
 3595.0000   103.5695   254.7319
 3595.5000   105.0286   259.9597
 3596.0000   106.3081   274.2704
 3596.5000   107.7907   282.0633
 3597.0000   108.2843   246.6231
 3597.5000   109.0225   217.0406
 3598.0000   109.5161   184.9889
 3598.5000   109.7653   152.4070
 3599.0000   110.0144   132.1959
 3599.5000   107.5655   113.7988
 3600.0000   100.0000    79.8438
 3600.5000    96.8338    62.8392
 3601.0000    94.3993    80.6806
 3601.5000    93.4318   111.2681
 3602.0000    93.4655   131.0683
 3602.5000    94.1863   145.9303
 3603.0000    92.5709   158.3230
 3603.5000    89.0771   148.3674
 3604.0000    88.0719   126.3185
 3604.5000    88.2356   136.7478
 3605.0000    87.1536   143.6966
 3605.5000    85.9416   125.4886
 3606.0000    85.9521   132.6421
 3606.5000    86.2071   151.2689
 3607.0000    86.2176   156.2543
 3607.5000    86.4726   141.4866
 3608.0000    84.3451   146.4720
 3608.5000    83.2477   153.9265
 3609.0000    83.4196   138.6146
 3609.5000    85.0226   126.4447
 3610.0000    87.2213   151.9436
 3610.5000    89.4749   191.6053
 3611.0000    89.2409   214.3672
 3611.5000    89.0061   216.7677
 3612.0000    88.7726   196.2551
 3612.5000    89.2931   190.1247
 3613.0000    90.9181   201.2876
 3613.5000    93.3763   208.7421
 3614.0000    95.2484   176.1985
 3614.5000    96.9609   156.9845
 3615.0000    97.3961   165.0207
 3615.5000    96.6756   166.9630
 3616.0000    96.4401   156.4477
 3616.5000    97.4301   137.1945
 3617.0000    98.1741   120.2065
 3617.5000    99.1626   132.5993
 3618.0000   102.5979   159.8069
 3618.5000   102.6084   179.6071
 3619.0000   102.6189   187.0617
 3619.5000   102.6391   182.1704
 3620.0000   103.8788   198.5231
 3620.5000   106.1304   210.8979
 3621.0000   106.0065   203.1265
