~VERSION INFORMATION
 VERS.                2.0:   CWLS LOG ASCII STANDARD - VERSION 2.0
 WRAP.                 NO:   ONE LINE PER DEPTH STEP
~WELL INFORMATION
#MNEM.UNIT      DATA TYPE    INFORMATION
#----------   ------------   ------------------------------
 STRT.F            0.0000:   START DEPTH
 STOP.F         3440.0000:   STOP DEPTH
 STEP.F            0.5000:   STEP LENGTH
 NULL.          -999.2500:   NO VALUE
 COMP. FLOOR DANIEL (NPSOR):   COMPANY
 WELL. FLOOR DANIEL "SHX" #48-34:   WELL
 FLD .                NPR:   FIELD
 LOC .      S34 T39N R78W:   LOCATION
 CNTY.            NATRONA:   COUNTY
 STAT.            WYOMING:   STATE
 CTRY. UNITED STATES OF AMERICA:   COUNTRY
 SRVC.      WESTERN ATLAS:   SERVICE COMPANY
 DATE.        06-APR-1995:   LOGDATE
 API .     49025109220000:   API NUMBER
~CURVE INFORMATION
#MNEM.UNIT       API CODE    CURVE DESCRIPTION
#----------   ------------   ------------------------------
 DEPT.F                  :   
 TEND.LBS    45 635 01 00:   TENSION FROM DENSITY LOG
 ZCOR.G/C3   45 356 01 00:   DENSITY CORRECTION
 ZDEN.G/C3   45 350 01 00:   BULK DENSITY
 CALD.IN     45 280 60 00:   CALIPER FROM DENSITY LOG
 CNC .DEC    42 890 03 00:   NEUTRON POROSITY SANDSTONE
 GRR .GAPI   07 310 01 00:   GAMMA RAY FROM RESISTIVITY
 TENR.LBS    07 635 01 00:   TENSION FROM RESISTIVITY
 RFOC.OHMM   07 220 04 00:   RESISTIVITY FOCUSED LOG RES.
 RILD.OHMM   07 120 46 00:   DEEP INDUCTION RESISTIVITY
 RILM.OHMM   07 120 44 00:   INDUCTION LOG MEDIUM RESISTIVITY
~PARAMETER INFORMATION
#MNEM.UNIT          VALUE    DESCRIPTION
#----------   ------------   ------------------------------
 EKB .F         5182.0000:   Kelly bushing
 EGL .F         5172.0000:   Ground level
 EDF .F            0.0000:   Drilling floor
 EPD .F            0.0000:   Permanent datum
 TD  .F         3442.0000:   Total depth
 DATE.        06-APR-1995:   Date logged
 CLNT.            A2DTECH:   Client Code
 SL  . 97' FSL & 2256 FWL:   Surface Location
 PD  .                 GL:   Permanent Datum
 DD  .F              3442:   Depth driller
 DL  .F              3422:   Depth logger
 BLI .F              3420:   Bottom log interval
 CS1 .IN            8.625:   Casing size
 CBD1.      8.625" @ 667':   Casing driller 1
 BS1 .IN            7.875:   Bit size
 BSD1.F               AIR:   Depth drilled with bit1
 ENGI.      PAT RASMUSSEN:   Recorded By
 WITN.        GARY STRONG:   Witnessed by
 ORIG.           5" PRINT:   Origin of data
 UWI .     49025109220000:   Unique Well ID
 DICO. A2D TECHNOLOGIES, INC.:   Digitizing Company
 MRT .F               142:   Maximum recorded temp.
~OTHER INFORMATION
~A    DEPT    TEND       ZCOR       ZDEN       CALD        CNC         GRR      TENR       RFOC       RILD       RILM   
# ...
 2613.0000  -106.8680     0.0380     2.5370     8.5800     0.2440   147.8660   -42.8990     5.5830     5.3510     5.6720
 2613.5000  -113.1920     0.0370     2.5400     8.5800     0.2320   141.1610   -42.8990     5.9910     5.5070     5.8470
 2614.0000  -119.5160     0.0360     2.5480     8.5800     0.2200   134.4240   -42.8990     6.3990     5.6630     6.0220
 2614.5000  -119.0850     0.0360     2.5560     8.5800     0.2200   127.1190   -42.8990     6.4850     5.8190     6.1970
 2615.0000  -115.4710     0.0350     2.5620     8.5800     0.2190   122.9310   -42.7440     6.4850     5.9750     6.3720
 2615.5000  -111.8580     0.0340     2.5570     8.5800     0.2130   120.0760   -42.0770     6.7570     6.1310     6.6030
 2616.0000  -108.2440     0.0330     2.5520     8.5800     0.2060   120.9680   -41.4100     7.0800     6.2870     6.5950
 2616.5000  -104.6300     0.0320     2.5510     8.5800     0.1990   123.1810   -40.7430     7.3640     6.4750     6.5820
 2617.0000  -102.9640     0.0310     2.5530     8.5800     0.2020   125.1860   -40.0760     7.1590     6.4540     6.5690
 2617.5000  -108.5860     0.0300     2.5560     8.5800     0.2050   124.3280   -39.4090     6.9770     6.4120     6.5570
 2618.0000  -114.2070     0.0290     2.5600     8.5800     0.2090   122.7650   -38.7420     6.7940     6.3700     6.5440
 2618.5000  -119.8290     0.0270     2.5600     8.5800     0.2130   122.8860   -38.0750     6.6030     6.3270     6.5310
 2619.0000  -120.7420     0.0260     2.5590     8.5800     0.2150   123.7540   -37.4080     6.6890     6.2850     6.5180
 2619.5000  -119.5920     0.0250     2.5560     8.5800     0.2160   126.5040   -36.7410     6.8790     6.2430     6.5060
 2620.0000  -118.4420     0.0240     2.5530     8.5800     0.2170   129.0020   -36.0740     6.9730     6.2010     6.4930
 2620.5000  -117.2920     0.0260     2.5540     8.5800     0.2190   130.0120   -35.4070     6.9730     6.1590     6.4850
 2621.0000  -116.1430     0.0280     2.5550     8.5800     0.2190   129.7580   -34.7400     6.8410     6.1410     6.4370
 2621.5000  -114.9930     0.0310     2.5560     8.5800     0.2210   129.5860   -34.0730     6.7010     6.1630     6.3680
 2622.0000  -113.8430     0.0300     2.5550     8.5800     0.2230   129.4370   -33.4060     6.4850     6.2210     6.4400
 2622.5000  -112.6930     0.0270     2.5520     8.5800     0.2250   129.4110   -32.7390     6.5300     6.2950     6.5580
 2623.0000  -111.5430     0.0230     2.5470     8.5800     0.2200   127.7240   -32.0720     6.6580     6.3880     6.6760
 2623.5000  -110.3930     0.0200     2.5440     8.5800     0.2120   124.4170   -31.4050     6.8540     6.4810     6.7940
 2624.0000  -109.2440     0.0170     2.5460     8.5800     0.2040   121.1910   -30.7380     7.0490     6.5740     6.9110
 2624.5000  -108.0940     0.0130     2.5460     8.5800     0.1960   120.3630   -30.0710     7.2440     6.6680     7.1010
 2625.0000  -106.9440     0.0120     2.5440     8.5800     0.1920   121.0280   -29.4040     7.3640     6.7240     7.0690
 2625.5000  -105.7940     0.0170     2.5410     8.5800     0.1930   120.1140   -28.7370     7.3640     6.8520     6.9860
 2626.0000  -104.6440     0.0210     2.5450     8.5800     0.1930   117.3030   -28.0700     7.3640     6.9730     6.9040
 2626.5000  -103.4940     0.0250     2.5490     8.5800     0.1950   115.0060   -27.4030     7.3640     6.8310     6.8210
 2627.0000  -102.3450     0.0280     2.5540     8.5800     0.1980   115.8270   -26.7360     7.2310     6.6950     6.7380
 2627.5000  -103.0020     0.0250     2.5570     8.5800     0.2020   117.6780   -26.0690     6.9580     6.5600     6.6560
 2628.0000  -105.4110     0.0210     2.5610     8.5800     0.2050   117.9310   -25.4020     6.7710     6.4250     6.5730
 2628.5000  -107.8200     0.0180     2.5620     8.5800     0.2070   119.0910   -24.7350     6.6320     6.2890     6.4900
 2629.0000  -110.2300     0.0160     2.5580     8.5800     0.2170   121.7730   -24.0680     6.4930     6.1540     6.4080
 2629.5000  -112.6390     0.0210     2.5520     8.5800     0.2260   126.6170   -23.4010     6.3540     6.0190     6.3250
 2630.0000  -115.0480     0.0270     2.5470     8.5800     0.2360   129.5180   -23.1760     6.2690     5.8830     6.2430
 2630.5000  -117.4570     0.0320     2.5510     8.5800     0.2340   129.9820   -23.1760     6.3280     5.7710     6.1600
 2631.0000  -119.8660     0.0380     2.5550     8.5800     0.2320   129.9670   -23.1760     6.3680     5.6820     6.0770
 2631.5000  -120.8410     0.0390     2.5540     8.5800     0.2320   130.0380   -23.1760     6.3680     5.6070     5.9950
 2632.0000  -118.5410     0.0390     2.5490     8.5800     0.2330   130.0210   -23.1760     6.2760     5.6070     5.9120
 2632.5000  -116.2410     0.0390     2.5470     8.5800     0.2330   129.4420   -23.1760     6.1970     5.6070     5.8150
 2633.0000  -113.9420     0.0380     2.5500     8.5800     0.2340   126.2320   -23.1760     6.1180     5.6070     5.8030
 2633.5000  -111.6420     0.0380     2.5490     8.5800     0.2340   121.9290   -23.1760     6.0300     5.6070     5.7880
 2634.0000  -109.3420     0.0380     2.5480     8.5800     0.2330   124.0270   -23.1760     6.0300     5.6070     5.7730
 2634.5000  -107.0430     0.0380     2.5490     8.5800     0.2270   128.8170   -23.1760     6.1000     5.6070     5.7580
 2635.0000  -104.7430     0.0370     2.5510     8.5800     0.2200   129.9560   -23.1760     6.1640     5.6070     5.7430
 2635.5000  -102.4430     0.0370     2.5500     8.5800     0.2160   127.4970   -23.1760     6.2530     5.6070     5.7280
 2636.0000  -105.5650     0.0370     2.5500     8.5800     0.2170   123.5180   -23.1760     6.1820     5.5760     5.7100
 2636.5000  -110.8900     0.0370     2.5500     8.5800     0.2200   122.5930   -23.1760     6.0640     5.5240     5.6390
 2637.0000  -116.2160     0.0360     2.5510     8.5800     0.2240   123.7280   -23.1760     5.9450     5.4450     5.5510
 2637.5000  -121.5420     0.0360     2.5480     8.5800     0.2270   123.4860   -23.1760     5.8260     5.3510     5.4780
 2638.0000  -126.8670     0.0350     2.5440     8.5800     0.2310   122.8410   -23.1760     5.7080     5.2570     5.4210
 2638.5000  -132.1930     0.0400     2.5400     8.5800     0.2340   126.3160   -23.1760     5.6070     5.1710     5.3630
 2639.0000  -137.5180     0.0470     2.5420     8.5800     0.2350   129.1280   -23.1760     5.6070     5.0900     5.3050
 2639.5000  -141.3040     0.0540     2.5460     8.5800     0.2330   128.6710   -23.1760     5.6070     5.0090     5.2470
 2640.0000  -141.3040     0.0610     2.5530     8.5800     0.2320   126.7410   -23.1760     5.6070     4.9280     5.1750
 2640.5000  -141.3040     0.0610     2.5560     8.5800     0.2330   124.8750   -23.1760     5.6070     4.8470     5.0830
 2641.0000  -141.3040     0.0540     2.5540     8.5800     0.2330   122.9980   -23.1760     5.6070     4.7660     4.9900
 2641.5000  -141.3040     0.0470     2.5490     8.5800     0.2340   121.0610   -23.1760     5.6070     4.6860     4.8980
 2642.0000  -141.3040     0.0390     2.5450     8.5800     0.2350   119.1780   -23.1760     5.5270     4.6050     4.8060
 2642.5000  -141.3040     0.0320     2.5430     8.5800     0.2370   117.4020   -23.1760     5.3790     4.5240     4.7140
 2643.0000  -141.3040     0.0250     2.5420     8.5800     0.2380   119.0240   -23.1760     5.2300     4.4280     4.6760
 2643.5000  -141.3040     0.0180     2.5380     8.5800     0.2390   122.4250   -23.1760     5.0280     4.4840     4.7560
 2644.0000  -141.3040     0.0170     2.5340     8.5800     0.2360   126.0270   -23.1760     5.1870     4.6010     4.9440
 2644.5000  -141.3040     0.0200     2.5340     8.5800     0.2300   127.7070   -23.1760     5.4330     4.8400     5.1320
 2645.0000  -141.3040     0.0240     2.5370     8.5800     0.2220   125.2280   -23.1760     5.8150     5.1820     5.3200
 2645.5000  -141.3040     0.0270     2.5380     8.5800     0.2070   121.2040   -23.1760     7.1730     5.5240     6.0180
 2646.0000  -127.5310     0.0260     2.5340     8.5800     0.1880   117.7720   -23.1760     8.6460     6.8160     7.1640
