~VERSION INFORMATION
 VERS.                2.0:   CWLS LOG ASCII STANDARD - VERSION 2.0
 WRAP.                 NO:   ONE LINE PER DEPTH STEP
~WELL INFORMATION
#MNEM.UNIT      DATA TYPE    INFORMATION
#----------   ------------   ------------------------------
 STRT.F           95.0000:   START DEPTH
 STOP.F          866.5000:   STOP DEPTH
 STEP.F            0.5000:   STEP LENGTH
 NULL.          -999.2500:   NO VALUE
 COMP.          U.S. NAVY:   COMPANY
 WELL. U.S NAVY RES 3 TEAPOT DOM "SX" #41-2:   WELL
 FLD .        TEAPOT DOME:   FIELD
 LOC .       S2 T38N R78W:   LOCATION
 CNTY.            NATRONA:   COUNTY
 STAT.            WYOMING:   STATE
 CTRY. UNITED STATES OF AMERICA:   COUNTRY
 SRVC.       SCHLUMBERGER:   SERVICE COMPANY
 DATE.        20-JUL-1953:   LOGDATE
 API .     49025064770000:   API NUMBER
~CURVE INFORMATION
#MNEM.UNIT       API CODE    CURVE DESCRIPTION
#----------   ------------   ------------------------------
 DEPT.F                  :   
 SPR .MV     05 010 01 00:   SPONTANEOUS POTENTIAL FROM RES.
 ASN .OHMM   05 041 16 00:   AMPLIFIED SHORT NORMAL 16"
 ILD .OHMM   05 120 46 00:   INDUCTION LOG DEEP
 GR  .GAPI   30 310 01 00:   GAMMA RAY
~PARAMETER INFORMATION
#MNEM.UNIT          VALUE    DESCRIPTION
#----------   ------------   ------------------------------
 EKB .F         5140.0000:   Kelly bushing
 EGL .F         5135.0000:   Ground level
 TD  .F          862.0000:   Total depth
 DATE.        20-JUL-1953:   Date logged
 CLNT.            A2DTECH:   Client Code
 DD  .F               862:   Depth driller
 DL  .F               855:   Depth logger
 BLI .F               654:   Bottom log interval
 TLI .F                50:   Top log interval
 CS1 .IN            8.625:   Casing size
 CBD1.       8.625" @ 10':   Casing driller 1
 BS1 .IN             6.75:   Bit size
 BSD1.F               862:   Depth drilled with bit1
 DFT .            GEL-OIL:   Type fluid in hole
 DFD .                9.4:   Density
 DFV .                 50:   Viscosity
 DFPH.                8.0:   pH
 DFL .                3.1:   Fluid loss
 RMS .OHMM           1.83:   Rm
 MST .F                96:   Rm Meas. temp.
 RMF .OHMM           1.56:   Rmf
 MFST.F                96:   Rmf Meas. temp.
 TCS .HRS               1:   Time Circ. stopped
 LUN .               4507:   Logging unit number
 LUL .               CSPR:   Logging unit location
 ENGI.            WINKLER:   Recorded By
 WITN.          JORGENSON:   Witnessed by
 ORIG.           5" PRINT:   Origin of data
 UWI .     49025064770000:   Unique Well ID
 DICO. A2D TECHNOLOGIES, INC.:   Digitizing Company
 MSS .           FLOWLINE:   Source of sample
~OTHER INFORMATION
~A  DEPTH      SPR        ASN        ILD         GR
# ...
  241.0000   -72.4702     5.8533     5.9568  -999.2500
  241.5000   -72.3214     5.8832     5.8829  -999.2500
  242.0000   -72.1726     5.8832     5.8837  -999.2500
  242.5000   -72.0238     5.8832     5.7352  -999.2500
  243.0000   -72.0238     5.8832     5.5865  -999.2500
  243.5000   -72.0238     5.8832     5.4888  -999.2500
  244.0000   -71.8750     5.8234     5.2896  -999.2500
  244.5000   -71.8750     5.7036     4.9173  -999.2500
  245.0000   -71.7262     5.4790     4.3210  -999.2500
  245.5000   -71.7262     5.2246     3.7993  -999.2500
  246.0000   -71.7262     4.9102     3.3523  -999.2500
  246.5000   -71.8750     4.4760     3.1292  -999.2500
  247.0000   -72.0238     4.0868     3.1299  -999.2500
  247.5000   -72.0238     4.0120     3.1307  -999.2500
  248.0000   -72.3214     4.1766     3.1314  -999.2500
  248.5000   -72.4702     4.2365     3.1322  -999.2500
  249.0000   -72.6190     4.0569     3.2822  -999.2500
  249.5000   -72.7679     4.0269     3.3575  -999.2500
  250.0000   -72.9167     4.1168     3.5075  -999.2500
  250.5000   -73.0686     4.8807     3.9560  -999.2500
  251.0000   -73.0720     5.0609     4.2553  -999.2500
  251.5000   -72.9251     5.1212     4.4053  -999.2500
  252.0000   -72.7798     5.2114     4.5553  -999.2500
  252.5000   -72.6337     5.2717     4.7053  -999.2500
  253.0000   -72.6370     5.2124     4.7060  -999.2500
  253.5000   -72.6404     5.2278     4.7068  -999.2500
  254.0000   -72.4945     5.2731     4.7075  -999.2500
  254.5000   -72.4973     5.1987     4.7083  -999.2500
  255.0000   -72.5002     5.1093     4.7090  -999.2500
  255.5000   -72.3538     5.0200     4.5606  -999.2500
  256.0000   -72.2079     4.9156     4.3374  -999.2500
  256.5000   -71.9141     4.7963     4.1141  -999.2500
  257.0000   -71.9170     4.6620     3.6672  -999.2500
  257.5000   -71.9198     4.5427     3.2949  -999.2500
  258.0000   -71.9232     4.3785     3.1461  -999.2500
  258.5000   -71.9261     4.2143     3.0724  -999.2500
  259.0000   -71.9286     4.0201     2.9984  -999.2500
  259.5000   -71.9318     3.9456     2.9994  -999.2500
  260.0000   -71.9347     4.1707     3.0747  -999.2500
  260.5000   -71.9381     4.2760     3.2993  -999.2500
  261.0000   -71.9409     4.2914     3.6732  -999.2500
  261.5000   -71.9438     4.2768     3.9724  -999.2500
  262.0000   -71.9467     4.7713     4.4210  -999.2500
  262.5000   -72.0984     5.3107     4.8695  -999.2500
  263.0000   -72.1018     5.4758     5.1687  -999.2500
  263.5000   -71.9549     5.5810     5.4680  -999.2500
  264.0000   -71.9587     5.6863     5.7673  -999.2500
  264.5000   -71.9616     5.7615     5.8427  -999.2500
  265.0000   -71.8152     5.7770     5.7686  -999.2500
  265.5000   -71.6692     5.7775     5.6947  -999.2500
  266.0000   -71.8219     5.7479     5.4717  -999.2500
  266.5000   -71.8248     5.7034     4.9501  -999.2500
  267.0000   -71.9764     5.4944     4.3538  -999.2500
  267.5000   -71.9793     5.1954     3.9068  -999.2500
  268.0000   -71.8329     4.9114     3.6835  -999.2500
  268.5000   -71.6870     4.5676     3.5350  -999.2500
  269.0000   -71.6908     4.0889     3.4611  -999.2500
  269.5000   -71.5444     3.9097     3.5367  -999.2500
  270.0000   -71.5478     4.1947     3.6306  -999.2500
  270.5000   -71.5506     4.1652     3.7302  -999.2500
  271.0000   -71.5540     4.0309     3.9121  -999.2500
  271.5000   -71.5565     4.2708     4.1367  -999.2500
  272.0000   -71.5598     4.6007     4.2866  -999.2500
  272.5000   -71.7114     4.6610     4.5112  -999.2500
  273.0000   -71.5660     4.7213     4.7358  -999.2500
  273.5000   -71.4201     4.8565     4.8859  -999.2500
  274.0000   -71.4229     5.0965     5.0359  -999.2500
  274.5000   -71.4256     5.2466     5.1113  -999.2500
  275.0000   -71.4286     5.3219     5.1120  -999.2500
  275.5000   -71.4321     5.3523     5.1874  -999.2500
  276.0000   -71.4345     5.3677     5.1882  -999.2500
  276.5000   -71.4378     5.3532     5.1888  -999.2500
  277.0000   -71.5893     5.2339     5.1148  -999.2500
  277.5000   -71.5928     5.0547     4.8918  -999.2500
  278.0000   -71.5957     4.9054     4.5941  -999.2500
  278.5000   -71.5986     4.7412     4.3379  -999.2500
  279.0000   -71.6015     4.4872     4.0731  -999.2500
  279.5000   -71.6044     4.3379     3.7754  -999.2500
  280.0000   -71.6077     4.2336     3.5521  -999.2500
  280.5000   -71.4618     4.1292     3.3292  -999.2500
  281.0000   -71.3149     3.9651     3.2552  -999.2500
  281.5000   -71.1694     3.9055     3.2560  -999.2500
  282.0000   -71.1728     3.9509     3.2568  -999.2500
  282.5000   -71.1757     3.8466     3.1827  -999.2500
  283.0000   -71.1790     3.5925     3.1837  -999.2500
  283.5000   -71.1815     3.6679     3.1096  -999.2500
  284.0000   -71.1848     3.7281     3.0357  -999.2500
  284.5000   -71.1877     3.6239     2.8874  -999.2500
  285.0000   -70.8924     3.4446     2.8134  -999.2500
  285.5000   -70.4499     3.4152     2.6650  -999.2500
  286.0000   -70.3035     3.3109     2.5910  -999.2500
  286.5000   -70.3065     3.1466     2.5918  -999.2500
  287.0000   -70.3097     2.9973     2.5179  -999.2500
  287.5000   -70.3130     2.9378     2.5187  -999.2500
  288.0000   -70.3155     2.9384     2.5195  -999.2500
  288.5000   -70.3188     3.1035     2.5949  -999.2500
  289.0000   -70.3214     3.2536     2.6703  -999.2500
  289.5000   -70.3246     3.3289     2.9695  -999.2500
  290.0000   -70.4767     3.3743     3.2687  -999.2500
  290.5000   -70.4796     3.7939     3.5679  -999.2500
  291.0000   -70.4825     4.2584     4.0165  -999.2500
  291.5000   -70.4854     4.4236     4.1665  -999.2500
  292.0000   -70.4881     4.4988     4.3165  -999.2500
  292.5000   -70.7892     4.4993     4.3917  -999.2500
  293.0000   -70.7917     4.4697     4.3178  -999.2500
  293.5000   -70.7950     4.4402     4.3158  -999.2500
  294.0000   -70.6490     4.3659     4.2336  -999.2500
  294.5000   -70.6518     4.2820     4.0963  -999.2500
  295.0000   -70.6553     4.1573     4.0224  -999.2500
  295.5000   -70.5084     4.0230     3.8739  -999.2500
  296.0000   -70.5119     3.9036     3.6508  -999.2500
  296.5000   -70.3658     3.7544     3.5022  -999.2500
  297.0000   -70.3696     3.5901     3.4283  -999.2500
  297.5000   -70.3725     3.4260     3.4292  -999.2500
  298.0000   -70.2266     3.3665     3.4300  -999.2500
  298.5000   -70.2295     3.4268     3.4307  -999.2500
  299.0000   -70.0830     3.6668     3.4314  -999.2500
  299.5000   -69.7893     3.7871     3.5815  -999.2500
  300.0000   -69.7921     3.7430     3.7314  -999.2500
  300.5000   -70.0927     3.8349     4.4756  -999.2500
  301.0000   -70.5420     4.5257     4.4727  -999.2500
  301.5000   -70.5448     4.8872     4.6205  -999.2500
  302.0000   -70.3994     5.0690     4.7672  -999.2500
  302.5000   -70.4018     5.2362     4.9142  -999.2500
  303.0000   -70.4052     5.3731     5.0614  -999.2500
  303.5000   -70.4080     5.5250     5.2085  -999.2500
  304.0000   -70.4109     5.6573     5.4298  -999.2500
  304.5000   -70.4138     5.7989     5.7258  -999.2500
  305.0000   -70.5660     5.9208     5.9478  -999.2500
  305.5000   -70.7177     6.1026     6.1692  -999.2500
  306.0000   -71.0182     6.5693     6.3912  -999.2500
  306.5000   -71.6163     6.8858     6.6126  -999.2500
  307.0000   -71.7679     7.0826     6.7597  -999.2500
  307.5000   -71.9202     7.2046     6.8325  -999.2500
  308.0000   -71.6254     7.2816     6.9795  -999.2500
  308.5000   -71.4790     7.3287     7.1259  -999.2500
  309.0000   -71.1843     7.3612     7.1983  -999.2500
  309.5000   -71.0387     7.3634     7.2708  -999.2500
  310.0000   -70.5958     7.3207     7.2687  -999.2500
  310.5000   -70.4489     7.2180     7.1918  -999.2500
  311.0000   -70.2892     7.1899     7.1896  -999.2500
  311.5000   -70.1575     7.2075     7.1873  -999.2500
  312.0000   -70.0116     7.2250     7.1849  -999.2500
  312.5000   -70.0154     7.2571     7.1827  -999.2500
  313.0000   -70.0183     7.2593     7.1802  -999.2500
  313.5000   -70.0212     7.2764     7.1780  -999.2500
