~VERSION INFORMATION
 VERS.                2.0:   CWLS LOG ASCII STANDARD - VERSION 2.0
 WRAP.                 NO:   ONE LINE PER DEPTH STEP
~WELL INFORMATION
#MNEM.UNIT      DATA TYPE    INFORMATION
#----------   ------------   ------------------------------
 STRT.F           10.0000:   START DEPTH
 STOP.F         3180.0000:   STOP DEPTH
 STEP.F            0.5000:   STEP LENGTH
 NULL.          -999.2500:   NO VALUE
 COMP. LAWRENCE - ALLISON WEST:   COMPANY
 WELL. LAWRENCE ALLISON NPR 3 "AX" #17-2:   WELL
 FLD .                NPR:   FIELD
 LOC .       S2 T38N R78W:   LOCATION
 CNTY.            NATRONA:   COUNTY
 STAT.            WYOMING:   STATE
 CTRY. UNITED STATES OF AMERICA:   COUNTRY
 SRVC.      DRESSER ATLAS:   SERVICE COMPANY
 DATE.        16-FEB-1987:   LOGDATE
 API .     49025111210000:   API NUMBER
~CURVE INFORMATION
#MNEM.UNIT       API CODE    CURVE DESCRIPTION
#----------   ------------   ------------------------------
 DEPT.F                  :   
 DEN .LBS    45 350 01 00:   BULK DENSITY
 CORR.G/C3   45 356 01 00:   DENSITY CORRECTION
 TEND.LBS    45 635 01 00:   TENSION FROM DENSITY LOG
 CNC .DEC    42 890 01 00:   NEUTRON PORISITY LIMESTONE
 CALR.IN     07 280 01 00:   CALIPER FROM RESISTIVITY
 SPR .MV     07 010 01 00:   SPONTANEOUS POTENTIAL
 GRR .GAPI   07 310 01 00:   GAMMA RAY FROM RESISTIVITY
 RFOC.OHMM   07 220 04 00:   RESISTIVITY FOCUSED LOG RES.
 ILD .OHMM   07 120 46 00:   DEEP INDUCTION RESISTIVITY
 ILM .OHMM   07 120 44 00:   INDUCTION LOG MEDIUM RESISTIVITY
 TENR.LBS    07 635 01 00:   TENSION FROM RESISTIVITY
~PARAMETER INFORMATION
#MNEM.UNIT          VALUE    DESCRIPTION
#----------   ------------   ------------------------------
 EKB .F         5141.0000:   Kelly bushing
 EGL .F         5129.0000:   Ground level
 EDF .F            0.0000:   Drilling floor
 EPD .F            0.0000:   Permanent datum
 TD  .F         3161.0000:   Total depth
 DATE.        16-FEB-1987:   Date logged
 CLNT.            A2DTECH:   Client Code
 SL  . 1125' FSL & 220' FWL:   Surface Location
 PD  .                 GL:   Permanent Datum
 DAPD.F                12:   Feet Above Permanent Datum
 DD  .F              3161:   Depth driller
 DL  .F              3158:   Depth logger
 BLI .F              3156:   Bottom log interval
 TLI .F                12:   Top log interval
 CS1 .IN            8.625:   Casing size
 CBD1.      8.625" @ 626':   Casing driller 1
 CBL1.F               626:   Casing logger 1
 BS1 .IN            7.875:   Bit size
 BSD1.F              3161:   Depth drilled with bit1
 DFT .        KCL/POLYMER:   Type fluid in hole
 DFD .                8.8:   Density
 DFV .                 39:   Viscosity
 DFPH.                 10:   pH
 DFL .                8.4:   Fluid loss
 MSS .           FLOWLINE:   Source of sample
 RMS .OHMM           .292:   Rm
 MST .F                82:   Rm Meas. temp.
 RMF .OHMM           .231:   Rmf
 MFST.F                82:   Rmf Meas. temp.
 RMC .OHMM           .365:   Rmc
 MCST.F                82:   Rmc Meas. temp.
 MFSS.               MEAS:   Source Rmf.
 MCSS.               CALC:   Source Rmc.
 RMB .OHMM           .203:   Rm. at BHT
 BHT .F               118:   BHT.
 TCS .HRS               3:   Time Circ. stopped
 MRT .F               118:   Maximum recorded temp.
 LUN .            HL-6274:   Logging unit number
 LUL .           GALLETTE:   Logging unit location
 ENGI.            PANASUK:   Recorded By
 WITN.             STRONG:   Witnessed by
 ORIG.           5" PRINT:   Origin of data
 UWI .     49025111210000:   Unique Well ID
 DICO. A2D TECHNOLOGIES, INC.:   Digitizing Company
~OTHER INFORMATION
~A   DEPT      DEN       CORR       TEND        CNC       CALR        SPR          GRR     RFOC        ILD        ILM       TENR   
# ...
  620.0000  -999.2500  -999.2500  -999.2500  -999.2500  -999.2500  -999.2500    72.5545  -999.2500  -999.2500  -999.2500  -999.2500
  620.5000  -999.2500  -999.2500  -999.2500  -999.2500  -999.2500  -999.2500    71.3570  -999.2500  -999.2500  -999.2500  -999.2500
  621.0000  -999.2500  -999.2500  -999.2500  -999.2500  -999.2500  -999.2500    72.1463  -999.2500  -999.2500  -999.2500  -999.2500
  621.5000  -999.2500  -999.2500  -999.2500  -999.2500  -999.2500  -999.2500    72.9366  -999.2500  -999.2500  -999.2500  -999.2500
  622.0000  -999.2500  -999.2500  -999.2500  -999.2500  -999.2500  -999.2500    72.9314  -999.2500  -999.2500  -999.2500  -999.2500
  622.5000  -999.2500  -999.2500  -999.2500  -999.2500  -999.2500  -999.2500    68.9494  -999.2500  -999.2500  -999.2500  -999.2500
  623.0000  -999.2500  -999.2500  -999.2500  -999.2500  -999.2500  -999.2500    67.3509  -999.2500  -999.2500  -999.2500  -999.2500
  623.5000  -999.2500  -999.2500  -999.2500  -999.2500  -999.2500  -999.2500    67.3456  -999.2500  -999.2500  -999.2500  -999.2500
  624.0000  -999.2500  -999.2500  -999.2500  -999.2500  -999.2500  -999.2500    67.3403  -999.2500  -999.2500  -999.2500  -999.2500
  624.5000  -999.2500  -999.2500  -999.2500  -999.2500  -999.2500  -999.2500    67.3361  -999.2500  -999.2500  -999.2500  -999.2500
  625.0000  -999.2500  -999.2500  -999.2500  -999.2500  -999.2500  -999.2500    67.3298  -999.2500  -999.2500  -999.2500  -999.2500
  625.5000  -999.2500  -999.2500  -999.2500  -999.2500     8.7248    38.6358    67.3245     0.2048  -999.2500  -999.2500   -59.9028
  626.0000  -999.2500  -999.2500  -999.2500  -999.2500     9.0428    34.0574    70.5017     0.7562  -999.2500  1990.4611   -59.8032
  626.5000  -999.2500  -999.2500  -999.2500  -999.2500     9.4403    30.8723    72.7006     2.5238  1866.1707  2008.7749   -59.7036
  627.0000  -999.2500  -999.2500  -999.2500  -999.2500     9.5794    25.4991    76.4886     3.4011     2.8441     5.0474   -59.6040
  627.5000  -999.2500  -999.2500  -999.2500  -999.2500     9.9916    21.7171    80.0368     4.4637     2.1579     2.9882   -59.5044
  628.0000  -999.2500  -999.2500  -999.2500  -999.2500    10.4341    18.5306    82.3507     4.6734     4.8988     3.1574   -59.4048
  628.5000  -999.2500  -999.2500  -999.2500  -999.2500    10.8141    16.5392    84.6646     4.8930    11.1208     3.5581   -59.3052
  629.0000  -999.2500  -999.2500  -999.2500  -999.2500    11.1941    15.1440    86.9785     5.0760    30.2461     5.2830   -59.2056
  629.5000  -999.2500  -999.2500  -999.2500  -999.2500    11.5673    13.9477    89.2923     5.3144    82.4430     5.5311   -59.1060
  630.0000  -999.2500  -999.2500  -999.2500  -999.2500    11.5165    12.7519    91.6062     5.4627    84.7502     7.1548   -59.0064
  630.5000  -999.2500  -999.2500  -999.2500  -999.2500    11.4657     9.1679    93.9201     5.5637     7.5369     7.6298   -58.9068
  631.0000  -999.2500  -999.2500  -999.2500  -999.2500    11.4273     7.1746    94.3211     5.7188     6.3324     7.3536   -58.8072
  631.5000  -999.2500  -999.2500  -999.2500  -999.2500    11.4668     4.7863    94.2073     5.7712     5.7184     6.6455   -58.7076
  632.0000  -999.2500  -999.2500  -999.2500  -999.2500    11.4667     2.9930    92.7228     5.9869     7.0002     6.5840   -58.6080
  632.5000  -999.2500  -999.2500  -999.2500  -999.2500    11.3260     1.5976    87.9435     6.0417     7.4617     7.0212   -58.5084
  633.0000  -999.2500  -999.2500  -999.2500  -999.2500    11.2075     0.9972    90.8108     6.0411     7.9613     7.0854   -58.4088
  633.5000  -999.2500  -999.2500  -999.2500  -999.2500    11.1027     0.1985    91.5131     6.0405     6.5017     6.3445   -68.3091
  634.0000  -999.2500  -999.2500  -999.2500  -999.2500    10.9979    -0.0034    89.9166     5.9847     7.3272     6.2283   -58.2096
  634.5000  -999.2500  -999.2500  -999.2500  -999.2500    10.9879    -0.0069    88.7179     5.8212     7.0964     6.2853   -58.1100
  635.0000  -999.2500  -999.2500  -999.2500  -999.2500    10.9877    -0.0099    87.1213     5.9288     6.8728     6.2272   -68.0103
  635.5000  -999.2500  -999.2500  -999.2500  -999.2500    10.9874    -0.0123    84.3310     6.0384     6.6201     6.4599   -67.8908
  636.0000  -999.2500  -999.2500  -999.2500  -999.2500    11.0469    -0.0147    82.3354     6.1500     6.3806     6.9524   -67.8310
  636.5000  -999.2500  -999.2500  -999.2500  -999.2500    11.0864    -0.0188    84.3208     6.1493     6.2635     7.0161   -67.7115
  637.0000  -999.2500  -999.2500  -999.2500  -999.2500    11.0664    -0.0212    87.8967     6.1489     6.2630     6.8875   -67.6119
  637.5000  -999.2500  -999.2500  -999.2500  -999.2500    11.1278    -0.2237    90.6759     6.2052     6.4974     6.7613   -67.5123
  638.0000  -999.2500  -999.2500  -999.2500  -999.2500    11.1851    -0.9459    86.6928     6.2621     6.9287     6.7608   -67.4127
  638.5000  -999.2500  -999.2500  -999.2500  -999.2500    11.1451    -1.7433    85.0951     6.2614     7.0567     6.7601   -67.3131
  639.0000  -999.2500  -999.2500  -999.2500  -999.2500    11.0490    -2.1437    86.6816     6.2608     7.0564     6.8219   -67.2135
  639.5000  -999.2500  -999.2500  -999.2500  -999.2500    10.9655    -2.1457    89.8609     6.2602     7.0556     6.8213   -67.1139
  640.0000  -999.2500  -999.2500  -999.2500  -999.2500    10.9653    -2.5456    95.8246     6.2595     6.8629     6.7585   -67.0143
  640.5000  -999.2500  -999.2500  -999.2500  -999.2500    10.8258    -3.1437    95.0227     6.2591     6.2016     6.5738   -56.9148
  641.0000  -999.2500  -999.2500  -999.2500  -999.2500    10.6465    -4.1907    91.4354     6.2584     6.2012     6.4535   -56.8152
  641.5000  -999.2500  -999.2500  -999.2500  -999.2500    10.5069    -5.3376    90.2386     6.2578     6.2579     6.4528   -56.7156
  642.0000  -999.2500  -999.2500  -999.2500  -999.2500    10.1745    -6.1351    90.2325     6.1431     5.7597     6.4522   -56.6160
  642.5000  -999.2500  -999.2500  -999.2500  -999.2500     9.8498    -6.5351    94.6068     5.8128     4.8358     6.2186   -56.5164
  643.0000  -999.2500  -999.2500  -999.2500  -999.2500     9.8298    -6.9351   100.1720     5.4497     4.7910     5.4669   -56.4168
  643.5000  -999.2500  -999.2500  -999.2500  -999.2500     9.7712    -7.3351   104.1465     5.2042     4.7467     5.0323   -56.3172
  644.0000  -999.2500  -999.2500  -999.2500  -999.2500     9.7097    -7.3367   104.1425     4.8344     4.7463     5.0318   -56.2176
  644.5000  -999.2500  -999.2500  -999.2500  -999.2500     9.6895    -7.3392    98.1673     5.0616     4.9693     5.7226   -56.1180
  645.0000  -999.2500  -999.2500  -999.2500  -999.2500     9.6895    -7.5402    94.9786     5.5488     5.5485     5.7749   -66.0183
  645.5000  -999.2500  -999.2500  -999.2500  -999.2500     9.5959    -7.7413    95.3716     6.0830     6.0830     5.8278   -65.9187
  646.0000  -999.2500  -999.2500  -999.2500  -999.2500     9.5097    -7.7425    99.3463     6.3104     6.7924     5.9355   -65.8191
  646.5000  -999.2500  -999.2500  -999.2500  -999.2500     9.4896    -7.7450   102.1271     6.5464     6.9181     6.2715   -65.7195
  647.0000  -999.2500  -999.2500  -999.2500  -999.2500     9.4717    -7.7475   108.0918     6.7912     6.9810     6.5661   -65.6199
  647.5000  -999.2500  -999.2500  -999.2500  -999.2500     9.4537    -7.7491   108.8818     7.0452     7.0451     6.7490   -65.5004
  648.0000  -999.2500  -999.2500  -999.2500  -999.2500     9.4290    -7.7512   103.3032     7.3762     7.0445     6.8737   -75.4007
  648.5000  -999.2500  -999.2500  -999.2500  -999.2500     9.4489    -7.7536    99.7194     7.5125     7.0439     7.1305   -65.3012
  649.0000  -999.2500  -999.2500  -999.2500  -999.2500     9.4388    -7.1587    97.3255     7.7929     7.0433     7.3969   -65.2016
  649.5000  -999.2500  -999.2500  -999.2500  -999.2500     9.4286    -5.9668    96.1245     7.7926     7.3065     7.3963   -65.1020
  650.0000  -999.2500  -999.2500  -999.2500  -999.2500     9.3683     3.6812    96.9175     7.7920     7.5103     7.3956   -65.0024
