~VERSION INFORMATION
 VERS.                2.0:   CWLS LOG ASCII STANDARD - VERSION 2.0
 WRAP.                 NO:   ONE LINE PER DEPTH STEP
~WELL INFORMATION
#MNEM.UNIT      DATA TYPE    INFORMATION
#----------   ------------   ------------------------------
 STRT.F          204.0000:   START DEPTH
 STOP.F         3104.0000:   STOP DEPTH
 STEP.F            0.5000:   STEP LENGTH
 NULL.          -999.2500:   NO VALUE
 COMP.    FENIX & SCISSON:   COMPANY
 WELL. FENIX NPR 83 "AX" #3-10:   WELL
 FLD .                NPR:   FIELD
 LOC .      S10 T38N R78W:   LOCATION
 CNTY.            NATRONA:   COUNTY
 STAT.            WYOMING:   STATE
 CTRY. UNITED STATES OF AMERICA:   COUNTRY
 SRVC.              WELEX:   SERVICE COMPANY
 DATE.        14-JUL-1977:   LOGDATE
 API .     49025103980000:   API NUMBER
~CURVE INFORMATION
#MNEM.UNIT       API CODE    CURVE DESCRIPTION
#----------   ------------   ------------------------------
 DEPT.F                  :   
 ILD .OHMM   07 120 46 00:   DEEP INDUCTION RESISTIVITY
 GURD.OHMM   07 220 05 00:   GUARD LOG RESISTIVITY
 ILM .OHMM   07 120 44 00:   INDUCTION LOG MEDIUM RESISTIVITY
 SPR .MV     07 010 01 00:   SPONTANEOUS POTENTIAL
 CALD.IN     45 280 60 00:   CALIPER FROM DENSITY LOG
 GRD .GAPI   45 310 01 00:   GAMMA RAY FROM DENSITY LOG
 RHOB.G/C3   45 350 01 00:   BULK DENSITY
 CORR.G/C3   45 356 01 00:   DENSITY CORRECTION
 NPHI.DEC    42 890 03 00:   NEUTRON POROSITY SANDSTONE
~PARAMETER INFORMATION
#MNEM.UNIT          VALUE    DESCRIPTION
#----------   ------------   ------------------------------
 EKB .F         5176.0000:   Kelly bushing
 EGL .F         5166.0000:   Ground level
 TD  .F         3105.0000:   Total depth
 DATE.        14-JUL-1977:   Date logged
 CLNT.            A2DTECH:   Client Code
 SL  . 1650' FNL & 100' FEL:   Surface Location
 PD  .                 GL:   Permanent Datum
 DD  .F              3094:   Depth driller
 DL  .F              3105:   Depth logger
 BLI .F              3103:   Bottom log interval
 CS1 .IN            8.625:   Casing size
 CBD1.      8.625" @ 218':   Casing driller 1
 CBL1.F               220:   Casing logger 1
 BS1 .IN            7.875:   Bit size
 DFT .            KCL/GEL:   Type fluid in hole
 DFD .                9.4:   Density
 DFV .                 36:   Viscosity
 DFPH.                  8:   pH
 DFL .                 12:   Fluid loss
 MSS .           FLOWLINE:   Source of sample
 RMS .OHMM           1.54:   Rm
 MST .F               100:   Rm Meas. temp.
 RMF .OHMM            1.5:   Rmf
 MFST.F               100:   Rmf Meas. temp.
 RMC .OHMM           3.47:   Rmc
 MCST.F               100:   Rmc Meas. temp.
 MFSS.               FANN:   Source Rmf.
 RMB .OHMM           1.36:   Rm. at BHT
 BHT .F               113:   BHT.
 TCS .HRS             2.5:   Time Circ. stopped
 MRT .F               113:   Maximum recorded temp.
 LUN .               8766:   Logging unit number
 LUL .             CASPER:   Logging unit location
 ENGI. G. BENTSEN/T. JOYNER:   Recorded By
 WITN.      B. HARRINGTON:   Witnessed by
 ORIG.           5" PRINT:   Origin of data
 UWI .     49025103980000:   Unique Well ID
 DICO. A2D TECHNOLOGIES, INC.:   Digitizing Company
 DAPD.F                10:   Feet Above Permanent Datum
 BSD1.F              3094:   Depth drilled with bit1
 MCSS.                KIT:   Source Rmc.
 TLI .F               210:   Top log interval
 EPD .F              5166:   Elevation Permanent Datum
 LMF .                 KB:   Log Measured From
 DMF .                 KB:   Drilling Measured From
~OTHER INFORMATION
~A   DEPT      ILD       GURD        ILM        SPR       CALD        GRD       RHOB       CORR       NPHI   
# ...
 2868.5000     4.7510     5.8220     4.1590   -57.2510     8.9460   145.0300     2.5050     0.0090     0.2930
 2869.0000     4.8700     5.5380     4.1590   -57.2420     8.9470   140.6690     2.5150     0.0110     0.2880
 2869.5000     4.9890     6.1170     4.1750   -57.2320     8.9470   139.8750     2.5260     0.0140     0.2850
 2870.0000     5.1070     6.3360     4.2380   -57.2220     8.9480   140.4950     2.5380     0.0170     0.2830
 2870.5000     5.2260     6.6010     4.3000   -57.2130     8.9480   141.1670     2.5500     0.0200     0.2810
 2871.0000     5.3450     6.4520     4.3630   -57.2030     8.9490   141.2790     2.5500     0.0240     0.2800
 2871.5000     5.4630     6.2450     4.4550   -57.1940     8.9500   139.3470     2.5480     0.0250     0.2810
 2872.0000     5.5820     6.2450     4.5800   -57.1840     8.9500   137.3860     2.5490     0.0230     0.2830
 2872.5000     5.7000     6.7080     4.7050   -57.1750     8.9510   138.0850     2.5500     0.0200     0.2850
 2873.0000     5.8190     7.0420     4.8300   -57.1650     8.9510   139.5490     2.5510     0.0220     0.2890
 2873.5000     5.9380     7.1070     4.9550   -57.1560     8.9440   141.0420     2.5480     0.0240     0.2900
 2874.0000     6.0560     6.9960     5.1440   -57.1460     8.9370   142.5280     2.5410     0.0260     0.2880
 2874.5000     6.1870     6.4200     5.1230   -57.1370     8.9320   144.0310     2.5380     0.0260     0.2860
 2875.0000     6.0820     6.4870     5.0830   -57.1270     8.9550   144.4010     2.5390     0.0250     0.2850
 2875.5000     5.9310     6.6220     5.0420   -57.1170     8.9790   144.2420     2.5390     0.0240     0.2850
 2876.0000     5.7810     6.7560     5.0010   -57.1080     9.0020   144.2280     2.5360     0.0220     0.2850
 2876.5000     5.6300     6.9130     4.9570   -57.0980     9.0250   147.8010     2.5300     0.0210     0.2870
 2877.0000     5.4790     6.8250     4.8150   -57.0890     9.0490   151.5210     2.5240     0.0210     0.2910
 2877.5000     5.3070     6.6550     4.6470   -57.0790     9.0720   155.2220     2.5250     0.0210     0.2940
 2878.0000     5.0570     6.5030     4.4200   -57.0700     9.0950   158.9110     2.5300     0.0200     0.2960
 2878.5000     4.8070     6.2050     4.1730   -57.0600     9.0970   161.4930     2.5350     0.0200     0.3020
 2879.0000     4.5820     5.9070     3.9290   -57.0510     9.0720   162.6210     2.5270     0.0200     0.3090
 2879.5000     4.2580     5.5890     3.6910   -57.0410     9.0460   163.7600     2.5160     0.0190     0.3150
 2880.0000     3.9340     5.1260     3.4520   -57.0320     9.0210   164.9020     2.5050     0.0160     0.3200
 2880.5000     3.6090     4.4980     3.2130   -57.0220     8.9960   166.0740     2.4940     0.0130     0.3120
 2881.0000     3.2850     3.8700     3.0010   -57.0120     8.9710   167.1440     2.4820     0.0100     0.2940
 2881.5000     3.0100     3.3930     2.9420   -57.0030     8.9460   161.8250     2.4760     0.0090     0.2880
 2882.0000     3.3590     3.0660     2.9280   -56.9930     8.9200   155.9050     2.4880     0.0090     0.2780
 2882.5000     3.6620     2.9280     2.9540   -56.9840     8.9120   149.9960     2.5100     0.0090     0.2680
 2883.0000     3.9650     4.6220     2.9820   -56.9740     8.9130   144.1100     2.5320     0.0130     0.2620
 2883.5000     4.2680     6.1300     3.1460   -56.9650     8.9130   138.1720     2.5490     0.0180     0.2570
 2884.0000     4.5540     6.2080     3.3150   -56.9550     8.9140   135.9140     2.5570     0.0220     0.2520
 2884.5000     4.7530     6.2870     3.4840   -56.9460     8.9140   135.8720     2.5610     0.0200     0.2480
 2885.0000     4.9570     6.3670     3.7050   -56.9360     8.9150   135.8740     2.5590     0.0180     0.2440
 2885.5000     5.0850     6.4470     3.9410   -56.9280     8.9150   135.8990     2.5570     0.0170     0.2420
 2886.0000     5.1910     6.5730     4.1780   -56.9160     8.9160   136.5520     2.5580     0.0190     0.2430
 2886.5000     5.1650     6.9130     4.4140   -56.9050     8.9170   137.1520     2.5600     0.0210     0.2510
 2887.0000     5.1380     6.7890     4.6040   -56.8930     8.9170   138.6340     2.5560     0.0230     0.2600
 2887.5000     5.1110     6.5790     4.7250   -56.8820     8.9180   140.5410     2.5510     0.0230     0.2700
 2888.0000     5.0830     6.3700     4.8210   -56.8700     8.9180   142.5330     2.5460     0.0220     0.2810
 2888.5000     5.0560     6.1610     4.7830   -56.8590     8.9190   144.5300     2.5470     0.0220     0.2870
 2889.0000     5.0290     5.9520     4.7340   -56.8470     8.9190   146.5250     2.5500     0.0220     0.2900
 2889.5000     5.0020     5.7470     4.6860   -56.8360     8.9200   148.5120     2.5540     0.0220     0.2890
 2890.0000     4.9750     5.8880     4.6380   -56.8240     8.9200   150.4610     2.5570     0.0220     0.2910
 2890.5000     4.9480     6.0280     4.5890   -56.8130     8.9210   154.6530     2.5550     0.0200     0.2970
 2891.0000     4.9210     6.1680     4.5610   -56.8010     8.9220   159.4220     2.5490     0.0180     0.3030
 2891.5000     4.8640     6.3030     4.6040   -56.7890     8.9220   164.1760     2.5440     0.0160     0.3090
 2892.0000     4.7890     6.2120     4.4460   -56.7780     8.9230   168.9270     2.5440     0.0130     0.3140
 2892.5000     4.5890     6.0740     4.2570   -56.7660     8.9230   173.8940     2.5470     0.0110     0.3210
 2893.0000     4.3650     5.8820     4.0680   -56.7550     8.9240   179.2600     2.5500     0.0090     0.3280
 2893.5000     4.1400     5.6530     3.8780   -56.7430     8.9240   184.7890     2.5470     0.0070     0.3310
 2894.0000     3.9160     5.4370     3.6890   -56.7320     8.9250   190.3080     2.5250     0.0050     0.3320
 2894.5000     3.6910     4.8030     3.5000   -56.7200     8.9250   194.7750     2.5150     0.0040     0.3290
 2895.0000     3.4670     4.2010     3.3100   -56.7090     8.9260   190.5150     2.5130     0.0050     0.3230
 2895.5000     3.2410     3.6730     3.1210   -56.6970     8.9270   184.7890     2.5190     0.0050     0.3170
 2896.0000     3.4050     3.3550     2.9820   -56.6860     8.9270   172.2760     2.5450     0.0050     0.2970
 2896.5000     3.6530     3.1230     2.9820   -56.6740     8.9280   159.9880     2.5630     0.0060     0.2840
 2897.0000     3.9000     3.8570     3.0390   -56.6630     8.9280   147.6900     2.5720     0.0060     0.2750
 2897.5000     4.1480     4.9900     3.1580   -56.6510     8.9290   136.0640     2.5750     0.0060     0.2680
 2898.0000     4.4340     5.9050     3.2780   -56.6400     8.9290   136.1160     2.5690     0.0070     0.2630
 2898.5000     4.7620     6.0850     3.4880   -56.6280     8.9300   136.2610     2.5680     0.0070     0.2600
 2899.0000     5.0910     6.2630     3.9240   -56.6160     8.9300   136.2770     2.5770     0.0070     0.2570
 2899.5000     5.2670     6.4400     4.1900   -56.6050     8.9310   136.2800     2.5890     0.0070     0.2530
 2900.0000     5.4190     6.6010     4.4360   -56.5930     8.9310   136.2690     2.5990     0.0080     0.2520
 2900.5000     5.5710     6.6910     4.6810   -56.5820     8.9310   135.2130     2.5930     0.0080     0.2520
 2901.0000     5.7240     6.7720     4.9270   -56.5700     8.9310   134.0290     2.5850     0.0080     0.2510
 2901.5000     5.8760     6.8540     5.0960   -56.5590     8.9310   132.8300     2.5870     0.0100     0.2500
 2902.0000     6.0280     6.9770     5.1550   -56.5470     8.9310   131.7030     2.5870     0.0110     0.2480
 2902.5000     6.0920     6.9520     5.1780   -56.5360     8.9310   132.8490     2.5850     0.0120     0.2450
 2903.0000     6.1290     6.9030     5.2010   -56.5100     8.9310   134.1230     2.5840     0.0130     0.2420
 2903.5000     6.1660     6.8490     5.2230   -56.4760     8.9310   135.3820     2.5900     0.0140     0.2380
 2904.0000     6.2030     6.9710     5.2390   -56.4420     8.9310   136.6240     2.5960     0.0150     0.2380
 2904.5000     6.2400     7.1050     5.2320   -56.4080     8.9310   137.4630     2.6010     0.0160     0.2400
