~VERSION INFORMATION
 VERS.                2.0:   CWLS LOG ASCII STANDARD - VERSION 2.0
 WRAP.                 NO:   ONE LINE PER DEPTH STEP
~WELL INFORMATION
#MNEM.UNIT      DATA TYPE    INFORMATION
#----------   ------------   ------------------------------
 STRT.F           42.0000:   START DEPTH
 STOP.F         2778.0000:   STOP DEPTH
 STEP.F            0.5000:   STEP LENGTH
 NULL.          -999.2500:   NO VALUE
 COMP.    FENIX & SCISSON:   COMPANY
 WELL. FENIX & SCISSON SHX #56-23:   WELL
 FLD .        TEAPOT DOME:   FIELD
 LOC .      S23 T38N R78W:   LOCATION
 CNTY.            NATRONA:   COUNTY
 STAT.            WYOMING:   STATE
 CTRY. UNITED STATES OF AMERICA:   COUNTRY
 SRVC.           BIRDWELL:   SERVICE COMPANY
 DATE.        29-AUG-1979:   LOGDATE
 API .     49025107920000:   API NUMBER
~CURVE INFORMATION
#MNEM.UNIT       API CODE    CURVE DESCRIPTION
#----------   ------------   ------------------------------
 DEPT.F                  :   
 GRD .GAPI   45 310 01 00:   GAMMA RAY FROM DENSITY LOG
 CALD.IN     45 280 60 00:   CALIPER FROM DENSITY LOG
 RHOB.G/C3   45 350 01 00:   BULK DENSITY
 CORR.G/C3   45 356 01 00:   DENSITY CORRECTION
 ILD .OHMM   07 120 46 00:   DEEP INDUCTION RESISTIVITY
 SFL .OHMM   07 220 01 00:   SHALLOW FOCUSED LOG RESISTIVITY
 SPR .MV     07 010 01 00:   SPONTANEOUS POTENTIAL
~PARAMETER INFORMATION
#MNEM.UNIT          VALUE    DESCRIPTION
#----------   ------------   ------------------------------
 EKB .F         5361.0000:   Kelly bushing
 EGL .F         5351.0000:   Ground level
 EDF .F         5360.0000:   Drilling floor
 TD  .F         1465.0000:   Total depth
 DATE.        29-AUG-1979:   Date logged
 CLNT.            A2DTECH:   Client Code
 PD  .                 GL:   Permanent Datum
 EPD .F              5351:   Elevation Permanent Datum
 LMF .                 KB:   Log Measured From
 DMF .                 KB:   Drilling Measured From
 DAPD.F                 9:   Feet Above Permanent Datum
 DD  .F              1465:   Depth driller
 DL  .F              1462:   Depth logger
 BLI .F              1457:   Bottom log interval
 TLI .F                40:   Top log interval
 CBD1.F                40:   Casing driller 1
 CBL1.F                40:   Casing logger 1
 BS1 .IN            12.25:   Bit size
 BSD1.F              1465:   Depth drilled with bit1
 DFT .            GEL/MUD:   Type fluid in hole
 DFD .                9.5:   Density
 DFV .                 40:   Viscosity
 DFPH.                9.0:   pH
 DFL .                 40:   Fluid loss
 MSS .            MUD PIT:   Source of sample
 RMS .OHMM            2.6:   Rm
 MST .F                68:   Rm Meas. temp.
 RMF .OHMM            1.8:   Rmf
 MFST.F                78:   Rmf Meas. temp.
 RMC .OHMM            2.8:   Rmc
 MCST.F                76:   Rmc Meas. temp.
 MFSS.               MEAS:   Source Rmf.
 MCSS.               MEAS:   Source Rmc.
 RMB .OHMM           1.96:   Rm. at BHT
 BHT .F                90:   BHT.
 TCS .HRS               5:   Time Circ. stopped
 MRT .F                90:   Maximum recorded temp.
 LUN .               2959:   Logging unit number
 LUL .             CASPER:   Logging unit location
 ENGI.         B. ROLLINS:   Recorded By
 WITN.              AMEND:   Witnessed by
 ORIG.           5" PRINT:   Origin of data
 UWI .     49025107920000:   Unique Well ID
 DICO. A2D TECHNOLOGIES, INC.:   Digitizing Company
~OTHER INFORMATION
~A   DEPT       GRD      CALD       RHOB         CORR      ILD        SFL         SPR  
# ...
  906.5000   100.8050    12.9140     2.4700     0.2070     5.6420     5.0630   -53.3190
  907.0000    99.6580    12.9120     2.4680     0.2070     5.5950     5.0370   -53.3970
  907.5000    97.7450    12.9100     2.4690     0.2080     5.5490     5.0110   -53.2970
  908.0000    95.8880    12.9080     2.4700     0.2080     5.5300     4.9860   -53.2220
  908.5000    96.2850    12.9060     2.4650     0.2080     5.5300     4.9600   -53.1390
  909.0000    96.4110    12.9030     2.4600     0.2090     5.6350     4.9400   -53.0590
  909.5000    95.3210    12.9010     2.4540     0.2130     5.7420     4.9400   -52.9780
  910.0000    94.0680    12.8990     2.4630     0.2190     5.8230     4.9400   -52.8970
  910.5000    93.0140    12.8970     2.4840     0.2310     5.9050     4.9400   -52.8160
  911.0000    93.1660    12.8950     2.5060     0.2410     5.9870     5.0330   -52.7350
  911.5000    96.4920    12.8930     2.5270     0.2540     6.0680     5.1340   -52.6540
  912.0000    91.4100    12.8910     2.5200     0.2520     6.1500     5.2590   -52.5730
  912.5000    85.3850    12.8890     2.5050     0.2400     6.2320     5.3840   -52.4920
  913.0000    85.5700    12.8860     2.4920     0.2310     6.3130     5.5090   -52.4110
  913.5000    87.9580    12.8860     2.4800     0.2200     6.4280     5.6350   -52.3310
  914.0000    94.0270    12.8900     2.4820     0.2160     6.3760     5.6350   -52.2450
  914.5000   100.5380    12.8940     2.4860     0.2190     6.2900     5.5300   -52.1800
  915.0000    98.8160    12.8980     2.4890     0.2210     6.2040     5.4440   -52.1430
  915.5000    96.3310    12.9020     2.4880     0.2190     6.1170     5.3570   -52.1000
  916.0000    95.3480    12.9050     2.4670     0.2130     6.0310     5.2700   -52.0590
  916.5000    97.0110    12.9090     2.4460     0.2110     5.9450     5.1830   -52.0180
  917.0000    96.9990    12.9130     2.4530     0.2130     5.8590     5.0960   -51.9750
  917.5000    95.0020    12.9170     2.4530     0.2150     5.7730     5.0090   -51.9370
  918.0000    95.3460    12.9210     2.4500     0.2130     5.6860     4.8940   -51.8890
  918.5000    95.1940    12.9240     2.4480     0.2090     5.6350     4.8480   -51.8560
  919.0000    93.2860    12.9280     2.4520     0.2100     5.6350     4.8480   -51.8110
  919.5000    91.8290    12.9320     2.4580     0.2110     5.6350     4.8480   -52.0600
  920.0000    92.6240    12.9360     2.4630     0.2120     5.6350     4.9040   -52.4060
  920.5000    92.8960    12.9400     2.4680     0.2130     5.6350     4.9600   -52.7160
  921.0000    92.3360    12.9440     2.4740     0.2150     5.6350     5.0160   -53.1840
  921.5000    91.5890    12.9470     2.4790     0.2160     5.7420     5.0720   -53.4350
  922.0000    91.2270    12.9510     2.4830     0.2130     5.8770     5.1290   -53.2090
  922.5000    93.0720    12.9550     2.4770     0.2070     5.9210     5.1850   -52.8010
  923.0000    94.3690    12.9590     2.4740     0.2040     5.9650     5.2410   -52.3720
  923.5000    94.9720    12.9630     2.4770     0.2090     6.0090     5.2970   -51.8990
  924.0000    95.7000    12.9660     2.4820     0.2130     6.0530     5.3540   -51.4620
  924.5000    96.3740    12.9700     2.4870     0.2180     6.0970     5.4100   -51.0590
  925.0000    97.2660    12.9740     2.4890     0.2180     6.1410     5.4660   -51.5050
  925.5000    96.2800    12.9780     2.4860     0.2170     6.1850     5.5220   -52.0010
  926.0000    93.9830    12.9820     2.4850     0.2160     6.2290     5.5780   -52.2010
  926.5000    92.9290    12.9850     2.4830     0.2160     6.2730     5.6350   -51.9190
  927.0000    93.0700    12.9890     2.4840     0.2190     6.3080     5.6350   -51.7210
  927.5000    93.9660    12.9930     2.4870     0.2230     6.3080     5.7420   -51.4760
  928.0000    95.2410    12.9970     2.4890     0.2210     6.3080     5.7420   -51.4540
  928.5000    98.0080    13.0010     2.4760     0.2180     6.2760     5.7050   -51.5770
  929.0000    99.5450    13.0050     2.4610     0.2140     6.1960     5.6140   -51.6940
  929.5000    97.0700    13.0080     2.4560     0.2110     6.1160     5.5230   -51.7960
  930.0000    92.9120    13.0120     2.4580     0.2060     6.0350     5.4320   -51.7400
  930.5000    92.3820    13.0160     2.4600     0.2070     5.9550     5.3410   -51.2040
  931.0000    93.3600    13.0200     2.4630     0.2090     5.8750     5.2500   -50.6490
  931.5000    92.4010    13.0240     2.4660     0.2110     5.7950     5.1580   -50.7950
  932.0000    91.7630    13.0270     2.4790     0.2130     5.7150     5.0670   -51.3970
  932.5000    96.3380    13.0310     2.4750     0.2130     5.6350     4.9760   -51.9290
  933.0000   100.9970    13.0350     2.4700     0.2090     5.6350     4.8480   -52.4490
  933.5000   100.2040    13.0390     2.4640     0.2060     5.6350     4.8480   -52.1870
  934.0000    99.1370    13.0430     2.4720     0.2090     5.6560     4.8480   -51.9130
  934.5000    98.0220    13.0470     2.4830     0.2120     5.6900     4.8950   -51.1980
  935.0000    96.5840    13.0500     2.4930     0.2140     5.7250     5.0150   -51.0570
  935.5000    93.1140    13.0540     2.4940     0.2130     5.7600     5.1340   -51.2210
  936.0000    95.8040    13.0580     2.4880     0.2110     5.7940     5.2540   -51.3460
  936.5000    97.1740    13.0620     2.4770     0.2090     5.8290     5.3260   -51.4760
  937.0000    98.2890    13.0660     2.4700     0.2070     5.8640     5.3130   -51.6210
  937.5000    98.3670    13.0690     2.4680     0.2050     5.8990     5.3010   -51.7450
  938.0000   103.4190    13.0730     2.4690     0.2040     5.9330     5.2880   -51.7600
  938.5000   101.6020    13.0770     2.4680     0.2070     5.9680     5.2760   -51.2810
  939.0000    97.7980    13.0810     2.4720     0.2090     6.0030     5.2640   -50.8330
  939.5000    93.7000    13.0830     2.4820     0.2110     6.0370     5.2500   -50.6760
  940.0000    95.1380    13.0820     2.4830     0.2130     6.0720     5.2370   -51.0230
  940.5000    98.2450    13.0810     2.4710     0.2130     6.1070     5.2230   -51.2720
  941.0000   100.4650    13.0800     2.4630     0.2130     6.1420     5.2230   -51.5230
  941.5000   101.9170    13.0780     2.4590     0.2130     6.1760     5.3290   -51.1830
  942.0000    99.8610    13.0770     2.4580     0.2130     6.2230     5.3230   -50.9780
  942.5000    97.9270    13.0760     2.4600     0.2140     6.2770     5.3230   -50.6570
  943.0000    99.7420    13.0750     2.4630     0.2160     6.3310     5.3980   -50.9190
  943.5000   100.2640    13.0740     2.4740     0.2170     6.3850     5.4700   -51.5690
  944.0000    99.2560    13.0720     2.4840     0.2180     6.4390     5.5420   -52.1550
  944.5000    98.4160    13.0710     2.4930     0.2110     6.4930     5.6140   -52.7670
  945.0000    97.9320    13.0700     2.4950     0.2040     6.5470     5.6870   -52.9870
  945.5000    95.8820    13.0690     2.4950     0.2030     6.6010     5.7590   -52.5820
  946.0000    95.7610    13.0670     2.4940     0.2070     6.6550     5.8310   -52.2720
  946.5000    97.2530    13.0660     2.4900     0.2090     6.7090     5.9030   -51.9360
  947.0000    96.8010    13.0650     2.4820     0.2060     6.7630     5.9760   -51.5800
  947.5000    97.1880    13.0640     2.4750     0.2020     6.8170     6.0480   -51.3830
  948.0000   100.4090    13.0620     2.4670     0.1990     6.8710     6.1200   -51.4120
  948.5000   107.8770    13.0610     2.4740     0.1990     6.9250     6.1920   -51.3880
  949.0000   105.5610    13.0600     2.4820     0.2040     6.9790     6.2650   -51.5340
  949.5000   104.5430    13.0590     2.4910     0.2090     7.0330     6.3080   -51.8000
  950.0000   103.5530    13.0570     2.4980     0.2130     7.0870     6.3530   -52.0420
  950.5000   102.8040    13.0560     2.5060     0.2130     7.1410     6.4290   -52.2870
  951.0000   101.1490    13.0550     2.4970     0.2130     7.1950     6.5050   -52.5350
  951.5000    98.1710    13.0540     2.4950     0.2130     7.2490     6.5810   -52.7860
