~VERSION INFORMATION
 VERS.                2.0:   CWLS LOG ASCII STANDARD - VERSION 2.0
 WRAP.                 NO:   ONE LINE PER DEPTH STEP
~WELL INFORMATION
#MNEM.UNIT      DATA TYPE    INFORMATION
#----------   ------------   ------------------------------
 STRT.F           50.0000:   START DEPTH
 STOP.F         3270.0000:   STOP DEPTH
 STEP.F            0.5000:   STEP LENGTH
 NULL.          -999.2500:   NO VALUE
 COMP.   LAWRENCE ALLISON:   COMPANY
 WELL. LAWRENCE NPR 3 "AX" #12-11:   WELL
 FLD .                NPR:   FIELD
 LOC .      S11 T38N R78W:   LOCATION
 CNTY.            NATRONA:   COUNTY
 STAT.            WYOMING:   STATE
 CTRY. UNITED STATES OF AMERICA:   COUNTRY
 SRVC.      DRESSER ATLAS:   SERVICE COMPANY
 DATE.        18-JUL-1985:   LOGDATE
 API .     49025110460000:   API NUMBER
~CURVE INFORMATION
#MNEM.UNIT       API CODE    CURVE DESCRIPTION
#----------   ------------   ------------------------------
 DEPT.F                  :   
 TEND.LBS    45 635 01 00:   TENSION FROM DENSITY LOG
 RHOB.G/C3   45 350 01 00:   BULK DENSITY
 CORR.G/C3   45 356 01 00:   DENSITY CORRECTION
 NPHI.DEC    42 890 03 00:   NEUTRON POROSITY SANDSTONE
 TENR.LBS    07 635 01 00:   TENSION
 GRR .GAPI   07 310 01 00:   GAMMA RAY FROM RESISTIVITY
 RFOC.OHMM   07 220 01 00:   RESISTIVITY FOCUSED LOG RES.
 RILD.OHMM   07 120 46 00:   INDUCTION LOG DEEP RESISTIVITY
 RILM.OHMM   07 120 44 00:   INDUCTION LOG MEDIUM RESISTIVITY
 SN  .OHMM   01 040 00 00:   SHORT NORMAL
 ILD .OHMM   07 120 46 00:   INDUCTION LOG DEEP RESISTIVITY
 TENS.LBS    60 635 01 00:   TENSION FROM SONIC LOG
 DT  .US/F   60 520 00 00:   DELTA TIME
 SPR .MV     07 010 01 00:   SPONTANEOUS POTENTIAL
~PARAMETER INFORMATION
#MNEM.UNIT          VALUE    DESCRIPTION
#----------   ------------   ------------------------------
 EKB .F         5152.0000:   Kelly bushing
 EGL .F         5140.0000:   Ground level
 EDF .F            0.0000:   Drilling floor
 TD  .F         3271.0000:   Total depth
 DATE.        18-JUL-1985:   Date logged
 CLNT.            A2DTECH:   Client Code
 SL  . 1050' FNL & 150' FWL:   Surface Location
 PD  .                 GL:   Permanent Datum
 EPD .F              5140:   Elevation Permanent Datum
 LMF .                 KB:   Log Measured From
 DMF .                 KB:   Drilling Measured From
 DAPD.F                12:   Feet Above Permanent Datum
 DD  .F              3271:   Depth driller
 DL  .F              3262:   Depth logger
 BLI .F              3259:   Bottom log interval
 CS1 .IN            8.625:   Casing size
 CBD1.      8.625" @ 560':   Casing driller 1
 CBL1.F               560:   Casing logger 1
 BS1 .IN            7.875:   Bit size
 BSD1.F              3271:   Depth drilled with bit1
 DFT .            GEL/KCL:   Type fluid in hole
 DFD .                8.8:   Density
 DFV .                 40:   Viscosity
 DFPH.                  8:   pH
 DFL .                  8:   Fluid loss
 MSS .           MUD/TANK:   Source of sample
 RMS .OHMM            .31:   Rm
 MST .F                82:   Rm Meas. temp.
 RMF .OHMM            .25:   Rmf
 MFST.F                82:   Rmf Meas. temp.
 RMC .OHMM            .39:   Rmc
 MCST.F                82:   Rmc Meas. temp.
 MFSS.               MEAS:   Source Rmf.
 MCSS.               CALC:   Source Rmc.
 RMB .OHMM           .198:   Rm. at BHT
 BHT .F               128:   BHT.
 TCS .HRS               3:   Time Circ. stopped
 MRT .F               128:   Maximum recorded temp.
 LUN .            HL-6274:   Logging unit number
 LUL .           GILLETTE:   Logging unit location
 ENGI.             RAUTIO:   Recorded By
 WITN.             STRONG:   Witnessed by
 ORIG.           5" PRINT:   Origin of data
 UWI .     49025110460000:   Unique Well ID
 DICO. A2D TECHNOLOGIES, INC.:   Digitizing Company
~OTHER INFORMATION
~A   DEPT     TEND       RHOB       CORR       NPHI       TENR        GRR       RFOC       RILD       RILM           SN        ILD     TENS         DT         SPR  
# ...
 2353.0000   -68.0960     2.5420    -0.0100     0.2860   -74.2300    97.4190     4.6310     4.5270     4.4180  -999.2500  -999.2500   -75.2030    87.3970    54.9390
 2353.5000   -65.7580     2.5350    -0.0100     0.2850   -74.3570    97.0280     4.8470     4.4360     4.3050  -999.2500  -999.2500   -75.0540    86.8310    54.9800
 2354.0000   -63.4210     2.5150    -0.0090     0.2800   -74.4850    95.9290     5.1380     4.4630     4.1140  -999.2500  -999.2500   -74.9050    86.2660    55.0210
 2354.5000   -61.0840     2.4850     0.0040     0.2580   -74.6120    94.6130     4.9140     4.4770     3.9730  -999.2500  -999.2500   -74.7550    85.7740    55.0620
 2355.0000   -58.7470     2.4600     0.0230     0.2520   -74.7390    94.2490     4.4340     4.5430     4.1630  -999.2500  -999.2500   -74.6060    85.8370    55.1030
 2355.5000   -56.4100     2.4740     0.0290     0.2570   -74.8660    98.0930     3.9540     4.6200     4.3070  -999.2500  -999.2500   -74.4560    86.0290    55.1450
 2356.0000   -56.6280     2.5060     0.0220     0.2590   -74.9940   102.7950     3.6920     4.6970     4.4520  -999.2500  -999.2500   -74.3070    86.3650    55.1860
 2356.5000   -57.4390     2.5380     0.0140     0.2490   -75.1210   102.4830     4.4010     4.7740     4.6020  -999.2500  -999.2500   -74.1580    85.5640    55.2270
 2357.0000   -58.2490     2.5490     0.0060     0.2480   -75.2480   100.0500     4.9660     4.8510     4.7650  -999.2500  -999.2500   -74.0080    84.6970    55.2680
 2357.5000   -59.0600     2.5480    -0.0020     0.2500   -75.3750    97.5130     5.7000     5.0100     4.9200  -999.2500  -999.2500   -73.8590    83.8300    55.3090
 2358.0000   -59.8700     2.5430    -0.0100     0.2520   -75.5020    96.5970     5.5660     5.1840     5.0760  -999.2500  -999.2500   -73.7090    83.1430    55.3500
 2358.5000   -60.6800     2.5380    -0.0150     0.2480   -75.5230    97.8660     5.2980     5.3580     5.2310  -999.2500  -999.2500   -73.5600    83.6420    55.3910
 2359.0000   -61.4910     2.5310    -0.0210     0.2510   -73.8720    99.3170     5.0450     5.5330     5.3870  -999.2500  -999.2500   -73.4110    84.1410    55.4340
 2359.5000   -62.3010     2.5230    -0.0200     0.2540   -71.8860    99.7130     5.1870     5.7070     5.5420  -999.2500  -999.2500   -73.2610    84.4570    55.5280
 2360.0000   -63.1120     2.5170    -0.0110     0.2540   -69.9000    98.5810     5.3600     5.8730     5.6360  -999.2500  -999.2500   -73.1120    84.4110    55.8800
 2360.5000   -63.9220     2.5200    -0.0030     0.2440   -67.9140    97.4560     5.5300     5.9380     5.6550  -999.2500  -999.2500   -72.9620    84.4050    56.2270
 2361.0000   -64.7330     2.5230     0.0010     0.2460   -65.9280    96.6540     5.5300     5.9880     5.6730  -999.2500  -999.2500   -72.8130    84.6310    56.5700
 2361.5000   -65.5430     2.5220     0.0000     0.2500   -65.7810    96.0490     5.6010     6.0380     5.7270  -999.2500  -999.2500   -72.6640    84.8710    56.8630
 2362.0000   -65.9200     2.5180     0.0020     0.2520   -66.0610    95.4090     5.6880     6.0880     5.7900  -999.2500  -999.2500   -72.5140    84.6680    56.5610
 2362.5000   -65.9200     2.5150    -0.0030     0.2520   -66.3420    93.7440     5.7760     6.1170     5.8700  -999.2500  -999.2500   -72.3650    84.4540    56.2160
 2363.0000   -65.9200     2.5120    -0.0080     0.2630   -66.6220    93.3180     5.8630     6.0080     5.8970  -999.2500  -999.2500   -72.2150    84.2400    55.8740
 2363.5000   -65.9200     2.5130    -0.0130     0.2740   -66.9030    94.7520     5.9510     5.8260     5.5540  -999.2500  -999.2500   -72.0660    84.0270    56.0370
 2364.0000   -65.9200     2.5190    -0.0140     0.2820   -67.1830    96.8740     6.0330     5.6430     5.2680  -999.2500  -999.2500   -71.9170    84.2250    57.0240
 2364.5000   -65.9200     2.5260    -0.0030     0.2730   -67.4640    98.9010     6.0620     5.4610     4.9820  -999.2500  -999.2500   -71.7670    84.5720    57.9030
 2365.0000   -65.9200     2.5250     0.0070     0.2650   -67.7450    97.5250     5.8850     5.2780     4.8100  -999.2500  -999.2500   -71.6180    85.1180    58.0430
 2365.5000   -65.9200     2.5200     0.0190     0.2630   -68.0250    96.0100     5.5720     5.0910     4.7670  -999.2500  -999.2500   -71.4680    86.2670    58.1390
 2366.0000   -65.9200     2.5210     0.0100     0.2610   -68.3060    95.9190     4.9970     5.1140     4.7310  -999.2500  -999.2500   -71.3190    87.0980    58.2280
 2366.5000   -65.9200     2.5280    -0.0070     0.2560   -68.5860   101.3710     4.5180     5.1380     5.1380  -999.2500  -999.2500   -71.1700    87.9580    58.3150
 2367.0000   -65.9200     2.5360    -0.0090     0.2500   -68.8670   102.7540     4.5180     5.0620     5.1160  -999.2500  -999.2500   -71.0200    87.7180    58.4030
 2367.5000   -65.9200     2.5430    -0.0120     0.2590   -69.1470   102.2180     5.2160     4.9290     5.0220  -999.2500  -999.2500   -70.8710    86.2210    58.4910
 2368.0000   -65.9200     2.5500    -0.0090     0.2700   -69.4280   101.6540     6.1740     4.7960     4.8300  -999.2500  -999.2500   -70.7210    85.3450    58.5790
 2368.5000   -65.9200     2.5460    -0.0060     0.2790   -69.7080   102.8430     6.0070     4.6020     4.6380  -999.2500  -999.2500   -70.5720    85.0990    58.6670
 2369.0000   -65.9200     2.5380    -0.0020     0.2690   -69.9890   105.4130     5.5340     4.6810     4.4360  -999.2500  -999.2500   -70.4230    85.8580    58.7540
 2369.5000   -65.9200     2.5290     0.0010     0.2610   -70.2690   107.2690     5.0610     4.7870     4.5020  -999.2500  -999.2500   -70.2730    87.0550    58.8290
 2370.0000   -65.9200     2.5220     0.0050     0.2530   -70.5500   106.3220     4.5880     4.8930     4.5810  -999.2500  -999.2500   -70.1240    88.2530    58.8300
 2370.5000   -65.9200     2.5340     0.0090     0.2430   -70.8300   105.4250     4.0840     4.9990     4.7320  -999.2500  -999.2500   -69.9740    88.6550    58.8290
 2371.0000   -65.9200     2.5470     0.0110     0.2320   -71.1110   105.5510     4.1980     5.1360     4.8820  -999.2500  -999.2500   -69.8250    87.5860    58.8290
 2371.5000   -65.9200     2.5600     0.0070     0.2370   -71.3910   104.2170     4.7960     5.4610     5.1260  -999.2500  -999.2500   -69.6750    86.4970    58.8290
 2372.0000   -65.9200     2.5660     0.0040     0.2470   -71.6720   101.5590     5.5080     5.7050     5.4070  -999.2500  -999.2500   -69.5260    85.4090    58.8290
 2372.5000   -64.8080     2.5680     0.0000     0.2560   -71.9520    99.8200     6.2200     5.9500     5.6450  -999.2500  -999.2500   -69.3770    84.3200    58.8400
 2373.0000   -63.6260     2.5700     0.0050     0.2610   -72.2330   100.0900     6.7680     6.1810     5.8830  -999.2500  -999.2500   -69.2270    83.9330    58.9210
 2373.5000   -62.4440     2.5660     0.0200     0.2620   -72.5130    99.5880     6.7280     6.2380     6.0370  -999.2500  -999.2500   -69.0780    84.3540    59.0040
 2374.0000   -61.2610     2.5610     0.0210     0.2630   -72.7940    98.3650     6.6510     6.2950     6.0970  -999.2500  -999.2500   -68.9280    85.0070    59.0850
 2374.5000   -60.0790     2.5570     0.0240     0.2600   -73.0740    97.1920     6.5740     6.3390     6.1740  -999.2500  -999.2500   -68.7790    85.6550    59.1620
 2375.0000   -58.8970     2.5490     0.0080     0.2570   -73.3550    97.8980     6.4970     6.2680     6.1030  -999.2500  -999.2500   -68.6300    86.0990    59.2620
 2375.5000   -57.7140     2.5390     0.0030     0.2540   -73.6350    98.8950     6.4200     6.1960     6.0020  -999.2500  -999.2500   -68.4800    86.3650    60.0110
 2376.0000   -56.5320     2.5240    -0.0060     0.2510   -73.9160    99.9430     6.3430     6.1250     5.9510  -999.2500  -999.2500   -68.3310    86.3650    60.7170
 2376.5000   -55.3500     2.5090    -0.0240     0.2490   -74.1960    99.3440     6.2880     6.1860     5.9730  -999.2500  -999.2500   -68.1810    85.8990    60.9770
 2377.0000   -54.1670     2.5060    -0.0340     0.2480   -74.4770    98.1310     6.3840     6.2640     6.0480  -999.2500  -999.2500   -68.0320    85.4360    60.1210
