~VERSION INFORMATION
 VERS.                2.0:   CWLS LOG ASCII STANDARD - VERSION 2.0
 WRAP.                 NO:   ONE LINE PER DEPTH STEP
~WELL INFORMATION
#MNEM.UNIT      DATA TYPE    INFORMATION
#----------   ------------   ------------------------------
 STRT.F          200.0000:   START DEPTH
 STOP.F         3135.5000:   STOP DEPTH
 STEP.F            0.5000:   STEP LENGTH
 NULL.          -999.2500:   NO VALUE
 COMP.    FENOX & SCISSON:   COMPANY
 WELL. FENIX NPR 23 "AX" #3-11:   WELL
 FLD .                NPR:   FIELD
 LOC .      S11 T38N R78W:   LOCATION
 CNTY.            NATRONA:   COUNTY
 STAT.            WYOMING:   STATE
 CTRY. UNITED STATES OF AMERICA:   COUNTRY
 SRVC.       SCHLUMBERGER:   SERVICE COMPANY
 DATE.        06-NOV-1977:   LOGDATE
 API .     49025104320000:   API NUMBER
~CURVE INFORMATION
#MNEM.UNIT       API CODE    CURVE DESCRIPTION
#----------   ------------   ------------------------------
 DEPT.F                  :   
 CALD.IN     45 280 60 00:   CALIPER FROM DENSITY LOG
 GRD .GAPI   45 310 01 00:   GAMMA RAY FROM DENSITY LOG
 RHOB.G/C3   45 350 01 00:   BULK DENSITY
 CORR.G/C3   45 356 01 00:   DENSITY CORRECTION
 SPR .MV     07 010 01 00:   SPONTANEOUS POTENTIAL
 LL8 .OHMM   07 220 08 00:   LATEROLOG-8 RES.
 ILD .OHMM   07 120 46 00:   DEEP INDUCTION RESISTIVITY
 ILM .OHMM   07 120 44 00:   INDUCTION LOG MEDIUM RESISTIVITY
~PARAMETER INFORMATION
#MNEM.UNIT          VALUE    DESCRIPTION
#----------   ------------   ------------------------------
 EKB .F         5176.0000:   Kelly bushing
 EGL .F         5171.0000:   Ground level
 TD  .F         3138.0000:   Total depth
 DATE.        06-NOV-1977:   Date logged
 CLNT.            A2DTECH:   Client Code
 SL  . 1650' FNL & 750' FWL:   Surface Location
 PD  .                 GL:   Permanent Datum
 EPD .F              5171:   Elevation Permanent Datum
 LMF .                 KB:   Log Measured From
 DMF .                 KB:   Drilling Measured From
 DAPD.F                 5:   Feet Above Permanent Datum
 DD  .F              3138:   Depth driller
 DL  .F              3135:   Depth logger
 BLI .F              3134:   Bottom log interval
 TLI .F               196:   Top log interval
 CS1 .IN            8.625:   Casing size
 CBD1.      8.625" @ 205':   Casing driller 1
 CBL1.F               205:   Casing logger 1
 BS1 .IN            7.875:   Bit size
 BSD1.F              3138:   Depth drilled with bit1
 DFT .            KCL/MUD:   Type fluid in hole
 DFD .                8.8:   Density
 DFV .                 34:   Viscosity
 DFPH.                 11:   pH
 DFL .                  6:   Fluid loss
 MSS .            MUD/PIT:   Source of sample
 RMS .OHMM           0.27:   Rm
 MST .F                48:   Rm Meas. temp.
 RMF .OHMM           0.29:   Rmf
 MFST.F                48:   Rmf Meas. temp.
 RMC .OHMM           0.39:   Rmc
 MCST.F                48:   Rmc Meas. temp.
 MFSS.               MEAS:   Source Rmf.
 MCSS.               CALC:   Source Rmc.
 RMB .OHMM           0.12:   Rm. at BHT
 BHT .F               104:   BHT.
 TCS .HRS            1500:   Time Circ. stopped
 TLAB.HRS            1930:   Time logger at bottom
 MRT .F               104:   Maximum recorded temp.
 LUN .               7711:   Logging unit number
 LUL .               CSPR:   Logging unit location
 ENGI.       CRAIG/SAYLER:   Recorded By
 WITN.         PETTINGILL:   Witnessed by
 ORIG.           5" PRINT:   Origin of data
 UWI .     49025104320000:   Unique Well ID
 DICO. A2D TECHNOLOGIES, INC.:   Digitizing Company
~OTHER INFORMATION
~A   DEPT     CALD        GRD       RHOB       CORR        SPR        LL8        ILD        ILM   
# ...
 2711.0000     8.3760    64.2543     2.4822     0.0160    -4.8366    42.7010    11.1713    14.9886
 2711.5000     8.3964    66.3671     2.4997     0.0120    -5.4284    61.0473    11.3826    12.7087
 2712.0000     8.3766    70.5884     2.5288     0.0040    -5.6210    31.8123    11.3860     9.6524
 2712.5000     8.3970    72.0997     2.5178     0.0120    -6.2300    16.0414    11.4938     9.4778
 2713.0000     8.3973    72.1041     2.5058     0.0150    -6.8390    11.9705    11.1855     9.2231
 2713.5000     8.3973    70.6026     2.4527     0.0200    -7.4013    11.8649    10.5904     8.8118
 2714.0000     8.4582    70.0047     2.3997     0.0020    -7.5939    12.3106    10.5923     9.2671
 2714.5000     8.4183    70.9127     2.4017     0.0050    -7.7880    12.6580    10.4020     9.2705
 2715.0000     8.3985    72.4232     2.4407     0.0191    -8.5803    12.6595    10.3107     9.7089
 2715.5000     8.3988    74.2348     2.4478     0.0211    -9.1738    12.3224    10.3138     9.9823
 2716.0000     8.3991    75.7453     2.4498     0.0151    -9.5669    12.3261    10.5082    10.1693
 2716.5000     8.3994    77.8581     2.4498     0.0161    -9.9599    12.4432    10.6083    10.2665
 2717.0000     8.4197    78.4658     2.4468     0.0231   -10.5530    12.6770    10.7094    10.3641
 2717.5000     8.4201    77.8670     2.4428     0.0241   -10.5452    12.7975    10.7127    10.4626
 2718.0000     8.4003    78.7733     2.4398     0.0191   -10.3374    12.6847    10.7159    10.3704
 2718.5000     8.3821    82.3956     2.4398     0.0211    -9.7282    12.5721    10.7192    10.2765
 2719.0000     8.3607    83.3028     2.4528     0.0252    -9.1139    12.2358    10.6244    10.1883
 2719.5000     8.3811    83.0061     2.4518     0.0212    -9.1107    12.1280    10.5305    10.0985
 2720.0000     8.3412    79.3962     2.4448     0.0092    -9.3049    12.5849    10.1538     9.4739
 2720.5000     8.4018    79.0994     2.4328     0.0102    -9.6969    12.2476    10.0634     9.0532
 2721.0000     8.4222    81.2123     2.4389     0.0182   -10.2904    11.5964     9.8839     8.9712
 2721.5000     8.3823    82.7227     2.4639     0.0242   -10.8840    11.0399     9.8869     8.9761
 2722.0000     8.4228    85.4379     2.4507     0.0202   -11.0767    11.6034    10.3007     8.9788
 2722.5000     8.4231    86.0448     2.4374     0.0172   -11.8707    11.5011    10.4949     8.9799
 2723.0000     8.4234    84.8445     2.4319     0.0162   -12.4643    10.7503    10.4030     8.9024
 2723.5000     8.4438    83.0417     2.4497     0.0202   -13.0579    10.9931    10.2167     8.9029
 2724.0000     8.4441    82.1426     2.4639     0.0162   -13.6516    11.6174    10.0343     8.9892
 2724.5000     8.4645    83.3519     2.4429     0.0072   -14.6415    11.6223     9.9453     8.9930
 2725.0000     8.4848    85.7668     2.4359     0.0073   -14.8388    10.6074     9.8179     8.9946
 2725.5000     8.5052    88.1808     2.4399     0.0113   -15.4325    10.1883     9.7305     9.2479
 2726.0000     8.5256    92.1038     2.4249     0.0123   -16.0262    11.7384     9.6445     9.3364
 2726.5000     8.5660    91.8053     2.4179     0.0013   -16.6198    11.7419     9.6480     9.3392
 2727.0000     8.5864    89.0990     2.4190     0.0073   -17.6145    11.5316     9.6509     9.4274
 2727.5000     8.6068    83.9819     2.4260     0.0093   -17.6068    11.3265     9.6539     9.4314
 2728.0000     8.6272    81.2756     2.4340     0.0133   -18.2005    11.3299     9.6085     9.5198
 2728.5000     8.6476    81.8825     2.4400     0.0193   -19.3957    11.4376     9.6097     9.6097
 2729.0000     8.6680    83.0908     2.4440     0.0254   -20.1899    11.7596     9.6144     9.6144
 2729.5000     8.6683    85.5057     2.4573     0.0234   -21.1826    12.5424     9.7950     9.7057
 2730.0000     8.6686    85.8114     2.4706     0.0134   -21.3769    13.0141     9.9784     9.5325
 2730.5000     8.6689    86.4182     2.4839     0.0134   -22.3722    12.4356     9.8910     9.4485
 2731.0000     8.6893    88.2299     2.5061     0.0134   -22.9660    11.4569    10.0769     9.0285
 2731.5000     8.6896    87.6328     2.5001     0.0134   -23.5598    10.9047    10.0799     9.0312
 2732.0000     8.6899    85.5289     2.4461     0.0124   -24.5547    10.5147     9.6808     9.0328
 2732.5000     8.6701    88.2441     2.4231     0.0054   -25.1485    10.5179     9.4201     9.2037
 2733.0000     8.6704    92.1641     2.4221     0.0014   -26.1418    11.4693     9.2515     9.6376
 2733.5000     8.6707    95.4818     2.4231    -0.0026   -26.9378    11.9007     9.7790     9.8193
 2734.0000     8.6710    96.3898     2.4411     0.0024   -28.1332    12.8088     9.7808     9.8223
 2734.5000     8.6512    95.1895     2.4561     0.0044   -28.7271    13.4127     9.9657     9.9156
 2735.0000     8.6916    92.4850     2.4642     0.0045   -29.5215    13.1733     9.9687     9.9186
 2735.5000     8.6919    90.9817     2.4742     0.0035   -30.1154    11.9150     9.9723     9.8306
 2736.0000     8.6923    90.0825     2.4672     0.0095   -31.1104    11.0769     9.9747     9.9246
 2736.5000     8.6926    88.2798     2.4622     0.0195   -31.9049    11.2850     9.7061    10.4894
 2737.0000     8.6929    91.2962     2.4632     0.0155   -32.4988    12.0354     9.7096    10.3541
 2737.5000     8.6731    97.0261     2.4682     0.0105   -33.2933    12.7188     9.7132    10.4527
 2738.0000     8.6935    97.0288     2.4762     0.0015   -33.8873    13.3192     9.7155    10.4775
 2738.5000     8.6938    94.3225     2.4792     0.0015   -34.2808    13.2018     9.8087    10.5022
 2739.0000     8.6941    93.1221     2.4733     0.0135   -34.4738    12.7310     9.8117    10.5271
 2739.5000     8.7144    93.1266     2.4663     0.0085   -34.8673    12.2770     9.8146    10.5520
 2740.0000     8.6949    93.1311     2.4613     0.0026   -35.2607    11.5185     9.9081    10.5769
 2740.5000     8.6950    91.6295     2.4593     0.0076   -35.6542    11.4169    10.0044    10.6019
 2741.0000     8.6953    90.1280     2.4653     0.0246   -36.0462    11.6314     9.9129    10.6270
 2741.5000     8.6956    91.3373     2.4713     0.0336   -36.2392    12.2918     9.9165    10.6521
 2742.0000     8.6959    94.6549     2.4823     0.0066   -36.6327    12.6378     9.7391    10.6767
 2742.5000     8.6962    98.5749     2.4753     0.0056   -37.8054    12.8751     9.7426    10.5325
 2743.0000     8.6965   100.6877     2.4823     0.0096   -38.2220    12.9967     9.7462    10.3903
 2743.5000     8.6767   101.5967     2.4884     0.0126   -38.6156    12.6791     9.6600    10.2500
 2744.0000     8.6570   100.9987     2.4924     0.0096   -39.4102    11.9768     9.5741    10.1115
 2744.5000     8.6573    99.4972     2.4834     0.0066   -39.6033    11.6559     9.4028     9.9750
 2745.0000     8.6576    97.6945     2.4754     0.0057   -40.3980    11.6594     9.3197     9.8480
 2745.5000     8.6579    96.4942     2.4674     0.0047   -40.7916    11.9876     9.0693     9.9823
 2746.0000     8.6582    97.1010     2.4684     0.0087   -41.7868    11.9489     8.9076     9.6264
 2746.5000     8.6585   100.7198     2.4764     0.0137   -42.3810    11.5216     8.2417     9.3685
 2747.0000     8.6588   104.9410     2.4854     0.0117   -43.1758    11.2114     7.8695     8.8716
 2747.5000     8.6591   107.6571     2.4874     0.0047   -43.7700    10.8519     7.6988     8.4758
 2748.0000     8.6594   106.4559     2.4914     0.0077   -44.9659    10.2757     7.6299     8.1726
 2748.5000     8.6597   105.2556     2.4965     0.0137   -45.1590    10.0924     7.4929     7.3939
 2749.0000     8.6600   105.8625     2.4995     0.0157   -46.1544     9.7817     6.9650     7.3957
 2749.5000     8.6603   106.1654     2.4995     0.0118   -46.9492     9.8743     6.9034     6.5680
 2750.0000     8.6807   115.5319     2.5035     0.0078   -47.5435     9.0116     6.7799     6.1058
 2750.5000     8.6810   123.3461     2.5065     0.0108   -49.1407     7.3660     6.6586     5.6761
 2751.0000     8.7102   124.2541     2.5025     0.0178   -49.7350     6.0765     6.5998     5.4737
