~VERSION INFORMATION
 VERS.                2.0:   CWLS LOG ASCII STANDARD - VERSION 2.0
 WRAP.                 NO:   ONE LINE PER DEPTH STEP
~WELL INFORMATION
#MNEM.UNIT      DATA TYPE    INFORMATION
#----------   ------------   ------------------------------
 STRT.F           41.0000:   START DEPTH
 STOP.F          925.0000:   STOP DEPTH
 STEP.F            0.5000:   STEP LENGTH
 NULL.          -999.2500:   NO VALUE
 COMP. LAWRENCE ALLISON & ASSOCIATION:   COMPANY
 WELL. LAWRENCE ALLISON #48-2:   WELL
 FLD .       N.P.R. NO. 3:   FIELD
 LOC .       S2 T38N R78W:   LOCATION
 CNTY.            NATRONA:   COUNTY
 STAT.            WYOMING:   STATE
 CTRY. UNITED STATES OF AMERICA:   COUNTRY
 SRVC.       SCHLUMBERGER:   SERVICE COMPANY
 DATE.        06-SEP-1982:   LOGDATE
 API .     49025109110000:   API NUMBER
~CURVE INFORMATION
#MNEM.UNIT       API CODE    CURVE DESCRIPTION
#----------   ------------   ------------------------------
 DEPT.F                  :   
 ILM .OHMM   07 120 44 00:   INDUCTION LOG MEDIUM RESISTIVITY
 ILD .OHMM   07 120 46 00:   DEEP INDUCTION RESISTIVITY
 CALD.IN     45 280 60 00:   CALIPER FROM DENSITY LOG
 GRD .GAPI   45 310 01 00:   GAMMA RAY FROM DENSITY LOG
 TEND.LBS    45 635 01 00:   TENSION FROM DENSITY LOG
 CORR.G/C3   45 356 01 00:   DENSITY CORRECTION
 RHOB.G/C3   45 350 01 00:   BULK DENSITY
 NPHI.DEC    42 890 03 00:   NEUTRON POROSITY SANDSTONE
~PARAMETER INFORMATION
#MNEM.UNIT          VALUE    DESCRIPTION
#----------   ------------   ------------------------------
 EKB .F         5192.0000:   Kelly bushing
 EGL .F         5182.0000:   Ground level
 TD  .F          920.0000:   Total depth
 CLNT.            A2DTECH:   Client Code
 DATE.         6-SEP-1982:   Date Logged [DD-MMM-YYYY]
 DD  .F               920:   Depth driller
 DL  .F               918:   Depth logger
 BLI .F               908:   Bottom log interval
 TLI .F                49:   Top log interval
 CBL1.IN               49:   Casing logger 1
 BSD1.F               920:   Depth drilled with bit1
 DFT .                AIR:   Type fluid in hole
 TCS .HRS            0730:   Time Circ. stopped
 TLAB.HRS            0900:   Time logger at bottom
 LUN .               8035:   Logging unit number
 LUL .               CSPR:   Logging unit location
 ENGI.              PENNY:   Recorded By
 WITN.           JENNINGS:   Witnessed by
 ORIG.           5" PRINT:   Origin of data
 UWI .     49025109110000:   Unique Well ID
 DICO. A2D TECHNOLOGIES, INC.:   Digitizing Company
 PD  .                 GL:   Permanent Datum
 EPD .               5180:   Elevation Permanent Datum
 LMF .                 KB:   Log Measured From
 DMF .                 KB:   Drilling Measured From
 DAPD.                 10:   Feet Above Permanent Datum
~OTHER INFORMATION
~A   DEPT      ILM        ILD       CALD         GRD      TEND       CORR       RHOB       NPHI   
# ...
  851.0000    11.7871    11.9375    12.6019    76.1425   679.7346     0.0632     2.4041     0.2635
  851.5000    11.3083    11.6105    12.6029    79.4785   679.5836     0.0514     2.3986     0.2582
  852.0000    10.6989    11.4512    12.6039    75.9311   663.9766     0.0443     2.3940     0.2538
  852.5000    10.2644    11.2940    12.6050    75.7180   663.8256     0.0419     2.3917     0.2588
  853.0000     9.9857    11.0616    12.5910    76.6166   663.6745     0.0411     2.3941     0.2622
  853.5000    10.3431    10.9097    12.5923    77.2911   648.0675     0.0411     2.4080     0.2609
  854.0000    10.6390    10.9116    12.6081    77.3020   647.9133     0.0419     2.4119     0.2615
  854.5000    10.6426    10.8368    12.6239    77.0916   632.3030     0.0426     2.4111     0.2699
  855.0000    10.4869    10.7629    12.6249    76.2175   632.1207     0.0458     2.4150     0.2733
  855.5000    10.1438    10.7647    12.6259    74.0160   631.9697     0.0505     2.4236     0.2701
  856.0000     9.9365    10.7662    12.6269    72.2570   647.3123     0.0536     2.4204     0.2627
  856.5000     9.8708    10.6928    12.6427    71.8254   647.1235     0.0520     2.4158     0.2603
  857.0000     9.8056    10.6199    12.6585    72.5172   646.9725     0.0481     2.4142     0.2640
  857.5000     9.8098    10.5474    12.6743    74.3698   646.8214     0.0441     2.4142     0.2670
  858.0000     9.8131    10.6231    12.6753    79.8612   646.6704     0.0402     2.4166     0.2674
  858.5000     9.8851    10.6245    12.6763    78.9512   646.5193     0.0378     2.4251     0.2680
  859.0000    10.0974    10.4783    12.6776    75.8647   646.3678     0.0441     2.4360     0.2720
  859.5000    10.1015    10.4069    12.6786    70.3446   646.2133     0.0566     2.4477     0.2760
  860.0000    10.1756    10.4087    12.6796    70.7979   646.0285     0.0621     2.4563     0.2782
  860.5000    10.1790    10.4101    12.6807    74.3486   630.4215     0.0630     2.4618     0.2736
  861.0000    10.1825    10.4118    12.6817    76.5718   630.2705     0.0605     2.4672     0.2676
  861.5000    10.1859    10.4132    12.6677    75.9190   630.1194     0.0581     2.4704     0.2695
  862.0000    10.1894    10.4146    12.6689    74.6024   629.9684     0.0564     2.4657     0.2729
  862.5000    10.1928    10.4160    12.6700    73.5071   629.8174     0.0548     2.4602     0.2704
  863.0000    10.1255    10.4175    12.6710    73.0752   614.2104     0.0518     2.4555     0.2639
  863.5000    10.1185    10.4189    12.6720    74.1925   629.5209     0.0502     2.4516     0.2592
  864.0000     9.9921    10.4203    12.6730    75.7522   629.3643     0.0478     2.4501     0.2607
  864.5000     9.9964    10.4217    12.6592    75.4857   629.2118     0.0470     2.4493     0.2626
  865.0000     9.9998    10.4234    12.5421    75.1101   629.0573     0.0470     2.4485     0.2617
  865.5000     9.9337    10.4248    12.5589    77.1148   628.8734     0.0478     2.4555     0.2597
  866.0000     9.9373    10.3535    12.6032    79.3381   628.7224     0.0525     2.4618     0.2570
  866.5000     9.8713    10.2833    12.6045    81.5613   628.5714     0.0556     2.4649     0.2530
  867.0000     9.8067    10.2128    12.6203    85.7757   628.4203     0.0540     2.4657     0.2495
  867.5000     9.7414    10.1434    12.6213    84.9016   628.2693     0.0524     2.4711     0.2483
  868.0000     9.6107     9.9346    12.6371    79.3815   628.1182     0.0603     2.4805     0.2520
  868.5000     9.4151     9.8571    12.6381    76.7375   627.9672     0.0627     2.4836     0.2619
  869.0000     9.2235     9.7996    12.6391    77.1908   627.8162     0.0453     2.4594     0.2699
  869.5000     9.0357     9.8012    12.6401    78.3079   627.6652     0.0273     2.4431     0.2743
  870.0000     8.9753     9.8712    12.6411    79.6462   627.5116     0.0224     2.4462     0.2736
  870.5000     9.0419     9.8725    12.6422    82.3162   627.3571     0.0294     2.4610     0.2721
  871.0000     9.1718     9.9430    12.6432    85.2523   627.1743     0.0496     2.4681     0.2724
  871.5000     9.1749     9.9444    12.6442    84.0201   627.0233     0.0562     2.4747     0.2733
  872.0000     9.2423    10.0153    12.6452    79.0286   626.8722     0.0594     2.4797     0.2717
  872.5000     9.2461    10.0170    12.6462    79.9245   626.7212     0.0633     2.4813     0.2696
  873.0000     9.2492    10.0184    12.6473    81.9265   626.5701     0.0664     2.4821     0.2662
  873.5000     9.2524    10.0197    12.6483    80.6099   626.4191     0.0546     2.4672     0.2637
  874.0000     9.2555     9.9511    12.6643    76.4172   610.8121     0.0459     2.4485     0.2646
  874.5000     9.3234     9.9528    12.6503    77.9768   610.6611     0.0412     2.4477     0.2652
  875.0000     9.3917     9.9541    12.6663    83.9611   610.5101     0.0389     2.4516     0.2652
  875.5000     9.3949     9.9554    12.6674    91.2728   610.3555     0.0365     2.4563     0.2684
  876.0000     9.3982     9.9504    12.6684    95.4872   610.1702     0.0333     2.4633     0.2711
  876.5000     9.4021     9.8889    12.6694    93.9494   610.0192     0.0380     2.4735     0.2686
  877.0000     9.4053     9.8218    12.6554    91.9691   609.8682     0.0474     2.4813     0.2611
  877.5000     9.3423     9.7545    12.6567    89.7530   609.7171     0.0584     2.4836     0.2577
  878.0000     9.2806     9.6206    12.6426    88.4040   609.5661     0.0647     2.4828     0.2583
  878.5000     9.2193     9.4886    12.6292    86.5730   609.4150     0.0702     2.4855     0.2611
  879.0000     9.1584     9.2936    12.6154    84.2719   609.2640     0.0734     2.4836     0.2654
  879.5000     9.0355     9.1023    12.6164    82.5129   609.1130     0.0701     2.4782     0.2691
  880.0000     8.9758     9.0402    12.6174    80.7538   608.9619     0.0544     2.4727     0.2682
  880.5000     8.9789     8.9165    12.6184    80.9859   608.8099     0.0434     2.4657     0.2633
  881.0000     8.9203     8.8555    12.6195    82.3242   608.6553     0.0371     2.4540     0.2577
  881.5000     8.8613     8.7954    12.6207    82.7776   608.4711     0.0363     2.4587     0.2580
  882.0000     8.8020     8.6746    12.6365    84.3371   608.3201     0.0402     2.4641     0.2654
  882.5000     8.6839     8.5555    12.6375    87.6666   608.1690     0.0378     2.4587     0.2784
  883.0000     8.5072     8.3211    12.6386    92.7659   608.0180     0.0347     2.4462     0.2870
  883.5000     8.2762     8.2045    12.6245    94.1231   607.8669     0.0339     2.4431     0.2821
  884.0000     8.1077     7.9824    12.6258    92.5664   607.7159     0.0394     2.4610     0.2762
  884.5000     7.9427     7.8726    12.6268    90.3251   607.5649     0.0645     2.4869     0.2734
  885.0000     7.7181     7.7105    12.6279    87.8537   607.4138     0.0723     2.4962     0.2734
  885.5000     7.2605     7.3956    12.6436    85.0769   622.7188     0.0652     2.5008     0.2758
  886.0000     6.8215     6.8981    12.6447    85.3117   638.0236     0.0597     2.5031     0.2795
  886.5000     6.2330     6.0848    12.6457    89.7473   640.1314     0.0628     2.5016     0.2842
  887.0000     5.4620     5.4809    12.6467    93.9617   653.1776     0.0661     2.4821     0.2919
  887.5000     4.7864     5.0005    12.6625    94.6336   652.9888     0.0701     2.4594     0.3058
  888.0000     4.2830     4.8016    12.6793    91.7711   637.3817     0.0753     2.4212     0.3430
  888.5000     4.1378     4.6703    12.7088    90.4545   637.2307     0.0588     2.3690     0.3863
  889.0000     4.0507     4.7036    12.6658    90.4654   621.6237     0.0408     2.3518     0.4040
  889.5000     4.1990     4.8713    12.6225    89.8125   621.4727     0.0243     2.3931     0.3826
  890.0000     4.8962     5.2240    12.6085    86.2835   621.3217     0.0266     2.4282     0.2940
  890.5000     5.3622     5.5246    12.6098    85.1880   621.1706     0.0337     2.4938     0.2674
  891.0000     5.7111     5.8020    12.6108    86.0869   621.0196     0.0368     2.4977     0.2596
