~VERSION INFORMATION
 VERS.                2.0:   CWLS LOG ASCII STANDARD - VERSION 2.0
 WRAP.                 NO:   ONE LINE PER DEPTH STEP
~WELL INFORMATION
#MNEM.UNIT      DATA TYPE    INFORMATION
#----------   ------------   ------------------------------
 STRT.F          620.0000:   START DEPTH
 STOP.F         4350.5000:   STOP DEPTH
 STEP.F            0.5000:   STEP LENGTH
 NULL.          -999.2500:   NO VALUE
 COMP.    FENIX & SCISSON:   COMPANY
 WELL. FENIX NPR 3 "LX" #25-10:   WELL
 FLD .                NPR:   FIELD
 LOC .      S10 T38N R78W:   LOCATION
 CNTY.            NATRONA:   COUNTY
 STAT.            WYOMING:   STATE
 CTRY. UNITED STATES OF AMERICA:   COUNTRY
 SRVC.              WELEX:   SERVICE COMPANY
 DATE.        06-MAR-1980:   LOGDATE
 API .     49025108070000:   API NUMBER
~CURVE INFORMATION
#MNEM.UNIT       API CODE    CURVE DESCRIPTION
#----------   ------------   ------------------------------
 DEPT.F                  :   
 CALD.IN     45 280 60 00:   CALIPER FROM DENSITY LOG
 GRD .GAPI   45 310 01 00:   GAMMA RAY FROM DENSITY LOG
 RHOB.G/C3   45 350 01 00:   BULK DENSITY
 CORR.G/C3   45 356 01 00:   DENSITY CORRECTION
 NPHI.DEC    42 890 03 00:   NEUTRON POROSITY SANDSTONE
 SPR .MV     07 010 01 00:   SPONTANEOUS POTENTIAL
 ILD .OHMM   07 120 46 00:   DEEP INDUCTION RESISTIVITY
 ILM .OHMM   07 120 44 00:   INDUCTION LOG MEDIUM RESISTIVITY
 SGRD.OHMM   07 220 05 00:   SHALLOW SHORT GUARD RESISTIVITY
~PARAMETER INFORMATION
#MNEM.UNIT          VALUE    DESCRIPTION
#----------   ------------   ------------------------------
 EKB .F         5247.0000:   Kelly bushing
 EGL .F         5237.0000:   Ground level
 EDF .F            0.0000:   Drilling floor
 TD  .F         4352.0000:   Total depth
 DATE.        06-MAR-1980:   Date logged
 CLNT.            A2DTECH:   Client Code
 SL  . 1075' FWL & 2450' FSL:   Surface Location
 PD  .                 GL:   Permanent Datum
 EPD .F              5237:   Elevation Permanent Datum
 LMF .                 KB:   Log Measured From
 DMF .                 KB:   Drilling Measured From
 DAPD.F                10:   Feet Above Permanent Datum
 DD  .F              4350:   Depth driller
 DL  .F              4352:   Depth logger
 BLI .F              4350:   Bottom log interval
 TLI .F               630:   Top log interval
 CS1 .IN            8.625:   Casing size
 CBD1.      8.625" @ 600':   Casing driller 1
 CBL1.F               632:   Casing logger 1
 BS1 .IN            7.875:   Bit size
 BSD1.F              4350:   Depth drilled with bit1
 DFT .           CHEM/GEL:   Type fluid in hole
 DFD .                8.9:   Density
 DFV .                 47:   Viscosity
 DFPH.               10.3:   pH
 DFL .                 10:   Fluid loss
 MSS .           FLOWLINE:   Source of sample
 RMS .OHMM            .89:   Rm
 MST .F                90:   Rm Meas. temp.
 RMF .OHMM            .71:   Rmf
 MFST.F                90:   Rmf Meas. temp.
 RMC .OHMM           1.06:   Rmc
 MCST.F                90:   Rmc Meas. temp.
 MFSS.               MEAS:   Source Rmf.
 MCSS.               MEAS:   Source Rmc.
 RMB .OHMM            .60:   Rm. at BHT
 BHT .F               112:   BHT.
 TCS .HRS               1:   Time Circ. stopped
 MRT .F               132:   Maximum recorded temp.
 LUN .               1892:   Logging unit number
 LUL .             CASPER:   Logging unit location
 ENGI.               REIN:   Recorded By
 WITN.           DINSMORE:   Witnessed by
 ORIG.           5" PRINT:   Origin of data
 UWI .     49025108070000:   Unique Well ID
 DICO. A2D TECHNOLOGIES, INC.:   Digitizing Company
~OTHER INFORMATION
~A   DEPT     CALD        GRD       RHOB       CORR       NPHI         SPR       ILD        ILM         SGRD 
# ...
 4014.5000     9.7500   108.1530     2.5800     0.2920     0.2390   -27.7770     3.4360     5.1980     7.8020
 4015.0000     9.7500   110.3460     2.5700     0.2930     0.2370   -27.8460     3.4080     5.0120     5.3640
 4015.5000     9.7500   111.5770     2.5640     0.2940     0.2370   -27.9160     3.3790     4.1660     5.2950
 4016.0000     9.7490   112.5630     2.5580     0.2970     0.2380   -27.9870     3.3510     4.1820     5.8070
 4016.5000     9.7640   115.5840     2.5530     0.3040     0.2390   -28.0570     3.2930     4.2300     5.2580
 4017.0000     9.7930   118.5590     2.5480     0.3110     0.2390   -28.1270     3.2110     4.0870     4.9640
 4017.5000     9.8210   119.4730     2.5460     0.3190     0.2390   -28.1970     3.1280     3.7290     4.7750
 4018.0000     9.8490   119.9720     2.5350     0.3280     0.2380   -28.2680     3.0450     3.7470     4.5680
 4018.5000     9.8770   119.0850     2.5260     0.3360     0.2380   -28.3380     2.9620     3.7980     4.5680
 4019.0000     9.9050   118.1750     2.5150     0.3580     0.2400   -28.4080     2.8800     3.6510     4.6270
 4019.5000     9.9330   117.9350     2.5080     0.3770     0.2430   -28.4790     2.7970     3.5180     4.6800
 4020.0000     9.9610   117.6560     2.5030     0.3980     0.2420   -28.5480     2.7140     3.3850     4.7400
 4020.5000     9.9890   119.9150     2.4990     0.4090     0.2410   -28.6200     2.6320     3.2520     4.3290
 4021.0000    10.0170   120.2880     2.4990     0.4110     0.2420   -28.6890     2.5490     3.1190     3.7980
 4021.5000    10.0450   118.4730     2.5010     0.4150     0.2420   -28.7580     2.4660     2.9850     3.6870
 4022.0000    10.0730   115.4660     2.5040     0.4180     0.2430   -28.8410     2.3840     2.8520     3.5570
 4022.5000    10.1040   112.5990     2.5080     0.4210     0.2430   -28.7960     2.3010     2.7250     3.4280
 4023.0000    10.0790   109.8890     2.5130     0.4180     0.2410   -28.5990     2.2180     2.6530     3.2770
 4023.5000    10.0240   107.7110     2.5160     0.4120     0.2390   -28.4230     2.1040     2.5840     3.2770
 4024.0000     9.9540   109.7250     2.5180     0.4060     0.2430   -28.2240     2.1120     2.5310     3.2770
 4024.5000    10.3000   111.6390     2.5170     0.4000     0.2490   -28.0600     2.1260     2.5560     3.5100
 4025.0000    10.1910   113.7960     2.5120     0.3940     0.2580   -27.8690     2.1390     2.6160     4.0150
 4025.5000     9.8330   114.9800     2.5070     0.3880     0.2550   -27.5690     2.1520     2.6770     4.1650
 4026.0000     9.7190   114.6880     2.5030     0.3830     0.2510   -27.0800     2.1650     2.7380     4.2430
 4026.5000     9.8250   113.3010     2.5010     0.3850     0.2470   -27.2760     2.1790     2.7820     3.9510
 4027.0000     9.8430   112.0040     2.4960     0.3900     0.2430   -27.3510     2.1920     2.8010     4.0070
 4027.5000    10.0740   110.6810     2.4930     0.3990     0.2390   -27.4590     2.2050     2.8200     4.0430
 4028.0000     9.9500   109.3530     2.4940     0.4080     0.2280   -27.5710     2.2190     2.8390     4.0800
 4028.5000     9.7940   108.0390     2.4940     0.4170     0.2140   -27.6710     2.2320     2.8580     4.0890
 4029.0000     9.8080   106.7120     2.4950     0.4150     0.1990   -27.7780     2.2450     2.8770     3.9920
 4029.5000     9.8290   105.3890     2.4950     0.4100     0.1820   -27.8840     2.2580     2.8950     3.8890
 4030.0000     9.8200   104.0890     2.4950     0.4060     0.1640   -27.9890     2.2720     2.9140     3.7980
 4030.5000     9.8090   102.7130     2.4950     0.3980     0.1470   -28.0930     2.2850     2.9330     4.0010
 4031.0000     9.7960   101.4860     2.4930     0.3790     0.1300   -28.2050     2.2980     2.9520     4.1660
 4031.5000     9.8260    99.5590     2.4940     0.3600     0.1090   -28.3260     2.3080     2.9710     4.2190
 4032.0000     9.9790    97.6480     2.4960     0.3410     0.0880   -28.4750     2.4230     2.9880     4.3220
 4032.5000    10.0360    91.8570     2.5090     0.3180     0.0740   -28.6290     2.5530     3.4840     5.4270
 4033.0000     9.9260    86.0440     2.5230     0.2870     0.0610   -28.7890     2.6820     4.0890     6.3680
 4033.5000     9.6470    78.3350     2.5440     0.2450     0.0490   -28.9390     2.8110     3.9930     6.4080
 4034.0000     9.5960    69.7170     2.5870     0.1730     0.0370   -29.0960     2.9330     3.7980     6.6080
 4034.5000     9.5450    58.6800     2.6040     0.1490     0.0500   -29.2620     3.5110     4.9320     9.2740
 4035.0000     9.5050    52.2790     2.5980     0.1480     0.0610   -29.3730     4.0580     6.6670    10.8770
 4035.5000     9.4690    51.3730     2.5910     0.1510     0.0800   -29.8540     4.6050     8.4030    50.4460
 4036.0000     9.4610    54.5600     2.5830     0.1570     0.1000   -30.5900     5.8010    10.1380    90.8020
 4036.5000     9.4520    57.1840     2.5810     0.1640     0.1040   -31.2620     7.8650    11.7330    87.0710
 4037.0000     9.4440    59.7550     2.5810     0.1690     0.1050   -31.9320     9.9290    12.8210    61.9240
 4037.5000     9.4350    62.7220     2.5860     0.1720     0.1060   -32.6660    11.9940    13.9100    41.8480
 4038.0000     9.4260    65.2200     2.5920     0.1710     0.1060   -33.0750    14.0580    14.9980    32.9200
 4038.5000     9.4180    68.0250     2.5970     0.1710     0.1100   -33.0220    16.1230    16.7760    34.1480
 4039.0000     9.4090    70.7130     2.5960     0.1650     0.1150   -33.0180    18.2370    20.3730    35.4430
 4039.5000     9.4000    73.5270     2.5980     0.1590     0.1190   -32.6550    19.4710    20.1980    33.9170
 4040.0000     9.3930    76.0270     2.6010     0.1520     0.1230   -32.2660    19.1640    19.8930    32.9200
 4040.5000     9.3950    79.8790     2.6050     0.1450     0.1260   -31.8720    18.5510    19.6340    39.8260
 4041.0000     9.3970    82.9580     2.6070     0.1390     0.1270   -31.4830    17.9030    28.1310    47.0230
 4041.5000     9.3990    89.1170     2.6060     0.1320     0.1280   -31.0920    17.9030    35.5000    50.3310
 4042.0000     9.4020    92.0620     2.6060     0.1310     0.1290   -30.7010    17.9030    37.4610    38.4890
 4042.5000     9.4040    95.0260     2.6060     0.1300     0.1310   -30.3100    17.9030    35.2590    33.5340
 4043.0000     9.4060    96.5370     2.6050     0.1300     0.1330   -29.9190    17.9030    32.8860    33.5340
 4043.5000     9.4090    97.2570     2.6050     0.1290     0.1340   -29.5280    17.4660    30.5120    30.6180
 4044.0000     9.4110    96.8340     2.6050     0.1290     0.1350   -29.1370    16.9860    28.1380    27.4180
 4044.5000     9.4140    96.3780     2.6120     0.1280     0.1350   -28.7480    16.5060    25.7640    24.5020
 4045.0000     9.4160    95.8270     2.6240     0.1280     0.1360   -28.3550    16.0260    23.3910    27.2550
 4045.5000     9.4180    95.1330     2.6390     0.1330     0.1450   -27.9630    15.5460    21.0170    26.8710
 4046.0000     9.4210    95.5160     2.6500     0.1370     0.1460   -27.5860    15.0660    19.0630    27.3720
 4046.5000     9.4230    96.8610     2.6500     0.1410     0.1480   -27.1990    14.6140    18.2640    26.6040
 4047.0000     9.4250    97.3780     2.6480     0.1430     0.1460   -27.1560    14.1570    17.4660    25.7150
 4047.5000     9.4280    97.2570     2.6400     0.1430     0.1480   -27.3200    13.7240    16.6670    24.8250
 4048.0000     9.4300    97.8420     2.6340     0.1410     0.1460   -27.4590    13.2920    15.7330    22.8660
 4048.5000     9.4320    98.9200     2.6270     0.1400     0.1390   -27.5970    12.8590    14.8690    20.2990
 4049.0000     9.4260    99.8790     2.6230     0.1400     0.1420   -27.7420    12.4270    13.8290    17.2540
 4049.5000     9.4200   100.8470     2.6250     0.1440     0.1440   -27.8810    11.9940    12.7880    17.6910
 4050.0000     9.4130   100.8630     2.6290     0.1470     0.1460   -28.0230    11.5620    12.1510    17.9030
 4050.5000     9.4060   100.9270     2.6320     0.1510     0.1460   -28.1650    11.1290    12.5430    19.9200
