~VERSION INFORMATION
 VERS.                2.0:   CWLS LOG ASCII STANDARD - VERSION 2.0
 WRAP.                 NO:   ONE LINE PER DEPTH STEP
~WELL INFORMATION
#MNEM.UNIT      DATA TYPE    INFORMATION
#----------   ------------   ------------------------------
 STRT.F           27.5000:   START DEPTH
 STOP.F         5889.0000:   STOP DEPTH
 STEP.F            0.5000:   STEP LENGTH
 NULL.          -999.2500:   NO VALUE
 COMP.   LAWRENCE ALLISON:   COMPANY
 WELL. LAWRENCE "X" #25-11:   WELL
 FLD .        N.P.R NO. 3:   FIELD
 LOC .      S11 T38N R78W:   LOCATION
 CNTY.            NATRONA:   COUNTY
 STAT.            WYOMING:   STATE
 CTRY. UNITED STATES OF AMERICA:   COUNTRY
 SRVC.      DRESSER ATLAS:   SERVICE COMPANY
 DATE.        09-FEB-1983:   LOGDATE
 API .     49025109170000:   API NUMBER
~CURVE INFORMATION
#MNEM.UNIT       API CODE    CURVE DESCRIPTION
#----------   ------------   ------------------------------
 DEPT.F                  :   
 CN  .DEC    42 890 03 00:   NEUTRON POROSITY
 GRD .GAPI   45 310 01 00:   GAMMA RAY FROM DENSITY LOG
 CORR.G/C3   45 356 01 00:   DENSITY CORRECTION
 DEN .G/C3   45 350 01 00:   BULK DENSITY
 CALD.IN     45 280 60 00:   CALIPER FROM DENSITY LOG
 TEND.LBS    45 635 01 00:   TENSION FORM DENSITY LOG
 GRS .GAPI   60 310 01 00:   GAMMA RAY FROM SONIC LOG
 TENS.LBS    60 635 01 00:   TENSION FROM SONIC
 DT  .US/F   60 520 00 00:   DELTA TIME
 SPR .MV     11 010 01 00:   SPONTANEOUS POTENTIAL FROM RES.
 RD  .OHMM   11 220 10 00:   RESISTIVITY DEEP
 RS  .OHMM   11 220 09 00:   RESISTIVITY SHALLOW
 RMLL.OHMM   11 270 04 00:   MICRO LATEROLOG
 TENR.LBS    11 635 01 00:   TENSION FROM RES.
~PARAMETER INFORMATION
#MNEM.UNIT          VALUE    DESCRIPTION
#----------   ------------   ------------------------------
 EKB .F         5196.0000:   Kelly bushing
 EGL .F         5186.0000:   Ground level
 TD  .F         5883.0000:   Total depth
 CLNT.            A2DTECH:   Client Code
 SL  . 1989' FSL & 1148' FWL:   Surface Location
 PD  .                 GL:   Permanent Datum
 EPD .F              5186:   Elevation Permanent Datum
 LMF .                 KB:   Log Measured From
 DMF .                 KB:   Drilling Measured From
 DAPD.F                10:   Feet Above Permanent Datum
 DATE.        09-FEB-1983:   Date Logged [DD-MMM-YYYY]
 DD  .F              5883:   Depth driller
 DL  .F              5882:   Depth logger
 BLI .F              5871:   Bottom log interval
 TLI .F               700:   Top log interval
 CS1 .IN            9.625:   Casing size
 CBD1.      9.625" @ 701':   Casing driller 1
 CBL1.F               700:   Casing logger 1
 BS1 .IN             8.75:   Bit size
 BSD1.F              5883:   Depth drilled with bit1
 DFT .    HEC/DRISPAC/KCL:   Type fluid in hole
 DFD .                  9:   Density
 DFV .                 35:   Viscosity
 DFPH.                  8:   pH
 DFL .                6.4:   Fluid loss
 MSS .           FLOWLINE:   Source of sample
 RMS .OHMM           0.23:   Rm
 MST .F                50:   Rm Meas. temp.
 RMF .OHMM           0.17:   Rmf
 MFST.F                54:   Rmf Meas. temp.
 MFSS.               MEAS:   Source Rmf.
 BHT .F               176:   BHT.
 TCS .HRS              10:   Time Circ. stopped
 MRT .F               176:   Maximum recorded temp.
 LUN .               6274:   Logging unit number
 LUL .               GLTE:   Logging unit location
 ENGI.          TOLLEFSON:   Recorded By
 WITN.           JENNINGS:   Witnessed by
 ORIG.           5" PRINT:   Origin of data
 UWI .     49025109170000:   Unique Well ID
 DICO. A2D TECHNOLOGIES, INC.:   Digitizing Company
 RMC .OHMM           0.41:   Rmc
 MCST.F                54:   Rmc Meas. temp.
 MCSS.               MEAS:   Source Rmc.
~OTHER INFORMATION
~A  DEPTH       CN        GRD       CORR        DEN       CALD       TEND        GRS       TENS         DT        SPR         RD         RS       RMLL       TENR
# ...
 4829.5000     0.1295   109.3795     0.0543     2.5925     9.2820   -23.2026    93.6672   -82.2213    65.2750   -61.5066    20.5941    19.1239    15.3268   -47.1649
 4830.0000     0.1286   106.6264     0.0528     2.5834     9.2778   -20.8348    88.3652   -82.5960    65.0488   -61.3508    20.1667    18.3379    14.9036   -47.4501
 4830.5000     0.1245   102.7448     0.0858     2.5729     9.2737   -18.4670    81.8851   -82.9711    64.8227   -61.1949    20.1627    18.5881    15.3168   -55.2790
 4831.0000     0.1227   103.0621     0.0772     2.5631     9.2696   -16.0992    80.1178   -83.3459    64.6716   -61.1892    20.7240    19.1035    16.0727   -48.0920
 4831.5000     0.1236   105.1976     0.0436     2.5570     9.2655   -19.1507    81.5906   -83.7206    64.8212   -61.1822    20.7199    19.0973    16.6322   -51.6148
 4832.0000     0.1251   107.3623     0.0330     2.5517     9.2614   -23.8863    85.7143   -76.5054    64.8956   -61.1765    20.8608    19.3578    16.2838   -56.2040
 4832.5000     0.1273   108.5629     0.0540     2.5525     9.2572   -31.0098    86.8925   -69.3839    64.8948   -61.1708    20.8557    19.2175    16.0547   -56.4892
 4833.0000     0.1288   106.4559     0.0584     2.5532     9.2531   -25.7167    83.6524   -69.8527    64.6686   -61.0150    20.9965    19.0769    16.0495   -56.8459
 4833.5000     0.1307   103.1369     0.0463     2.5517     9.2499   -34.2985    81.2960   -70.2275    64.4425   -60.8577    21.5809    19.0706    16.6077   -64.6726
 4834.0000     0.1273    98.8030     0.0237     2.5487     9.2500   -43.8609    82.1797   -70.6022    64.0661   -60.8520    22.3369    19.0644    17.6691   -64.9320
 4834.5000     0.1225    94.6840     0.0011     2.5479     9.2500   -39.9776    83.3579   -70.9770    63.7648   -60.8463    23.1193    19.8685    18.7984   -65.2431
 4835.0000     0.1196    90.7589     0.0266     2.5569     9.2500   -35.4582    82.7688   -63.7618    63.3884   -60.6905    23.9427    20.9943    19.8619   -65.5355
 4835.5000     0.1163    90.4697     0.0416     2.5637     9.2445   -35.4582    79.2342   -56.7340    63.2374   -60.5345    24.9382    21.8799    19.8552   -65.8847
 4836.0000     0.1184    91.7412     0.0400     2.5697     9.2360   -34.9303    77.4669   -57.1091    63.1615   -60.5276    25.1078    22.4885    19.3055   -66.1702
 4836.5000     0.1209    93.5324     0.0324     2.5743     9.2342   -32.3257    78.0560   -64.9801    63.0856   -60.3717    25.2773    22.6568    19.0355   -66.4405
 4837.0000     0.1218    95.9709     0.0294     2.5772     9.2478   -29.7211    80.1178   -65.3549    63.0097   -60.3660    25.0967    22.3180    19.5618   -66.7421
 4837.5000     0.1239    98.1064     0.0278     2.5742     9.2500   -27.1165    79.5287   -58.1397    62.9338   -60.3604    24.9173    22.4663    20.2558   -67.0972
 4838.0000     0.1257   105.0939     0.0172     2.5711     9.2501   -26.5936    79.2342   -58.6081    62.8579   -60.5034    25.2599    23.0893    20.9496   -59.7698
 4838.5000     0.1248   109.0475     0.0021     2.5730     9.2500   -29.4761    81.2960   -51.3929    62.7069   -60.4977    25.7851    23.4063    20.9411   -60.1263
 4839.0000     0.1240   111.4860    -0.0055     2.5907     9.2464   -32.3948    85.7143   -44.2718    62.6310   -60.6436    26.1397    23.3967    20.9342   -60.4114
 4839.5000     0.1264   113.6214     0.0200     2.6080     9.2368   -35.4429    87.7761   -37.1503    62.7805   -60.7868    26.1343    23.0647    20.9274   -60.7682
 4840.0000     0.1372   116.7123     0.0380     2.6155     9.2304   -35.4582    88.0707   -37.6187    63.0803   -61.0813    25.4142    22.7392    20.9189   -61.0533
 4840.5000     0.1430   124.0644     0.0470     2.6210     9.2326   -35.4582    88.6598   -37.9309    63.4552   -61.3759    24.5444    22.2633    20.7678   -61.3385
 4841.0000     0.1466   129.4265     0.0408     2.6245     9.2346   -35.4582    90.4271   -39.5651    63.8301   -61.6691    23.3784    21.7974    19.5075   -61.6239
 4841.5000     0.1481   131.5619     0.0288     2.6260     9.2366   -39.3830    93.6672   -46.2392    64.3553   -61.7859    22.7326    21.4676    18.4509   -61.9156
 4842.0000     0.1482   131.2731     0.0198     2.6244     9.2387   -45.2421    99.8527   -46.6143    64.8055   -61.9641    21.5047    20.8929    16.2834   -54.6530
 4842.5000     0.1458   126.4424     0.0107     2.6117     9.2407   -50.9806   103.0928   -46.9891    64.4289   -62.2526    20.7687    20.5981    16.0557   -54.9773
 4843.0000     0.1377   121.6082     0.0045     2.6056     9.2427   -52.9546   103.6819   -47.3638    63.7520   -62.5472    20.4800    20.4506    17.6818   -55.2791
 4843.5000     0.1311   116.4709     0.0166     2.6101     9.2447   -42.4104   101.6200   -47.7386    63.1502   -62.8404    21.6413    21.4678    19.7455   -55.5806
 4844.0000     0.1272   112.2427     0.0376     2.6079     9.2467   -35.4582    99.5582   -55.6096    62.5484   -62.8348    22.5762    22.6758    21.4463   -55.9365
 4844.5000     0.1302   113.7757     0.0450     2.6041     9.2487   -35.4582    97.7909   -55.9847    62.1720   -62.8277    23.8340    23.3066    22.6597   -56.1839
 4845.0000     0.1333   119.8505     0.0403     2.6071     9.2500   -35.4582    95.4345   -56.3594    61.9458   -62.8220    24.4986    23.2989    23.9416   -56.5071
 4845.5000     0.1375   124.7132     0.0284     2.6131     9.2500   -35.4582    94.5508   -64.2304    62.2456   -63.1180    24.6652    23.2913    24.7764   -49.2457
 4846.0000     0.1447   128.6669     0.0388     2.6161     9.2500   -31.4077    98.0854   -64.6052    62.7707   -63.4112    23.6435    22.8019    22.2286   -49.5477
 4846.5000     0.1517   126.8665     0.0463     2.6085     9.2501   -25.4980   101.3255   -64.9799    64.1224   -63.7058    21.7639    21.4141    16.8045   -49.8927
 4847.0000     0.1445   119.3050     0.0462     2.6002     9.2398   -25.4980   106.3328   -65.3547    65.0983   -64.0004    20.5869    20.1108    12.4755   -42.6093
 4847.5000     0.1325   108.4113     0.0341     2.5912     9.2226   -25.4980   107.5110   -65.7298    65.3981   -64.4438    19.4735    18.8867    11.7823   -35.3803
 4848.0000     0.1130   103.5770     0.0205     2.5927     9.2136   -23.0971   103.0928   -66.1045    65.0968   -64.8885    20.2957    18.6203    13.0357   -35.6713
 4848.5000     0.1088   101.4701     0.0280     2.6055     9.2293   -20.3554    87.7761   -66.4793    63.8188   -65.1832    21.7457    20.0893    17.6140   -36.0222
 4849.0000     0.1094   102.7000     0.0460     2.6085     9.2219   -17.6138    85.4197   -74.3503    61.7895   -65.4778    23.3004    21.5261    21.0792   -43.8488
 4849.5000     0.1125   105.7445     0.0339     2.6039     9.2127   -15.9827    85.1252   -74.7250    61.1126   -65.7724    24.7939    23.0657    23.0558   -51.6592
 4850.0000     0.1167   109.3951     0.0038     2.6009     9.2242   -17.8148    85.1252   -75.0998    60.8113   -66.4161    26.0203    24.5444    23.0482   -51.9609
 4850.5000     0.1215   116.0867     0.0052     2.6129     9.2455   -19.6468    84.5361   -45.3035    60.9383   -66.7074    26.3885    25.4028    24.3522   -52.8434
 4851.0000     0.1354   123.7244     0.0187     2.6257     9.2483   -21.4788    86.0088   -45.6798    61.5485   -67.1486    25.6510    23.0411    24.8890   -60.1442
 4851.5000     0.1533   137.9460     0.0412     2.6340     9.2460   -23.3109    91.0162   -45.9809    63.5119   -67.7376    22.7977    21.3404    20.0518   -60.4072
 4852.0000     0.1850   152.2085     0.0482     2.6461     9.2436   -25.1429   100.1473   -46.2819    66.3921   -68.0289    18.7757    18.6977    17.2156   -60.7089
 4852.5000     0.2028   160.7135     0.0544     2.6560     9.2413   -26.9749   131.1204   -46.5830    69.6063   -68.4702    16.0080    14.3674    13.7924   -61.0105
 4853.0000     0.2190   161.3841     0.0606     2.6626     9.2390   -28.8070   139.9659   -46.8841    75.0779   -68.7616    12.8230    12.0660    11.2039   -61.3121
 4853.5000     0.2290   159.1982     0.0667     2.6610     9.2367   -30.6390   139.3857   -47.1854    75.3771   -69.0528    11.0088    11.4106    10.3077   -61.6418
