~VERSION INFORMATION
 VERS.                2.0:   CWLS LOG ASCII STANDARD - VERSION 2.0
 WRAP.                 NO:   ONE LINE PER DEPTH STEP
~WELL INFORMATION
#MNEM.UNIT      DATA TYPE    INFORMATION
#----------   ------------   ------------------------------
 STRT.F          213.5000:   START DEPTH
 STOP.F         3198.0000:   STOP DEPTH
 STEP.F            0.5000:   STEP LENGTH
 NULL.          -999.2500:   NO VALUE
 COMP.    FENIX & SCISSON:   COMPANY
 WELL.   FENIX "AX" #14-2:   WELL
 FLD .              NPR-3:   FIELD
 LOC .       S2 T38N R78W:   LOCATION
 CNTY.            NATRONA:   COUNTY
 STAT.            WYOMING:   STATE
 CTRY. UNITED STATES OF AMERICA:   COUNTRY
 SRVC.              WELEX:   SERVICE COMPANY
 DATE.        14-MAY-1977:   LOGDATE
 API .     49025103620000:   API NUMBER
~CURVE INFORMATION
#MNEM.UNIT       API CODE    CURVE DESCRIPTION
#----------   ------------   ------------------------------
 DEPT.F                  :   
 GRD .GAPI   45 310 01 00:   GAMMA RAY FROM DENSITY LOG
 CALD.IN     45 280 60 00:   CALIPER FROM DENSITY LOG
 CORR.G/C3   45 356 01 00:   DENSITY CORRECTION
 RHOB.G/C3   45 350 01 00:   BULK DENSITY
 SPR .MV     07 010 01 00:   SPONTANEOUS POTENTIAL FROM RES.
 ILD .OHMM   07 120 46 00:   DEEP INDUCTION RESISTIVITY
 ILM .OHMM   07 120 44 00:   INDUCTION LOG MEDIUM RESISTIVITY
 SGRD.OHMM   07 220 05 00:   SHALLOW SHORT GUARD RESISTIVITY
~PARAMETER INFORMATION
#MNEM.UNIT          VALUE    DESCRIPTION
#----------   ------------   ------------------------------
 EKB .F         5119.0000:   Kelly bushing
 EGL .F         5110.0000:   Ground level
 TD  .F         3200.0000:   Total depth
 CLNT.            A2DTECH:   Client Code
 SL  . 2400' FNL & 150' FWL:   Surface Location
 PD  .                 GL:   Permanent Datum
 EPD .F              5110:   Elevation Permanent Datum
 LMF .                 KB:   Log Measured From
 DMF .                 KB:   Drilling Measured From
 DAPD.F                 9:   Feet Above Permanent Datum
 DATE.        14-MAY-1977:   Date Logged [DD-MMM-YYYY]
 DD  .F              3200:   Depth driller
 DL  .F              3199:   Depth logger
 BLI .F              3197:   Bottom log interval
 TLI .F               217:   Top log interval
 CS1 .IN            8.625:   Casing size
 BS1 .IN            7.875:   Bit size
 BSD1.F              3200:   Depth drilled with bit1
 DFT .            KCL MUD:   Type fluid in hole
 DFD .                8.8:   Density
 TCS .HRS             2.5:   Time Circ. stopped
 MRT .F               130:   Maximum recorded temp.
 ENGI.          T. JOYNER:   Recorded By
 WITN.      W. PETTINGILL:   Witnessed by
 ORIG.           5" PRINT:   Origin of data
 UWI .     49025103620000:   Unique Well ID
 DICO. A2D TECHNOLOGIES, INC.:   Digitizing Company
 DFV .                 31:   Viscosity
 DFPH.                7.5:   pH
 DFL .                6.4:   Fluid loss
 MSS .          FLOW LINE:   Source of sample
 RMS .OHMM            .13:   Rm
 MST .F               62.:   Rm Meas. temp.
 RMF .OHMM            .12:   Rmf
 MFST.F                62:   Rmf Meas. temp.
 MFSS.           FANN KIT:   Source Rmf.
 RMC .OHMM            .28:   Rmc
 MCST.F                62:   Rmc Meas. temp.
 RMB .OHMM            .06:   Rm. at BHT
 BHT .F               130:   BHT.
~OTHER INFORMATION
~A   DEPT      GRD       CALD       CORR       RHOB        SPR        ILD        ILM       SGRD   
# ...
 1388.0000   113.8508     8.5537    -0.0047     2.4733   -42.2915     6.7965     6.9451     9.0033
 1388.5000   111.8147     8.5701    -0.0015     2.4726   -42.3165     6.8011     6.9029     8.9268
 1389.0000   114.5446     8.5717     0.0015     2.4757   -42.3415     6.8067     6.9096     8.8977
 1389.5000   113.9801     8.5733     0.0062     2.4802   -42.3666     6.8124     6.8683     9.0955
 1390.0000   117.3178     8.5748     0.0078     2.4870   -42.3916     6.8181     6.8742     9.2313
 1390.5000   116.1670     8.5616     0.0125     2.4946   -42.4166     6.8243     6.8804     9.2395
 1391.0000   111.7327     8.5633     0.0126     2.5031   -42.4416     6.8773     6.9345     9.1801
 1391.5000   113.5822     8.5500     0.0097     2.4985   -42.4666     6.8826     6.8927     9.1317
 1392.0000   116.2969     8.5368     0.0054     2.4873   -42.4916     6.9362     6.8990     9.0766
 1392.5000   113.6536     8.5235     0.0025     2.4814   -42.5167     6.9421     6.9064     9.0233
 1393.0000   118.7824     8.5255     0.0026     2.4792   -42.5417     6.9477     6.9595     9.0345
 1393.5000   121.5123     8.5119     0.0012     2.4770   -42.5667     6.9054     6.9658     9.0439
 1394.0000   120.6701     8.5139     0.0014     2.4778   -42.5917     6.8634     6.9729     9.1184
 1394.5000   119.8078     8.5006     0.0015     2.4817   -42.6167     6.8219     6.9309     9.2883
 1395.0000   120.4481     8.5022     0.0032     2.4795   -42.6418     6.7346     6.9364     9.3925
 1395.5000   119.1140     8.5039     0.0048     2.4691   -42.6668     6.7387     6.9437     9.4003
 1396.0000   112.1873     8.5055     0.0064     2.4761   -42.6918     6.6977     6.9489     9.4092
 1396.5000   116.7082     8.5074     0.0096     2.4827   -42.7168     6.7038     6.9552     9.1646
 1397.0000   119.4273     8.5090     0.0097     2.4865   -42.7291     6.6964     6.9135     8.8626
 1397.5000   115.8993     8.5106     0.0098     2.4881   -42.7071     6.6686     6.8719     8.6897
 1398.0000   114.7486     8.5122     0.0100     2.4859   -42.8346     6.7210     6.8780     8.6985
 1398.5000   114.1949     8.5286     0.0101     2.4829   -42.8086     6.7265     6.8365     8.5880
 1399.0000   113.9396     8.5302     0.0087     2.4853   -42.7766     6.7886     6.8428     8.6562
 1399.5000   113.6844     8.5317     0.0059     2.4831   -42.7474     6.8314     6.8501     8.7251
 1400.0000   113.1415     8.5333     0.0015     2.4712   -43.0267     6.8370     6.8560     8.7339
 1400.5000   112.2893     8.5350    -0.0014     2.4690   -43.3060     6.8379     6.8719     8.7430
 1401.0000   111.4371     8.5369     0.0003     2.4758   -43.4629     6.8388     6.8878     8.7520
 1401.5000   111.1711     8.5385     0.0019     2.4811   -43.5679     6.8398     6.9037     8.8235
 1402.0000   112.1207     8.5249     0.0050     2.4836   -43.2494     6.8407     6.9196     8.8090
 1402.5000   113.3630     8.5269     0.0082     2.4865   -43.2320     6.8416     6.9355     8.7501
 1403.0000   114.3443     8.5364     0.0113     2.4791   -43.2146     6.8425     6.9514     8.6913
 1403.5000   114.7659     8.5508     0.0145     2.4837   -43.1972     6.8434     6.9673     8.6325
 1404.0000   112.3364     8.5651     0.0196     2.4897   -43.1798     6.8475     6.9833     8.5737
 1404.5000   109.9069     8.5820     0.0283     2.5011   -43.0140     6.8536     6.9908     8.5148
 1405.0000   107.4773     8.5396     0.0299     2.5049   -42.9966     6.8620     6.9950     8.4560
 1405.5000   105.0478     8.5120     0.0300     2.5042   -42.8308     6.8678     7.0116     8.3972
 1406.0000   105.9163     8.4987     0.0302     2.5020   -42.9618     6.9021     7.0031     8.3401
 1406.5000   108.3484     8.4859     0.0303     2.4976   -42.9436     6.9299     7.0074     8.3466
 1407.0000   110.7805     8.4732     0.0274     2.4932   -43.0753     6.9371     7.0121     8.2965
 1407.5000   113.8096     8.4609     0.0216     2.4895   -43.2019     6.8952     6.9677     8.2378
 1408.0000   114.7382     8.4629     0.0157     2.4903   -43.1845     6.9036     6.9721     8.1941
 1408.5000   112.6927     8.4501     0.0128     2.4859   -43.3198     6.9122     6.9764     8.2004
 1409.0000   113.3448     8.4522     0.0145     2.4935   -43.2980     6.8817     6.9816     8.2374
 1409.5000   114.5828     8.4394     0.0191     2.5026   -43.1323     6.8773     6.9369     8.2697
 1410.0000   114.9254     8.4415     0.0252     2.5071   -43.1149     6.8845     6.9412     8.3053
 1410.5000   112.2433     8.4436     0.0269     2.5087   -43.0974     6.8930     6.9456     8.3747
 1411.0000   111.7299     8.4608     0.0255     2.5020   -43.2285     6.8994     6.9986     8.4630
 1411.5000   112.3709     8.4777     0.0256     2.4969   -43.2107     6.9064     7.0029     8.4693
 1412.0000   105.8588     8.4797     0.0258     2.4924   -43.1929     6.9132     7.0070     8.5338
 1412.5000   107.9924     8.4818     0.0259     2.4895   -43.1718     6.9203     7.0114     8.6078
 1413.0000   110.7230     8.4838     0.0231     2.4963   -43.1544     6.9275     7.0157     8.6655
 1413.5000   113.1551     8.4859     0.0172     2.5001   -42.9886     6.8867     7.0203     8.7329
 1414.0000   115.5872     8.4879     0.0053     2.4852   -42.9712     6.8940     7.0245     8.6786
 1414.5000   118.0193     8.5047    -0.0021     2.4807   -42.9538     6.9025     7.0292     8.6243
 1415.0000   117.0470     8.5068     0.0071     2.4906   -42.9364     6.9084     7.0332     8.5714
 1415.5000   111.7083     8.5088     0.0132     2.5013   -43.0717     6.9156     7.0376     8.5512
 1416.0000   109.7896     8.5257     0.0179     2.5074   -43.0499     6.9722     7.0424     8.5266
 1416.5000   111.0387     8.5277     0.0210     2.5081   -43.1810     6.9781     7.0464     8.5366
 1417.0000   110.7842     8.5298     0.0196     2.5007   -43.1632     6.9858     7.0517     8.6652
 1417.5000   112.0223     8.5319     0.0152     2.4910   -43.1454     6.9926     7.0553     8.7865
 1418.0000   113.8574     8.5343     0.0124     2.4963   -43.2770     6.9999     7.0596     8.9380
 1418.5000   114.1999     8.5512     0.0125     2.5009   -43.2552     7.0375     7.0642     8.9838
 1419.0000   114.5425     8.5532     0.0126     2.4972   -43.2378     7.0632     7.0196     9.0527
 1419.5000   113.6910     8.5399     0.0128     2.4928   -43.2204     7.0714     7.0247     9.0789
 1420.0000   111.0484     8.5425     0.0129     2.4891   -43.2030     7.0779     7.0284     9.1437
 1420.5000   107.8089     8.5445     0.0130     2.4855   -43.1856     7.0858     7.0332     9.1990
 1421.0000   106.9464     8.5466     0.0132     2.4826   -43.0198     7.0926     7.0375     9.0796
 1421.5000   107.8970     8.5333     0.0133     2.4849   -43.0024     7.1000     7.0415     8.8380
 1422.0000   110.3291     8.5210     0.0090     2.4857   -42.9850     7.1068     7.0460     8.6025
 1422.5000   111.8657     8.5231     0.0001     2.4775   -43.1159     7.0661     7.0016     8.5519
 1423.0000   113.1243     8.5102    -0.0028     2.4716   -43.0979     7.0730     7.0550     8.5584
 1423.5000   114.6815     8.4975     0.0034     2.4732   -43.2295     7.0811     7.0591     8.5764
 1424.0000   116.1769     8.4996     0.0095     2.4770   -43.2077     7.0388     7.0635     8.6317
 1424.5000   114.4409     8.5016     0.0141     2.4823   -43.1903     7.0236     7.0686     8.6580
 1425.0000   113.8879     8.5037     0.0173     2.4869   -43.1729     7.0044     7.1215     8.7139
 1425.5000   113.9320     8.5062     0.0219     2.4900   -43.1555     6.9632     7.1260     8.8325
 1426.0000   111.2895     8.4929     0.0251     2.4923   -43.2864     6.9708     7.1307     8.8995
 1426.5000   110.1395     8.4954     0.0237     2.4886   -43.2690     6.9791     7.0861     8.9064
 1427.0000   110.4820     8.4975     0.0223     2.4812   -43.4006     6.9371     7.0901     8.9130
 1427.5000   110.5261     8.4842     0.0209     2.4775   -43.3826     6.9450     7.0944     8.8239
 1428.0000   112.0626     8.4865     0.0211     2.4814   -43.3650     6.9527     7.0988     8.6847
