~VERSION INFORMATION
 VERS.                2.0:   CWLS LOG ASCII STANDARD - VERSION 2.0
 WRAP.                 NO:   ONE LINE PER DEPTH STEP
~WELL INFORMATION
#MNEM.UNIT      DATA TYPE    INFORMATION
#----------   ------------   ------------------------------
 STRT.F            0.0000:   START DEPTH
 STOP.F         2870.0000:   STOP DEPTH
 STEP.F            0.5000:   STEP LENGTH
 NULL.          -999.2500:   NO VALUE
 COMP.  FENIX AND SCISSON:   COMPANY
 WELL.  FENIX "A" #304-28:   WELL
 FLD .             NPR #3:   FIELD
 LOC .      S28 T39N R78W:   LOCATION
 CNTY.            NATRONA:   COUNTY
 STAT.            WYOMING:   STATE
 CTRY. UNITED STATES OF AMERICA:   COUNTRY
 SRVC.         MCCULLOUGH:   SERVICE COMPANY
 DATE.        21-DEC-1977:   LOGDATE
 API .     49025105600000:   API NUMBER
~CURVE INFORMATION
#MNEM.UNIT       API CODE    CURVE DESCRIPTION
#----------   ------------   ------------------------------
 DEPT.F                  :   
 GR  .GAPI   30 310 01 00:   GAMMA RAY
 CALI.IN     70 280 01 00:   CALIPER
~PARAMETER INFORMATION
#MNEM.UNIT          VALUE    DESCRIPTION
#----------   ------------   ------------------------------
 EKB .F            0.0000:   Kelly bushing
 EGL .F            0.0000:   Ground level
 EDF .F         5074.7000:   Drilling floor
 EPD .F         5074.7000:   Permanent datum
 TD  .F         2868.0000:   Total depth
 DATE.        21-DEC-1977:   Date logged
 CLNT.            A2DTECH:   Client Code
 DL  .F              2868:   Depth logger
 BLI .F              2866:   Bottom log interval
 TLI .F              2000:   Top log interval
 CS1 .IN             6.25:   Casing size
 CBD1.     6.625" @ 2935':   Casing driller 1
 BS1 .IN             6.25:   Bit size
 BSD1.F              2868:   Depth drilled with bit1
 DFT .              WATER:   Type fluid in hole
 TCS .HRS             1.5:   Time Circ. stopped
 ENGI.             CONLEY:   Recorded By
 WITN.           HARRISON:   Witnessed by
 ORIG.           5" PRINT:   Origin of data
 UWI .     49025105600000:   Unique Well ID
 DICO. A2D TECHNOLOGIES, INC.:   Digitizing Company
~OTHER INFORMATION
~A    DEPT      GR         CALI 
# ...
  243.0000  -999.2500     6.7610
  243.5000  -999.2500     6.7650
  244.0000  -999.2500     6.7670
  244.5000  -999.2500     6.7630
  245.0000  -999.2500     6.7590
  245.5000  -999.2500     6.7550
  246.0000  -999.2500     6.7510
  246.5000  -999.2500     6.7500
  247.0000  -999.2500     6.7480
  247.5000  -999.2500     6.7420
  248.0000  -999.2500     6.7420
  248.5000  -999.2500     6.7460
  249.0000  -999.2500     6.7500
  249.5000  -999.2500     6.7450
  250.0000  -999.2500     6.7420
  250.5000  -999.2500     6.7430
  251.0000  -999.2500     6.7430
  251.5000  -999.2500     6.7460
  252.0000  -999.2500     6.7570
  252.5000  -999.2500     6.7600
  253.0000  -999.2500     6.7620
  253.5000  -999.2500     6.7650
  254.0000  -999.2500     6.7740
  254.5000  -999.2500     6.7820
  255.0000  -999.2500     6.7830
  255.5000  -999.2500     6.7760
  256.0000  -999.2500     6.7640
  256.5000  -999.2500     6.7600
  257.0000  -999.2500     6.7630
  257.5000  -999.2500     6.7750
  258.0000  -999.2500     6.7860
  258.5000  -999.2500     6.7990
  259.0000  -999.2500     6.8110
  259.5000  -999.2500     6.9940
  260.0000  -999.2500     6.7780
  260.5000  -999.2500     6.6760
  261.0000  -999.2500     6.6670
  261.5000  -999.2500     6.6330
  262.0000  -999.2500     6.6490
  262.5000  -999.2500     6.6610
  263.0000  -999.2500     6.6630
  263.5000  -999.2500     6.6640
  264.0000  -999.2500     6.6640
  264.5000  -999.2500     6.6660
  265.0000  -999.2500     6.6640
  265.5000  -999.2500     6.6600
  266.0000  -999.2500     6.6550
  266.5000  -999.2500     6.6530
  267.0000  -999.2500     6.6450
  267.5000  -999.2500     6.6410
  268.0000  -999.2500     6.6380
  268.5000  -999.2500     6.6330
  269.0000  -999.2500     6.6310
  269.5000  -999.2500     6.6330
  270.0000  -999.2500     6.6340
  270.5000  -999.2500     6.6340
  271.0000  -999.2500     6.6370
  271.5000  -999.2500     6.6410
  272.0000  -999.2500     6.6420
  272.5000  -999.2500     6.6380
  273.0000  -999.2500     6.6420
  273.5000  -999.2500     6.6410
  274.0000  -999.2500     6.6380
  274.5000  -999.2500     6.6390
  275.0000  -999.2500     6.6380
  275.5000  -999.2500     6.6380
  276.0000  -999.2500     6.6390
  276.5000  -999.2500     6.6340
  277.0000  -999.2500     6.6260
  277.5000  -999.2500     6.6250
  278.0000  -999.2500     6.6250
  278.5000  -999.2500     6.6250
  279.0000  -999.2500     6.6220
  279.5000  -999.2500     6.6190
  280.0000  -999.2500     6.6150
  280.5000  -999.2500     6.6170
  281.0000  -999.2500     6.6220
  281.5000  -999.2500     6.8600
  282.0000  -999.2500     6.7360
  282.5000  -999.2500     6.7200
  283.0000  -999.2500     6.6840
  283.5000  -999.2500     6.6950
  284.0000  -999.2500     6.7060
  284.5000  -999.2500     6.6980
  285.0000  -999.2500     6.6860
  285.5000  -999.2500     6.6710
  286.0000  -999.2500     6.6630
  286.5000  -999.2500     6.6570
  287.0000  -999.2500     6.6550
  287.5000  -999.2500     6.6510
  288.0000  -999.2500     6.6460
  288.5000  -999.2500     6.6350
  289.0000  -999.2500     6.6320
  289.5000  -999.2500     6.6290
  290.0000  -999.2500     6.6260
  290.5000  -999.2500     6.6290
  291.0000  -999.2500     6.6350
  291.5000  -999.2500     6.6420
  292.0000  -999.2500     6.6380
  292.5000  -999.2500     6.6380
  293.0000  -999.2500     6.6380
  293.5000  -999.2500     6.6390
  294.0000  -999.2500     6.6450
  294.5000  -999.2500     6.6510
  295.0000  -999.2500     6.6460
  295.5000  -999.2500     6.6400
  296.0000  -999.2500     6.6360
  296.5000  -999.2500     6.6290
  297.0000  -999.2500     6.6300
  297.5000  -999.2500     6.6300
  298.0000  -999.2500     6.6280
  298.5000  -999.2500     6.6340
  299.0000  -999.2500     6.6400
  299.5000  -999.2500     6.6440
  300.0000  -999.2500     6.6420
  300.5000  -999.2500     6.6410
  301.0000  -999.2500     6.6500
  301.5000  -999.2500     6.6610
  302.0000  -999.2500     6.8890
  302.5000  -999.2500     7.1020
  303.0000  -999.2500     7.1290
  303.5000  -999.2500     7.0690
  304.0000  -999.2500     6.9780
  304.5000  -999.2500     7.0380
  305.0000  -999.2500     7.0790
  305.5000  -999.2500     7.0610
  306.0000  -999.2500     7.0040
  306.5000  -999.2500     6.9470
  307.0000  -999.2500     6.9450
  307.5000  -999.2500     6.9910
  308.0000  -999.2500     6.9590
  308.5000  -999.2500     6.9500
  309.0000  -999.2500     6.9420
  309.5000  -999.2500     6.9370
  310.0000  -999.2500     6.9280
  310.5000  -999.2500     6.9270
  311.0000  -999.2500     6.9200
  311.5000  -999.2500     6.9130
  312.0000  -999.2500     6.9170
  312.5000  -999.2500     6.9030
  313.0000  -999.2500     6.8910
  313.5000  -999.2500     6.8930
  314.0000  -999.2500     6.9240
  314.5000  -999.2500     6.9150
  315.0000  -999.2500     6.9080
  315.5000  -999.2500     6.9170
  316.0000  -999.2500     6.9160
  316.5000  -999.2500     6.9060
  317.0000  -999.2500     6.8680
  317.5000  -999.2500     6.8710
  318.0000  -999.2500     6.8650
  318.5000  -999.2500     6.8750
  319.0000  -999.2500     6.8960
  319.5000  -999.2500     6.9010
  320.0000  -999.2500     6.9040
  320.5000  -999.2500     6.8670
  321.0000  -999.2500     6.8520
  321.5000  -999.2500     6.9660
  322.0000  -999.2500     6.7040
  322.5000  -999.2500     6.7160
  323.0000  -999.2500     6.7300
  323.5000  -999.2500     6.7210
  324.0000  -999.2500     6.6950
  324.5000  -999.2500     6.7260
  325.0000  -999.2500     6.7070
  325.5000  -999.2500     6.7100
  326.0000  -999.2500     6.7100
  326.5000  -999.2500     6.6940
  327.0000  -999.2500     6.6970
  327.5000  -999.2500     6.7000
  328.0000  -999.2500     6.7030
  328.5000  -999.2500     6.7050
  329.0000  -999.2500     6.7000
  329.5000  -999.2500     6.6940
  330.0000  -999.2500     6.6890
  330.5000  -999.2500     6.6880
  331.0000  -999.2500     6.6870
  331.5000  -999.2500     6.6880
  332.0000  -999.2500     6.6900
  332.5000  -999.2500     6.6910
  333.0000  -999.2500     6.6930
  333.5000  -999.2500     6.6930
  334.0000  -999.2500     6.6930
  334.5000  -999.2500     6.6920
  335.0000  -999.2500     6.6910
  335.5000  -999.2500     6.6920
  336.0000  -999.2500     6.6940
  336.5000  -999.2500     6.6920
  337.0000  -999.2500     6.6850
  337.5000  -999.2500     6.6870
  338.0000  -999.2500     6.6920
  338.5000  -999.2500     6.6940
  339.0000  -999.2500     6.6950
  339.5000  -999.2500     6.6960
  340.0000  -999.2500     6.6970
  340.5000  -999.2500     6.6930
  341.0000  -999.2500     6.6860
  341.5000  -999.2500     6.6890
  342.0000  -999.2500     6.7090
  342.5000  -999.2500     6.6910
  343.0000  -999.2500     6.8480
  343.5000  -999.2500     6.5980
  344.0000  -999.2500     6.6010
  344.5000  -999.2500     6.5920
  345.0000  -999.2500     6.5840
  345.5000  -999.2500     6.5990
  346.0000  -999.2500     6.5970
  346.5000  -999.2500     6.6020
  347.0000  -999.2500     6.6010
  347.5000  -999.2500     6.5940
  348.0000  -999.2500     6.5880
  348.5000  -999.2500     6.5900
  349.0000  -999.2500     6.5940
  349.5000  -999.2500     6.5970
  350.0000  -999.2500     6.5980
  350.5000  -999.2500     6.6010
  351.0000  -999.2500     6.6040
  351.5000  -999.2500     6.6070
  352.0000  -999.2500     6.6130
  352.5000  -999.2500     6.6180
  353.0000  -999.2500     6.6190
  353.5000  -999.2500     6.6190
  354.0000  -999.2500     6.6180
  354.5000  -999.2500     6.6180
  355.0000  -999.2500     6.6170
  355.5000  -999.2500     6.6110
  356.0000  -999.2500     6.6120
  356.5000  -999.2500     6.6070
  357.0000  -999.2500     6.6120
  357.5000  -999.2500     6.6160
  358.0000  -999.2500     6.6180
  358.5000  -999.2500     6.6300
  359.0000  -999.2500     6.6360
  359.5000  -999.2500     6.6400
  360.0000  -999.2500     6.6540
  360.5000  -999.2500     6.6620
  361.0000  -999.2500     6.6630
  361.5000  -999.2500     6.6660
  362.0000  -999.2500     6.6700
  362.5000  -999.2500     6.6720
  363.0000  -999.2500     6.6750
  363.5000  -999.2500     6.6830
  364.0000  -999.2500     6.6760
