~VERSION INFORMATION
 VERS.                2.0:   CWLS LOG ASCII STANDARD - VERSION 2.0
 WRAP.                 NO:   ONE LINE PER DEPTH STEP
~WELL INFORMATION
#MNEM.UNIT      DATA TYPE    INFORMATION
#----------   ------------   ------------------------------
 STRT.F           60.0000:   START DEPTH
 STOP.F         5768.0000:   STOP DEPTH
 STEP.F            0.5000:   STEP LENGTH
 NULL.          -999.2500:   NO VALUE
 COMP.              RMOTC:   COMPANY
 WELL. RMOTC NPR-3 61 "X" #2-15:   WELL
 FLD .            N P R-3:   FIELD
 LOC .      S15 T38N R78W:   LOCATION
 CNTY.            NATRONA:   COUNTY
 STAT.            WYOMING:   STATE
 CTRY. UNITED STATES OF AMERICA:   COUNTRY
 SRVC.       SCHLUMBERGER:   SERVICE COMPANY
 DATE.        07-JAN-2002:   LOGDATE
 API .     49025230310000:   API NUMBER
~CURVE INFORMATION
#MNEM.UNIT       API CODE    CURVE DESCRIPTION
#----------   ------------   ------------------------------
 DEPT.F                  :   
 CALD.IN     45 280 60 00:   CALIPER FROM DENSITY LOG
 TEND.LBS    45 635 01 00:   TENSION FROM DENSITY LOG
 PEFZ.B/E    45 358 01 00:   HILT PHOTOELECTRIC FACTOR
 RHOZ.G/C3   45 350 01 00:   HILT BULK DENSITY
 NPOR.DEC    42 890 03 00:   ALPHA PROCESSED NEUTRON POROSITY
 HDRA.G/C3   45 356 01 00:   DELTA RHO HIP TOOL
 GRS .GAPI   60 310 01 00:   GAMMA RAY FROM SONIC LOG
 DTSM.US/F   61 523 00 00:   SHEAR-WAVE INTERVAL TRANSIT TIME DELTA-T
 GRR .GAPI   07 310 01 00:   GAMMA RAY FROM RESISTIVITY
 TENR.LBS    01 635 01 00:   TENSION FROM RES.
 SPR .MV     07 010 01 00:   SPONTANEOUS POTENTIAL
 HLLD.OHMM   11 220 10 00:   LATEROLOG DEEP RES.
 HLLS.OHMM   11 220 09 00:   LATEROLOG SHALLOW RES.
 HRLD.OHMM   11 220 10 00:   HIGH RESOLUTION DEEP RESISTIVITY
~PARAMETER INFORMATION
#MNEM.UNIT          VALUE    DESCRIPTION
#----------   ------------   ------------------------------
 EKB .F         5244.0000:   Kelly bushing
 EGL .F         5227.0000:   Ground level
 EDF .F         5243.0000:   Drilling floor
 EPD .F            0.0000:   Permanent datum
 TD  .F         5756.0000:   Total depth
 DATE.        07-JAN-2002:   Date logged
 CLNT.            A2DTECH:   Client Code
 SL  . 189' FNL & 1895' FEL:   Surface Location
 PD  .                 GL:   Permanent Datum
 DD  .F              5750:   Depth driller
 DL  .F              5756:   Depth logger
 BLI .F              5748:   Bottom log interval
 CS1 .IN             3054:   Casing size
 CBD1.     9.625" @ 3052':   Casing driller 1
 CBL1.F              3054:   Casing logger 1
 BS1 .IN            8.750:   Bit size
 DFT .             3% KCL:   Type fluid in hole
 DFD .                9.3:   Density
 DFV .                 42:   Viscosity
 DFPH.                  8:   pH
 DFL .                 28:   Fluid loss
 MSS .           FLOWLINE:   Source of sample
 RMS .OHMM          0.413:   Rm
 MST .F                74:   Rm Meas. temp.
 RMF .OHMM          0.305:   Rmf
 MFST.F                74:   Rmf Meas. temp.
 RMC .OHMM          0.637:   Rmc
 MCST.F                74:   Rmc Meas. temp.
 MFSS.               CALC:   Source Rmf.
 RMB .OHMM          0.187:   Rm. at BHT
 BHT .F               172:   BHT.
 TCS .HRS            0800:   Time Circ. stopped
 MRT .F               172:   Maximum recorded temp.
 LUN .               2211:   Logging unit number
 LUL .             CASPER:   Logging unit location
 ENGI.        J.L. FLORES:   Recorded By
 WITN.      MARK MILLIKEN:   Witnessed by
 ORIG.           5" PRINT:   Origin of data
 UWI .     49025230310000:   Unique Well ID
 DICO. A2D TECHNOLOGIES, INC.:   Digitizing Company
 DAPD.                 17:   Feet Above Permanent Datum
 BSD1.               5750:   Depth drilled with bit1
 MCSS.               CALC:   Source Rmc.
 LMF .                 KB:   Log Measured From
 DMF .                 KB:   Drilling Measured From
 TLI .               3054:   Top log interval
~OTHER INFORMATION
~A   DEPT     CALD       TEND       PEFZ       RHOZ       NPOR       HDRA        GRS       DTSM         GRR      TENR        SPR       HLLD       HLLS       HRLD   
# ...
 3049.0000  -999.2500  2016.5250  -999.2500  -999.2500     0.3700  -999.2500    65.0140  -999.2500    64.9100  2063.6211  -999.2500  -999.2500  -999.2500  -999.2500
 3049.5000  -999.2500  2014.7450  -999.2500  -999.2500     0.3430  -999.2500    64.9270  -999.2500    63.7090  2061.5640  -999.2500  -999.2500  -999.2500  -999.2500
 3050.0000  -999.2500  2012.9640  -999.2500  -999.2500     0.3250  -999.2500    64.8370  -999.2500    62.8790  2059.5071  -999.2500  -999.2500  -999.2500  -999.2500
 3050.5000  -999.2500  2013.8550  -999.2500  -999.2500     0.3250  -999.2500    64.7490  -999.2500    62.8910  2057.4500  -999.2500  -999.2500  -999.2500  -999.2500
 3051.0000  -999.2500  2009.8490  -999.2500  -999.2500     0.3680  -999.2500    64.6620  -999.2500    63.7330  2055.6111  -999.2500  -999.2500  -999.2500  -999.2500
 3051.5000  -999.2500  2008.0680  -999.2500  -999.2500     0.3730  -999.2500    64.7500  -999.2500    64.9900  2055.6111  -999.2500  -999.2500  -999.2500  -999.2500
 3052.0000  -999.2500  2006.2880     7.3450  -999.2500     0.3790  -999.2500    65.0580  -999.2500    63.6680  2055.6111  -999.2500  -999.2500  -999.2500  -999.2500
 3052.5000  -999.2500  2004.5070     5.3760  -999.2500     0.4110  -999.2500    68.4820  -999.2500    64.5250  2055.6111  -999.2500  -999.2500  -999.2500  -999.2500
 3053.0000  -999.2500  2002.7271     3.9340  -999.2500     0.4450  -999.2500    76.7700  -999.2500    71.6160  2055.6111  -999.2500  -999.2500  -999.2500  -999.2500
 3053.5000  -999.2500  2000.9460     3.4570  -999.2500     0.4550  -999.2500    84.7900  -999.2500    81.0350  2055.6111  -999.2500  -999.2500  -999.2500  -999.2500
 3054.0000    10.2590  1999.1660     2.9170     2.4310     0.3550  -999.2500    90.5880  -999.2500    91.9640  2051.9080  -999.2500  -999.2500  -999.2500     2.5370
 3054.5000    10.2980  2017.8929     2.7410     2.4030     0.3150  -999.2500    94.0180  -999.2500   100.7320  2055.6111     1.6270     4.0350     4.2060     3.7200
 3055.0000    10.3370  2017.8929     2.7250     2.4830     0.2830     0.0760    96.5880  -999.2500   105.3260  2075.4719    19.6990     4.3440     5.6610     4.2230
 3055.5000    10.3660  2036.9680     2.6980     2.5160     0.2500     0.0360    95.2160  -999.2500   105.8550  2075.4719    35.8250     4.5040     5.9800     4.4220
 3056.0000    10.4080  2032.0900     2.6780     2.5170     0.2410     0.0110    95.2380  -999.2500   106.1210  2075.4719    50.4220     4.4630     5.9300     4.3450
 3056.5000    10.4580  2027.2120     2.6730     2.4930     0.2450     0.0030    95.8660  -999.2500   104.5430  2078.8601    51.2250     4.2630     5.8340     4.0730
 3057.0000    10.5080  2022.3340     2.6740     2.4890     0.2560     0.0030    95.4610  -999.2500   101.7440  2081.8750    52.0280     4.2630     5.7380     4.1230
 3057.5000    10.5590  2017.4561     2.6840     2.4920     0.2620     0.0020    94.2680  -999.2500    99.6680  2084.8911    52.6310     4.2790     5.7130     4.1480
 3058.0000    10.6090  2012.5780     2.6940     2.4930     0.2570     0.0020    93.0580  -999.2500    99.6150  2087.9060    52.4300     4.3020     5.7130     4.3140
 3058.5000    10.6580  2007.7000     2.6730     2.4890     0.2520     0.0020    92.1510  -999.2500   100.6680  2090.9209    52.0280     4.3020     5.7130     4.3820
 3059.0000    10.6990  2002.8220     2.6500     2.4850     0.2510     0.0020    96.1980  -999.2500   105.3100  2093.9360    38.9020     4.2740     5.6090     4.2630
 3059.5000    10.7350  1998.0120     2.6180     2.4870     0.2580     0.0010   100.4030  -999.2500   106.2810  2095.3330     5.2410     4.2350     5.5180     4.2630
 3060.0000    10.7930  2014.0210     2.6140     2.4830     0.2600     0.0000   101.1460  -999.2500   105.2310  2095.3330    -2.9920     4.1860     5.3600     4.2630
 3060.5000    10.8520  2029.8110     2.6280     2.4710     0.2600     0.0060   100.5650  -999.2500   103.3950  2095.3330     3.4580     4.1860     5.0730     4.0220
 3061.0000    10.9110  2045.6000     2.6620     2.4590     0.2690     0.0130    99.9400  -999.2500   100.6360  2095.3330    22.5240     4.0580     4.7140     4.0130
 3061.5000    10.9450  2057.6541     2.6950     2.4540     0.2850     0.0220    99.8660  -999.2500    99.0880  2095.3330    22.0850     4.0380     4.6940     3.7650
 3062.0000    11.0040  2057.6541     2.7290     2.4640     0.2970     0.0510   100.4150  -999.2500    99.4660  2095.3330    26.9280     3.9460     4.6330     3.7240
 3062.5000    11.0630  2081.7400     2.7690     2.4690     0.2950     0.0920   103.1720  -999.2500   100.1350  2095.3330    45.2290     3.8340     4.5250     3.7750
 3063.0000    11.1220  2104.8169     2.7920     2.4720     0.2990     0.0830   104.2000  -999.2500   102.9490  2095.3330    51.0240     3.7170     4.4160     3.6160
 3063.5000    11.1830  2117.2959     2.7430     2.4730     0.3050     0.0510   104.9560  -999.2500   103.6340  2081.5791    50.2170     3.7170     4.3020     3.6060
 3064.0000    11.2400  2092.6440     2.6960     2.4730     0.3020     0.0190   102.1120  -999.2500   104.0340  2055.6111    41.1330     3.6680     4.2680     3.5920
 3064.5000    11.3230  2064.0730     2.6480     2.4730     0.2860     0.0080    97.9720  -999.2500   104.6550  2071.7410     4.1860     3.6270     4.2240     3.5110
 3065.0000    11.3690  2037.7729     2.6160     2.4640     0.2900     0.0180    95.8200  -999.2500   107.2880  2093.0630   -20.6630     3.5830     4.1860     3.4420
 3065.5000    11.4110  2046.0770     2.6680     2.4250     0.2970     0.0540    96.8680  -999.2500   111.0020  2115.1941   -20.9850     3.5830     4.1860     3.6160
 3066.0000    11.4600  2053.7700     2.7160     2.3870     0.3110     0.0920    98.4240  -999.2500   113.0280  2135.0549   -21.2650     3.5700     4.1050     3.5060
 3066.5000    11.5680  2057.6541     2.7120     2.3660     0.3180     0.1550   100.0100  -999.2500   111.6730  2101.2471    -7.8110     3.4450     4.0350     3.3610
 3067.0000    11.6960  2041.9771     2.6780     2.3800     0.3290     0.1740   101.5920  -999.2500   110.2490  2055.6111    10.7910     3.3190     3.8920     3.2170
 3067.5000    11.7020  2027.6910     2.6730     2.3990     0.3390     0.1490   103.1640  -999.2500   112.5610  2035.7500    25.9240     3.2110     3.7050     3.0390
 3068.0000    11.7020  1998.0120     2.7040     2.4190     0.3420     0.1190   104.7410  -999.2500   115.6340  2084.0120    53.2330     3.2040     3.5500     3.0390
 3068.5000    11.7010  2040.1310     2.7200     2.4370     0.3280     0.0770   106.0710  -999.2500   118.6220  2103.7661    54.8390     3.1910     3.5590     3.0700
 3069.0000    11.7010  2077.5349     2.7330     2.4260     0.3190     0.0430   104.3510  -999.2500   116.2730  2073.1489    54.8390     3.1810     3.5740     3.1300
 3069.5000    11.6860  2052.6340     2.7240     2.4040     0.3200     0.0280   101.9500  -999.2500   111.2540  2035.7500    54.6390     3.2430     3.5830     3.2230
 3070.0000    12.0320  2017.8929     2.7150     2.3930     0.3180     0.0200   102.1510  -999.2500   107.4570  2035.7500    53.8350     3.3300     3.6110     3.3000
 3070.5000    12.3650  2067.3291     2.7240     2.4040     0.3200     0.0280   103.3080  -999.2500   106.1990  2090.5259    26.1240     3.3140     3.6350     3.2390
 3071.0000    11.6180  2137.1770     2.7370     2.4190     0.3390     0.0400   105.0290  -999.2500   106.1080  2136.9609     7.2480     3.2710     3.6010     3.1870
 3071.5000    11.7120  2137.1770     2.7500     2.4240     0.3440     0.0540   104.3100  -999.2500   105.9130  2174.7771    -7.7640     3.2280     3.4740     3.1240
 3072.0000    11.6990  2099.2051     2.7640     2.4320     0.3450     0.0570   102.6960  -999.2500   105.8420  2142.0720   -16.4460     3.1810     3.3470     3.0080
 3072.5000    11.7030  2049.2051     2.7770     2.4600     0.3460     0.0540   101.0850  -999.2500   106.4130  2115.1941     2.0280     3.0800     3.2700     2.8510
 3073.0000    11.7100  2042.1470     2.7920     2.4700     0.3500     0.0370    96.6440  -999.2500   106.0480  2106.0879    24.5780     3.0120     3.3000     2.9680
