~VERSION INFORMATION
 VERS.                2.0:   CWLS LOG ASCII STANDARD - VERSION 2.0
 WRAP.                 NO:   ONE LINE PER DEPTH STEP
~WELL INFORMATION
#MNEM.UNIT      DATA TYPE    INFORMATION
#----------   ------------   ------------------------------
 STRT.F          700.5000:   START DEPTH
 STOP.F         3060.0000:   STOP DEPTH
 STEP.F            0.5000:   STEP LENGTH
 NULL.          -999.2500:   NO VALUE
 COMP.    FENIX & SCISSON:   COMPANY
 WELL.   FENIX "A" #23-34:   WELL
 FLD .           N P R #3:   FIELD
 LOC .      S34 T39N R78W:   LOCATION
 CNTY.            NATRONA:   COUNTY
 STAT.            WYOMING:   STATE
 CTRY. UNITED STATES OF AMERICA:   COUNTRY
 SRVC.       SCHLUMBERGER:   SERVICE COMPANY
 DATE.        23-APR-1977:   LOGDATE
 API .     49025103590000:   API NUMBER
~CURVE INFORMATION
#MNEM.UNIT       API CODE    CURVE DESCRIPTION
#----------   ------------   ------------------------------
 DEPT.F                  :   
 ILD .OHMM   07 120 46 00:   DEEP INDUCTION RESISTIVITY
 ILM .OHMM   07 120 44 00:   INDUCTION LOG MEDIUM RESISTIVITY
 LL8 .OHMM   07 220 08 00:   LATEROLOG-8 RES.
 SPR .MV     07 010 01 00:   SPONTANEOUS POTENTIAL
 GRD .GAPI   45 310 01 00:   GAMMA RAY FROM DENSITY LOG
 CALD.IN     45 280 60 00:   CALIPER FROM DENSITY LOG
 RHOB.G/C3   45 350 01 00:   BULK DENSITY
 CORR.G/C3   45 356 01 00:   DENSITY CORRECTION
~PARAMETER INFORMATION
#MNEM.UNIT          VALUE    DESCRIPTION
#----------   ------------   ------------------------------
 EKB .F         5094.0000:   Kelly bushing
 EGL .F         5082.0000:   Ground level
 EDF .F            0.0000:   Drilling floor
 EPD .F            0.0000:   Permanent datum
 TD  .F         3051.0000:   Total depth
 DATE.        23-APR-1977:   Date logged
 CLNT.            A2DTECH:   Client Code
 SL  . 990' FWL & 1650' FNL:   Surface Location
 PD  .                 GL:   Permanent Datum
 DD  .F              3050:   Depth driller
 DL  .F              3051:   Depth logger
 BLI .F              3045:   Bottom log interval
 CS1 .IN            8.625:   Casing size
 CBD1.      8.625" @ 718':   Casing driller 1
 CBL1.F               717:   Casing logger 1
 BS1 .IN            7.875:   Bit size
 DFT .                FGM:   Type fluid in hole
 DFD .                8.8:   Density
 DFV .                 34:   Viscosity
 DFPH.                8.5:   pH
 DFL .                8.2:   Fluid loss
 MSS .           FLOWLINE:   Source of sample
 RMS .OHMM           .155:   Rm
 MST .F                66:   Rm Meas. temp.
 RMF .OHMM           .152:   Rmf
 MFST.F                66:   Rmf Meas. temp.
 MFSS.               MEAS:   Source Rmf.
 RMB .OHMM           .085:   Rm. at BHT
 BHT .F               120:   BHT.
 TCS .HRS            0230:   Time Circ. stopped
 MRT .F               120:   Maximum recorded temp.
 LUN .               5642:   Logging unit number
 LUL .               CSPR:   Logging unit location
 ENGI.             TAYLOR:   Recorded By
 WITN.         HARRINGTON:   Witnessed by
 ORIG.           5" PRINT:   Origin of data
 UWI .     49025103590000:   Unique Well ID
 DICO. A2D TECHNOLOGIES, INC.:   Digitizing Company
 DAPD.                 12:   Feet Above Permanent Datum
 BSD1.               3050:   Depth drilled with bit1
 TLI .                717:   Top log interval
 TLAB.               0530:   Time logger at bottom
~OTHER INFORMATION
~A   DEPT      ILD        ILM        LL8        SPR         GRD      CALD       RHOB       CORR   
# ...
 2401.5000     5.5730     4.9440     6.4550   -73.9090   146.7620    10.3310     2.5290     0.0180
 2402.0000     5.5180     4.8940     6.1240   -73.7700   145.0990    10.3070     2.5390     0.0170
 2402.5000     5.5180     4.9390     5.6790   -73.6320   142.1490    10.2690     2.5260     0.0220
 2403.0000     5.5180     5.0410     5.6200   -73.4930   139.2410    10.2300     2.5470     0.0320
 2403.5000     5.5350     5.0620     7.0140   -73.3550   137.1890    10.1920     2.5560     0.0430
 2404.0000     5.6030     5.0840     6.9640   -73.2190   138.2310    10.1530     2.5340     0.0360
 2404.5000     5.6710     5.1050     6.8890   -73.1720   139.9690    10.1140     2.5420     0.0330
 2405.0000     5.7380     5.1260     6.8140   -73.4280   140.9240    10.0910     2.5650     0.0550
 2405.5000     5.8060     5.1470     6.7390   -73.6750   141.7100    10.0810     2.5820     0.0680
 2406.0000     5.8740     5.1690     6.6410   -73.9220   141.2460    10.0740     2.5680     0.0570
 2406.5000     5.9400     5.1720     6.6600   -74.1690   142.8070    10.0650     2.5290     0.0280
 2407.0000     5.8850     5.0780     6.6980   -74.4160   144.9800    10.0570     2.5250     0.0150
 2407.5000     5.8300     4.9920     6.7370   -74.6650   146.0380    10.0480     2.5370     0.0300
 2408.0000     5.7760     4.9440     6.7590   -74.8870   145.9830    10.0400     2.5480     0.0430
 2408.5000     5.7220     4.8960     6.6220   -74.6480   144.1730    10.0320     2.5600     0.0560
 2409.0000     5.6670     4.8480     6.5280   -74.3980   141.2040    10.0230     2.5530     0.0460
 2409.5000     5.6130     4.8000     6.3950   -74.1510   139.9960    10.0120     2.5440     0.0320
 2410.0000     5.5690     4.7600     6.4140   -73.9040   141.0490     9.9850     2.5510     0.0380
 2410.5000     5.5690     4.7600     6.4640   -73.6570   142.6980     9.9580     2.5560     0.0470
 2411.0000     5.7570     4.8630     6.5750   -73.4100   143.5840     9.9310     2.5360     0.0270
 2411.5000     5.9500     5.0210     6.5030   -73.1630   144.1560     9.9050     2.5220     0.0200
 2412.0000     6.1420     5.1790     6.3370   -72.9170   143.7260     9.8780     2.5430     0.0280
 2412.5000     6.3340     5.3370     6.2780   -72.6730   141.7990     9.8510     2.5670     0.0410
 2413.0000     6.5270     5.4940     6.7720   -72.5750   138.7220     9.8240     2.5510     0.0330
 2413.5000     6.7190     5.6520     7.3520   -72.7140   133.8610     9.8000     2.5370     0.0100
 2414.0000     6.9110     5.8100     7.9320   -72.8510   129.5930     9.7770     2.5360     0.0100
 2414.5000     7.1040     5.9680     8.3610   -72.9880   126.2090     9.7790     2.5430     0.0220
 2415.0000     7.2960     6.1640     8.6550   -73.1260   127.3420     9.7610     2.5590     0.0310
 2415.5000     7.4880     6.3020     8.9150   -73.2640   130.7270     9.7560     2.5410     0.0260
 2416.0000     7.6210     6.3950     8.9150   -73.4010   133.7840     9.7530     2.5510     0.0220
 2416.5000     7.6020     6.3800     8.5910   -73.5400   134.8210     9.7510     2.5640     0.0360
 2417.0000     7.5760     6.3680     8.2330   -73.6870   133.8080     9.7480     2.5650     0.0370
 2417.5000     7.5490     6.3570     7.9080   -73.4480   133.1450     9.7460     2.5460     0.0300
 2418.0000     7.5230     6.3450     8.0230   -73.1120   134.0580     9.7430     2.5360     0.0170
 2418.5000     7.4960     6.3330     8.1900   -72.7720   138.3360     9.7400     2.5450     0.0320
 2419.0000     7.4700     6.3210     8.3570   -72.4320   142.6970     9.7380     2.5240     0.0150
 2419.5000     7.4430     6.3100     8.5130   -72.0930   143.3580     9.7350     2.5050    -0.0010
 2420.0000     7.4130     6.2980     8.4290   -71.7550   144.5590     9.7330     2.5570     0.0290
 2420.5000     7.5170     6.2860     8.3300   -71.5240   145.6410     9.7300     2.5520     0.0240
 2421.0000     7.6750     6.2740     8.2320   -71.5270   141.2880     9.7280     2.5540     0.0230
 2421.5000     7.7630     6.2630     8.1340   -71.5330   136.2280     9.7250     2.5590     0.0260
 2422.0000     7.7120     6.2510     7.9810   -71.8150   132.2860     9.7230     2.5270     0.0070
 2422.5000     7.5960     6.2390     8.1050   -72.1260   132.5530     9.7200     2.5050    -0.0010
 2423.0000     7.4800     6.2280     8.3910   -72.4370   134.5970     9.7160     2.5150     0.0010
 2423.5000     7.3640     6.1660     8.6720   -72.7470   136.3120     9.7420     2.5240     0.0100
 2424.0000     7.2480     5.9170     8.6720   -73.0580   136.8210     9.7910     2.5160     0.0090
 2424.5000     7.1320     5.6680     8.2380   -73.3720   136.5650     9.8630     2.5060     0.0030
 2425.0000     7.0160     5.4190     7.8100   -73.6940   136.3060     9.9340     2.4980     0.0040
 2425.5000     6.9000     5.2690     7.5530   -73.6020   137.3720     9.9960     2.5000     0.0110
 2426.0000     6.7840     5.4170     7.5730   -73.4760   139.7770     9.9800     2.5140     0.0210
 2426.5000     6.7590     5.5840     7.5890   -73.3520   140.8780     9.9180     2.5090     0.0240
 2427.0000     6.7590     5.9480     7.6050   -73.2290   139.7970     9.8580     2.5010     0.0120
 2427.5000     6.7590     6.3950     7.6210   -73.1050   140.1020     9.8000     2.5110     0.0170
 2428.0000     6.7590     6.3210     7.8370   -72.9820   139.9610     9.7730     2.5070     0.0110
 2428.5000     6.8010     6.2270     8.0610   -72.8580   138.2840     9.7780     2.5280     0.0160
 2429.0000     6.8740     6.1330     8.2050   -72.7350   134.6980     9.7760     2.5350     0.0300
 2429.5000     6.9480     6.0380     8.1040   -72.6120   133.0260     9.7750     2.5530     0.0460
 2430.0000     7.0210     5.9950     7.9200   -72.4880   136.4630     9.7740     2.5630     0.0490
 2430.5000     7.0950     6.0590     7.8350   -72.3560   138.8540     9.7730     2.5720     0.0440
 2431.0000     7.1480     6.1170     7.9020   -72.5120   137.3040     9.7720     2.5420     0.0300
 2431.5000     7.1750     6.1740     8.1070   -72.7960   136.2730     9.7710     2.5290     0.0170
 2432.0000     7.2020     6.2320     8.2050   -73.0830   139.0510     9.7700     2.5350     0.0150
 2432.5000     7.2290     6.2900     8.1330   -73.3700   140.0030     9.7680     2.5290     0.0180
 2433.0000     7.2570     6.3480     8.0310   -73.6550   138.3130     9.7670     2.5380     0.0230
 2433.5000     7.2840     6.4060     7.9810   -73.9390   136.2590     9.7660     2.5450     0.0210
 2434.0000     7.3110     6.4640     8.0850   -74.0330   136.0690     9.7650     2.5420     0.0120
 2434.5000     7.3380     6.5220     8.2340   -73.8620   135.7680     9.7640     2.5580     0.0220
 2435.0000     7.3660     6.5750     8.2810   -73.6930   137.5140     9.7630     2.5470     0.0180
 2435.5000     7.3930     6.5620     8.2180   -73.5230   139.7300     9.7620     2.5390     0.0150
 2436.0000     7.4130     6.5500     8.1600   -73.3530   141.9690     9.7610     2.5490     0.0260
 2436.5000     7.2320     6.5380     8.1290   -73.1810   144.4880     9.7600     2.5500     0.0270
 2437.0000     7.1270     6.5260     8.3600   -73.1390   147.5170     9.7590     2.5360     0.0180
 2437.5000     7.0220     6.5140     8.4350   -73.1760   148.5530     9.7580     2.5400     0.0120
 2438.0000     6.9170     6.3070     8.3580   -73.2140   148.1980     9.7590     2.5240     0.0160
 2438.5000     6.8120     6.0630     7.8440   -73.2520   144.7670     9.7630     2.5450     0.0270
 2439.0000     6.7060     5.8190     7.3510   -73.2910   141.4740     9.7670     2.5540     0.0370
 2439.5000     6.6010     5.6720     6.8590   -73.4210   139.9100     9.7710     2.5510     0.0350
 2440.0000     6.4960     5.6720     6.5750   -73.7050   141.0940     9.7750     2.5390     0.0260
 2440.5000     6.3910     5.6720     7.5860   -73.9870   143.8580     9.7790     2.5270     0.0160
 2441.0000     6.2850     5.4940     7.9080   -74.2690   144.8590     9.7820     2.5180     0.0140
 2441.5000     6.1800     5.3180     7.2700   -74.5520   146.7810     9.7860     2.5330     0.0320
