~VERSION INFORMATION
 VERS.                2.0:   CWLS LOG ASCII STANDARD - VERSION 2.0
 WRAP.                 NO:   ONE LINE PER DEPTH STEP
~WELL INFORMATION
#MNEM.UNIT      DATA TYPE    INFORMATION
#----------   ------------   ------------------------------
 STRT.F           60.0000:   START DEPTH
 STOP.F         3758.0000:   STOP DEPTH
 STEP.F            0.5000:   STEP LENGTH
 NULL.          -999.2500:   NO VALUE
 COMP. LAWRENCE ALLISON & ASSOCIATES:   COMPANY
 WELL. LAWRENCE "MX" #72-10:   WELL
 FLD .            N P R 3:   FIELD
 LOC .      S10 T38N R78W:   LOCATION
 CNTY.            NATRONA:   COUNTY
 STAT.            WYOMING:   STATE
 CTRY. UNITED STATES OF AMERICA:   COUNTRY
 SRVC.       SCHLUMBERGER:   SERVICE COMPANY
 DATE.        03-JUL-1982:   LOGDATE
 API .     49025108910000:   API NUMBER
~CURVE INFORMATION
#MNEM.UNIT       API CODE    CURVE DESCRIPTION
#----------   ------------   ------------------------------
 DEPT.F                  :   
 GRD .GAPI   45 310 01 00:   GAMMA RAY FROM DENSITY LOG
 NPHI.DEC    42 890 03 00:   NEUTRON POROSITY SANDSTONE
 CALD.IN     45 280 60 00:   CALIPER FROM DENSITY LOG
 RHOB.G/C3   45 350 01 00:   BULK DENSITY
 DRHO.G/C3   45 356 01 00:   DENSITY CORRECTION
 TEND.LBS    45 635 01 00:   TENSION FROM DENSITY LOG
 SPR .MV     07 010 01 00:   SPONTANEOUS POTENTIAL
 SFL .OHMM   07 220 01 00:   SHALLOW FOCUSED LOG RESISTIVITY
 ILD .OHMM   07 120 46 00:   DEEP INDUCTION RESISTIVITY
 ILM .OHMM   07 120 44 00:   INDUCTION LOG MEDIUM RESISTIVITY
 TENR.LBS    07 635 01 00:   TENSION FROM RESISTIVITY
~PARAMETER INFORMATION
#MNEM.UNIT          VALUE    DESCRIPTION
#----------   ------------   ------------------------------
 EKB .F         5182.0000:   Kelly bushing
 EGL .F         5172.0000:   Ground level
 EDF .F            0.0000:   Drilling floor
 EPD .F            0.0000:   Permanent datum
 TD  .F         3770.0000:   Total depth
 DATE.        03-JUL-1982:   Date logged
 CLNT.            A2DTECH:   Client Code
 SL  . 1119' FNL & 21' FEL:   Surface Location
 PD  .                 GL:   Permanent Datum
 DD  .F              3770:   Depth driller
 DL  .F              3750:   Depth logger
 BLI .F              3744:   Bottom log interval
 CS1 .IN            9.625:   Casing size
 CBD1.      9.625" @ 473':   Casing driller 1
 CBL1.F               482:   Casing logger 1
 BS1 .IN            7.875:   Bit size
 DFT .                GEL:   Type fluid in hole
 DFD .                9.1:   Density
 DFV .                 34:   Viscosity
 DFPH.               10.5:   pH
 DFL .                 12:   Fluid loss
 MSS .            MUD PIT:   Source of sample
 RMS .OHMM           1.50:   Rm
 MST .F                84:   Rm Meas. temp.
 RMF .OHMM           1.37:   Rmf
 MFST.F                83:   Rmf Meas. temp.
 RMC .OHMM           1.20:   Rmc
 MCST.F                83:   Rmc Meas. temp.
 MFSS.               MEAS:   Source Rmf.
 RMB .OHMM              1:   Rm. at BHT
 BHT .F               130:   BHT.
 TCS .HRS            1500:   Time Circ. stopped
 MRT .F               130:   Maximum recorded temp.
 LUN .               8039:   Logging unit number
 LUL .               CSPR:   Logging unit location
 ENGI. CONOSCENTI/PIRAKIS:   Recorded By
 WITN.             STRONG:   Witnessed by
 ORIG.       2.5"5" PRINT:   Origin of data
 UWI .     49025108910000:   Unique Well ID
 DICO. A2D TECHNOLOGIES, INC.:   Digitizing Company
 DAPD.                 10:   Feet Above Permanent Datum
 BSD1.               3770:   Depth drilled with bit1
 MCSS.               CALC:   Source Rmc.
 TLI .                482:   Top log interval
 TLAB.HR             1800:   Time logger at bottom
~OTHER INFORMATION
~A   DEPT      GRD       NPHI       CALD       RHOB       DRHO       TEND        SPR        SFL        ILD        ILM       TENR   
# ...
 2225.5000   123.4470     0.3340    11.6630     2.4970     0.0390  1448.9370   -55.4040    11.1300     9.6250     9.0020  1352.7050
 2226.0000   123.2810     0.3410    11.6350     2.4790     0.0430  1449.1670   -55.5710    10.8890     9.6410     9.1660  1352.7050
 2226.5000   123.9570     0.3220    11.5470     2.4590     0.0240  1449.3970   -55.7370    10.7270     9.6580     9.4840  1352.7050
 2227.0000   123.1360     0.3040    11.4650     2.4470     0.0040  1449.6270   -55.9060    11.8310     9.6740     9.7820  1352.7050
 2227.5000   119.0480     0.3040    11.4100     2.4520     0.0040  1449.8580   -56.0680    12.6600     9.6920     9.6650  1352.7050
 2228.0000   117.8580     0.3060    11.3790     2.4580     0.0030  1450.0880   -55.6520    13.5110     9.6770     9.5090  1352.7050
 2228.5000   115.9970     0.3210    11.3450     2.4640     0.0030  1450.3180   -55.1310    13.0210     9.6580     9.3530  1352.7050
 2229.0000   114.7710     0.3360    11.3130     2.4700     0.0030  1450.5480   -55.0330    12.2080     9.6390     9.1970  1352.7050
 2229.5000   112.1710     0.3310    11.2770     2.4680     0.0030  1450.7780   -54.9580    11.3810     9.6200     9.0410  1352.7050
 2230.0000   108.6700     0.3220    11.2590     2.4670     0.0030  1451.0090   -54.8800    10.2940     9.6010     8.8370  1352.7050
 2230.5000   104.1670     0.3180    11.2410     2.4700     0.0020  1451.2390   -54.8010    10.4950     9.5820     8.8860  1352.7050
 2231.0000   103.4460     0.3130    11.2230     2.4750     0.0020  1451.4690   -54.7230    10.8970     9.5630     9.0010  1352.7050
 2231.5000   105.9800     0.3080    11.2040     2.4770     0.0040  1451.6990   -54.6440    11.2990     9.5440     9.1160  1352.7050
 2232.0000   107.0610     0.3040    11.1860     2.4740     0.0060  1451.9290   -54.5670    11.7010     9.5250     9.2310  1352.7050
 2232.5000   108.0490     0.2990    11.1680     2.4720     0.0080  1452.1600   -54.5550    12.1030     9.5140     9.3450  1352.7050
 2233.0000   107.7590     0.2920    11.1500     2.4750     0.0100  1452.3900   -54.6460    12.5060     9.6220     9.6920  1352.7050
 2233.5000   105.1030     0.2930    11.1320     2.4790     0.0120  1452.6200   -54.7360    12.9080     9.7050     9.6450  1352.7050
 2234.0000   103.1140     0.2950    11.1130     2.4840     0.0100  1452.8500   -54.8270    13.2640     9.7890     9.5780  1352.7050
 2234.5000   101.4470     0.2920    11.0950     2.4890     0.0080  1453.0811   -54.9100    12.6100     9.8730     9.5110  1352.7050
 2235.0000    99.7120     0.2880    11.0780     2.4910     0.0050  1453.3110   -54.9040    11.8970     9.9570     9.4270  1352.7050
 2235.5000    98.1980     0.2840    11.0590     2.4930     0.0030  1453.5410   -54.8970    10.8270    10.0410     9.6060  1352.7050
 2236.0000    96.3000     0.2800    11.0420     2.4980     0.0010  1453.7710   -54.8890    11.2660    10.1250     9.8700  1352.7050
 2236.5000    98.7800     0.2760    11.0240     2.4940    -0.0010  1454.0010   -54.8820    12.7640    10.2080    10.1330  1352.7050
 2237.0000   102.0670     0.2740    11.0070     2.4870    -0.0010  1454.2321   -54.8740    14.2800    10.2810    10.2440  1352.7050
 2237.5000   111.2770     0.2810    10.9890     2.4690     0.0030  1454.4620   -54.8670    14.6340    10.3450    10.1920  1352.7050
 2238.0000   119.1790     0.3160    10.9720     2.4540     0.0050  1454.6920   -54.8600    14.2240    10.4100    10.1260  1352.7050
 2238.5000   125.2900     0.3240    10.9540     2.4370     0.0060  1454.9220   -54.8530    13.8970    10.4470    10.0610  1352.7050
 2239.0000   123.1690     0.3310    10.9370     2.4260     0.0080  1455.1520   -54.8450    13.5690    10.4670     9.9950  1352.7050
 2239.5000   120.3010     0.3200    10.9190     2.4380     0.0090  1455.3831   -54.8380    13.0970    10.4880     9.9290  1352.7050
 2240.0000   118.1680     0.3140    10.9010     2.4550     0.0110  1455.6130   -54.8310    12.4440    10.5080     9.8640  1352.7050
 2240.5000   119.4880     0.3110    10.8840     2.4720     0.0250  1455.8430   -54.8230    12.0950    10.5280     9.7980  1352.7050
 2241.0000   120.4880     0.3080    10.8890     2.4840     0.0330  1456.0730   -54.8160    12.5420    10.3380     9.7330  1352.7050
 2241.5000   121.7490     0.3050    10.8970     2.4730     0.0260  1456.3030   -54.8090    13.0540    10.1170     9.6670  1352.7050
 2242.0000   122.8290     0.3210    10.9050     2.4610     0.0200  1456.5341   -54.8010    13.4380     9.9640     9.6020  1352.7050
 2242.5000   123.8940     0.3270    10.9120     2.4500     0.0140  1456.7640   -54.7940    12.7120     9.9850     9.5360  1352.7050
 2243.0000   123.1350     0.3400    10.9200     2.4480     0.0090  1456.9940   -54.7870    11.9900    10.0530     9.4700  1352.7050
 2243.5000   122.4510     0.3480    10.9270     2.4570     0.0100  1457.2240   -54.7790    11.5780    10.1200     9.4270  1352.7050
 2244.0000   120.7850     0.3380    10.9350     2.4670     0.0130  1457.4540   -54.7720    12.1440    10.1870     9.6270  1352.7050
 2244.5000   118.3800     0.3270    10.9430     2.4760     0.0130  1457.6851   -54.7650    12.6640    10.2440     9.7820  1352.7050
 2245.0000   116.2170     0.2970    10.9500     2.4750     0.0080  1457.9150   -54.7570    12.7830    10.0000     9.5410  1352.7050
 2245.5000   113.9240     0.2860    10.9570     2.4730     0.0050  1458.1450   -54.7500    12.7830     9.7820     9.2280  1352.7050
 2246.0000   112.6860     0.2740    10.9680     2.4730     0.0060  1458.3750   -54.7430    12.1650     9.3320     8.9160  1352.7050
 2246.5000   112.3090     0.2680    11.0420     2.4710     0.0030  1458.6050   -54.7350    11.1290     8.8790     8.6030  1352.7050
 2247.0000   111.6670     0.2760    11.1070     2.4750     0.0080  1458.8361   -54.7280    10.0790     8.4390     8.3610  1352.7050
 2247.5000   111.4410     0.2880    11.1780     2.4880     0.0130  1459.0660   -54.7210     9.0100     8.1350     7.7440  1352.7050
 2248.0000   108.9850     0.2970    11.2440     2.4830     0.0860  1459.2960   -54.7100     7.9410     7.8400     7.1440  1352.7050
 2248.5000   104.7680     0.3400    11.3030     2.4400     0.1100  1459.5260   -54.6890     6.5170     7.5450     6.5780  1352.7050
 2249.0000   101.0020     0.3750    11.2030     2.4030     0.0760  1459.7560   -54.6680     7.0620     7.2130     6.7350  1352.7050
 2249.5000    97.3820     0.3580    11.0960     2.3700     0.0170  1459.9871   -54.6470     8.2260     7.2790     6.8830  1352.7050
 2250.0000    97.0930     0.3430    10.9730     2.4130    -0.0040  1460.2170   -54.6260     9.7630     7.3740     7.0310  1352.7050
 2250.5000    97.0860     0.3110    10.9710     2.4570    -0.0050  1460.4470   -54.6050    11.1310     7.4700     7.1790  1352.7050
 2251.0000    97.3960     0.2880    10.9840     2.4610    -0.0070  1460.6770   -54.5840    10.7480     7.5870     7.3270  1352.7050
 2251.5000   100.0790     0.2860    10.9990     2.4610    -0.0090  1460.9070   -54.5640    10.0080     7.8600     7.4850  1352.7050
 2252.0000   100.8110     0.2850    11.0110     2.4610    -0.0110  1461.1379   -54.5430     9.2690     8.1320     7.4160  1352.7050
 2252.5000   102.0280     0.2840    11.0250     2.4670    -0.0130  1461.3680   -54.5220     8.2080     8.3750     7.5590  1352.7050
 2253.0000    99.8460     0.2870    11.0370     2.4720    -0.0120  1461.5980   -54.5010     8.3110     8.4620     7.8180  1352.7050
 2253.5000    95.1660     0.2900    11.0510     2.4750    -0.0080  1461.8280   -54.4800     8.5960     8.5490     8.0760  1352.7050
 2254.0000    91.3300     0.2920    11.0640     2.4730    -0.0050  1462.0580   -54.4590    10.2450     8.6360     8.3610  1352.7050
 2254.5000    86.9540     0.2730    11.0780     2.4720    -0.0020  1462.2889   -54.4380    11.9210     8.7220     8.4490  1352.7050
 2255.0000    88.3670     0.2640    11.0740     2.4710     0.0020  1462.5190   -54.4170    12.9440     8.8010     8.5380  1352.7050
 2255.5000    93.2410     0.2620    11.0630     2.4800     0.0060  1462.7490   -54.3960    13.0210     8.9090     8.6260  1352.7050
