~VERSION INFORMATION
 VERS.                2.0:   CWLS LOG ASCII STANDARD - VERSION 2.0
 WRAP.                 NO:   ONE LINE PER DEPTH STEP
~WELL INFORMATION
#MNEM.UNIT      DATA TYPE    INFORMATION
#----------   ------------   ------------------------------
 STRT.F           48.5000:   START DEPTH
 STOP.F         3509.0000:   STOP DEPTH
 STEP.F            0.5000:   STEP LENGTH
 NULL.          -999.2500:   NO VALUE
 COMP.   TESORO PETROLEUM:   COMPANY
 WELL. TESORO "TX" #45-33:   WELL
 FLD .        TEAPOT DOME:   FIELD
 LOC .      S33 T39N R78W:   LOCATION
 CNTY.            NATRONA:   COUNTY
 STAT.            WYOMING:   STATE
 CTRY. UNITED STATES OF AMERICA:   COUNTRY
 SRVC.      DRESSER ATLAS:   SERVICE COMPANY
 DATE.        03-OCT-1976:   LOGDATE
 API .     49025102700000:   API NUMBER
~CURVE INFORMATION
#MNEM.UNIT       API CODE    CURVE DESCRIPTION
#----------   ------------   ------------------------------
 DEPT.F                  :   
 SPR .MV     07 010 01 00:   SPONTANEOUS POTENTIAL
 TENR.LBS    07 635 01 00:   TENSION FROM RESISTIVITY
 SFL .OHMM   07 220 01 00:   SHALLOW FOCUSED LOG RESISTIVITY
 ILM .OHMM   07 120 44 00:   INDUCTION LOG MEDIUM RESISTIVITY
 ILD .OHMM   07 120 46 00:   DEEP INDUCTION RESISTIVITY
 GRD .GAPI   45 310 01 00:   GAMMA RAY FROM DENSITY LOG
 CALD.IN     45 280 60 00:   CALIPER FROM DENSITY LOG
 NPHI.DEC    42 890 03 00:   NEUTRON POROSITY SANDSTONE
 DPHI.DEC    45 890 12 00:   DENSITY POROSITY SANDSTONE
 TEND.LBS    45 635 01 00:   TENSION FROM DENSITY LOG
~PARAMETER INFORMATION
#MNEM.UNIT          VALUE    DESCRIPTION
#----------   ------------   ------------------------------
 EKB .F         5217.0000:   Kelly bushing
 EGL .F         5206.0000:   Ground level
 EDF .F         5216.0000:   Drilling floor
 EPD .F         5206.0000:   Permanent datum
 TD  .F         3491.0000:   Total depth
 DATE.        03-OCT-1976:   Date logged
 CLNT.            A2DTECH:   Client Code
 SL  . 2030' FWL & 2145' FSL:   Surface Location
 PD  .                 GL:   Permanent Datum
 DD  .F              3491:   Depth driller
 DL  .F              3487:   Depth logger
 BLI .F              3485:   Bottom log interval
 TLI .F               813:   Top log interval
 CS1 .IN            8.625:   Casing size
 CBD1.      8.625" @ 823':   Casing driller 1
 CBL1.F               819:   Casing logger 1
 BS1 .IN            7.875:   Bit size
 BSD1.F              3491:   Depth drilled with bit1
 DFT .           CHEM GEL:   Type fluid in hole
 DFD .                9.4:   Density
 DFV .                 47:   Viscosity
 DFPH.                 10:   pH
 DFL .                5.8:   Fluid loss
 MSS .           FLOWLINE:   Source of sample
 RMS .OHMM           1.09:   Rm
 MST .F                68:   Rm Meas. temp.
 RMF .OHMM              1:   Rmf
 MFST.F                68:   Rmf Meas. temp.
 RMC .OHMM           1.24:   Rmc
 MCST.F                68:   Rmc Meas. temp.
 MFSS.               MEAS:   Source Rmf.
 MCSS.               MEAS:   Source Rmc.
 RMB .OHMM            .62:   Rm. at BHT
 BHT .F               119:   BHT.
 TCS .HRS              12:   Time Circ. stopped
 MRT .F               119:   Maximum recorded temp.
 LUN .               6134:   Logging unit number
 LUL .              GLTTE:   Logging unit location
 ENGI.            VAUGHIN:   Recorded By
 WITN.        WOLF-CARTER:   Witnessed by
 ORIG.     2.5", 5" PRINT:   Origin of data
 UWI .     49025102700000:   Unique Well ID
 DICO. A2D TECHNOLOGIES, INC.:   Digitizing Company
 DAPD.                 11:   Feet Above Permanent Datum
~OTHER INFORMATION
~A   DEPT      SPR        TENR       SFL        ILM        ILD        GRD       CALD       NPHI       DPHI       TEND   
# ...
 3030.0000   -23.4550  -999.2500     4.2430     3.8290     3.7900   166.9020     8.4360     0.2600     0.0770   262.6150
 3030.5000   -23.4270  -999.2500     4.1920     3.5680     3.5390   167.8920     8.4410     0.2620     0.0890   263.1360
 3031.0000   -23.4030  -999.2500     4.1280     3.4000     3.3070   168.3060     8.4360     0.2610     0.1030   263.6580
 3031.5000   -23.4000  -999.2500     4.0890     3.1530     3.1180   166.1010     8.4300     0.2570     0.1190   264.1800
 3032.0000   -23.4020  -999.2500     3.7680     2.9880     2.8800   161.8370     8.4240     0.2480     0.1150   264.7020
 3032.5000   -23.4000  -999.2500     3.4470     3.0020     2.8890   156.7560     8.4030     0.2390     0.0900   264.7380
 3033.0000   -23.3990  -999.2500     2.9330     3.0130     2.9000   149.8210     8.3810     0.2310     0.0650   264.1270
 3033.5000   -23.4090  -999.2500     2.9940     3.0250     2.9110   143.4890     8.3600     0.2230     0.0410   263.5160
 3034.0000   -23.3740  -999.2500     3.1460     3.0370     2.9220   139.3440     8.3440     0.2190     0.0320   262.9050
 3034.5000   -23.6990  -999.2500     3.2980     3.2030     2.9330   139.2040     8.3440     0.2180     0.0360   262.2940
 3035.0000   -24.1820  -999.2500     3.4500     3.6030     3.2920   139.8500     8.3440     0.2170     0.0360   261.6830
 3035.5000   -24.1460  -999.2500     3.6030     4.0030     3.6500   139.4650     8.3440     0.2160     0.0360   261.0720
 3036.0000   -24.1100  -999.2500     3.7550     4.3220     4.0080   138.7310     8.3440     0.2150     0.0360   260.4610
 3036.5000   -24.0600  -999.2500     3.9070     4.4310     4.3670   137.5740     8.3440     0.2130     0.0320   259.8500
 3037.0000   -24.0180  -999.2500     4.0890     4.5210     4.6530   136.3720     8.3440     0.2140     0.0370   259.2390
 3037.5000   -23.9720  -999.2500     4.0890     4.6110     4.7860   136.1460     8.3440     0.2150     0.0420   258.6280
 3038.0000   -23.9280  -999.2500     4.1350     4.7020     4.9180   136.3100     8.3450     0.2120     0.0440   258.0170
 3038.5000   -23.8840  -999.2500     4.2120     4.7920     4.9550   136.1960     8.3470     0.2090     0.0460   257.4060
 3039.0000   -23.8390  -999.2500     4.2830     4.8980     5.0100   136.0400     8.3500     0.2070     0.0520   256.7950
 3039.5000   -23.7950  -999.2500     4.3420     5.0150     5.1270   136.7710     8.3520     0.2060     0.0590   256.1840
 3040.0000   -23.7500  -999.2500     4.4030     5.1320     5.2740   137.6480     8.3540     0.2040     0.0560   255.5730
 3040.5000   -23.7060  -999.2500     4.4740     5.2480     5.4210   138.5260     8.3560     0.2050     0.0490   255.0000
 3041.0000   -23.6620  -999.2500     4.5640     5.3280     5.5970   139.4010     8.3590     0.2070     0.0420   261.3330
 3041.5000   -23.6190  -999.2500     4.6530     5.3840     5.5710   139.8730     8.3610     0.2090     0.0390   267.2980
 3042.0000   -23.5700  -999.2500     4.6530     5.4390     5.5390   139.8830     8.3630     0.2080     0.0450   273.2620
 3042.5000   -23.5330  -999.2500     4.5680     5.4940     5.4940   140.9150     8.3660     0.2080     0.0480   279.2260
 3043.0000   -23.4770  -999.2500     4.4850     5.5600     5.5680   141.5120     8.3690     0.2100     0.0440   285.1900
 3043.5000   -23.4410  -999.2500     4.4440     5.6260     5.6920   140.1650     8.3720     0.2110     0.0400   291.1550
 3044.0000   -23.4430  -999.2500     4.4030     5.6920     5.8160   138.8920     8.3750     0.2100     0.0360   297.1190
 3044.5000   -23.8970  -999.2500     4.6050     5.7570     5.9400   138.2450     8.3790     0.2130     0.0290   303.0830
 3045.0000   -24.3490  -999.2500     5.0100     5.8230     6.0630   139.5600     8.3820     0.2150     0.0320   303.3000
 3045.5000   -24.6060  -999.2500     4.9190     5.8890     6.1610   141.7560     8.3880     0.2180     0.0400   300.7950
 3046.0000   -24.5040  -999.2500     4.8280     5.9150     6.2520   144.4550     8.4040     0.2210     0.0500   298.2900
 3046.5000   -24.4590  -999.2500     4.9370     5.7160     6.1540   147.0780     8.4200     0.2270     0.0480   295.7850
 3047.0000   -24.3940  -999.2500     5.0100     5.5500     5.9080   149.7030     8.4350     0.2270     0.0420   292.9760
 3047.5000   -24.3320  -999.2500     4.7540     5.3840     5.6630   152.3300     8.4510     0.2310     0.0370   290.0290
 3048.0000   -24.2730  -999.2500     4.5410     5.2180     5.4170   154.9570     8.4640     0.2350     0.0360   287.0820
 3048.5000   -24.2120  -999.2500     4.3280     5.0520     5.1720   157.5830     8.4600     0.2340     0.0440   284.6240
 3049.0000   -24.1520  -999.2500     4.1270     4.8860     4.9270   160.2100     8.4560     0.2340     0.0510   283.3440
 3049.5000   -24.0920  -999.2500     4.0150     4.7200     4.6810   162.6630     8.4510     0.2370     0.0610   282.0640
 3050.0000   -24.0310  -999.2500     3.6080     4.5350     4.4850   165.2270     8.4490     0.2400     0.0780   280.7840
 3050.5000   -23.9710  -999.2500     3.2020     4.3390     4.3520   168.7390     8.5000     0.2420     0.0740   279.5040
 3051.0000   -23.9100  -999.2500     2.7960     4.1420     4.2420   171.8370     8.7160     0.2420     0.0670   278.2240
 3051.5000   -23.8450  -999.2500     2.3940     3.9450     4.1320   170.2400     8.9500     0.2430     0.0600   276.9430
 3052.0000   -23.8520  -999.2500     2.2960     3.3750     3.5410   157.0100     8.8450     0.2450     0.0530   275.6630
 3052.5000   -24.0650  -999.2500     2.2080     2.2650     2.6460   147.3340     8.6410     0.2210     0.0470   276.7140
 3053.0000   -24.2740  -999.2500     2.1040     2.4690     2.3080   136.5530     8.4350     0.1990     0.0390   280.2710
 3053.5000   -24.4940  -999.2500     2.1040     2.8050     2.7890   131.5100     8.3300     0.1800     0.0320   283.8290
 3054.0000   -24.7000  -999.2500     4.1850     3.1400     3.3720   129.2880     8.3420     0.1830     0.0390   283.9690
 3054.5000   -24.9300  -999.2500     6.1380     3.4630     3.9550   129.7010     8.3420     0.1870     0.0370   280.1380
 3055.0000   -24.9390  -999.2500     5.8760     4.3220     4.5380   131.2810     8.3400     0.1900     0.0340   276.3080
 3055.5000   -24.8050  -999.2500     4.8280     4.9380     5.1220   132.8850     8.3370     0.1920     0.0320   272.4770
 3056.0000   -24.6930  -999.2500     4.7400     5.3270     5.7050   134.4740     8.3350     0.1950     0.0340   268.6460
 3056.5000   -24.5780  -999.2500     4.5610     5.5970     6.0250   135.7750     8.3320     0.2010     0.0370   265.0000
 3057.0000   -24.4610  -999.2500     4.3550     5.4970     5.8780   136.9070     8.3290     0.2070     0.0400   270.9660
 3057.5000   -24.3470  -999.2500     4.2140     5.3460     5.6510   138.0020     8.3270     0.2100     0.0430   276.6570
 3058.0000   -24.2310  -999.2500     4.1490     5.1940     5.4250   140.5140     8.3240     0.2110     0.0440   282.3490
 3058.5000   -24.1160  -999.2500     4.0890     5.0420     5.1990   143.1610     8.3220     0.2140     0.0430   288.0400
 3059.0000   -24.0010  -999.2500     4.1240     4.8900     4.9720   146.9450     8.3190     0.2190     0.0410   293.7310
 3059.5000   -23.8820  -999.2500     4.1560     4.7380     4.7460   150.6930     8.3160     0.2230     0.0390   299.4230
 3060.0000   -23.8010  -999.2500     4.1880     4.5680     4.5200   154.6150     8.3140     0.2280     0.0450   305.0000
 3060.5000   -23.8040  -999.2500     4.2360     4.2990     4.2610   158.6900     8.3110     0.2380     0.0550   296.5330
 3061.0000   -23.7990  -999.2500     4.2050     3.9930     3.9660   162.5170     8.3080     0.2480     0.0640   288.2330
 3061.5000   -23.8030  -999.2500     4.0720     3.6870     3.6710   167.4810     8.3060     0.2580     0.0730   279.9330
 3062.0000   -23.8070  -999.2500     3.9390     3.3060     3.3460   170.0640     8.3170     0.2690     0.0890   280.7710
 3062.5000   -23.9700  -999.2500     3.8060     2.9330     2.9460   173.0950     8.3740     0.2790     0.1060   295.0000
 3063.0000   -24.1540  -999.2500     3.6610     2.6210     2.6350   175.3270     8.4250     0.2820     0.1160   291.7870
