~VERSION INFORMATION
 VERS.                2.0:   CWLS LOG ASCII STANDARD - VERSION 2.0
 WRAP.                 NO:   ONE LINE PER DEPTH STEP
~WELL INFORMATION
#MNEM.UNIT      DATA TYPE    INFORMATION
#----------   ------------   ------------------------------
 STRT.F           10.0000:   START DEPTH
 STOP.F         2950.0000:   STOP DEPTH
 STEP.F            0.5000:   STEP LENGTH
 NULL.          -999.2500:   NO VALUE
 COMP.    FENIX & SCISSON:   COMPANY
 WELL.   PENIX SHX #11-23:   WELL
 FLD .  TEAPOT DOME NPR-3:   FIELD
 LOC .      S23 T38N R78W:   LOCATION
 CNTY.            NATRONA:   COUNTY
 STAT.            WYOMING:   STATE
 CTRY. UNITED STATES OF AMERICA:   COUNTRY
 SRVC.           BIRDWELL:   SERVICE COMPANY
 DATE.        19-MAY-1979:   LOGDATE
 API .     49025107790000:   API NUMBER
~CURVE INFORMATION
#MNEM.UNIT       API CODE    CURVE DESCRIPTION
#----------   ------------   ------------------------------
 DEPT.F                  :   
 ILD .OHMM   05 120 46 00:   INDUCTION LOG DEEP
 SN  .OHMM   05 040 16 00:   SHORT NORMAL 16"
 CALD.IN     45 280 60 00:   CALIPER FROM DENSITY LOG
 GRD .GAPI   45 310 01 00:   GAMMA RAY FROM DENSITY LOG
 RHOB.G/C3   45 350 01 00:   BULK DENSITY
 CORR.G/C3   45 356 01 00:   DENSITY CORRECTION
~PARAMETER INFORMATION
#MNEM.UNIT          VALUE    DESCRIPTION
#----------   ------------   ------------------------------
 EKB .F         5275.0000:   Kelly bushing
 EGL .F         5265.0000:   Ground level
 EDF .F            0.0000:   Drilling floor
 TD  .F         2995.0000:   Total depth
 DATE.        19-MAY-1979:   Date logged
 CLNT.            A2DTECH:   Client Code
 SL  . 337' FNL & 237' FWL:   Surface Location
 PD  .                 GL:   Permanent Datum
 EPD .F              5265:   Elevation Permanent Datum
 LMF .                 KB:   Log Measured From
 DMF .                 KB:   Drilling Measured From
 DAPD.F                10:   Feet Above Permanent Datum
 DD  .F              2995:   Depth driller
 DL  .F              2950:   Depth logger
 BLI .F              2944:   Bottom log interval
 TLI .F              1050:   Top log interval
 CS1 .IN            9.625:   Casing size
 CBD1.     9.625" @ 2050':   Casing driller 1
 CBL1.F              1050:   Casing logger 1
 BS1 .IN             8.75:   Bit size
 BSD1.F              2995:   Depth drilled with bit1
 DFT . AIR/FORRATION FLUIDS:   Type fluid in hole
 TCS .HRS              12:   Time Circ. stopped
 LUN .               3029:   Logging unit number
 LUL .             CASPER:   Logging unit location
 ENGI.         B. ROLLINS:   Recorded By
 ORIG.         2.5" PRINT:   Origin of data
 UWI .     49025107790000:   Unique Well ID
 DICO. A2D TECHNOLOGIES, INC.:   Digitizing Company
~OTHER INFORMATION
~A   DEPT      ILD         SN       CALD        GRD       RHOB         CORR 
# ...
 1726.0000     7.5100  -999.2500     9.3550   166.3470     2.5400     0.0890
 1726.5000     7.0110  -999.2500     9.4320   163.5710     2.5400     0.0910
 1727.0000     7.4240  -999.2500     9.4210   162.8330     2.5440     0.1010
 1727.5000     7.7160  -999.2500     9.3730   164.7180     2.5140     0.0940
 1728.0000     7.2850  -999.2500     9.4470   162.8980     2.5260     0.0980
 1728.5000     6.7790  -999.2500     9.4750   156.0100     2.5730     0.1260
 1729.0000     7.3910  -999.2500     9.3890   152.8340     2.5370     0.0750
 1729.5000     8.3080  -999.2500     9.3120   156.0180     2.5000     0.0340
 1730.0000     7.3710  -999.2500     9.2940   161.3830     2.5530     0.0420
 1730.5000     8.3080  -999.2500     9.3190   159.2780     2.5440     0.0590
 1731.0000     8.9460  -999.2500     9.4250   159.9530     2.5420     0.0600
 1731.5000     8.5420  -999.2500     9.3990   158.7610     2.5400     0.0510
 1732.0000     7.8600  -999.2500     9.3970   159.9800     2.5320     0.0440
 1732.5000     8.4630  -999.2500     9.3880   164.4130     2.5150     0.0350
 1733.0000     6.6550  -999.2500     9.3770   158.5350     2.4950     0.0380
 1733.5000     8.0910  -999.2500     9.3800   159.8840     2.5100     0.0740
 1734.0000     6.9050  -999.2500     9.3530   162.9160     2.5550     0.1230
 1734.5000     8.1560  -999.2500     9.3100   164.8180     2.5340     0.0930
 1735.0000     8.4630  -999.2500     9.3090   163.3400     2.4770     0.0680
 1735.5000     7.5450  -999.2500     9.3350   160.7420     2.4600     0.1290
 1736.0000     7.1660  -999.2500     9.3500   162.4620     2.4830     0.2130
 1736.5000     7.2990  -999.2500     9.2540   175.2400     2.5160     0.3030
 1737.0000     7.3590  -999.2500     9.3850   177.1310     2.5020     0.2610
 1737.5000     7.4360  -999.2500     9.3630   174.0420     2.4900     0.1780
 1738.0000     7.1840  -999.2500     9.3580   168.9340     2.4510     0.1150
 1738.5000     6.7790  -999.2500     9.3410   167.0020     2.4960     0.1640
 1739.0000     8.3080  -999.2500     9.2610   165.6300     2.5350     0.1460
 1739.5000     8.2360  -999.2500     9.2800   161.6940     2.5120     0.0940
 1740.0000     8.0060  -999.2500     9.3040   160.1450     2.5020     0.0760
 1740.5000     6.9050  -999.2500     9.3290   167.5470     2.4770     0.0980
 1741.0000     8.5640  -999.2500     9.3380   171.6610     2.4820     0.1410
 1741.5000     9.8130  -999.2500     9.3320   166.4980     2.5120     0.2010
 1742.0000     7.7160  -999.2500     9.2890   160.7430     2.4620     0.1800
 1742.5000     7.8530  -999.2500     9.3760   165.4080     2.4690     0.1630
 1743.0000     8.1560  -999.2500     9.4490   174.5360     2.5470     0.2230
 1743.5000     8.4630  -999.2500     9.3690   172.8110     2.5020     0.2050
 1744.0000     8.0300  -999.2500     9.4080   169.3460     2.5170     0.1780
 1744.5000     7.7160  -999.2500     9.4200   170.8890     2.5550     0.1890
 1745.0000     8.6210  -999.2500     9.5320   171.5010     2.5410     0.1420
 1745.5000     7.5740  -999.2500     9.5140   172.7360     2.4680     0.0180
 1746.0000     7.8430  -999.2500     9.4780   177.9070     2.4740     0.0320
 1746.5000     8.1800  -999.2500     9.3640   183.0780     2.5030     0.1080
 1747.0000     7.7160  -999.2500     9.3810   181.3120     2.5310     0.1780
 1747.5000     8.2710  -999.2500     9.3760   178.9880     2.4960     0.2080
 1748.0000     7.1660  -999.2500     9.3830   180.7790     2.5300     0.2150
 1748.5000     9.6330  -999.2500     9.4220   178.8630     2.5090     0.1350
 1749.0000     8.7690  -999.2500     9.4150   171.7560     2.4830     0.0390
 1749.5000     7.1660  -999.2500     9.4170   160.9350     2.5180     0.0100
 1750.0000     7.0340  -999.2500     9.4180   155.8850     2.5310     0.0210
 1750.5000     9.6330  -999.2500     9.4160   159.6300     2.5380     0.0270
 1751.0000     7.7160  -999.2500     9.4030   158.9640     2.5450     0.0350
 1751.5000     9.4560  -999.2500     9.3930   158.6030     2.5450     0.0350
 1752.0000     6.9050  -999.2500     9.4650   159.7250     2.5330     0.0260
 1752.5000     7.1660  -999.2500     9.4560   165.8110     2.5220     0.0180
 1753.0000     8.0060  -999.2500     9.4570   167.4870     2.5140     0.0140
 1753.5000     8.7820  -999.2500     9.4530   164.7920     2.5160     0.0140
 1754.0000     8.0550  -999.2500     9.3870   162.7050     2.5320     0.0370
 1754.5000     7.1660  -999.2500     9.3170   161.0350     2.5400     0.0840
 1755.0000     8.3080  -999.2500     9.3790   158.2710     2.5220     0.1340
 1755.5000     7.8630  -999.2500     9.5750   153.1130     2.4970     0.1790
 1756.0000     7.3420  -999.2500     9.7210   154.8420     2.5440     0.2150
 1756.5000     7.4850  -999.2500     9.4600   159.7980     2.5240     0.1940
 1757.0000     8.1560  -999.2500     9.3680   159.7590     2.5300     0.1420
 1757.5000     8.1560  -999.2500     9.3300   156.9690     2.5340     0.0950
 1758.0000     8.2260  -999.2500     9.3330   155.2890     2.5090     0.0440
 1758.5000     8.3630  -999.2500     9.2740   154.2080     2.4860     0.0360
 1759.0000     8.4990  -999.2500     9.2560   156.9330     2.5030     0.0970
 1759.5000     8.6360  -999.2500     9.2630   161.2920     2.5290     0.1900
 1760.0000     8.7730  -999.2500     9.2950   168.8480     2.4680     0.2190
 1760.5000     8.9100  -999.2500     9.2810   173.9130     2.4760     0.2260
 1761.0000     9.0470  -999.2500     9.2690   173.9710     2.4740     0.2240
 1761.5000     9.1840  -999.2500     9.2620   169.2710     2.4990     0.2220
 1762.0000     9.2830  -999.2500     9.2670   166.5740     2.5470     0.2360
 1762.5000     9.2070  -999.2500     9.4010   168.6240     2.5220     0.2080
 1763.0000     9.1130  -999.2500     9.4720   171.4400     2.5340     0.1790
 1763.5000     8.9020  -999.2500     9.4070   174.0410     2.5450     0.1550
 1764.0000     8.8180  -999.2500     9.2990   175.3190     2.5080     0.1330
 1764.5000     8.7620  -999.2500     9.2900   173.6270     2.4640     0.1170
 1765.0000     8.7270  -999.2500     9.3160   168.2530     2.4690     0.1510
 1765.5000     8.6910  -999.2500     9.2460   163.7430     2.4790     0.2180
 1766.0000     8.6560  -999.2500     9.3010   158.2490     2.4740     0.2030
 1766.5000     8.6210  -999.2500     9.3350   156.7720     2.5200     0.1480
 1767.0000     8.5850  -999.2500     9.3440   159.3390     2.4590     0.0880
 1767.5000     8.5500  -999.2500     9.3570   167.6990     2.4820     0.0410
 1768.0000     8.5150  -999.2500     9.3780   170.1930     2.5430     0.1160
 1768.5000     8.4630  -999.2500     9.3740   168.8670     2.5150     0.1000
 1769.0000     8.4850  -999.2500     9.3290   166.4050     2.5250     0.0560
 1769.5000     8.5260  -999.2500     9.3040   167.9940     2.5180     0.0290
 1770.0000     8.5660  -999.2500     9.2770   171.1350     2.5090     0.0250
 1770.5000     8.6210  -999.2500     9.6150   168.7720     2.4970     0.0600
 1771.0000     8.5390  -999.2500     9.3970   166.4990     2.5080     0.0890
 1771.5000     8.4090  -999.2500     9.3420   163.3300     2.4910     0.1480
 1772.0000     8.2780  -999.2500     9.3250   165.4670     2.5060     0.1960
 1772.5000     8.1470  -999.2500     9.3430   175.0520     2.5380     0.2370
 1773.0000     8.0060  -999.2500     9.3340   185.2600     2.4870     0.1680
 1773.5000     7.8930  -999.2500     9.3360   182.0220     2.4410     0.1200
 1774.0000     7.7160  -999.2500     9.3360   172.5020     2.5330     0.2040
 1774.5000     9.5040  -999.2500     9.3370   165.4300     2.4540     0.1880
 1775.0000    10.1830  -999.2500     9.3320   164.6450     2.4750     0.1250
 1775.5000    10.1830  -999.2500     9.3640   164.8170     2.5320     0.1750
 1776.0000    10.1830  -999.2500     9.3500   168.5940     2.4960     0.1140
 1776.5000    10.1830  -999.2500     9.3370   170.8750     2.4670     0.1330
 1777.0000    10.1830  -999.2500     9.3350   171.0580     2.5560     0.1870
 1777.5000     8.4630  -999.2500     9.3540   168.5570     2.5380     0.1950
