~VERSION INFORMATION
 VERS.                2.0:   CWLS LOG ASCII STANDARD - VERSION 2.0
 WRAP.                 NO:   ONE LINE PER DEPTH STEP
~WELL INFORMATION
#MNEM.UNIT      DATA TYPE    INFORMATION
#----------   ------------   ------------------------------
 STRT.F          466.5000:   START DEPTH
 STOP.F         3184.0000:   STOP DEPTH
 STEP.F            0.5000:   STEP LENGTH
 NULL.          -999.2500:   NO VALUE
 COMP. LAWRENCE ALLISON AND ASSOCIATES:   COMPANY
 WELL. LAWRENCE 66 "X" #3-28:   WELL
 FLD .              N P R:   FIELD
 LOC .      S28 T39N R78W:   LOCATION
 CNTY.            NATRONA:   COUNTY
 STAT.            WYOMING:   STATE
 CTRY. UNITED STATES OF AMERICA:   COUNTRY
 SRVC.      DRESSER ATLAS:   SERVICE COMPANY
 DATE.        16-APR-1986:   LOGDATE
 API .     49025111340000:   API NUMBER
~CURVE INFORMATION
#MNEM.UNIT       API CODE    CURVE DESCRIPTION
#----------   ------------   ------------------------------
 DEPT.F                  :   
 RHOB.G/C3   45 350 01 00:   BULK DENSITY
 CORR.G/C3   45 356 01 00:   DENSITY CORRECTION
 TEND.LBS    45 635 01 00:   TENSION FROM DENSITY LOG
 NPHI.DEC    42 890 03 00:   NEUTRON POROSITY SANDSTONE
 DT  .US/F   60 520 00 00:   DELTA TIME
 TENS.LBS    51 635 01 00:   TENSION
 CALR.IN     07 280 01 00:   CALIPER FROM RESISTIVITY
 SPR .MV     07 010 01 00:   SPONTANEOUS POTENTIAL
 TENR.LBS    07 635 01 00:   TENSION FROM RESISTIVITY
 RFOC.OHMM   07 220 04 00:   RESISTIVITY FOCUSED LOG RES.
 GRR .GAPI   07 310 01 00:   GAMMA RAY FROM RESISTIVITY
 RILD.OHMM   07 120 46 00:   DEEP INDUCTION RESISTIVITY
 RILM.OHMM   07 120 44 00:   INDUCTION LOG MEDIUM RESISTIVITY
~PARAMETER INFORMATION
#MNEM.UNIT          VALUE    DESCRIPTION
#----------   ------------   ------------------------------
 EKB .F         5071.0000:   Kelly bushing
 EGL .F         5059.0000:   Ground level
 TD  .F         3176.0000:   Total depth
 DATE.        16-APR-1986:   Date logged
 CLNT.            A2DTECH:   Client Code
 SL  . 1685' FEL & 1915'FSL:   Surface Location
 PD  .                 GL:   Permanent Datum
 EPD .F              5059:   Elevation Permanent Datum
 LMF .                 KB:   Log Measured From
 DD  .F              3176:   Depth driller
 DL  .F              3176:   Depth logger
 BLI .F              3174:   Bottom log interval
 TLI .F               480:   Top log interval
 CS1 .IN            8.625:   Casing size
 BS1 .IN            7.875:   Bit size
 DFT .        POLYMER KCL:   Type fluid in hole
 DFD .                  9:   Density
 DFV .                 40:   Viscosity
 DFPH.                8.5:   pH
 DFL .               10.2:   Fluid loss
 MSS .           FLOWLINE:   Source of sample
 RMS .OHMM           .226:   Rm
 MST .F                65:   Rm Meas. temp.
 RMF .OHMM           .169:   Rmf
 MFST.F                65:   Rmf Meas. temp.
 RMC .OHMM           .283:   Rmc
 MCST.F                65:   Rmc Meas. temp.
 MFSS.               CALC:   Source Rmf.
 MCSS.               CALC:   Source Rmc.
 RMB .OHMM           .118:   Rm. at BHT
 BHT .F               125:   BHT.
 TCS .HRS               5:   Time Circ. stopped
 MRT .F               125:   Maximum recorded temp.
 LUN .               6264:   Logging unit number
 LUL .           GILLETTE:   Logging unit location
 ENGI.             MILLER:   Recorded By
 WITN.             STRONG:   Witnessed by
 ORIG.           5" PRINT:   Origin of data
 UWI .     49025111340000:   Unique Well ID
 DICO. A2D TECHNOLOGIES, INC.:   Digitizing Company
 DMF .                 KB:   Drilling Measured From
 DAPD.F                12:   Feet Above Permanent Datum
 CBD1.      8.625" @ 475':   Casing driller 1
 CBL1.F               480:   Casing logger 1
 BSD1.F              3176:   Depth drilled with bit1
~OTHER INFORMATION
~A   DEPT     RHOB       CORR       TEND       NPHI         DT       TENS       CALR        SPR       TENR       RFOC         GRR      RILD       RILM   
# ...
 3144.5000     2.5040     0.1170   262.1510     0.2260    84.0910   411.6420     8.6700   -62.6130   460.6800     4.9740  -999.2500     4.2900     4.4520
 3145.0000     2.5080     0.1480   266.0320     0.2340    81.4380   404.2480     8.6700   -62.1350   439.8000     5.6580  -999.2500     4.4840     4.6520
 3145.5000     2.4980     0.1680   266.0320     0.2430    79.9100   396.8550     8.6700   -61.6400   418.9200     6.0120  -999.2500     4.6770     4.8530
 3146.0000     2.4800     0.1610   250.2000     0.2520    78.6870   389.4610     8.6700   -61.0360   407.4860     5.7420  -999.2500     4.8710     4.9250
 3146.5000     2.4630     0.1430   238.1920     0.2620    78.2250   382.0680     8.6700   -60.4310   415.0000     5.8930  -999.2500     4.9850     4.9730
 3147.0000     2.4460     0.1360   250.2620     0.2700    78.1640   374.6740     8.6700   -59.8260   393.4170     6.1590  -999.2500     5.0470     5.0010
 3147.5000     2.4480     0.1350   262.3320     0.2770    78.1030   366.8510     8.6700   -59.4110   371.6670     6.3740  -999.2500     4.8350     4.9550
 3148.0000     2.4540     0.1180   266.0320     0.2830    78.0720   399.3480     8.6700   -59.2230   397.5800     6.4130  -999.2500     4.5100     4.6440
 3148.5000     2.4610     0.0950   266.0320     0.2860    78.0920   427.0310     8.6700   -59.0330   444.5600     5.5700  -999.2500     4.1850     4.3550
 3149.0000     2.4620     0.0780   266.0320     0.2780    78.1130   427.0310     8.6700   -58.8430   452.2930     4.9270  -999.2500     3.8600     4.0660
 3149.5000     2.4570     0.0820   287.1610     0.2710    78.1340   427.0310     8.6700   -58.6140   448.8130     4.4820  -999.2500     3.5350     3.7770
 3150.0000     2.4510     0.0890   308.0490     0.2630    78.1550   437.5220     8.6700   -58.2250   445.0000     4.1210  -999.2500     3.3510     3.4880
 3150.5000     2.4510     0.1150   327.1430     0.2530    78.1950   452.9880     8.6700   -57.9540   456.0430     4.0830  -999.2500     3.2740     3.1260
 3151.0000     2.4630     0.1260   334.5760     0.2410    78.2540   468.4550     8.6700   -58.4600   468.2550     4.0270  -999.2500     3.3340     3.1760
 3151.5000     2.4740     0.0890   302.7490     0.2330    78.3130   479.6040     8.6700   -58.9590   480.4680     3.9680  -999.2500     3.3520     3.2410
 3152.0000     2.4850     0.0460   260.1810     0.2350    78.3090   485.1620     8.6700   -59.4560   496.2220     3.9000  -999.2500     3.4180     3.3040
 3152.5000     2.4940     0.0420   271.2170     0.2380    76.3650   490.7210     8.6700   -59.9760   514.0670     4.1880  -999.2500     3.6330     3.5900
 3153.0000     2.4950     0.0490   309.0550     0.2410    73.1970   496.2790     8.6700   -60.0000   531.9120     4.6950  -999.2500     3.8470     3.8610
 3153.5000     2.4890     0.0570   327.5750     0.2410    70.8430   519.0720     8.6700   -59.8610   549.7560     5.2030  -999.2500     4.0620     4.1330
 3154.0000     2.4830     0.0660   331.5770     0.2370    74.1390   545.4750     8.6700   -59.7180   567.6010     5.9020  -999.2500     4.2760     4.4050
 3154.5000     2.4870     0.0660   335.5790     0.2310    77.8640   550.1950     8.6700   -59.5760   585.4460     5.8480  -999.2500     4.4410     4.5990
 3155.0000     2.5020     0.0530   359.8090     0.2330    78.2650   536.9930     8.6700   -59.4570   593.3710     5.8690  -999.2500     4.6050     4.7600
 3155.5000     2.5170     0.0390   387.5570     0.2340    78.2650   523.7920     8.6700   -59.3610   587.3810     5.9020  -999.2500     4.7700     4.9210
 3156.0000     2.5250     0.0260   416.3330     0.2310    78.2650   527.7420     8.6700   -59.1500   581.3910     5.7060  -999.2500     4.9340     5.0820
 3156.5000     2.5140     0.0220   387.7040     0.2270  -999.2500   548.2770     8.6700   -58.7000   575.4020     5.3340  -999.2500     5.0980     5.2430
 3157.0000     2.5010     0.0310   369.1440     0.2250  -999.2500   568.8130     8.6700   -58.2590   569.4120     5.3730  -999.2500     5.2630     5.4040
 3157.5000     2.4870     0.0540   357.5830     0.2230  -999.2500   587.5130     8.6700   -57.6070   565.7600     5.7470  -999.2500     5.4270     5.5650
 3158.0000     2.4730     0.0880   346.0210     0.0990  -999.2500   571.0770     8.6700   -56.8570   568.6440     6.1790  -999.2500     5.5910     5.7200
 3158.5000     2.4590     0.1280   339.2550    -0.0050  -999.2500   574.9750     8.6700   -55.8820   571.5280     6.6110  -999.2500     5.7310     5.9160
 3159.0000     2.4500     0.0920   360.0660     0.0040  -999.2500   584.8760     8.6700   -54.6990   574.4120     7.0080  -999.2500     5.8620     6.1130
 3159.5000     2.4500     0.0440   377.5370     0.0230  -999.2500   594.7770     8.6700   -53.5240   579.8620     7.2220  -999.2500     5.9920     6.3100
 3160.0000     2.4620     0.0080   383.3180     0.2160  -999.2500   592.1060     8.6700   -52.2060   585.9690     7.2950  -999.2500     6.1230     6.5320
 3160.5000     2.4740    -0.0030   389.0990     0.5680  -999.2500   593.0190     8.6700   -50.8470   592.0760     7.0090  -999.2500     6.2530     6.4720
 3161.0000     2.4850     0.0100   394.8800     0.6990  -999.2500   607.1010     8.6700   -49.7650   605.1470     6.7810  -999.2500     6.3840     6.6020
 3161.5000     2.4900     0.0270   435.6020     0.6980  -999.2500   621.1820     8.6700   -48.8650   625.0000     6.5920  -999.2500     6.5140     6.6900
 3162.0000     2.4950     0.0360   469.6940  -999.2500  -999.2500   611.2810     8.6700   -47.9430   609.7350     6.6530  -999.2500     6.7610     6.7770
 3162.5000     2.5000     0.0130   477.6980  -999.2500  -999.2500   592.3170     8.6700   -47.0270   595.0000     7.3660  -999.2500     7.1810     7.2460
 3163.0000     2.5000    -0.0090   486.4730  -999.2500  -999.2500   614.9480     8.6700   -46.1100   607.2490     8.0680  -999.2500     7.6010     7.7080
 3163.5000     2.4890    -0.0170   501.1180  -999.2500  -999.2500   637.5790     8.6700   -45.1960   625.5710     8.7690  -999.2500     8.0210     8.1690
 3164.0000     2.4780     0.0010   535.8020  -999.2500  -999.2500   647.6930     8.6700   -44.2740   643.8930     9.4710  -999.2500     8.4410     8.6310
 3164.5000     2.4670     0.0250   570.4870  -999.2500  -999.2500   650.1770     8.6700   -43.9060   659.7460    10.1720  -999.2500     8.8610     9.0920
 3165.0000     2.4640     0.0310   564.4310  -999.2500  -999.2500   661.2940     8.6700   -43.8990   683.3420    10.8730  -999.2500     9.1000     9.3550
 3165.5000     2.4710     0.0240   554.9690  -999.2500  -999.2500   672.4110     8.6700   -43.8760   705.0000    11.4160  -999.2500     9.0380     9.2490
 3166.0000     2.4770     0.0170   551.5000  -999.2500  -999.2500   683.5280     8.6700   -43.7700   705.0000    11.4560  -999.2500     8.9950     9.1190
 3166.5000     2.4800     0.0120   548.0320  -999.2500  -999.2500   685.3170     8.6700   -43.5980   705.0000    10.9930  -999.2500     8.9520     8.5720
 3167.0000     2.4790     0.0190   550.9430  -999.2500  -999.2500   681.2550     8.6700   -42.9010   705.0000    10.1370  -999.2500     8.9340     8.0260
 3167.5000     2.4770     0.0260   556.6130  -999.2500  -999.2500   681.4360     8.6700   -42.2040   708.9890     9.2810  -999.2500     8.9340     7.4990
 3168.0000  -999.2500     0.0260   592.8400  -999.2500  -999.2500   706.5810     8.6700   -41.9820   715.0000     8.4260  -999.2500     8.9340     7.5600
 3168.5000  -999.2500     0.0250   627.5240  -999.2500  -999.2500   731.7270     8.6700   -41.8430   750.8300     7.4990  -999.2500     8.9340     7.6180
 3169.0000  -999.2500     0.0250   614.6140  -999.2500  -999.2500   756.8720     8.6700   -41.7040   784.2020     7.2280  -999.2500     8.9290     7.6770
 3169.5000  -999.2500     0.0240   536.5730  -999.2500  -999.2500   776.0190     8.6700   -41.6000   802.9410     7.2680  -999.2500     8.9170     7.7350
 3170.0000  -999.2500     0.0240   264.8760  -999.2500  -999.2500   762.8180     8.6700   -41.4960   797.4770     7.3380  -999.2500     8.9040     7.7810
