~VERSION INFORMATION
 VERS.                2.0:   CWLS LOG ASCII STANDARD - VERSION 2.0
 WRAP.                 NO:   ONE LINE PER DEPTH STEP
~WELL INFORMATION
#MNEM.UNIT      DATA TYPE    INFORMATION
#----------   ------------   ------------------------------
 STRT.F           30.0000:   START DEPTH
 STOP.F         3240.0000:   STOP DEPTH
 STEP.F            0.5000:   STEP LENGTH
 NULL.          -999.2500:   NO VALUE
 COMP. LAWRENCE-ALLISON ASSOCIATES WES:   COMPANY
 WELL. LAWRENCE "AX" #87AX28:   WELL
 FLD .   TEAPOT N.P.R. #3:   FIELD
 LOC .      S28 T39N R78W:   LOCATION
 CNTY.            NATRONA:   COUNTY
 STAT.            WYOMING:   STATE
 CTRY. UNITED STATES OF AMERICA:   COUNTRY
 SRVC.       SCHLUMBERGER:   SERVICE COMPANY
 DATE.        28-MAY-1982:   LOGDATE
 API .     49025108860000:   API NUMBER
~CURVE INFORMATION
#MNEM.UNIT       API CODE    CURVE DESCRIPTION
#----------   ------------   ------------------------------
 DEPT.F                  :   
 TENR.LBS    07 635 01 00:   TENSION FROM RESISTIVITY
 GRR .GAPI   07 310 01 00:   GAMMA RAY FROM RESISTIVITY
 SPR .MV     07 010 01 00:   SPONTANEOUS POTENTIAL FROM RES.
 ILD .OHMM   07 120 46 00:   DEEP INDUCTION RESISTIVITY
 ILM .OHMM   07 120 44 00:   INDUCTION LOG MEDIUM RESISTIVITY
 SFL .OHMM   07 220 01 00:   SHALLOW FOCUSED LOG RESISITIVITY
 TEND.LBS    45 635 01 00:   TENSION FORM DENSITY LOG
 NPHI.DEC    42 890 03 00:   NEUTRON POROSITY SANDSTONE
 CALD.IN     45 280 60 00:   CALIPER FROM DENSITY LOG
 CORR.G/C3   45 356 01 00:   DENSITY CORRECTION
 RHOB.G/C3   45 350 01 00:   BULK DENSITY
~PARAMETER INFORMATION
#MNEM.UNIT          VALUE    DESCRIPTION
#----------   ------------   ------------------------------
 EKB .F         5070.0000:   Kelly bushing
 EGL .F         5060.0000:   Ground level
 TD  .F         3220.0000:   Total depth
 CLNT.            A2DTECH:   Client Code
 SL  . 1341' FSL & 162' FEL:   Surface Location
 PD  .                 GL:   Permanent Datum
 EPD .F              5060:   Elevation Permanent Datum
 LMF .                 KB:   Log Measured From
 DMF .                 KB:   Drilling Measured From
 DAPD.F                10:   Feet Above Permanent Datum
 DATE.        28-MAY-1982:   Date Logged [DD-MMM-YYYY]
 DD  .F              3220:   Depth driller
 DL  .F              3215:   Depth logger
 BLI .F              3212:   Bottom log interval
 TLI .F               489:   Top log interval
 CS1 .IN            9.625:   Casing size
 CBD1.      9.625" @ 461':   Casing driller 1
 CBL1.F               489:   Casing logger 1
 BS1 .IN            9.750:   Bit size
 BSD1.F              3220:   Depth drilled with bit1
 DFT .          POLY./KCL:   Type fluid in hole
 DFD .                8.8:   Density
 DFV .                 44:   Viscosity
 DFPH.                7.0:   pH
 DFL .                8.0:   Fluid loss
 MSS .           MUD TANK:   Source of sample
 RMS .OHMM          0.778:   Rm
 MST .F                65:   Rm Meas. temp.
 RMF .OHMM          0.710:   Rmf
 MFST.F                67:   Rmf Meas. temp.
 MFSS.               MEAS:   Source Rmf.
 RMB .OHMM          0.447:   Rm. at BHT
 BHT .F               118:   BHT.
 TCS .HRS            2000:   Time Circ. stopped
 TLAB.HRS            2430:   Time logger at bottom
 MRT .F               118:   Maximum recorded temp.
 LUN .               8043:   Logging unit number
 LUL .               CSPR:   Logging unit location
 ENGI.             DENNIS:   Recorded By
 WITN.             STRONG:   Witnessed by
 ORIG.           5" PRINT:   Origin of data
 UWI .     49025108860000:   Unique Well ID
 DICO. A2D TECHNOLOGIES, INC.:   Digitizing Company
~OTHER INFORMATION
~A   DEPT     TENR         GRR       SPR        ILD        ILM        SFL       TEND       NPHI       CALD       CORR       RHOB   
# ...
 2470.0000  1346.3514   110.9636   -31.6672     6.8782     6.9844     7.9231  1514.8710    -0.0398    11.9079     0.0153     2.4970
 2470.5000  1346.3514   111.4639   -31.8115     6.8842     7.0900     7.9861  1515.1661    -0.0317    11.9085     0.0131     2.4978
 2471.0000  1346.3514   113.7509   -32.1029     6.9397     7.0954     7.9355  1515.4614    -0.0270    11.9091     0.0108     2.4909
 2471.5000  1346.3514   114.6839   -32.3974     6.9470     7.1008     7.7739  1515.7566    -0.0475    11.9097     0.0093     2.4856
 2472.0000  1346.3514   114.4701   -32.5391     7.0028     7.1062     7.9011  1516.0518    -0.0598    11.9103     0.0140     2.4833
 2472.5000  1346.3514   113.7976   -32.6799     7.0591     7.1625     8.1863  1516.3470    -0.0674    11.9110     0.0211     2.5027
 2473.0000  1346.3514   114.7306   -32.8412     7.0652     7.2192     8.1330  1516.6422    -0.0745    11.9116     0.0266     2.5130
 2473.5000  1346.3514   115.2049   -32.9625     7.0713     7.2260     7.9688  1516.9374    -0.0797    11.9122     0.0298     2.5168
 2474.0000  1346.3514   114.5324   -32.9495     7.0774     7.2315     7.9169  1517.2325    -0.0865    11.9128     0.0322     2.5208
 2474.5000  1346.3514   106.0134   -32.9358     7.0314     7.2370     7.8682  1517.5278    -0.0874    11.9134     0.0330     2.5262
 2475.0000  1346.3514   102.9814   -33.0771     6.9811     7.0892     7.9877  1517.8230    -0.0688    11.9140     0.0315     2.5232
 2475.5000  1346.3514   103.5739   -33.2184     6.8484     6.9942     8.0024  1518.1182    -0.0558    11.9146     0.0261     2.5171
 2476.0000  1346.3514   108.1766   -33.2065     6.7572     6.9004     8.0592  1518.4135    -0.0577    11.9153     0.0301     2.5195
 2476.5000  1346.3514   111.6325   -33.1945     6.6197     6.8079     7.9514  1518.7086    -0.0583    11.9159     0.0341     2.5234
 2477.0000  1346.3514   115.5472   -33.1799     6.5315     6.6632     7.4632  1519.0038    -0.0562    11.9165     0.0356     2.5150
 2477.5000  1346.3514   118.0857   -33.0149     6.4431     6.4863     6.5230  1519.2990    -0.0514    11.9171     0.0271     2.5042
 2478.0000  1346.3514   116.2664   -33.0030     6.3133     6.3100     6.5749  1519.5942    -0.0472    11.9177     0.0194     2.4911
 2478.5000  1346.3514   111.4587   -32.8380     6.1849     6.2242     7.1168  1519.8894    -0.0463    11.9183     0.0141     2.4850
 2479.0000  1346.3514   110.5636   -32.8262     6.0604     6.0983     7.3939  1520.1846    -0.0704    11.9189     0.0172     2.4843
 2479.5000  1346.3514   112.6473   -32.8143     5.9371     5.9738     7.5479  1520.4799    -0.0976    11.9196     0.0235     2.4991
 2480.0000  1346.3514   113.1216   -32.8024     5.8163     5.8518     6.6442  1520.7750    -0.0998    11.9202     0.0282     2.5100
 2480.5000  1346.3514   113.3665   -32.6371     5.7375     5.7297     6.4154  1521.0702    -0.0742    11.9053     0.0330     2.5170
 2481.0000  1346.3514   114.2995   -32.6226     5.5820     5.5369     6.5605  1521.3655    -0.0727    11.8905     0.0338     2.5225
 2481.5000  1346.3514   120.2784   -32.6108     5.4296     5.3853     6.5657  1521.6606    -0.0770    11.8604     0.0222     2.5174
 2482.0000  1346.3514   123.7344   -32.7521     5.3191     5.2753     6.4319  1521.9558    -0.0869    11.8304     0.0090     2.4971
 2482.5000  1346.3514   125.3592   -32.8963     5.2109     5.2408     5.7761  1522.2510    -0.0906    11.8141    -0.0010     2.4871
 2483.0000  1346.3514   125.8622   -33.0376     5.1783     5.2833     5.5861  1522.5463    -0.0882    11.7857    -0.0041     2.4841
 2483.5000  1346.3514   125.3905   -33.0228     5.4108     5.5184     5.7125  1522.8414    -0.0720    11.7708    -0.0048     2.4818
 2484.0000  1346.3514   124.2593   -33.0107     5.6123     5.7236     6.0525  1523.1366    -0.0620    11.7408    -0.0047     2.4943
 2484.5000  1346.3514   122.2106   -32.9961     5.8630     5.9417     6.7892  1523.4319    -0.0654    11.7414     0.0016     2.5207
 2485.0000  1346.3514   118.5565   -32.9842     6.1249     6.2448     7.0411  1523.7271    -0.0856    11.7112     0.0111     2.5391
 2485.5000  1346.3514   113.9849   -32.9724     6.3530     6.4303     7.0467  1524.0222    -0.0931    11.6965     0.0204     2.5517
 2486.0000  1346.3514   109.4133   -32.9605     6.6381     6.5743     7.2090  1524.3175    -0.0970    11.6971     0.0134     2.5464
 2486.5000  1346.3514   106.2170   -32.7955     6.8429     6.7215     7.9688  1524.6127    -0.0995    11.6823     0.0049     2.5310
 2487.0000  1346.3514   105.5454   -32.7837     7.0406     6.8232     8.0896  1524.9078    -0.1126    11.6830    -0.0004     2.5195
 2487.5000  1346.3514   105.5648   -32.9250     7.1480     6.8772     8.1539  1525.2030    -0.1209    11.6836    -0.0027     2.5211
 2488.0000  1346.3514   105.8098   -32.9127     7.1542     6.8825     7.6533  1525.4983    -0.1231    11.6687     0.0067     2.5273
 2488.5000  1346.3514   106.5134   -33.0544     7.0573     6.9382     7.0817  1525.7935    -0.1195    11.6540     0.0145     2.5313
 2489.0000  1346.3514   107.4464   -32.8864     6.9633     6.9435     7.2405  1526.0886    -0.1146    11.6393     0.0138     2.5221
 2489.5000  1346.3514   108.8382   -32.6820     6.9211     6.9488     7.5125  1526.3839    -0.1169    11.6399     0.0082     2.5129
 2490.0000  1346.3514   110.0005   -32.4033     6.8779     6.9033     7.7340  1526.6791    -0.1211    11.6407     0.0030     2.5098
 2490.5000  1346.3514   110.0184   -32.2383     6.8854     6.8121     7.8513  1526.9742    -0.1199    11.6413     0.0015     2.5246
 2491.0000  1346.3514   107.1764   -32.2264     6.8913     6.6256     7.9122  1527.2695    -0.1133    11.6419     0.0047     2.5324
 2491.5000  1346.3514   104.0878   -32.2144     6.8973     6.4442     7.7509  1527.5647    -0.1103    11.6425     0.0094     2.5333
 2492.0000  1346.3514   103.6408   -32.1998     6.9527     6.3578     7.3809  1527.8599    -0.1112    11.6430     0.0126     2.5325
 2492.5000  1346.3514   105.0364   -32.0348     6.9583     6.4552     7.1281  1528.1550    -0.1094    11.6436     0.0150     2.5388
 2493.0000  1346.3514   107.8043   -32.1790     7.0146     6.5529     7.0328  1528.4503    -0.1021    11.6750     0.0182     2.5489
 2493.5000  1346.3514   109.8841   -32.1642     7.0207     6.7475     7.2952  1528.7455    -0.0964    11.6911     0.0246     2.5590
 2494.0000  1346.3514   111.7345   -32.3055     7.1335     6.9480     7.8404  1529.0406    -0.0967    11.6917     0.0308     2.5552
 2494.5000  1346.3514   111.9849   -32.5999     7.2382     7.0531     8.2481  1529.3359    -0.1221    11.6767     0.0293     2.5460
 2495.0000  1346.3514   109.5432   -32.8943     7.3486     7.2110     8.3732  1529.6311    -0.1365    11.6620     0.0200     2.5353
 2495.5000  1346.3514    97.1062   -33.2088     7.4077     7.3727     8.5002  1529.9263    -0.1405    11.6627     0.0068     2.5267
 2496.0000  1346.3514    93.9069   -33.4802     7.5207     7.4855     8.3865  1530.2216    -0.1329    11.6787     0.0022     2.5192
 2496.5000  1346.3514    94.6144   -33.4684     7.5272     7.4911     8.2743  1530.5167    -0.1210    11.6946     0.0007     2.5146
 2497.0000  1346.3514   101.7401   -33.6126     7.4269     7.3907     8.2811  1530.8119    -0.1242    11.6952     0.0008     2.5162
 2497.5000  1346.3514   106.1135   -33.5978     7.3271     7.3424     8.4018  1531.1071    -0.1288    11.6960     0.0009     2.5170
 2498.0000  1346.3514   106.8171   -33.5859     7.2230     7.1938     8.2333  1531.4023    -0.1334    11.6966     0.0009     2.5140
 2498.5000  1346.3514   110.5024   -33.5741     7.0847     7.0974     8.1240  1531.6975    -0.1359    11.7125     0.0010     2.5102
 2499.0000  1346.3514   113.3302   -33.5620     6.9693     6.9992     7.9592  1531.9927    -0.1329    11.7131     0.0026     2.5080
 2499.5000  1346.3514   115.3501   -33.5474     6.8481     6.8118     7.7424  1532.2880    -0.1277    11.7291     0.0058     2.5112
 2500.0000  1346.3514   112.3879   -33.3824     6.7568     6.6727     7.3721  1532.5831    -0.1073    11.7296     0.0074     2.5143
