~VERSION INFORMATION
 VERS.                2.0:   CWLS LOG ASCII STANDARD - VERSION 2.0
 WRAP.                 NO:   ONE LINE PER DEPTH STEP
~WELL INFORMATION
#MNEM.UNIT      DATA TYPE    INFORMATION
#----------   ------------   ------------------------------
 STRT.F            5.0000:   START DEPTH
 STOP.F         4012.0000:   STOP DEPTH
 STEP.F            0.5000:   STEP LENGTH
 NULL.          -999.2500:   NO VALUE
 COMP.   LAWRENCE ALLISON:   COMPANY
 WELL. LAWRENCE "X" 51 #1-15:   WELL
 FLD .                NPR:   FIELD
 LOC .      S15 T38N R78W:   LOCATION
 CNTY.            NATRONA:   COUNTY
 STAT.            WYOMING:   STATE
 CTRY. UNITED STATES OF AMERICA:   COUNTRY
 SRVC.      DRESSER ATLAS:   SERVICE COMPANY
 DATE.        03-JUN-1985:   LOGDATE
 API .     49025110270000:   API NUMBER
~CURVE INFORMATION
#MNEM.UNIT       API CODE    CURVE DESCRIPTION
#----------   ------------   ------------------------------
 DEPT.F                  :   
 NPHI.DEC    42 890 03 00:   NEUTRON POROSITY SANDSTONE
 RHOB.G/C3   45 350 01 00:   BULK DENSITY
 CORR.G/C3   45 356 01 00:   DENSITY CORRECTION
 TEND.LBS    45 635 01 00:   TENSION FROM DENSITY LOG
 CALD.IN     45 280 60 00:   CALIPER FROM DENSITY LOG
 GRR .GAPI   07 310 01 00:   GAMMA RAY FROM RESISTIVITY
 SPR .MV     07 010 01 00:   SPONTANEOUS POTENTIAL
 RSFL.OHMM   07 220 01 00:   SPHERICALLY FOCUSED LOG RES.
 RILD.OHMM   07 120 46 00:   DEEP INDUCTION RESISTIVITY
 RILM.OHMM   07 120 44 00:   INDUCTION LOG MEDIUM RESISTIVITY
 TENR.LBS    07 635 01 00:   TENSION
~PARAMETER INFORMATION
#MNEM.UNIT          VALUE    DESCRIPTION
#----------   ------------   ------------------------------
 EKB .F         5235.0000:   Kelly bushing
 EGL .F         5222.0000:   Ground level
 EDF .F            0.0000:   Drilling floor
 TD  .F         4010.0000:   Total depth
 DATE.        03-JUN-1985:   Date logged
 CLNT.            A2DTECH:   Client Code
 SL  . 202' FNL & 2478' FEL:   Surface Location
 PD  .                 GL:   Permanent Datum
 EPD .F              5222:   Elevation Permanent Datum
 LMF .                 KB:   Log Measured From
 DMF .                 KB:   Drilling Measured From
 DAPD.F                13:   Feet Above Permanent Datum
 DD  .F              4010:   Depth driller
 DL  .F              4005:   Depth logger
 BLI .F              4003:   Bottom log interval
 CS1 .IN            8.625:   Casing size
 CBD1.      8.625" @ 605':   Casing driller 1
 CBL1.F               608:   Casing logger 1
 BS1 .IN            7.875:   Bit size
 BSD1.F              4010:   Depth drilled with bit1
 DFT .            KCL/GEL:   Type fluid in hole
 DFD .                  9:   Density
 DFV .                 45:   Viscosity
 DFPH.                  8:   pH
 DFL .                9.8:   Fluid loss
 MSS .           FLOWLINE:   Source of sample
 RMS .OHMM            .40:   Rm
 MST .F                65:   Rm Meas. temp.
 RMF .OHMM            .32:   Rmf
 MFST.F                65:   Rmf Meas. temp.
 RMC .OHMM            .50:   Rmc
 MCST.F                65:   Rmc Meas. temp.
 MFSS.               MEAS:   Source Rmf.
 MCSS.               CALC:   Source Rmc.
 RMB .OHMM            .20:   Rm. at BHT
 BHT .F               130:   BHT.
 TCS .HRS               3:   Time Circ. stopped
 MRT .F               130:   Maximum recorded temp.
 LUN .               6274:   Logging unit number
 LUL .               GLTE:   Logging unit location
 ENGI.             RAUTIO:   Recorded By
 WITN.             STRONG:   Witnessed by
 ORIG.     2.5", 5" PRINT:   Origin of data
 UWI .     49025110270000:   Unique Well ID
 DICO. A2D TECHNOLOGIES, INC.:   Digitizing Company
~OTHER INFORMATION
~A    DEPT    NPHI       RHOB       CORR       TEND       CALD        GRR        SPR       RSFL       RILD       RILM       TENR   
# ...
 2414.5000  -999.2500     2.5250     0.0170    25.2030     9.7470   109.3210   -81.3910     6.7150     5.7680     5.8560    -7.4090
 2415.0000  -999.2500     2.5190     0.0180    25.8870     9.7450   110.7670   -81.3630     6.3520     5.7200     5.7880    -7.2410
 2415.5000  -999.2500     2.5180     0.0190    26.5700     9.7440   111.6070   -81.3350     6.0790     5.6890     5.6890    -7.0730
 2416.0000  -999.2500     2.5220     0.0180    27.2540     9.7430   110.7770   -81.3070     5.9570     5.6890     5.8260    -6.9050
 2416.5000  -999.2500     2.5260     0.0160    27.9370     9.7420   107.3830   -81.2790     6.2070     5.6890     6.0730    -6.7370
 2417.0000  -999.2500     2.5290     0.0070    28.6210     9.7420   104.4440   -81.2540     6.4240     5.6370     6.1810    -6.5700
 2417.5000  -999.2500     2.5330    -0.0080    29.3040     9.7700   104.2220   -81.1370     6.6410     5.5850     5.9420    -6.4020
 2418.0000  -999.2500     2.5380    -0.0050    29.9880     9.8160   103.9450   -80.9900     6.9030     5.5170     5.6890    -6.2340
 2418.5000  -999.2500     2.5350     0.0130    30.6720     9.8170   103.6510   -80.8420     6.7150     5.4500     5.5560    -6.0660
 2419.0000  -999.2500     2.5260     0.0380    31.3550     9.8140   103.4070   -80.6950     6.4760     5.3830     5.4530    -5.8980
 2419.5000  -999.2500     2.5170     0.0550    32.0390     9.8100   104.7240   -80.5490     6.2380     5.2890     5.3510    -5.7310
 2420.0000  -999.2500     2.5200     0.0660    32.7220     9.8070   108.0340   -80.4770     6.0000     5.1940     5.2490    -5.5630
 2420.5000  -999.2500     2.5240     0.0620    33.4060     9.8040   109.9960   -80.6120     5.8780     5.1000     5.1460    -5.3950
 2421.0000  -999.2500     2.5280     0.0400    34.0890     9.8010   109.5650   -80.7450     5.7810     4.9800     5.0440    -5.2270
 2421.5000  -999.2500     2.5320     0.0060    34.7730     9.7970   109.1790   -80.8780     5.6890     4.8250     4.9410    -5.0590
 2422.0000  -999.2500     2.5330    -0.0050    35.4560     9.7940   109.1100   -81.0100     5.8130     4.6700     4.8130    -4.1420
 2422.5000  -999.2500     2.5320    -0.0030    36.1400     9.7910   109.5890   -81.1430     5.9330     4.5160     4.6090    -2.8160
 2423.0000  -999.2500     2.5220    -0.0020    36.8240     9.7870   111.3680   -81.2750     6.0520     4.3610     4.4050    -1.4890
 2423.5000  -999.2500     2.5120    -0.0020    37.5070     9.7840   113.4490   -81.4050     6.0680     4.2060     4.2000    -0.1630
 2424.0000  -999.2500     2.5090     0.0060    38.1910     9.7800   115.5310   -81.5340     5.3240     4.0510     3.9960     1.1630
 2424.5000  -999.2500     2.5070     0.0190    38.8740     9.7800   117.6320   -81.6640     4.5520     3.9430     3.9720     2.4890
 2425.0000  -999.2500     2.5060     0.0310    39.4210     9.7800   118.3460   -81.7950     4.2780     3.8830     4.0600     3.8160
 2425.5000  -999.2500     2.5040     0.0420     9.4810     9.7800   118.2030   -81.7650     4.2240     3.8230     4.1210     2.9230
 2426.0000  -999.2500     2.5070     0.0350   -15.4690     9.7800   118.0900   -81.6360     4.1980     3.7590     4.1170   -16.4620
 2426.5000  -999.2500     2.5100     0.0260   -40.4190     9.7800   118.9820   -81.5050     4.3610     3.7970     4.0790   -35.8460
 2427.0000  -999.2500     2.5140     0.0280   -32.7420     9.7800   119.9260   -81.3740     4.6240     3.8510     4.0410   -45.0000
 2427.5000  -999.2500     2.5160     0.0390   -25.0650     9.7800   120.8170   -81.2430     4.9550     3.9050     4.0090   -45.0000
 2428.0000  -999.2500     2.5260     0.0490   -17.3880     9.7800   120.3360   -81.1120     4.6730     3.9590     4.1360   -45.0000
 2428.5000  -999.2500     2.5420     0.0590    -9.7110     9.7800   116.8200   -80.9810     4.2760     4.0130     4.3150   -45.0000
 2429.0000  -999.2500     2.5490     0.0610    -0.4990     9.7800   113.3770   -80.8560     4.2370     4.0670     4.3730   -45.0000
 2429.5000  -999.2500     2.5560     0.0410    -6.2020     9.7800   112.8820   -80.8890     4.4930     4.1210     4.4360   -45.0000
 2430.0000  -999.2500     2.5570     0.0210   -13.3300     9.7800   112.4250   -80.9350     4.8770     4.1750     4.4360   -45.0000
 2430.5000  -999.2500     2.5560     0.0280   -20.4590     9.7800   110.2010   -80.9800     5.1880     4.2290     4.4140   -45.0000
 2431.0000  -999.2500     2.5550     0.0400   -27.5880     9.7800   109.1460   -81.0250     5.0940     4.2830     4.3960   -45.0000
 2431.5000  -999.2500     2.5540     0.0520   -34.7160     9.7800   111.5120   -81.0520     5.0660     4.3370     4.3960   -45.0000
 2432.0000  -999.2500     2.5560     0.0650   -40.4190     9.7800   114.1440   -81.0520     5.0190     4.3910     4.3950   -45.0000
 2432.5000  -999.2500     2.5590     0.0690   -35.4290     9.7800   115.7470   -81.0520     4.9400     4.4450     4.3960   -45.0000
 2433.0000  -999.2500     2.5580     0.0750   -31.2710     9.7800   115.8790   -81.0520     4.9050     4.4990     4.4340   -45.0000
 2433.5000  -999.2500     2.5510     0.0800   -27.1120     9.7800   116.0030   -81.0520     4.8640     4.6000     4.6010   -45.0000
 2434.0000  -999.2500     2.5390     0.0820   -22.9540     9.7800   117.4750   -81.0520     4.9810     4.7280     4.7690   -45.0000
 2434.5000  -999.2500     2.5260     0.0710   -18.7960     9.7800   119.6760   -81.0520     5.1200     4.8570     4.9360   -45.0000
 2435.0000  -999.2500     2.5240     0.0720   -14.6370     9.7800   119.6520   -81.0520     5.2590     4.9850     5.0940   -45.0000
 2435.5000  -999.2500     2.5290     0.0860   -10.4790     9.7800   118.4860   -81.0520     5.4520     5.1130     5.2500   -45.0000
 2436.0000  -999.2500     2.5340     0.0830    -6.3210     9.7800   117.2660   -81.0520     5.7080     5.2420     5.4310   -45.0000
 2436.5000  -999.2500     2.5380     0.0630    -2.1620     9.7800   117.1370   -81.0520     5.9640     5.3700     5.6120   -45.0000
 2437.0000  -999.2500     2.5440     0.0370    -0.4990     9.7800   119.6410   -81.0520     6.2200     5.4990     5.7940   -45.0000
 2437.5000  -999.2500     2.5490     0.0130    -0.4990     9.7780   122.4330   -81.0520     6.4760     5.6270     5.9570   -45.0000
 2438.0000  -999.2500     2.5570     0.0140    -0.4990     9.7740   123.3050   -81.0520     6.6530     5.7420     5.9570   -45.0000
 2438.5000  -999.2500     2.5560     0.0160    -0.4990     9.7700   121.7060   -81.0520     6.5920     5.8000     6.0120   -45.0000
 2439.0000  -999.2500     2.5530     0.0190    -0.4990     9.7650   121.1920   -81.0520     6.3500     5.8440     6.0610   -45.0000
 2439.5000  -999.2500     2.5510     0.0210    -0.4990     9.7610   121.9960   -81.0520     6.1240     5.8890     6.1140   -45.0000
 2440.0000  -999.2500     2.5460     0.0240    -0.4990     9.7570   122.7600   -81.0520     6.2760     5.9330     6.1670   -45.0000
 2440.5000  -999.2500     2.5380     0.0270    -0.4990     9.7520   121.8990   -81.0210     6.4400     5.9770     6.1810   -45.0000
 2441.0000  -999.2500     2.5320     0.0290    -0.4990     9.7480   118.0440   -80.9750     6.6040     6.0220     6.0910   -45.0000
 2441.5000  -999.2500     2.5400     0.0350    -0.4990     9.7430   116.0040   -80.9300     6.7670     6.0680     6.0680   -45.0000
 2442.0000  -999.2500     2.5540     0.0470    -0.4990     9.7380   117.4130   -80.8840     6.9030     6.0120     6.0120   -45.0000
 2442.5000  -999.2500     2.5680     0.0590    -0.8950     9.7180   124.2520   -80.8380     6.4570     6.1650     6.2950   -45.0000
 2443.0000  -999.2500     2.5780     0.0580    -1.2250     9.7000   127.7400   -80.7920     5.9990     6.4290     6.6900   -45.0000
 2443.5000  -999.2500     2.5710     0.0470    -1.5560     9.6820   128.3170   -80.7460     5.8790     6.6940     7.1210   -45.0000
 2444.0000  -999.2500     2.5570     0.0370    -1.8860     9.6640   127.2240   -80.7000     5.8480     6.9590     7.5510   -45.0000
 2444.5000  -999.2500     2.5460     0.0270    -2.2160     9.6450   119.2380   -80.6540     6.6130     7.2240     7.9820   -45.0000
