~VERSION INFORMATION
 VERS.                2.0:   CWLS LOG ASCII STANDARD - VERSION 2.0
 WRAP.                 NO:   ONE LINE PER DEPTH STEP
~WELL INFORMATION
#MNEM.UNIT      DATA TYPE    INFORMATION
#----------   ------------   ------------------------------
 STRT.F           63.5000:   START DEPTH
 STOP.F         4112.0000:   STOP DEPTH
 STEP.F            0.5000:   STEP LENGTH
 NULL.          -999.2500:   NO VALUE
 COMP. LAWRENCE-ALLISON & ASSOC:   COMPANY
 WELL. LAWRENCE "X" #34-34:   WELL
 FLD .           N.P.R.#3:   FIELD
 LOC .      S34 T39N R78W:   LOCATION
 CNTY.            NATRONA:   COUNTY
 STAT.            WYOMING:   STATE
 CTRY. UNITED STATES OF AMERICA:   COUNTRY
 SRVC.      DRESSER ATLAS:   SERVICE COMPANY
 DATE.        19-OCT-1983:   LOGDATE
 API .     49025109440000:   API NUMBER
~CURVE INFORMATION
#MNEM.UNIT       API CODE    CURVE DESCRIPTION
#----------   ------------   ------------------------------
 DEPT.F                  :   
 AC  .US/F   60 250 00 00:   ACCOUSTIC
 TENS.LBS    60 635 01 00:   TENSION FROM SONIC
 ILD .OHMM   07 120 46 00:   DEEP INDUCTION RESISTIVITY
 ILM .OHMM   07 120 44 00:   INDUCTION LOG MEDIUM RESISTIVITY
 RFOC.OHMM   07 220 04 00:   RESISTIVITY FOCUSED LOG RES.
 TENR.LBS    07 635 01 00:   TENSION FROM RESISTIVITY
 SPR .MV     07 010 01 00:   SPONTANEOUS POTENTIAL
 GRR .GAPI   07 310 01 00:   GAMMA RAY FROM RESISTIVITY
 CALD.IN     45 280 60 00:   CALIPER FROM DENSITY LOG
 RHOB.G/C3   45 350 01 00:   BULK DENSITY
 CORR.G/C3   45 356 01 00:   DENSITY CORRECTION
 TEND.LBS    45 635 01 00:   TENSION FROM DENSITY LOG
 NPHI.DEC    42 890 03 00:   NEUTRON POROSITY SANDSTONE
~PARAMETER INFORMATION
#MNEM.UNIT          VALUE    DESCRIPTION
#----------   ------------   ------------------------------
 EKB .F         5100.0000:   Kelly bushing
 EGL .F         5090.0000:   Ground level
 TD  .F         4107.0000:   Total depth
 DATE.        19-OCT-1983:   Date logged
 CLNT.            A2DTECH:   Client Code
 SL  . 1997' FNL & 1661' FWL:   Surface Location
 PD  .                 GL:   Permanent Datum
 EPD .F              5090:   Elevation Permanent Datum
 LMF .                 KB:   Log Measured From
 DMF .                 KB:   Drilling Measured From
 DAPD.F                10:   Feet Above Permanent Datum
 DD  .F              4107:   Depth driller
 DL  .F              4102:   Depth logger
 BLI .F              4100:   Bottom log interval
 CS1 .IN            9.625:   Casing size
 CBD1.      9.625" @ 695':   Casing driller 1
 CBL1.F               696:   Casing logger 1
 BS1 .IN            7.875:   Bit size
 BSD1.F              4107:   Depth drilled with bit1
 DFT .            GEL-KCL:   Type fluid in hole
 DFD .                  9:   Density
 DFV .                 43:   Viscosity
 DFPH.                  9:   pH
 DFL .                 11:   Fluid loss
 MSS .           FLOWLINE:   Source of sample
 RMS .OHMM          0.313:   Rm
 MST .F                72:   Rm Meas. temp.
 RMF .OHMM          0.265:   Rmf
 MFST.F                68:   Rmf Meas. temp.
 RMC .OHMM          0.598:   Rmc
 MCST.F                68:   Rmc Meas. temp.
 MFSS.               MEAS:   Source Rmf.
 MCSS.               MEAS:   Source Rmc.
 RMB .OHMM          0.173:   Rm. at BHT
 BHT .F               130:   BHT.
 TCS .HRS               4:   Time Circ. stopped
 MRT .F               130:   Maximum recorded temp.
 LUN .               6774:   Logging unit number
 LUL .               GLTE:   Logging unit location
 ENGI.           FAHLEING:   Recorded By
 WITN.           JENNINGS:   Witnessed by
 ORIG.           5" PRINT:   Origin of data
 UWI .     49025109440000:   Unique Well ID
 DICO. A2D TECHNOLOGIES, INC.:   Digitizing Company
~OTHER INFORMATION
~A   DEPT       AC       TENS        ILD        ILM       RFOC       TENR        SPR         GRR      CALD       RHOB       CORR       TEND       NPHI   
# ...
 1363.5000  -999.2500  -999.2500     5.7810     5.8900     6.0010   -65.3630   -60.2230   101.9920     9.0570     2.5470     0.0330   -71.6200     0.2670
 1364.0000  -999.2500  -999.2500     5.6850     6.4660     6.4060   -65.2270   -60.2070    99.5910     9.0570     2.5450     0.0440   -70.9490     0.2750
 1364.5000  -999.2500  -999.2500     5.6030     6.1740     6.2750   -65.0910   -60.1920   102.8310     9.0560     2.5430     0.0480   -70.2790     0.2840
 1365.0000  -999.2500  -999.2500     5.5420     5.8010     6.0490   -64.9560   -60.1760   107.7650     9.0560     2.5440     0.0630   -69.6090     0.2840
 1365.5000  -999.2500  -999.2500     5.4950     5.6670     5.8240   -64.8200   -60.1600   107.7740     9.0560     2.5470     0.0730   -68.9390     0.2830
 1366.0000  -999.2500  -999.2500     5.4480     5.5910     5.7810   -64.6840   -60.1440   105.9080     9.0560     2.5390     0.0620   -68.2690     0.2740
 1366.5000  -999.2500  -999.2500     5.4010     5.5180     5.7130   -64.5480   -60.1280   104.3800     9.0560     2.5290     0.0200   -67.5990     0.2660
 1367.0000  -999.2500  -999.2500     5.3650     5.5640     5.6460   -64.4130   -60.1120   105.8470     9.0550     2.5230     0.0130   -66.9290     0.2720
 1367.5000  -999.2500  -999.2500     5.4180     5.6200     5.5770   -64.2770   -60.0970   107.2860     9.0550     2.5320     0.0130   -66.2580     0.2780
 1368.0000  -999.2500  -999.2500     5.4600     5.6750     5.6300   -64.1410   -60.0810   108.2970     9.0550     2.5420     0.0150   -65.5880     0.2770
 1368.5000  -999.2500  -999.2500     5.5030     5.7310     5.7010   -64.0050   -60.0640   107.6360     9.0550     2.5380     0.0220   -64.9180     0.2680
 1369.0000  -999.2500  -999.2500     5.5450     5.7860     5.7720   -63.8700   -60.0460   106.9650     9.0550     2.5330     0.0350   -64.2480     0.2630
 1369.5000  -999.2500  -999.2500     5.5870     5.8420     5.8430   -63.7340   -60.0450   104.5700     9.0540     2.5270     0.0530   -63.5780     0.2630
 1370.0000  -999.2500  -999.2500     5.6300     5.8980     5.9150   -63.5980   -60.3540   101.0610     9.0540     2.5320     0.0620   -62.9080     0.2640
 1370.5000  -999.2500  -999.2500     5.6720     5.9530     5.9860   -63.4620   -60.6660    99.8650     9.0540     2.5380     0.0660   -62.2380     0.2770
 1371.0000  -999.2500  -999.2500     5.7150     6.0090     6.0570   -63.3270   -60.9770   100.1030     9.0540     2.5410     0.0600   -61.5670     0.2750
 1371.5000  -999.2500  -999.2500     5.7570     6.0530     6.1280   -63.1910   -61.2450    99.9480     9.0540     2.5430     0.0510   -60.8970     0.2670
 1372.0000  -999.2500  -999.2500     5.7990     6.0150     6.1990   -63.0550   -61.1090    99.5770     9.0530     2.5420     0.0310   -60.2270     0.2650
 1372.5000  -999.2500  -999.2500     5.8310     5.9770     6.2880   -62.9190   -60.9740   100.7380     9.0530     2.5390     0.0110   -59.5570     0.2730
 1373.0000  -999.2500  -999.2500     5.7420     5.9280     6.2230   -62.7840   -60.8410   102.5650     9.0530     2.5420     0.0150   -58.8870     0.2730
 1373.5000  -999.2500  -999.2500     5.6610     5.8190     6.1720   -62.6480   -60.7080   104.3750     9.0530     2.5460     0.0250   -58.2170     0.2690
 1374.0000  -999.2500  -999.2500     5.5800     5.7100     6.0030   -62.7040   -60.5740   104.4690     9.0520     2.5480     0.0410   -57.5460     0.2620
 1374.5000  -999.2500  -999.2500     5.4660     5.6220     5.8300   -63.4910   -60.4440   105.4180     9.0520     2.5470     0.0580   -56.8760     0.2660
 1375.0000  -999.2500  -999.2500     5.5000     5.6220     5.6560   -64.2780   -60.4390   106.3850     9.0520     2.5490     0.0690   -56.2060     0.2740
 1375.5000  -999.2500  -999.2500     5.5560     5.6220     5.5690   -65.0650   -60.4400   106.4720     9.0520     2.5510     0.0740   -55.5360     0.2740
 1376.0000  -999.2500  -999.2500     5.6130     5.6220     5.7220   -65.8520   -60.4400   106.0450     9.0520     2.5540     0.0620   -54.8660     0.2730
 1376.5000  -999.2500  -999.2500     5.6690     5.7290     5.8730   -66.6390   -60.4400   105.7240     9.0510     2.5530     0.0510   -54.1960     0.2770
 1377.0000  -999.2500  -999.2500     5.7260     5.9010     6.0240   -67.4270   -60.4400   102.1510     9.0510     2.5510     0.0500   -53.5260     0.2680
 1377.5000  -999.2500  -999.2500     5.7820     6.0740     6.1750   -68.2140   -60.4400    98.1550     9.0510     2.5470     0.0410   -52.8550     0.2590
 1378.0000  -999.2500  -999.2500     5.8350     6.2460     6.3260   -69.0010   -60.4400    94.7650     9.0510     2.5360     0.0240   -52.5650     0.2620
 1378.5000  -999.2500  -999.2500     5.8220     6.4060     6.4060   -69.7880   -60.4400    97.8320     9.0510     2.5340     0.0210   -52.9290     0.2650
 1379.0000  -999.2500  -999.2500     5.8100     6.1860     6.2820   -70.5750   -60.4400   100.3320     9.0500     2.5340     0.0200   -53.2920     0.2620
 1379.5000  -999.2500  -999.2500     5.7980     5.9800     6.1650   -71.3620   -60.4420   101.4950     9.0500     2.5340     0.0190   -53.6560     0.2590
 1380.0000  -999.2500  -999.2500     5.7860     5.8350     6.0490   -72.1490   -60.5010   100.7660     9.0500     2.5340     0.0300   -54.0200     0.2570
 1380.5000  -999.2500  -999.2500     5.7730     5.8480     5.9450   -72.4610   -60.7150   100.0680     9.0500     2.5350     0.0410   -54.3830     0.2570
 1381.0000  -999.2500  -999.2500     5.7610     5.8580     5.8350   -71.6970   -60.8500    99.3450     9.0500     2.5310     0.0390   -54.7470     0.2630
 1381.5000  -999.2500  -999.2500     5.7490     5.8680     5.8520   -70.9330   -60.9470    98.6710     9.0490     2.5270     0.0330   -55.1100     0.2730
 1382.0000  -999.2500  -999.2500     5.7370     5.8780     5.8820   -70.1700   -61.1170    99.8890     9.0490     2.5290     0.0330   -55.4740     0.2710
 1382.5000  -999.2500  -999.2500     5.7240     5.8900     5.8900   -69.4060   -61.2880   103.1640     9.0490     2.5380     0.0330   -55.8380     0.2650
 1383.0000  -999.2500  -999.2500     5.7120     5.8810     5.8900   -68.6420   -61.4610   105.1840     9.0490     2.5470     0.0360   -56.2010     0.2610
 1383.5000  -999.2500  -999.2500     5.7000     5.8680     5.8900   -67.8790   -61.6380   106.2770     9.0490     2.5560     0.0590   -56.5650     0.2720
 1384.0000  -999.2500  -999.2500     5.6880     5.8550     5.8900   -67.1150   -61.5180   105.6550     9.0480     2.5610     0.0660   -56.9280     0.2740
 1384.5000  -999.2500  -999.2500     5.6750     5.8430     5.8900   -66.3510   -61.3530   104.2860     9.0480     2.5600     0.0510   -57.2920     0.2640
 1385.0000  -999.2500  -999.2500     5.6630     5.8300     5.8900   -65.5880   -61.1850   104.7660     9.0480     2.5580     0.0380   -57.6560     0.2550
 1385.5000  -999.2500  -999.2500     5.6510     5.8180     5.8900   -64.8240   -61.0180   106.5770     9.0480     2.5540     0.0320   -58.0190     0.2540
 1386.0000  -999.2500  -999.2500     5.6380     5.8050     5.8900   -64.0600   -60.8510   107.0380     9.0480     2.5560     0.0590   -58.3830     0.2550
 1386.5000  -999.2500  -999.2500     5.6260     5.7920     5.8900   -63.2970   -60.6840   105.3250     9.0470     2.5590     0.0710   -58.7460     0.2590
 1387.0000  -999.2500  -999.2500     5.6160     5.7800     5.9130   -62.5330   -60.5160   104.3060     9.0470     2.5560     0.0710   -59.1100     0.2590
 1387.5000  -999.2500  -999.2500     5.6070     5.7670     6.0070   -61.7690   -60.4410   104.9420     9.0470     2.5590     0.0480   -59.4740     0.2530
 1388.0000  -999.2500  -999.2500     5.5980     5.7540     6.1040   -61.0060   -60.4460   107.0910     9.0470     2.5670     0.0380   -59.8370     0.2490
 1388.5000  -999.2500  -999.2500     5.5890     5.7420     6.0320   -60.2420   -60.4810   109.1390     9.0470     2.5740     0.0310   -60.2010     0.2600
 1389.0000  -999.2500  -999.2500     5.5800     5.7290     5.9380   -59.4780   -60.5170   110.9470     9.0460     2.5700     0.0300   -60.5640     0.2720
