~VERSION INFORMATION
 VERS.                2.0:   CWLS LOG ASCII STANDARD - VERSION 2.0
 WRAP.                 NO:   ONE LINE PER DEPTH STEP
~WELL INFORMATION
#MNEM.UNIT      DATA TYPE    INFORMATION
#----------   ------------   ------------------------------
 STRT.F           35.5000:   START DEPTH
 STOP.F         6235.5000:   STOP DEPTH
 STEP.F            0.5000:   STEP LENGTH
 NULL.          -999.2500:   NO VALUE
 COMP. LAWRENCE-ALLISON ASSOCIATES:   COMPANY
 WELL. LAWRENCE-ALLISON "X" #62-11:   WELL
 FLD .                NPR:   FIELD
 LOC .      S11 T38N R78W:   LOCATION
 CNTY.            NATRONA:   COUNTY
 STAT.            WYOMING:   STATE
 CTRY. UNITED STATES OF AMERICA:   COUNTRY
 SRVC.      DRESSER ATLAS:   SERVICE COMPANY
 DATE.        18-DEC-1982:   LOGDATE
 API .     49025109020000:   API NUMBER
~CURVE INFORMATION
#MNEM.UNIT       API CODE    CURVE DESCRIPTION
#----------   ------------   ------------------------------
 DEPT.F                  :   
 ILM .OHMM   07 120 44 00:   INDUCTION LOG MEDIUM
 ILD .OHMM   07 120 46 00:   DEEP RESISTIVITY
 RFOC.OHMM   07 220 04 00:   RESISTIVITY FOCUSED LOG RES.
 DT  .US/F   60 520 00 00:   DELTA TIME
 TENS.LBS    60 635 01 00:   TENSION FROM SONIC LOG.
 RS  .OHMM   11 220 09 00:   RESISTIVITY SHALLOW
 RD  .OHMM   11 220 10 00:   RESISTIVITY DEEP
 RLL .OHMM   11 220 00 00:   LATEROLOG RESISTIVITY
 SPR .MV     07 010 01 00:   SPONTANEOUS POTENTIAL
 TENR.LBS    07 635 01 00:   TENSION FROM RES. LOG
 CALD.IN     45 280 60 00:   CALIPER FROM DENSITY LOG
 GRD .GAPI   45 310 01 00:   GAMMA RAY FROM DENSITY LOG
 DEN .G/C3   45 350 01 00:   FORMATION FACTOR DENSITY
 DRHO.G/C3   45 356 01 00:   DENSITY CORRECTION
 TEND.LBS    45 635 01 00:   TENSION FROM DENSITY LOG
 CN  .DEC    42 890 00 00:   NEUTRON POROSITY
~PARAMETER INFORMATION
#MNEM.UNIT          VALUE    DESCRIPTION
#----------   ------------   ------------------------------
 EKB .F         5218.0000:   Kelly bushing
 EGL .F         5208.0000:   Ground level
 EDF .F            0.0000:   Drilling floor
 TD  .F         6232.0000:   Total depth
 DATE.        18-DEC-1982:   Date logged
 CLNT.            A2DTECH:   Client Code
 SL  . 971' FNL & 1898' FEL:   Surface Location
 PD  .                 GL:   Permanent Datum
 EPD .F              5208:   Elevation Permanent Datum
 LMF .                 KB:   Log Measured From
 DMF .                 KB:   Drilling Measured From
 DAPD.F                10:   Feet Above Permanent Datum
 DD  .F              6222:   Depth driller
 DL  .F              6232:   Depth logger
 BLI .F              6230:   Bottom log interval
 CS1 .IN            9.625:   Casing size
 CBD1.     9.625" @ 1002':   Casing driller 1
 CBL1.F              1002:   Casing logger 1
 BS1 .IN             8.75:   Bit size
 BSD1.F              6222:   Depth drilled with bit1
 DFT .                KCL:   Type fluid in hole
 DFD .                  9:   Density
 DFV .                 37:   Viscosity
 DFPH.                  8:   pH
 DFL .                8.4:   Fluid loss
 MSS .           FLOWLINE:   Source of sample
 RMS .OHMM            .25:   Rm
 MST .F                60:   Rm Meas. temp.
 RMF .OHMM            .18:   Rmf
 MFST.F                62:   Rmf Meas. temp.
 RMC .OHMM            .32:   Rmc
 MCST.F                60:   Rmc Meas. temp.
 MFSS.               MEAS:   Source Rmf.
 MCSS.               CALC:   Source Rmc.
 RMB .OHMM            .09:   Rm. at BHT
 BHT .F               166:   BHT.
 TCS .HRS               6:   Time Circ. stopped
 MRT .F               166:   Maximum recorded temp.
 LUN .               6274:   Logging unit number
 LUL .               GLTE:   Logging unit location
 ENGI.             RAUTIO:   Recorded By
 WITN.           JENNINGS:   Witnessed by
 ORIG.           5" PRINT:   Origin of data
 UWI .     49025109020000:   Unique Well ID
 DICO. A2D TECHNOLOGIES, INC.:   Digitizing Company
~OTHER INFORMATION
~A  DEPTH      ILM        ILD       RFOC         DT       TENS         RS         RD        RLL        SPR       TENR       CALD        GRD        DEN       DRHO       TEND         CN
# ...
 1691.0000  -999.2500  -999.2500  -999.2500    92.1329   -29.1982     6.8713     7.1987     5.7865   -85.2992   -35.1870    10.7627    69.5845     2.4823     0.0368   -21.3281     0.2787
 1691.5000  -999.2500  -999.2500  -999.2500    92.1362   -28.8578     6.9000     7.2469     5.7820   -85.1609   -35.1992    10.7621    68.0699     2.4831     0.0462   -21.4455     0.2864
 1692.0000  -999.2500  -999.2500  -999.2500    91.9127   -28.5174     6.9433     7.2950     5.7390   -85.1706   -35.2114    10.7615    68.6594     2.4808     0.0384   -25.4687     0.3022
 1692.5000  -999.2500  -999.2500  -999.2500    91.6144   -28.1770     6.8893     7.3427     5.6177   -85.3324   -35.2236    10.7609    71.6493     2.4777     0.0182   -25.6030     0.3131
 1693.0000  -999.2500  -999.2500  -999.2500    91.6172   -27.8366     6.7898     7.3399     5.5369   -85.3422   -35.2358    10.7603    73.7402     2.4738     0.0105   -25.7196     0.3127
 1693.5000  -999.2500  -999.2500  -999.2500    91.6205   -27.4963     6.6461     7.3375     5.6119   -85.5040   -35.2480    10.7597    73.7291     2.4637     0.0074   -21.9031     0.2809
 1694.0000  -999.2500  -999.2500  -999.2500    91.9250   -27.1559     6.5049     7.1342     5.7670   -85.5128   -35.2601    10.7591    73.7160     2.4528     0.0230   -22.0312     0.2746
 1694.5000  -999.2500  -999.2500  -999.2500    92.3803   -26.8155     6.3672     6.8880     5.2290   -85.5235   -35.2723    10.7585    74.0070     2.4418     0.0402   -26.0547     0.2806
 1695.0000  -999.2500  -999.2500  -999.2500    92.8361   -26.4751     6.2325     6.7438     4.4542   -85.5349   -35.2845    10.7579    71.8900     2.4395     0.0495   -26.1719     0.2852
 1695.5000  -999.2500  -999.2500  -999.2500    93.1406   -26.1347     6.1425     6.7886     3.7683   -85.5463   -35.2967    10.7573    67.9750     2.4419     0.0558   -26.2891     0.2864
 1696.0000  -999.2500  -999.2500  -999.2500    92.7668   -25.7943     6.1822     6.9293     4.0373   -85.5549   -35.3089    10.7567    66.7607     2.4466     0.0371   -30.3125     0.2862
 1696.5000  -999.2500  -999.2500  -999.2500    92.1663   -25.4539     6.2644     7.0725     4.9697   -85.4155   -35.3210    10.7561    70.3531     2.4513     0.0154   -30.4297     0.2874
 1697.0000  -999.2500  -999.2500  -999.2500    91.7916   -25.1135     6.4362     7.1695     5.1440   -85.2748   -35.3332    10.7555    71.5450     2.4561     0.0076   -30.5469     0.2905
 1697.5000  -999.2500  -999.2500  -999.2500    91.6436   -24.7731     6.5683     7.2679     5.2843   -84.9839   -35.3454    10.7549    71.8342     2.4655     0.0030   -30.6757     0.2875
 1698.0000  -999.2500  -999.2500  -999.2500    92.3261   -24.4327     6.6569     7.3157     5.9024   -84.8465   -35.3576    10.7543    71.8193     2.4764     0.0030   -30.7813     0.2758
 1698.5000  -999.2500  -999.2500  -999.2500    93.0081   -24.0923     6.7440     7.3122     5.9829   -84.8563   -35.3698    10.7537    74.2086     2.4827     0.0061   -30.9000     0.2708
 1699.0000  -999.2500  -999.2500  -999.2500    93.3880   -23.7519     6.7394     7.3094     5.6160   -85.0181   -35.3819    10.7531    75.9993     2.4828     0.0186   -31.0257     0.2690
 1699.5000  -999.2500  -999.2500  -999.2500    93.1646   -23.4115     6.6889     7.2565     5.2729   -85.0476   -35.3941    10.7525    75.6859     2.4851     0.0342   -31.1513     0.2780
 1700.0000  -999.2500  -999.2500  -999.2500    92.9407   -23.0178     6.6395     7.2202     5.1611   -85.3057   -35.4063    10.7519    73.8201     2.4881     0.0535   -27.3437     0.2908
 1700.5000  -999.2500  -999.2500  -999.2500    93.0948   -23.9213     6.5869     7.2447     5.3037   -85.5638   -35.4763    10.7539    71.1646     2.4912     0.0624   -27.4465     0.2847
 1701.0000  -999.2500  -999.2500  -999.2500    92.9472   -24.9924     6.6293     7.2852     5.8826   -85.8052   -35.5463    10.7559    71.4583     2.4938     0.0563   -27.5174     0.2794
 1701.5000  -999.2500  -999.2500  -999.2500    92.7992   -26.0636     6.6216     7.3275     6.0033   -85.8133   -35.6162    10.7579    75.6569     2.4899     0.0408   -27.5883     0.2776
 1702.0000  -999.2500  -999.2500  -999.2500    92.8783   -27.1347     6.6156     7.3175     5.9582   -85.6692   -35.6862    10.7599    81.3570     2.4774     0.0253   -27.6592     0.2895
 1702.5000  -999.2500  -999.2500  -999.2500    93.3336   -28.2058     6.5647     7.3076     5.8729   -85.5253   -35.7562    10.7619    82.5535     2.4680     0.0067   -31.6551     0.2892
 1703.0000  -999.2500  -999.2500  -999.2500    93.7894   -29.2769     6.5143     7.2486     5.7884   -85.5338   -35.8262    10.7639    81.6451     2.4625     0.0099   -27.8094     0.2839
 1703.5000  -999.2500  -999.2500  -999.2500    93.8676   -30.3480     6.3303     7.1886     5.7056   -85.3910   -35.8962    10.7659    79.8367     2.4610     0.0225   -23.9757     0.2753
 1704.0000  -999.2500  -999.2500  -999.2500    93.4938   -31.4191     6.1952     7.1802     5.6637   -85.5497   -35.9662    10.7678    78.9301     2.4704     0.0288   -20.1662     0.2707
 1704.5000  -999.2500  -999.2500  -999.2500    92.8755   -32.4902     6.1468     7.1236     5.6211   -85.7082   -36.0362    10.7698    79.5251     2.4790     0.0289   -16.3325     0.2751
 1705.0000  -999.2500  -999.2500  -999.2500    92.1419   -33.5613     6.1420     7.1139     5.6177   -85.7143   -36.1061    10.7547    80.1210     2.4860     0.0243   -12.5109     0.2820
 1705.5000  -999.2500  -999.2500  -999.2500    91.3156   -34.6325     6.1372     7.1043     5.6539   -85.7221   -36.1761    10.7385    79.5129     2.4970     0.0166    -8.6719     0.2916
 1706.0000  -999.2500  -999.2500  -999.2500    90.7905   -35.7036     6.1767     7.0946     5.6914   -85.7303   -36.2461    10.7372    75.9027     2.5001     0.0074    -2.8706     0.2938
 1706.5000  -999.2500  -999.2500  -999.2500    90.5666   -36.7747     6.2141     7.0878     5.8472   -85.6861   -36.3161    10.7372    72.2935     2.4970     0.0022    -1.0156     0.2863
 1707.0000  -999.2500  -999.2500  -999.2500    90.7212   -37.8458     6.3373     7.1275     5.9264   -85.5940   -36.3861    10.7378    70.4860     2.4907    -0.0018     2.8125     0.2794
 1707.5000  -999.2500  -999.2500  -999.2500    91.4032   -38.9169     6.4073     7.1688     6.0047   -85.6019   -36.4561    10.7385    70.1792     2.4829    -0.0033    -1.1670     0.2759
 1708.0000  -999.2500  -999.2500  -999.2500    92.1601   -39.9880     6.5516     7.3098     5.9600   -85.7604   -36.5260    10.7391    70.4745     2.4798    -0.0078     2.6666     0.2734
 1708.5000  -999.2500  -999.2500  -999.2500    92.7667   -41.0591     6.6833     7.4020     5.9569   -85.7669   -36.5960    10.7398    72.2700     2.4767    -0.0093    -1.3281     0.2710
 1709.0000  -999.2500  -999.2500  -999.2500    92.9203   -41.4603     6.8167     7.3934     5.9121   -85.9248   -36.6660    10.7404    76.4676     2.4751    -0.0076    -9.2335     0.2753
 1709.5000  -999.2500  -999.2500  -999.2500    92.3957   -37.1157     6.7176     7.3833     5.9096   -85.9323   -36.7360    10.7411    80.9665     2.4759    -0.0056   -13.2031     0.2786
 1710.0000  -999.2500  -999.2500  -999.2500    91.7952   -32.8414     6.5742     7.3251     5.9063   -85.7883   -36.8060    10.7417    81.8627     2.4791    -0.0028   -17.1911     0.2772
 1710.5000  -999.2500  -999.2500  -999.2500    91.3455   -28.6374     6.4777     7.3690     5.9024   -85.7976   -36.8760    10.7424    78.8522     2.4814    -0.0008   -25.0883     0.2694
 1711.0000  -999.2500  -999.2500  -999.2500    91.2728   -20.5809     6.5178     7.3576     5.8989   -85.6541   -36.9459    10.7430    75.8436     2.4845     0.0005   -25.1563     0.2644
 1711.5000  -999.2500  -999.2500  -999.2500    91.7291   -16.3769     6.5580     7.3462     5.8958   -85.5113   -37.0159    10.7437    72.5337     2.4861    -0.0041   -29.1457     0.2653
 1712.0000  -999.2500  -999.2500  -999.2500    91.9581   -12.1729     6.6002     7.3376     5.8923   -85.5201   -37.0859    10.7443    71.0265     2.4877    -0.0118   -33.1306     0.2762
