~VERSION INFORMATION
 VERS.                2.0:   CWLS LOG ASCII STANDARD - VERSION 2.0
 WRAP.                 NO:   ONE LINE PER DEPTH STEP
~WELL INFORMATION
#MNEM.UNIT      DATA TYPE    INFORMATION
#----------   ------------   ------------------------------
 STRT.F          218.0000:   START DEPTH
 STOP.F         3062.0000:   STOP DEPTH
 STEP.F            0.5000:   STEP LENGTH
 NULL.          -999.2500:   NO VALUE
 COMP.    FEXIN & SCISSON:   COMPANY
 WELL. FEXIN 32 "A" #3-34:   WELL
 FLD .              N P R:   FIELD
 LOC .      S34 T39N R78W:   LOCATION
 CNTY.            NATRONA:   COUNTY
 STAT.            WYOMING:   STATE
 CTRY. UNITED STATES OF AMERICA:   COUNTRY
 SRVC.              WELEX:   SERVICE COMPANY
 DATE.        18-JUL-1977:   LOGDATE
 API .     49025103960000:   API NUMBER
~CURVE INFORMATION
#MNEM.UNIT       API CODE    CURVE DESCRIPTION
#----------   ------------   ------------------------------
 DEPT.F                  :   
 CALD.IN     45 280 60 00:   CALIPER FROM DENSITY LOG
 RHOB.G/C3   45 350 01 00:   BULK DENSITY
 GRD .GAPI   45 310 01 00:   GAMMA RAY FROM DENSITY LOG
 CORR.G/C3   45 356 01 00:   DENSITY CORRECTION
 SPR .MV     07 010 01 00:   SPONTANEOUS POTENTIAL
 SGRD.OHMM   07 220 05 00:   SHALLOW SHORT GUARD RESISTIVITY
 ILM .OHMM   07 120 44 00:   INDUCTION LOG MEDIUM RESISTIVITY
 ILD .OHMM   07 120 46 00:   DEEP INDUCTION RESISTIVITY
~PARAMETER INFORMATION
#MNEM.UNIT          VALUE    DESCRIPTION
#----------   ------------   ------------------------------
 EKB .F         5080.0000:   Kelly bushing
 EGL .F         5070.0000:   Ground level
 TD  .F         3070.0000:   Total depth
 DATE.        18-JUL-1977:   Date logged
 CLNT.            A2DTECH:   Client Code
 SL  . 900' FNL & 1650'FWL:   Surface Location
 PD  .                 GL:   Permanent Datum
 DD  .F              3070:   Depth driller
 DL  .F              3063:   Depth logger
 BLI .F              3061:   Bottom log interval
 CS1 .IN            8.625:   Casing size
 CBD1.      8.625" @ 212':   Casing driller 1
 CBL1.F               222:   Casing logger 1
 BS1 .IN            7.875:   Bit size
 DFT .           CEHM-GEL:   Type fluid in hole
 DFD .                8.8:   Density
 DFV .                 42:   Viscosity
 DFPH.                7.5:   pH
 DFL .                  8:   Fluid loss
 MSS .           FLOWLINE:   Source of sample
 RMS .OHMM            .89:   Rm
 MST .F                94:   Rm Meas. temp.
 RMF .OHMM            .54:   Rmf
 MFST.F                94:   Rmf Meas. temp.
 RMC .OHMM           1.24:   Rmc
 MCST.F                94:   Rmc Meas. temp.
 MFSS.               FANN:   Source Rmf.
 RMB .OHMM            .67:   Rm. at BHT
 BHT .F               122:   BHT.
 TCS .HRS               4:   Time Circ. stopped
 MRT .F               122:   Maximum recorded temp.
 LUN .               8611:   Logging unit number
 LUL .             CASPER:   Logging unit location
 ENGI.          C.A. DOAK:   Recorded By
 WITN.         PETTINGILL:   Witnessed by
 ORIG.           5" PRINT:   Origin of data
 UWI .     49025103960000:   Unique Well ID
 DICO. A2D TECHNOLOGIES, INC.:   Digitizing Company
 DAPD.                 12:   Feet Above Permanent Datum
 BSD1.F              3950:   Depth drilled with bit1
 MCSS.                KIT:   Source Rmc.
 EPD .F              5070:   Elevation Permanent Datum
 LMF .                 KB:   Log Measured From
 DMF .                 KB:   Drilling Measured From
 TLI .F               200:   Top log interval
~OTHER INFORMATION
~A   DEPT     CALD       RHOB        GRD       CORR        SPR       SGRD        ILM        ILD   
# ...
 2283.5000     8.0940     2.4210   142.1710     0.0140   -72.5590    31.2430    25.2430    23.5180
 2284.0000     8.0910     2.4270   143.4310     0.0160   -72.5410    31.4590    23.0820    22.2880
 2284.5000     8.0890     2.4300   143.5070     0.0170   -72.5230    27.9690    22.9240    21.0580
 2285.0000     8.0860     2.4270   141.9950     0.0180   -72.5050    22.9240    22.9240    19.7040
 2285.5000     8.0840     2.4290   138.5730     0.0150   -72.4880    27.5370    22.9240    19.4350
 2286.0000     8.0810     2.4250   135.0900     0.0100   -72.4700    33.4680    22.9240    19.4350
 2286.5000     8.0960     2.4150   131.6080     0.0040   -72.4520    32.1640    22.9240    19.5340
 2287.0000     8.1160     2.4320   128.1290     0.0040   -72.4350    30.2990    22.9240    19.6230
 2287.5000     8.1350     2.4520   124.6500     0.0050   -72.4170    29.3670    22.9240    19.7040
 2288.0000     8.1610     2.4720   121.1740     0.0050   -72.3990    30.8350    23.2100    20.1590
 2288.5000     8.1870     2.4720   117.6990     0.0060   -72.3820    32.4650    23.6180    20.6150
 2289.0000     8.1990     2.4700   114.1960     0.0060   -72.3640    33.9320    24.0260    21.0710
 2289.5000     8.1980     2.4760   111.4870     0.0060   -72.3460    33.2420    24.5570    21.5270
 2290.0000     8.1970     2.4820   111.0570     0.0070   -72.3290    32.5600    24.4730    21.8680
 2290.5000     8.1960     2.4820   111.6970     0.0070   -72.3110    33.0110    24.3050    21.9410
 2291.0000     8.1960     2.4820   114.0960     0.0070   -72.2930    33.2390    24.2210    22.0130
 2291.5000     8.1950     2.4840   116.0110     0.0070   -72.2750    32.0090    24.6210    22.0860
 2292.0000     8.1940     2.4880   116.8640     0.0080   -72.2580    31.4590    24.8970    22.1580
 2292.5000     8.1930     2.4910   113.0410     0.0080   -72.2400    33.4680    24.8970    22.2310
 2293.0000     8.1920     2.4940   111.2560     0.0080   -72.2220    32.6140    24.4980    22.3030
 2293.5000     8.1920     2.4940   112.1980     0.0080   -72.2050    30.9050    24.2210    22.3760
 2294.0000     8.1910     2.4930   113.0540     0.0080   -72.1870    29.3670    24.4980    22.4560
 2294.5000     8.1900     2.4960   113.4930     0.0080   -72.2140    31.6500    25.0500    22.5500
 2295.0000     8.1890     2.4980   111.0640     0.0080   -72.2830    33.9320    25.6030    22.6540
 2295.5000     8.1880     2.4960   109.4080     0.0070   -72.3530    33.6130    25.7690    22.7590
 2296.0000     8.1870     2.4920   110.7530     0.0070   -72.4220    32.7850    25.6730    22.8630
 2296.5000     8.1870     2.4880   112.5200     0.0070   -72.4920    34.5740    25.6000    22.9680
 2297.0000     8.1860     2.4890   114.2980     0.0070   -72.5620    35.8520    25.5260    23.0820
 2297.5000     8.1850     2.4900   116.0770     0.0070   -72.6320    34.7470    25.4530    23.0820
 2298.0000     8.1840     2.4800   117.8520     0.0070   -72.7020    33.0110    25.3840    22.8490
 2298.5000     8.1830     2.4810   119.6320     0.0070   -72.7710    33.8280    25.2750    22.5900
 2299.0000     8.1830     2.4830   120.4560     0.0070   -72.8410    34.8790    24.7930    22.3300
 2299.5000     8.1820     2.4780   118.4500     0.0070   -72.9110    34.8790    23.8930    22.1490
 2300.0000     8.1810     2.4750   115.9180     0.0070   -72.9810    30.2540    22.9940    21.4160
 2300.5000     8.1800     2.4730   113.3880     0.0070   -73.0500    26.6960    22.0950    20.7510
 2301.0000     8.1800     2.4700   110.8720     0.0070   -73.1200    25.5920    21.9970    20.0850
 2301.5000     8.1960     2.4660   109.0090     0.0060   -73.1900    27.7440    21.9970    19.4190
 2302.0000     8.2120     2.4610   110.1600     0.0060   -73.2600    28.9660    21.4010    18.7530
 2302.5000     8.2280     2.4560   111.7100     0.0060   -73.3290    28.1460    20.5170    18.0870
 2303.0000     8.2390     2.4580   113.2630     0.0060   -73.3990    27.2860    19.6320    17.4210
 2303.5000     8.2390     2.4560   114.7440     0.0060   -73.4690    26.1690    18.7470    16.9330
 2304.0000     8.2390     2.4500   114.6310     0.0060   -73.5400    23.8230    17.8950    16.6660
 2304.5000     8.2390     2.4500   111.5830     0.0060   -73.5220    20.7880    17.6500    16.3980
 2305.0000     8.2390     2.4520   108.5640     0.0040   -73.4570    18.9070    17.8090    16.1300
 2305.5000     8.2390     2.4530   107.9520     0.0020   -73.3920    20.8250    18.0630    15.9190
 2306.0000     8.2390     2.4520   109.7820     0.0000   -73.3470    26.6700    18.3170    16.1990
 2306.5000     8.2390     2.4480   112.0230    -0.0020   -73.3150    26.1370    18.6490    16.4290
 2307.0000     8.2390     2.4470   114.2970    -0.0010   -73.2840    25.4160    18.6490    16.5750
 2307.5000     8.2390     2.4510   117.1160     0.0010   -73.2520    25.7690    18.6490    16.7000
 2308.0000     8.2390     2.4550   120.2940     0.0030   -73.2200    24.1730    18.6490    16.8240
 2308.5000     8.2390     2.4540   123.4720     0.0050   -73.1890    21.5480    18.6580    16.9480
 2309.0000     8.2390     2.4560   126.3950     0.0070   -73.1570    22.8120    18.6840    17.0570
 2309.5000     8.2390     2.4670   123.9360     0.0080   -73.1250    27.4150    18.7110    17.0830
 2310.0000     8.2390     2.4770   120.6440     0.0100   -73.0940    25.7750    18.7370    17.1080
 2310.5000     8.2390     2.4860   118.2210     0.0120   -73.0620    22.9240    18.7630    17.1340
 2311.0000     8.2390     2.4850   118.8900     0.0120   -73.0300    23.7920    18.7890    17.1590
 2311.5000     8.2390     2.4820   119.4880     0.0110   -72.9980    25.2420    18.8150    17.1850
 2312.0000     8.2390     2.4830   120.0580     0.0110   -72.9740    25.2420    18.8410    17.2100
 2312.5000     8.2390     2.4870   120.1180     0.0100   -73.0040    23.5640    18.8670    17.2360
 2313.0000     8.2390     2.4890   118.2950     0.0100   -73.0340    24.0320    18.8930    17.2610
 2313.5000     8.2390     2.4890   116.5170     0.0100   -73.0650    24.8970    18.9190    17.2870
 2314.0000     8.2390     2.4870   114.7730     0.0110   -73.0950    23.2420    18.9450    17.3440
 2314.5000     8.2390     2.4860   113.7900     0.0120   -73.1250    25.0690    18.9710    17.4060
 2315.0000     8.2390     2.4860   115.7190     0.0120   -73.1560    24.0670    18.9970    17.4670
 2315.5000     8.2390     2.4890   117.5810     0.0130   -73.1860    22.3020    19.0230    17.5290
 2316.0000     8.2390     2.4910   119.7960     0.0140   -73.2170    23.5640    19.0390    17.5910
 2316.5000     8.2400     2.4940   118.5030     0.0120   -73.2470    25.0480    19.0370    17.6500
 2317.0000     8.2410     2.4910   116.3250     0.0100   -73.2770    25.5920    19.0990    17.7420
 2317.5000     8.2410     2.4860   119.2840     0.0080   -73.3080    23.4790    19.1580    17.8880
 2318.0000     8.2420     2.4820   122.6380     0.0060   -73.3380    21.9970    19.7240    18.0340
 2318.5000     8.2420     2.4770   121.5220     0.0020   -73.3690    26.6810    20.4010    18.1800
 2319.0000     8.2430     2.4730   119.4030     0.0020   -73.3990    30.3950    20.5350    18.2680
 2319.5000     8.2440     2.4680   117.2540     0.0010   -73.4290    30.3950    20.4240    17.8040
 2320.0000     8.2440     2.4640   115.0900     0.0010   -73.4600    27.8860    19.8430    17.4170
 2320.5000     8.2450     2.4590   113.1810     0.0000   -73.4900    24.9600    19.2620    17.0300
 2321.0000     8.2450     2.4540   116.3180     0.0000   -73.5200    22.0350    18.6490    16.6430
 2321.5000     8.2460     2.4360   118.9510    -0.0020   -73.5500    19.5690    18.5100    16.2560
 2322.0000     8.2470     2.4280   116.9620    -0.0040   -73.5210    21.3610    18.2620    15.8690
 2322.5000     8.2470     2.4420   115.5490    -0.0020   -73.4450    25.5920    18.0150    15.3810
 2323.0000     8.2480     2.4600   118.5980     0.0000   -73.3690    24.7410    17.7670    15.5370
 2323.5000     8.2480     2.4670   122.5190     0.0020   -73.2930    20.9760    17.5290    15.7490
