~VERSION INFORMATION
 VERS.                2.0:   CWLS LOG ASCII STANDARD - VERSION 2.0
 WRAP.                 NO:   ONE LINE PER DEPTH STEP
~WELL INFORMATION
#MNEM.UNIT      DATA TYPE    INFORMATION
#----------   ------------   ------------------------------
 STRT.F            7.5000:   START DEPTH
 STOP.F         3140.0000:   STOP DEPTH
 STEP.F            0.5000:   STEP LENGTH
 NULL.          -999.2500:   NO VALUE
 COMP. LAWRENCE ALLISON WEST:   COMPANY
 WELL. LAWRENCE NPR 3 "AX" #51-3:   WELL
 FLD .                NPR:   FIELD
 LOC .       S3 T38N R78W:   LOCATION
 CNTY.            NATRONA:   COUNTY
 STAT.            WYOMING:   STATE
 CTRY. UNITED STATES OF AMERICA:   COUNTRY
 SRVC.      DRESSER ATLAS:   SERVICE COMPANY
 DATE.        09-NOV-1986:   LOGDATE
 API .     49025111180000:   API NUMBER
~CURVE INFORMATION
#MNEM.UNIT       API CODE    CURVE DESCRIPTION
#----------   ------------   ------------------------------
 DEPT.F                  :   
 CALD.IN     45 280 60 00:   CALIPER FROM DENSITY LOG
 DEN .LBS    45 350 01 00:   BULK DENSITY
 CORR.G/C3   45 356 01 00:   DENSITY CORRECTION
 NPOR.DEC    42 890 03 00:   ALPHA PROCESSED NEUTRON POROSITY
 SPR .MV     07 010 01 00:   SPONTANEOUS POTENTIAL
 GRR .GAPI   07 310 01 00:   GAMMA RAY FROM RESISTIVITY
 SFL .OHMM   07 220 01 00:   SHALLOW FOCUSED LOG RESISTIVITY
 ILD .OHMM   07 120 46 00:   DEEP INDUCTION RESISTIVITY
 ILM .OHMM   07 120 44 00:   INDUCTION LOG MEDIUM RESISTIVITY
 TENR.LBS    07 635 01 00:   TENSION FROM RESISTIVITY
~PARAMETER INFORMATION
#MNEM.UNIT          VALUE    DESCRIPTION
#----------   ------------   ------------------------------
 EKB .F         5132.0000:   Kelly bushing
 EGL .F         5120.0000:   Ground level
 TD  .F         3141.0000:   Total depth
 DATE.        09-NOV-1986:   Date logged
 CLNT.            A2DTECH:   Client Code
 SL  . 249' FNL & 2195' FEL:   Surface Location
 PD  .                 GL:   Permanent Datum
 EPD .F              5120:   Elevation Permanent Datum
 LMF .                 KB:   Log Measured From
 DMF .                 KB:   Drilling Measured From
 DAPD.F                12:   Feet Above Permanent Datum
 DD  .F              3141:   Depth driller
 DL  .F              3132:   Depth logger
 BLI .F              3126:   Bottom log interval
 CS1 .IN            8.625:   Casing size
 CBD1.      8.625" @ 690':   Casing driller 1
 CBL1.F               690:   Casing logger 1
 BS1 .IN            7.875:   Bit size
 BSD1.F              3141:   Depth drilled with bit1
 DFT .        KCL/POLYMER:   Type fluid in hole
 DFD .                8.9:   Density
 DFV .                 34:   Viscosity
 DFPH.                9.5:   pH
 DFL .                9.5:   Fluid loss
 MSS .           FLOWLINE:   Source of sample
 RMS .OHMM           .368:   Rm
 MST .F                66:   Rm Meas. temp.
 RMF .OHMM           .296:   Rmf
 MFST.F                66:   Rmf Meas. temp.
 RMC .OHMM           .468:   Rmc
 MCST.F                66:   Rmc Meas. temp.
 MFSS.               MEAS:   Source Rmf.
 MCSS.               CALC:   Source Rmc.
 RMB .OHMM           .282:   Rm. at BHT
 BHT .F               120:   BHT.
 TCS .HRS             3.5:   Time Circ. stopped
 MRT .F               120:   Maximum recorded temp.
 LUN .            HL-6274:   Logging unit number
 LUL .           GILLETTE:   Logging unit location
 ENGI.             RAUTIO:   Recorded By
 WITN.             STRONG:   Witnessed by
 ORIG.        2" 5" PRINT:   Origin of data
 UWI .     49025111180000:   Unique Well ID
 DICO. A2D TECHNOLOGIES, INC.:   Digitizing Company
~OTHER INFORMATION
~A    DEPT    CALD        DEN       CORR       NPOR        SPR         GRR       SFL        ILD        ILM       TENR   
# ...
 1180.0000  -999.2500  -999.2500  -999.2500  -999.2500   -80.9795    95.8261     9.0546     8.6328     8.3185   -46.6268
 1180.5000  -999.2500  -999.2500  -999.2500  -999.2500   -81.3844    99.0304     9.0797     8.6322     8.3179   -46.4323
 1181.0000  -999.2500  -999.2500  -999.2500  -999.2500   -81.7893    99.8271     9.1048     8.6315     8.3173   -66.3737
 1181.5000  -999.2500  -999.2500  -999.2500  -999.2500   -81.7929    97.4097     9.1300     8.6309     8.3941   -56.1110
 1182.0000  -999.2500  -999.2500  -999.2500  -999.2500   -81.7965    96.6047     9.1553     8.6301     8.3934   -25.7136
 1182.5000  -999.2500  -999.2500  -999.2500  -999.2500   -81.5994    95.3936     9.1807     8.6295     8.3927   -45.6542
 1183.0000  -999.2500  -999.2500  -999.2500  -999.2500   -81.4023    94.5849     9.2061     8.6288     8.3921   -45.4598
 1183.5000  -999.2500  -999.2500  -999.2500  -999.2500   -81.4030    92.5722     9.2316     8.7086     8.3141   -35.1983
 1184.0000  -999.2500  -999.2500  -999.2500  -999.2500   -80.8075    89.3554     9.2571     8.7890     8.3134   -35.0040
 1184.5000  -999.2500  -999.2500  -999.2500  -999.2500   -81.6145    87.7439     9.2908     8.8702     8.3128   -44.7596
 1185.0000  -999.2500  -999.2500  -999.2500  -999.2500   -81.8187    87.3363     9.2904     8.9522     8.4678   -44.6306
 1185.5000  -999.2500  -999.2500  -999.2500  -999.2500   -81.8223    88.1329     9.4636     9.0349     8.6256   -44.4485
 1186.0000  -999.2500  -999.2500  -999.2500  -999.2500   -81.2253    89.7322     9.6063     9.2033     8.7053   -44.2929
 1186.5000  -999.2500  -999.2500  -999.2500  -999.2500   -81.2274    90.9302     9.8762     9.2883     9.0517   -44.0595
 1187.0000  -999.2500  -999.2500  -999.2500  -999.2500   -81.0303    92.5297    10.1536     9.4614     9.2213   -53.9306
 1187.5000  -999.2500  -999.2500  -999.2500  -999.2500   -80.8332    92.9250    10.3426     9.6377     9.3939   -53.7360
 1188.0000  -999.2500  -999.2500  -999.2500  -999.2500   -80.6361    92.1149    10.6332     9.8173     9.5699   -53.5415
 1188.5000  -999.2500  -999.2500  -999.2500  -999.2500   -80.4389    91.3060    10.8311    10.0934     9.8403   -53.3468
 1189.0000  -999.2500  -999.2500  -999.2500  -999.2500   -80.4425    88.8913    11.2387    10.5713    10.3085   -53.1911
 1189.5000  -999.2500  -999.2500  -999.2500  -999.2500   -80.2454    87.6809    11.5544    10.8685    10.5997   -52.9576
 1190.0000  -999.2500  -999.2500  -999.2500  -999.2500   -80.0482    89.2805    11.8789    11.0710    10.7982   -52.7630
 1190.5000  -999.2500  -999.2500  -999.2500  -999.2500   -79.8518    92.8874    11.9884    11.5955    11.0700   -52.5684
 1191.0000  -999.2500  -999.2500  -999.2500  -999.2500   -79.8553    95.2900    12.0989    11.5945    11.0693   -52.4517
 1191.5000  -999.2500  -999.2500  -999.2500  -999.2500   -79.8589    96.0869    12.0980    11.7014    11.0683   -52.2571
 1192.0000  -999.2500  -999.2500  -999.2500  -999.2500   -80.0632    96.0809    12.2095    11.7004    11.0677   -51.9847
 1192.5000  -999.2500  -999.2500  -999.2500  -999.2500   -80.0667    93.6648    12.2085    11.8084    11.0666   -61.8924
 1193.0000  -999.2500  -999.2500  -999.2500  -999.2500   -80.4718    87.2362    12.0950    11.8075    11.0657   -61.6199
 1193.5000  -999.2500  -999.2500  -999.2500  -999.2500   -80.8768    86.8273    11.9826    11.9165    11.1679   -61.4251
 1194.0000  -999.2500  -999.2500  -999.2500  -999.2500   -81.2819    90.4346    11.8712    11.9155    11.1670   -61.2304
 1194.5000  -999.2500  -999.2500  -999.2500  -999.2500   -81.6870    94.0421    11.6525    11.9145    11.2701   -61.0357
 1195.0000  -999.2500  -999.2500  -999.2500  -999.2500   -81.6906    93.2330    11.6515    11.9136    11.2692   -50.8176
 1195.5000  -999.2500  -999.2500  -999.2500  -999.2500   -81.4934    93.2270    11.6506    11.9126    11.2681   -50.5842
 1196.0000  -999.2500  -999.2500  -999.2500  -999.2500   -81.2955    92.8194    12.0889    11.9114    11.2672   -50.3896
 1196.5000  -999.2500  -999.2500  -999.2500  -999.2500   -81.0991    86.7901    12.8972    11.5839    10.9895   -50.1952
 1197.0000  -999.2500  -999.2500  -999.2500  -999.2500   -80.9026    79.9576    13.7595    11.3703    10.4888   -50.0007
 1197.5000  -999.2500  -999.2500  -999.2500  -999.2500   -80.9062    75.1325    14.3336    11.0576    10.1045   -49.8062
 1198.0000  -999.2500  -999.2500  -999.2500  -999.2500   -80.7090    77.1339    12.0850    10.6544     9.7343   -49.6117
 1198.5000  -999.2500  -999.2500  -999.2500  -999.2500   -80.7125    83.1512    11.0157    10.1712     9.4654   -49.4173
 1199.0000  -999.2500  -999.2500  -999.2500  -999.2500   -80.9175    88.7671    10.3236     9.8916     9.3770   -49.2228
 1199.5000  -999.2500  -999.2500  -999.2500  -999.2500   -81.1205    90.3661    10.1334     9.7996     9.0995   -49.0284
 1200.0000  -999.2500  -999.2500  -999.2500  -999.2500   -81.3249    91.1631    10.0395     9.6189     9.0988   -48.7950
 1200.5000  -999.2500  -999.2500  -999.2500  -999.2500   -81.7093    92.8793    10.0386     9.5324     8.8478   -57.1791
 1201.0000  -999.2500  -999.2500  -999.2500  -999.2500   -81.7289    95.1679     9.9423     9.5257     8.7635   -58.6445
 1201.5000  -999.2500  -999.2500  -999.2500  -999.2500   -81.7300    97.9730     9.8482     9.3484     8.7613   -48.4784
 1202.0000  -999.2500  -999.2500  -999.2500  -999.2500   -81.7311    97.9672     9.7545     9.2594     8.6778   -48.3732
 1202.5000  -999.2500  -999.2500  -999.2500  -999.2500   -81.5315    97.1584     9.6622     9.2571     8.5956   -58.3297
 1203.0000  -999.2500  -999.2500  -999.2500  -999.2500   -81.1311    93.9409     9.6598     9.1694     8.5934   -58.2248
 1203.5000  -999.2500  -999.2500  -999.2500  -999.2500   -80.9315    94.7371     9.5684     9.1680     8.5120   -58.1198
 1204.0000  -999.2500  -999.2500  -999.2500  -999.2500   -80.9329    95.9368     9.5665     9.1648     8.4313   -47.9522
 1204.5000  -999.2500  -999.2500  -999.2500  -999.2500   -81.1347    96.7339     9.5636     9.1625     8.3514   -57.9099
 1205.0000  -999.2500  -999.2500  -999.2500  -999.2500   -81.5372    97.5309     9.5612     9.1602     8.2723   -57.8050
 1205.5000  -999.2500  -999.2500  -999.2500  -999.2500   -81.7390    96.7225     9.5588     9.1592     8.2702   -57.7000
 1206.0000  -999.2500  -999.2500  -999.2500  -999.2500   -81.7400    93.9075     9.5565     9.1565     8.2681   -57.5950
 1206.5000  -999.2500  -999.2500  -999.2500  -999.2500   -81.5411    87.8826     9.5541     8.9851     8.2660   -57.4901
 1207.0000  -999.2500  -999.2500  -999.2500  -999.2500   -81.5422    87.8774     9.5517     8.9829     8.2639   -57.3641
 1207.5000  -999.2500  -999.2500  -999.2500  -999.2500   -81.5433    89.4771     9.5493     8.9806     8.2617   -57.2591
 1208.0000  -999.2500  -999.2500  -999.2500  -999.2500   -81.3438    91.4779     9.5469     8.9783     8.2596   -57.1541
 1208.5000  -999.2500  -999.2500  -999.2500  -999.2500   -81.1443    94.6820     9.5445     8.9761     8.2575   -57.0491
 1209.0000  -999.2500  -999.2500  -999.2500  -999.2500   -80.7442    98.6870     9.5416     8.8905     8.2550   -56.9440
 1209.5000  -999.2500  -999.2500  -999.2500  -999.2500   -80.5448   101.0880     9.3642     8.8063     8.2529   -46.7730
 1210.0000  -999.2500  -999.2500  -999.2500  -999.2500   -80.5459    97.8731     9.2755     8.7228     8.1747   -46.6677
 1210.5000  -999.2500  -999.2500  -999.2500  -999.2500   -80.7476    96.2629     9.1030     8.6401     8.0972   -46.5623
 1211.0000  -999.2500  -999.2500  -999.2500  -999.2500   -80.7488    93.0464     9.0168     8.5582     8.0951   -46.4570
 1211.5000  -999.2500  -999.2500  -999.2500  -999.2500   -80.7499    94.6473     8.9314     8.3213     7.9439   -46.3516
 1212.0000  -999.2500  -999.2500  -999.2500  -999.2500   -80.7510    97.8499     8.9292     8.2424     7.8690   -36.1787
 1212.5000  -999.2500  -999.2500  -999.2500  -999.2500   -80.7529   101.0506     8.9269     8.2403     7.7943   -56.2088
 1213.0000  -999.2500  -999.2500  -999.2500  -999.2500   -80.9538   101.8490     9.0077     8.1621     7.7923   -56.1037
