~VERSION INFORMATION
 VERS.                2.0:   CWLS LOG ASCII STANDARD - VERSION 2.0
 WRAP.                 NO:   ONE LINE PER DEPTH STEP
~WELL INFORMATION
#MNEM.UNIT      DATA TYPE    INFORMATION
#----------   ------------   ------------------------------
 STRT.F            4.0000:   START DEPTH
 STOP.F         3266.0000:   STOP DEPTH
 STEP.F            0.5000:   STEP LENGTH
 NULL.          -999.2500:   NO VALUE
 COMP. LAWRENCE ALLISON & ASSOSCIATES:   COMPANY
 WELL. LAWRENCE "X" #27-11:   WELL
 FLD .          N.P.R. #3:   FIELD
 LOC .      S11 T38N R78W:   LOCATION
 CNTY.            NATRONA:   COUNTY
 STAT.            WYOMING:   STATE
 CTRY. UNITED STATES OF AMERICA:   COUNTRY
 SRVC.      DRESSER ATLAS:   SERVICE COMPANY
 DATE.        22-AUG-1986:   LOGDATE
 API .     49025111070000:   API NUMBER
~CURVE INFORMATION
#MNEM.UNIT       API CODE    CURVE DESCRIPTION
#----------   ------------   ------------------------------
 DEPT.F                  :   
 SPR .MV     07 010 01 00:   SPONTANEOUS POTENTIAL
 TENR.LBS    06 635 01 00:   TENSION FROM RESISTIVITY
 GRR .GAPI   07 310 01 00:   GAMMA RAY FROM RESISTIVITY
 RILD.OHMM   07 120 46 00:   DEEP INDUCTION RESISTIVITY
 RILM.OHMM   07 120 44 00:   INDUCTION LOG MEDIUM RESISTIVITY
 RFOC.OHMM   07 220 04 00:   RESISTIVITY FOCUSED LOG RES.
 NPHI.DEC    42 890 03 00:   NEUTRON POROSITY SANDSTONE
 CALD.IN     45 280 60 00:   CALIPER FROM DENSITY LOG
 RHOB.G/C3   45 350 01 00:   BULK DENSITY
 CORR.G/C3   45 356 01 00:   DENSITY CORRECTION
 TEND.LBS    45 635 01 00:   TENSION FORM DENSITY LOG
~PARAMETER INFORMATION
#MNEM.UNIT          VALUE    DESCRIPTION
#----------   ------------   ------------------------------
 EKB .F         5206.0000:   Kelly bushing
 EGL .F         5194.0000:   Ground level
 EDF .F         5205.0000:   Drilling floor
 EPD .F         5194.0000:   Permanent datum
 TD  .F         3250.0000:   Total depth
 CLNT.            A2DTECH:   Client Code
 SL  . 1197' FSL & 1088' FWL:   Surface Location
 PD  .                 GL:   Permanent Datum
 DAPD.F                12:   Feet Above Permanent Datum
 DATE.        22-AUG-1986:   Date Logged [DD-MMM-YYYY]
 DD  .F              3250:   Depth driller
 DL  .F              3246:   Depth logger
 BLI .F              3243:   Bottom log interval
 TLI .F               683:   Top log interval
 CS1 .IN            8.625:   Casing size
 CBD1.      8.625" @ 672':   Casing driller 1
 CBL1.F               673:   Casing logger 1
 BS1 .IN            7.875:   Bit size
 BSD1.F              3250:   Depth drilled with bit1
 DFT .            KCL-GEL:   Type fluid in hole
 DFD .                8.9:   Density
 DFV .                 35:   Viscosity
 MSS .               TANK:   Source of sample
 RMS .OHMM           0.31:   Rm
 MST .F                70:   Rm Meas. temp.
 RMF .OHMM           0.29:   Rmf
 MFST.F                67:   Rmf Meas. temp.
 MFSS.               CALC:   Source Rmf.
 RMC .OHMM           0.46:   Rmc
 MCST.F                70:   Rmc Meas. temp.
 MCSS.               CALC:   Source Rmc.
 RMB .OHMM           0.16:   Rm. at BHT
 BHT .F               136:   BHT.
 TCS .HRS               4:   Time Circ. stopped
 MRT .F               136:   Maximum recorded temp.
 LUN .            HL-6426:   Logging unit number
 LUL .          RK. SPGS.:   Logging unit location
 ENGI.               RALL:   Recorded By
 WITN.             STRONG:   Witnessed by
 ORIG.           5" PRINT:   Origin of data
 UWI .     49025111070000:   Unique Well ID
 DICO. A2D TECHNOLOGIES, INC.:   Digitizing Company
~OTHER INFORMATION
~A    DEPT     SPR       TENR         GRR      RILD       RILM       RFOC       NPHI       CALD       RHOB       CORR       TEND   
# ...
 2871.0000   -18.4482   -64.5455    81.8947    16.7263    14.4641    13.9106     0.2165     9.6124     2.3761     0.0150  -103.1191
 2871.5000   -18.9808   -65.0869    79.1677    16.3804    14.0710    13.7224     0.2174     9.6277     2.3912     0.0157  -106.4955
 2872.0000   -19.6189   -73.1021    86.1553    16.2674    13.8822    14.3204     0.2198     9.6430     2.4158     0.0104  -114.0483
 2872.5000   -20.2524   -73.5416    93.1414    16.0430    13.6941    14.5298     0.2162     9.6432     2.4176     0.0066  -117.0066
 2873.0000   -20.8855   -73.9811    98.6101    15.8214    13.5119    14.1355     0.2168     9.6434     2.4071     0.0068  -121.6012
 2873.5000   -21.5186   -74.4206    99.8515    15.8224    13.5195    13.6495     0.2198     9.6404     2.4055     0.0201  -121.6012
 2874.0000   -22.1568   -82.4361    99.8358    15.7133    13.5271    13.2854     0.2261     9.6285     2.4101     0.0254  -114.0483
 2874.5000   -22.7692   -82.8789    98.0222    15.6049    13.5361    13.2939     0.2198     9.6286     2.4123     0.0201  -114.0483
 2875.0000   -23.3655   -82.0758    94.6897    15.6060    13.6389    13.4882     0.2164     9.6288     2.4063     0.0102  -106.4955
 2875.5000   -23.9075   -68.6030    90.7501    15.6071    13.7425    13.8785     0.2198     9.6289     2.3942     0.0034  -114.0483
 2876.0000   -23.7877   -69.1523    83.4722    15.6083    13.7500    13.9814     0.2219     9.6291     2.3821     0.0018  -114.0483
 2876.5000   -23.5812   -69.5921    79.8362    15.6094    13.8544    13.4145     0.2213     9.6293     2.3926     0.0033  -114.0483
 2877.0000   -23.3781   -77.6073    82.7063    15.6104    14.0581    13.6177     0.2161     9.6294     2.4002     0.0040  -106.4955
 2877.5000   -23.1702   -78.0468    87.7401    15.6115    14.1760    14.0062     0.2168     9.6447     2.3987    -0.0005   -90.6253
 2878.0000   -23.3646   -78.4863    88.9600    15.6125    14.3751    14.6148     0.2224     9.6449     2.3986    -0.0051   -68.7311
 2878.5000   -23.8505   -71.3500    91.0903    15.4970    14.1803    15.2497     0.2249     9.6450     2.4032    -0.0066   -53.6254
 2879.0000   -24.3398   -64.2138    94.4345    15.2910    13.7967    15.4727     0.2224     9.6452     2.4115    -0.0059   -61.1782
 2879.5000   -24.8315   -57.0777    97.7788    14.9745    13.4217    15.4806     0.2200     9.6301     2.4183    -0.0029   -68.7311
 2880.0000   -25.3145   -57.6270   100.5160    14.4615    13.0569    14.5422     0.2191     9.6303     2.4213     0.0017   -76.2840
 2880.5000   -26.2417   -58.0665   102.6698    14.0638    13.4363    13.6535     0.2132     9.6153     2.4168     0.0061   -76.2840
 2881.0000   -27.4058   -66.0818   103.5641    13.7729    13.8269    13.3835     0.2088     9.6003     2.4100     0.0091   -83.8369
 2881.5000   -28.5772   -66.5213   101.7490    13.5827    14.1309    14.1638     0.2121     9.5853     2.4047    -0.0015   -83.8369
 2882.0000   -29.7452   -74.5454    94.7746    13.4891    14.2382    15.5218     0.2157     9.5855     2.4108    -0.0114   -83.8369
 2882.5000   -30.9216   -75.0861    91.4421    13.4902    14.1443    16.3101     0.2030     9.5856     2.4303    -0.0061   -76.2840
 2883.0000   -32.2730   -75.5256    89.0200    13.3969    14.1539    17.1384     0.1882     9.5858     2.4477     0.0014   -68.7311
 2883.5000   -34.3839   -75.9651    88.7033    13.3981    14.0625    17.7582     0.1824     9.5859     2.4696     0.0092   -53.6254
 2884.0000   -36.4204   -76.4046    91.8614    13.3054    13.8736    15.7827     0.1794     9.6012     2.5248     0.0150   -37.8149
 2884.5000   -38.4663   -76.8443    95.4124    13.0305    13.3939    13.1546     0.1733     9.6165     2.5545     0.0164   -30.9668
 2885.0000   -39.8150   -69.6969    96.9357    12.4035    12.7660    13.3495     0.1645     9.6621     2.5573     0.0157   -33.6095
 2885.5000   -40.6090   -70.1515    93.9066    11.7355    12.4190    14.4244     0.1585     9.6926     2.5444     0.0126   -46.0725
 2886.0000   -41.3869   -63.1211    90.5741    11.3333    12.0830    15.1569     0.1581     9.7079     2.5346     0.0065   -46.0725
 2886.5000   -42.1566   -63.5608    88.4555    11.0990    11.8374    13.3684     0.1651     9.7383     2.5240    -0.0087   -46.0725
 2887.0000   -42.6473   -64.0003    87.8543    10.7186    11.7594    12.4704     0.1748     9.7537     2.5232    -0.0102   -46.0725
 2887.5000   -42.6404   -56.7542    89.4030    10.7193    11.4413    12.2158     0.1766     9.7538     2.5293    -0.0042   -38.5196
 2888.0000   -42.6417   -57.3035    89.9906    10.7200    11.2087    12.5708     0.1769     9.7691     2.5380     0.0003   -38.5196
 2888.5000   -42.6429   -65.3188    88.4804    10.6461    11.1363    13.2160     0.1802     9.7693     2.5467     0.0026   -38.5196
 2889.0000   -42.6547   -65.7582    88.7898    10.4992    10.9869    13.4023     0.1836     9.7694     2.5482     0.0048   -46.0725
 2889.5000   -42.1528   -73.7879    90.3131    10.3542    10.8395    13.0403     0.1817     9.7695     2.5406     0.0071   -46.0725
 2890.0000   -41.5678   -74.3230    91.8364    10.1982    10.5463    12.6865     0.1776     9.7697     2.5376     0.0047   -46.0725
 2890.5000   -41.0352   -74.7625    93.3597     9.6140    10.0456    12.6027     0.1787     9.7547     2.5368     0.0009   -46.0725
 2891.0000   -41.0952   -75.2020    94.6325     9.0298     9.4353    12.7886     0.1850     9.7397     2.5482     0.0032   -53.6254
 2891.5000   -41.4008   -75.6415    97.0148     8.4456     8.8620    12.7058     0.1996     9.7247     2.5511     0.0054   -53.6254
 2892.0000   -41.6930   -76.0810    99.1451     7.8614     8.1803    11.6649     0.2032     9.7249     2.5474     0.0054   -53.6254
 2892.5000   -41.9804   -76.5207   102.4893     7.2772     7.4961     9.6122     0.2153     9.7402     2.5443     0.0031   -61.1782
 2893.0000   -42.2568   -69.3845   112.5104     6.6701     6.9913     9.0296     0.2201     9.7403     2.5413     0.0000   -68.7311
 2893.5000   -43.1266   -69.9338   125.2628     6.2203     6.2514     8.8463     0.2250     9.7425     2.5375    -0.0015   -68.7923
 2894.0000   -44.0869   -70.3733   133.4629     5.9237     6.0381     8.5462     0.2294     9.7406     2.5284     0.0068   -76.2840
 2894.5000   -45.0660   -70.8130   137.2189     5.7608     5.8747     8.1987     0.2398     9.7408     2.5231     0.0121   -76.2840
 2895.0000   -45.4219   -71.2525   145.6157     5.6313     5.7151     7.3332     0.2404     9.7409     2.5269     0.0135   -76.2840
 2895.5000   -45.7831   -71.6920   153.8158     5.4484     5.6781     6.9371     0.2389     9.7411     2.5382     0.0150   -83.8369
 2896.0000   -46.4374   -72.1315   155.9461     5.3357     5.7220     7.5502     0.2407     9.7412     2.5488     0.0173   -83.8369
 2896.5000   -46.7846   -72.5710   148.0612     5.3735     5.8883     7.9336     0.2474     9.7414     2.5480     0.0195   -83.8369
 2897.0000   -46.8579   -57.8589   138.9623     5.5650     6.0594     7.8822     0.2477     9.7415     2.5337     0.0139   -91.3897
 2897.5000   -47.2869   -50.7227   140.4857     5.8853     6.2355     7.6148     0.2413     9.7417     2.5155    -0.0002   -83.8369
 2898.0000   -47.2825   -43.5866   149.0742     6.3164     6.5534     7.4073     0.2255     9.7418     2.4997    -0.0101   -83.8369
 2898.5000   -47.2401   -44.1360   150.5126     6.8644     6.9360     8.3492     0.2140     9.7420     2.5132    -0.0063   -83.8369
 2899.0000   -46.8957   -52.1512   138.9872     7.4654     7.3499     9.8468     0.1991     9.7269     2.5277    -0.0011   -98.9426
 2899.5000   -46.5871   -52.5907   125.6395     8.0624     8.0485    11.6989     0.1919     9.7120     2.5469     0.0027   -98.9426
 2900.0000   -45.9786   -53.0302   113.5058     8.4082     8.3408    12.1221     0.1967     9.7121     2.5499     0.0079   -91.3897
 2900.5000   -45.3702   -53.4848   103.8000     8.5869     8.5231    11.5479     0.2013     9.6971     2.5454     0.0004   -98.9426
 2901.0000   -44.7617   -54.0192   104.7163     8.7695     8.7093    10.9242     0.2019     9.6821     2.5348    -0.0042   -91.3897
