~VERSION INFORMATION
 VERS.                2.0:   CWLS LOG ASCII STANDARD - VERSION 2.0
 WRAP.                 NO:   ONE LINE PER DEPTH STEP
~WELL INFORMATION
#MNEM.UNIT      DATA TYPE    INFORMATION
#----------   ------------   ------------------------------
 STRT.F            3.5000:   START DEPTH
 STOP.F         5648.0000:   STOP DEPTH
 STEP.F            0.5000:   STEP LENGTH
 NULL.          -999.2500:   NO VALUE
 COMP.       FLUOR DANIEL:   COMPANY
 WELL.   FLUOR "X" #46-10:   WELL
 FLD .          N.P.R. #3:   FIELD
 LOC .      S10 T38N R78W:   LOCATION
 CNTY.            NATRONA:   COUNTY
 STAT.            WYOMING:   STATE
 CTRY. UNITED STATES OF AMERICA:   COUNTRY
 SRVC.      WESTERN ATLAS:   SERVICE COMPANY
 DATE.        25-MAR-1996:   LOGDATE
 API .     49025227700000:   API NUMBER
~CURVE INFORMATION
#MNEM.UNIT       API CODE    CURVE DESCRIPTION
#----------   ------------   ------------------------------
 DEPT.F                  :   
 CALD.IN     45 280 60 00:   CALIPER FROM DENSITY LOG
 ZDEN.G/C3   45 350 01 00:   BULK DENSITY
 ZCOR.G/C3   45 356 01 00:   DENSITY CORRECTION
 TEND.LBS    45 635 01 00:   TENSION FORM DENSITY LOG
 GRD .GAPI   45 310 01 00:   GAMMA RAY FROM DENSITY LOG
 CNC .DEC    42 890 01 00:   NEUTRON POROSITY LIMESTONE
 SPR .MV     07 010 01 00:   SPONTANEOUS POTENTIAL
 RD  .OHMM   07 220 10 00:   RESISTIVITY DEEP
 RS  .OHMM   07 220 09 00:   RESISTIVITY SHALLOW
~PARAMETER INFORMATION
#MNEM.UNIT          VALUE    DESCRIPTION
#----------   ------------   ------------------------------
 EKB .F         5216.0000:   Kelly bushing
 EGL .F         5206.0000:   Ground level
 EDF .F         5215.0000:   Drilling floor
 TD  .F         5650.0000:   Total depth
 CLNT.            A2DTECH:   Client Code
 SL  . 1493' FSL & 2330' FWL:   Surface Location
 PD  .                 GL:   Permanent Datum
 EPD .F              5206:   Elevation Permanent Datum
 LMF .                 KB:   Log Measured From
 DMF .                 KB:   Drilling Measured From
 DAPD.F                10:   Feet Above Permanent Datum
 DATE.        25-MAR-1996:   Date Logged [DD-MMM-YYYY]
 DD  .F              5650:   Depth driller
 DL  .F              5648:   Depth logger
 BLI .F              5636:   Bottom log interval
 TLI .F                 0:   Top log interval
 CS1 .IN            9.625:   Casing size
 CBD1.      9.625" @ 498':   Casing driller 1
 CBL1.F               496:   Casing logger 1
 BS1 .IN             8.75:   Bit size
 BSD1.F              5650:   Depth drilled with bit1
 DFT .           CHEM GEL:   Type fluid in hole
 DFD .                9.6:   Density
 DFV .                 54:   Viscosity
 DFPH.                9.5:   pH
 DFL .                8.4:   Fluid loss
 MSS .           FLOWLINE:   Source of sample
 RMS .OHMM          0.635:   Rm
 MST .F                68:   Rm Meas. temp.
 RMF .OHMM          0.483:   Rmf
 MFST.F                68:   Rmf Meas. temp.
 MFSS.               MEAS:   Source Rmf.
 RMC .OHMM          0.789:   Rmc
 MCST.F                68:   Rmc Meas. temp.
 MCSS.               MEAS:   Source Rmc.
 RMB .OHMM           0.26:   Rm. at BHT
 BHT .F               166:   BHT.
 TCS .HRS               6:   Time Circ. stopped
 MRT .F               166:   Maximum recorded temp.
 LUN .            HL-6530:   Logging unit number
 LUL .             CASPER:   Logging unit location
 ENGI.        VERN RAUTIO:   Recorded By
 WITN. LORRAINE LAFRENIERE:   Witnessed by
 ORIG.           5" PRINT:   Origin of data
 UWI .     49025227700000:   Unique Well ID
 DICO. A2D TECHNOLOGIES, INC.:   Digitizing Company
~OTHER INFORMATION
~A  DEPTH     CALD       ZDEN       ZCOR       TEND        GRD        CNC        SPR         RD         RS
# ...
 2850.5000     8.9825     2.5587     0.0200   -54.3790   115.0733     0.2411   -82.2767    10.3898     7.9848
 2851.0000     8.9680     2.5588     0.0200   -45.8167   116.8918     0.2420   -82.4268    10.3180     7.9302
 2851.5000     8.9537     2.5588     0.0200   -45.8167   114.4962     0.2414   -82.5768    10.3258     7.9860
 2852.0000     8.9543     2.5565     0.0200   -45.8167   111.7966     0.2398   -82.5761    10.4560     8.0980
 2852.5000     8.9398     2.5512     0.0230   -45.8167   111.2026     0.2359   -82.7262    11.2827     8.4424
 2853.0000     8.9405     2.5452     0.0306   -45.8322   110.3130     0.2272   -82.8764    12.9585     9.1607
 2853.5000     8.9410     2.5347     0.0306   -45.7823   101.5921     0.2098   -83.1773    15.7315    11.3749
 2854.0000     8.9416     2.5197     0.0382   -49.4880    88.6515     0.1806   -84.0814    19.5683    15.3400
 2854.5000     8.9422     2.5042     0.0474   -46.2645    76.3133     0.1679   -84.9855    28.9403    20.7508
 2855.0000     8.9429     2.4843     0.0579   -45.5097    68.7972     0.1695   -85.5881    29.9577    22.2377
 2855.5000     8.9434     2.4670     0.0624   -46.2729    66.6972     0.1824   -85.8893    27.1832    20.1782
 2856.0000     8.9440     2.4490     0.0654   -50.8053    70.3257     0.1957   -86.1901    23.6357    17.2023
 2856.5000     8.9447     2.4272     0.0335   -45.8167    73.3518     0.2002   -86.7925    22.0739    16.2724
 2857.0000     8.9453     2.4038     0.0279   -45.8167    69.1461     0.1929   -87.6968    22.8492    16.7276
 2857.5000     8.9458     2.3820     0.0324   -35.8566    57.4104     0.1845   -88.7671    28.1260    18.4295
 2858.0000     8.9464     2.3668     0.0385   -40.1992    48.3199     0.1725   -89.8070    34.8621    23.6485
 2858.5000     8.9471     2.3497     0.0415   -45.8167    42.9778     0.1674   -89.9571    44.1179    29.9489
 2859.0000     8.9174     2.3406     0.0400   -45.8167    42.6850     0.1629   -90.1071    51.7348    33.6647
 2859.5000     8.9029     2.3309     0.0386   -45.8167    43.0003     0.1586   -90.2572    52.8165    34.1312
 2860.0000     8.8885     2.3247     0.0401   -33.4661    44.2191     0.1559   -90.4073    52.4431    33.8899
 2860.5000     8.8892     2.3219     0.0447   -39.1633    44.8327     0.1580   -90.4065    52.0603    33.4191
 2861.0000     8.8898     2.3279     0.0507   -45.8167    44.5428     0.1626   -90.4056    51.4306    32.5000
 2861.5000     8.8904     2.3339     0.0613   -45.8167    42.3965     0.1647   -90.4049    50.8010    32.2714
 2862.0000     8.8910     2.3385     0.0673   -44.4622    39.4475     0.1677   -90.4042    50.6292    32.2671
 2862.5000     8.8916     2.3400     0.0658   -37.5166    40.0612     0.1749   -90.4033    50.6211    32.0401
 2863.0000     8.8922     2.3408     0.0629   -30.5710    43.9881     0.1821   -90.5535    49.5730    31.3757
 2863.5000     8.8928     2.3438     0.0704   -25.8964    49.7250     0.1890   -90.8544    47.8783    30.7261
 2864.0000     8.8783     2.3506     0.0767   -15.9363    52.4471     0.1929   -91.1713    46.5592    30.7221
 2864.5000     8.8940     2.3581     0.0780    -5.9761    51.8559     0.1968   -91.6070    45.2827    30.5059
 2865.0000     8.9097     2.3604     0.0795    -5.9761    47.7927     0.1959   -91.9080    44.9641    30.5018
 2865.5000     8.9102     2.3588     0.0720   -15.9363    45.2518     0.1917   -92.2089    44.0331    30.4969
 2866.0000     8.9109     2.3574     0.0540   -35.8566    44.3594     0.1920   -92.3589    42.8236    30.4929
 2866.5000     8.9115     2.3589     0.0601   -35.8566    45.2809     0.1983   -92.5092    39.5159    29.4506
 2867.0000     8.9121     2.3650     0.0631   -25.8964    47.7007     0.2056   -92.5083    35.2599    27.6317
 2867.5000     8.9127     2.3755     0.0631   -25.8964    50.1216     0.2137   -92.6584    32.2179    23.5859
 2868.0000     8.9133     2.3770     0.0571   -25.8964    51.6389     0.2146   -92.5067    29.4383    20.5305
 2868.5000     8.9139     2.3643     0.0512   -43.6701    50.7493     0.2122   -92.5060    27.8264    19.8287
 2869.0000     8.9145     2.3475     0.0452   -46.0524    49.8569     0.2083   -92.3543    26.5240    20.1028
 2869.5000     8.9151     2.3221     0.0422   -45.0858    47.7597     0.1974   -92.2028    27.8388    21.3931
 2870.0000     8.9157     2.3176     0.0407   -26.6381    46.2449     0.1905   -91.9004    29.6265    23.2453
 2870.5000     8.9163     2.3176     0.0422   -31.3524    43.8693     0.1929   -91.5979    32.1915    25.0833
 2871.0000     8.9018     2.3237     0.0483   -37.1403    41.7721     0.1896   -91.5972    35.9606    26.8798
 2871.5000     8.9025     2.3297     0.0545   -42.9283    39.3736     0.1869   -91.4457    37.7431    27.4409
 2872.0000     8.9181     2.3358     0.0604   -55.7769    41.1949     0.1869   -91.2941    38.0019    26.8719
 2872.5000     8.9338     2.3486     0.0619   -44.6651    42.1097     0.1852   -91.1424    37.7332    25.9533
 2873.0000     8.9343     2.3719     0.0620   -41.4094    41.8198     0.1746   -90.9909    37.7282    25.0661
 2873.5000     8.9350     2.4126     0.0695   -38.1536    41.5298     0.1617   -90.8305    38.2486    25.4341
 2874.0000     8.9356     2.4578     0.0786   -34.8979    41.5438     0.1297   -90.3860    44.8522    27.6119
 2874.5000     8.9362     2.5229     0.0801   -31.6422    42.1574     0.1075   -89.7820    52.5959    32.1554
 2875.0000     8.9369     2.6077     0.0771   -28.3864    43.0723     0.0994   -89.3288    59.1645    37.4466
 2875.5000     8.9374     2.6258     0.0772   -25.8619    45.4960     0.0949   -87.9705    62.5270    41.6048
 2876.0000     8.9229     2.6454     0.0772   -25.8825    47.9168     0.0919   -86.7631    62.9557    44.2099
 2876.5000     8.8934     2.6710     0.0712   -25.8964    50.0365     0.0937   -86.1591    62.9454    46.0810
 2877.0000     8.8188     2.6717     0.0515   -35.8566    48.8457     0.0967   -87.2140    61.6421    46.7180
 2877.5000     8.7440     2.6386     0.0397   -25.8964    47.3509     0.1135   -87.9677    57.7472    44.1725
 2878.0000     8.6693     2.5942     0.0367   -25.8964    46.7569     0.1373   -88.8718    45.4275    35.6431
 2878.5000     8.6699     2.5084     0.0427   -25.8964    47.1039     0.1653   -89.6250    36.1359    27.3871
 2879.0000     8.6706     2.4399     0.0492   -35.8566    48.5922     0.1801   -90.0770    28.7448    22.2431
 2879.5000     8.6559     2.3736     0.0624   -36.2368    49.2058     0.1989   -90.5286    24.9942    19.2280
 2880.0000     8.6416     2.3279     0.0819   -25.4507    49.2171     0.2032   -91.4529    22.5470    17.9376
 2880.5000     8.6422     2.2773     0.1166   -26.0307    49.8335     0.2047   -91.8847    21.4765    17.0860
 2881.0000     8.6730     2.2359     0.1452   -25.8975    52.5556     0.2026   -91.5822    20.4568    16.6167
 2881.5000     8.7488     2.2457     0.1467   -25.8964    55.2776     0.1989   -91.4195    19.8949    16.1602
 2882.0000     8.8849     2.2946     0.1468   -25.9155    57.6988     0.1980   -91.2789    19.7543    15.8256
 2882.5000     8.9911     2.3014     0.1107   -25.8964    57.7125     0.1950   -91.2782    19.8890    16.0439
 2883.0000     9.0067     2.3067     0.0641   -25.8964    57.7238     0.1905   -91.2775    20.5876    16.6074
 2883.5000     9.0073     2.3143     0.0506   -15.9363    57.7350     0.1842   -91.2767    22.0621    17.5519
 2884.0000     9.0078     2.3399     0.0370   -15.9363    57.7490     0.1737   -91.4270    24.5170    18.5623
 2884.5000     9.0085     2.3467     0.0233    -5.9761    57.1578     0.1722   -91.5769    26.2279    19.2010
 2885.0000     9.0091     2.3377     0.0130    -5.9761    55.0606     0.1734   -91.5760    26.5913    19.7381
 2885.5000     9.0097     2.3232     0.0236    -5.9761    50.8578     0.1761   -91.8772    26.5869    19.8734
 2886.0000     9.0102     2.3038     0.0266    -5.9761    49.0618     0.1806   -92.1780    26.5835    19.4613
 2886.5000     9.0109     2.2797     0.0189   -15.9363    48.1666     0.1821   -92.7804    26.5791    18.9261
