~VERSION INFORMATION
 VERS.                2.0:   CWLS LOG ASCII STANDARD - VERSION 2.0
 WRAP.                 NO:   ONE LINE PER DEPTH STEP
~WELL INFORMATION
#MNEM.UNIT      DATA TYPE    INFORMATION
#----------   ------------   ------------------------------
 STRT.F          629.0000:   START DEPTH
 STOP.F         4090.0000:   STOP DEPTH
 STEP.F            0.5000:   STEP LENGTH
 NULL.          -999.2500:   NO VALUE
 COMP. LAWRENCE ALLISON & ASSOCIATES:   COMPANY
 WELL. LAWRENCE NPR 3 "SHX" #36-10:   WELL
 FLD .      NPR - WILDCAT:   FIELD
 LOC .      S10 T38N R78W:   LOCATION
 CNTY.            NATRONA:   COUNTY
 STAT.            WYOMING:   STATE
 CTRY. UNITED STATES OF AMERICA:   COUNTRY
 SRVC.      DRESSER ATLAS:   SERVICE COMPANY
 DATE.        24-DEC-1981:   LOGDATE
 API .     49025108310000:   API NUMBER
~CURVE INFORMATION
#MNEM.UNIT       API CODE    CURVE DESCRIPTION
#----------   ------------   ------------------------------
 DEPT.F                  :   
 DT  .US/F   60 520 00 00:   DELTA TIME
 TENS.LBS    60 635 01 00:   TENSION FROM SONIC
 GRR .GAPI   07 310 01 00:   GAMMA RAY FROM RESISTIVITY
 SPR .MV     07 010 01 00:   SPONTANEOUS POTENTIAL
 RFOC.OHMM   07 220 04 00:   RESISTIVITY FOCUSED LOG RES.
 RILM.OHMM   07 120 44 00:   INDUCTION LOG MEDIUM RESISTIVITY
 RILD.OHMM   07 120 46 00:   DEEP INDUCTION RESISTIVITY
 TENR.LBS    07 635 01 00:   TENSION FROM RESISTIVITY
 NPHI.DEC    42 890 03 00:   NEUTRON POROSITY SANDSTONE
 RHOB.G/C3   45 350 01 00:   BULK DENSITY
 CORR.G/C3   45 356 01 00:   DENSITY CORRECTION
 TEND.LBS    45 635 01 00:   TENSION FROM DENSITY LOG
 CALD.IN     45 280 60 00:   CALIPER FROM DENSITY LOG
~PARAMETER INFORMATION
#MNEM.UNIT          VALUE    DESCRIPTION
#----------   ------------   ------------------------------
 EKB .F         5234.0000:   Kelly bushing
 EGL .F         5224.0000:   Ground level
 EDF .F         5233.0000:   Drilling floor
 EPD .F            0.0000:   Permanent datum
 TD  .F         4100.0000:   Total depth
 DATE.        24-DEC-1981:   Date logged
 CLNT.            A2DTECH:   Client Code
 SL  . 1798' FSL & 1455' FWL:   Surface Location
 PD  .                 GL:   Permanent Datum
 DAPD.F                10:   Feet Above Permanent Datum
 DD  .F              4100:   Depth driller
 DL  .F              4082:   Depth logger
 BLI .F              4074:   Bottom log interval
 TLI .F              2300:   Top log interval
 CS1 .IN            9.625:   Casing size
 CBD1.      9.625" @ 650':   Casing driller 1
 BS1 .IN            7.875:   Bit size
 BSD1.F              4100:   Depth drilled with bit1
 DFT .            KCL/GEL:   Type fluid in hole
 DFD .                9.1:   Density
 DFV .                 60:   Viscosity
 DFPH.                  8:   pH
 DFL .                 12:   Fluid loss
 MSS .           FLOWLINE:   Source of sample
 RMS .OHMM           .536:   Rm
 RMF .OHMM           .402:   Rmf
 RMC .OHMM            067:   Rmc
 MFSS.               CALC:   Source Rmf.
 MCSS.               CALC:   Source Rmc.
 RMB .OHMM            .35:   Rm. at BHT
 BHT .F               135:   BHT.
 TCS .HRS               6:   Time Circ. stopped
 MRT .F               141:   Maximum recorded temp.
 LUL .               GLT1:   Logging unit location
 UWI .     49025108310000:   Unique Well ID
 DICO. A2D TECHNOLOGIES, INC.:   Digitizing Company
~OTHER INFORMATION
~A   DEPT       DT       TENS         GRR       SPR       RFOC       RILM       RILD       TENR       NPHI       RHOB       CORR       TEND       CALD   
# ...
 2761.0000    79.1700  -132.7000    67.0380   -14.0870    16.7860    17.2570    22.6310   -98.5250     0.2230     2.4100     0.0520  -125.2500     8.2810
 2761.5000    79.5180  -132.1060    72.8910   -14.9360    16.7860    17.3090    22.7550   -98.3070     0.2190     2.4220     0.0470  -125.2500     8.2810
 2762.0000    78.8710  -131.5110    77.6220   -15.8040    18.1850    17.5830    22.6610   -98.0900     0.2130     2.4340     0.0390  -125.2500     8.2810
 2762.5000    77.0500  -130.9160    75.8580   -16.0960    21.7300    17.8570    22.1780   -97.8720     0.2000     2.4460     0.0280  -125.9340     8.2810
 2763.0000    75.2280  -130.3220    74.6540   -16.4520    21.0390    18.1990    21.6950   -97.6540     0.1860     2.4540     0.0060  -126.9210     8.2810
 2763.5000    73.7660  -129.7270    77.4140   -16.7870    19.3220    17.9700    21.2120   -97.4370     0.1860     2.4590    -0.0060  -127.9070     8.2810
 2764.0000    73.6840  -129.1320    80.1140   -17.1210    16.9420    17.5270    20.7290   -97.2190     0.1940     2.4580    -0.0150  -128.8930     8.2810
 2764.5000    75.2090  -128.5380    81.2750   -17.4570    16.9890    17.0830    20.2460   -97.0020     0.2050     2.4560    -0.0130  -129.8790     8.2810
 2765.0000    76.7170  -127.9430    79.4150   -17.7930    17.1020    16.6400    19.7630   -96.7840     0.2060     2.4530     0.0200  -130.8660     8.2810
 2765.5000    76.8950  -127.3480    77.4300   -18.1310    17.2150    16.1960    19.2800   -96.5670     0.2070     2.4420     0.0450  -131.8520     8.2810
 2766.0000    76.7870  -126.7540    75.4200   -18.4720    17.2570    15.8830    19.0990   -96.3490     0.2150     2.4250     0.0450  -132.8380     8.2810
 2766.5000    76.8410  -126.1590    79.2280   -18.7630    16.7510    15.7370    19.2170   -96.1320     0.2220     2.4120     0.0300  -133.8250     8.2810
 2767.0000    77.1480  -125.5640    82.9720   -18.5540    16.2590    15.8180    19.4050   -95.9140     0.2210     2.4120     0.0140  -134.8110     8.2810
 2767.5000    77.4550  -124.9700    86.6550   -18.4250    16.0300    16.0040    19.5930   -95.6970     0.2160     2.4200     0.0100  -135.2300     8.2810
 2768.0000    77.6880  -124.5080    88.2050   -18.3070    16.7900    16.1910    19.7810   -95.4790     0.2100     2.4310     0.0060  -135.2300     8.2810
 2768.5000    77.2900  -124.0710    79.8690   -18.1890    17.9750    16.3770    19.9690   -95.2620     0.2050     2.4360     0.0060  -136.9430     8.2810
 2769.0000    76.5820  -123.6340    74.5820   -18.0710    19.0990    16.4800    20.1580   -95.0440     0.2030     2.4390     0.0060  -138.6780     8.2810
 2769.5000    75.8740  -123.1970    70.2720   -17.9510    19.2760    16.6320    19.9250   -94.8270     0.2010     2.4410     0.0080  -140.4120     8.2810
 2770.0000    75.1660  -122.7600    65.9210   -17.8150    17.5130    16.3070    19.6190   -94.6090     0.2010     2.4260     0.0160  -142.1470     8.2810
 2770.5000    74.9940  -122.3230    61.6270   -18.3250    15.8430    15.9270    19.1200   -94.3910     0.2050     2.4090     0.0240  -143.8810     8.2800
 2771.0000    75.4480  -121.8860    60.9160   -18.9780    14.6180    15.5470    18.3950   -94.1740     0.2090     2.3940     0.0320  -145.2100     8.3010
 2771.5000    75.9010  -121.4490    67.3600   -19.6390    14.6180    15.1670    17.6710   -93.9560     0.2120     2.3970     0.0390  -130.3450     8.3280
 2772.0000    76.3550  -121.0120    75.3950   -20.3020    14.9820    14.7870    16.7820   -93.7390     0.2140     2.4300     0.0380  -112.5920     8.3550
 2772.5000    76.8080  -120.5750    83.3960   -20.9630    15.4000    14.4070    15.8690   -93.5210     0.2160     2.4470     0.0310   -94.8400     8.3820
 2773.0000    77.2620  -120.1380    91.4190   -21.6660    15.4500    14.0270    14.9570   -93.3040     0.2130     2.4600     0.0250   -85.3290     8.4090
 2773.5000    77.7150  -119.7010    94.6060   -22.2260    15.0290    13.8320    14.0440   -93.0860     0.2110     2.4610     0.0180   -75.3490     8.4200
 2774.0000    78.1690  -119.2640    95.2970   -22.7940    14.5540    13.3310    13.3940   -92.8690     0.2130     2.4560     0.0120   -75.3490     8.4200
 2774.5000    78.4370  -118.8270    95.1010   -23.3660    14.1840    12.9670    13.0160   -92.6510     0.2170     2.4520     0.0070   -75.3490     8.4200
 2775.0000    78.2620  -118.3900    94.9070   -23.9350    14.0660    12.7180    12.6380   -92.4340     0.2210     2.4510     0.0030   -75.3490     8.4200
 2775.5000    78.0870  -117.9530    94.6790   -24.4980    13.9110    12.4910    12.2610   -92.2160     0.2260     2.4520    -0.0020   -81.2590     8.4200
 2776.0000    77.9130  -117.5160    96.7860   -24.8530    13.4460    12.2640    11.8830   -91.9990     0.2320     2.4590     0.0050   -87.8200     8.4190
 2776.5000    77.7380  -117.0790   100.3470   -25.0730    12.9810    12.0360    11.5050   -91.7810     0.2350     2.4650     0.0130   -94.3810     8.4180
 2777.0000    77.8310  -116.6420   103.9450   -25.3040    12.8480    11.8090    11.3970   -91.5640     0.2320     2.4710     0.0200  -100.9420     8.4170
 2777.5000    78.0320  -116.2050   104.8580   -25.5310    12.9750    11.6090    11.3970   -91.3460     0.2280     2.4720     0.0250  -105.2890     8.4160
 2778.0000    78.7610  -115.7680   101.2510   -25.7570    13.2190    11.5020    11.3180   -91.1280     0.2240     2.4700     0.0220  -105.2890     8.4150
 2778.5000    79.2030  -115.3310    99.2740   -25.9840    13.4640    11.5020    11.2320   -90.9110     0.2200     2.4680     0.0140  -105.2890     8.4150
 2779.0000    78.6320  -114.8650    98.3350   -26.2110    13.5790    11.3970    11.1460   -90.6930     0.2160     2.4650     0.0050   -84.6740     8.4140
 2779.5000    78.0610  -114.8650    99.0250   -26.4390    13.5790    11.3970    11.0600   -90.4760     0.2110     2.4670     0.0020   -75.3490     8.4130
 2780.0000    77.4900  -114.8650   100.0110   -26.6500    13.5790    11.3970    10.9740   -90.2580     0.2100     2.4710     0.0130   -75.3490     8.4120
 2780.5000    76.8870  -114.8650   101.0250   -26.8140    13.2530    11.3970    10.8830   -90.0410     0.2110     2.4810     0.0260   -75.3490     8.4110
 2781.0000    77.1370  -114.8650   102.4440   -26.9960    12.9070    11.3970    10.8830   -89.8230     0.2130     2.4790     0.0260   -75.3490     8.4100
 2781.5000    77.4010  -114.8650   105.4390   -27.1810    12.5610    11.3970    10.8830   -89.6060     0.2140     2.4720     0.0120   -75.3490     8.4090
 2782.0000    77.6660  -114.8650   108.3910   -27.3660    12.2250    11.3970    10.8830   -89.3880     0.2150     2.4760     0.0010   -75.3490     8.4080
 2782.5000    77.8690  -114.8650   109.4300   -27.5510    12.0450    11.3970    10.8830   -89.1710     0.2120     2.4830     0.0090   -75.3490     8.4070
 2783.0000    77.7510  -114.8650   103.4210   -27.7360    12.0450    11.6240    11.2570   -88.9530     0.2120     2.4880     0.0120   -75.3490     8.4060
 2783.5000    77.6330  -114.8650    99.5350   -27.9200    12.0450    12.0290    11.6460   -88.7360     0.2110     2.4910     0.0150   -75.3490     8.4060
 2784.0000    77.5140  -114.8650    98.7890   -28.1050    12.8080    12.4330    12.0350   -88.5180     0.2050     2.4930     0.0170   -75.3490     8.4050
 2784.5000    76.6420  -114.8650    96.7010   -28.2900    13.8000    12.8380    12.4240   -88.3010     0.1930     2.4970     0.0200   -82.8680     8.4040
 2785.0000    75.5480  -114.8650    89.7480   -28.4750    14.7920    13.2420    12.8130   -88.0830     0.1820     2.5020     0.0180   -85.3290     8.4030
 2785.5000    74.4550  -114.8650    83.1580   -28.6600    15.7840    13.5970    13.2080   -87.8650     0.1700     2.5120     0.0170   -85.3290     8.4020
 2786.0000    73.0970  -114.8650    76.8720   -28.8460    16.7760    13.9370    13.3310   -87.6480     0.1660     2.5320     0.0150   -85.3290     8.4020
 2786.5000    71.3190  -114.8650    73.9180   -28.9610    17.7410    14.2780    13.3310   -87.4300     0.1640     2.5390     0.0130   -85.3290     8.4160
