~VERSION INFORMATION
 VERS.                2.0:   CWLS LOG ASCII STANDARD - VERSION 2.0
 WRAP.                 NO:   ONE LINE PER DEPTH STEP
~WELL INFORMATION
#MNEM.UNIT      DATA TYPE    INFORMATION
#----------   ------------   ------------------------------
 STRT.F           63.5000:   START DEPTH
 STOP.F         4112.0000:   STOP DEPTH
 STEP.F            0.5000:   STEP LENGTH
 NULL.          -999.2500:   NO VALUE
 COMP. LAWRENCE-ALLISON & ASSOC:   COMPANY
 WELL. LAWRENCE "X" #34-34:   WELL
 FLD .           N.P.R.#3:   FIELD
 LOC .      S34 T39N R78W:   LOCATION
 CNTY.            NATRONA:   COUNTY
 STAT.            WYOMING:   STATE
 CTRY. UNITED STATES OF AMERICA:   COUNTRY
 SRVC.      DRESSER ATLAS:   SERVICE COMPANY
 DATE.        19-OCT-1983:   LOGDATE
 API .     49025109440000:   API NUMBER
~CURVE INFORMATION
#MNEM.UNIT       API CODE    CURVE DESCRIPTION
#----------   ------------   ------------------------------
 DEPT.F                  :   
 AC  .US/F   60 250 00 00:   ACCOUSTIC
 TENS.LBS    60 635 01 00:   TENSION FROM SONIC
 ILD .OHMM   07 120 46 00:   DEEP INDUCTION RESISTIVITY
 ILM .OHMM   07 120 44 00:   INDUCTION LOG MEDIUM RESISTIVITY
 RFOC.OHMM   07 220 04 00:   RESISTIVITY FOCUSED LOG RES.
 TENR.LBS    07 635 01 00:   TENSION FROM RESISTIVITY
 SPR .MV     07 010 01 00:   SPONTANEOUS POTENTIAL
 GRR .GAPI   07 310 01 00:   GAMMA RAY FROM RESISTIVITY
 CALD.IN     45 280 60 00:   CALIPER FROM DENSITY LOG
 RHOB.G/C3   45 350 01 00:   BULK DENSITY
 CORR.G/C3   45 356 01 00:   DENSITY CORRECTION
 TEND.LBS    45 635 01 00:   TENSION FROM DENSITY LOG
 NPHI.DEC    42 890 03 00:   NEUTRON POROSITY SANDSTONE
~PARAMETER INFORMATION
#MNEM.UNIT          VALUE    DESCRIPTION
#----------   ------------   ------------------------------
 EKB .F         5100.0000:   Kelly bushing
 EGL .F         5090.0000:   Ground level
 TD  .F         4107.0000:   Total depth
 DATE.        19-OCT-1983:   Date logged
 CLNT.            A2DTECH:   Client Code
 SL  . 1997' FNL & 1661' FWL:   Surface Location
 PD  .                 GL:   Permanent Datum
 EPD .F              5090:   Elevation Permanent Datum
 LMF .                 KB:   Log Measured From
 DMF .                 KB:   Drilling Measured From
 DAPD.F                10:   Feet Above Permanent Datum
 DD  .F              4107:   Depth driller
 DL  .F              4102:   Depth logger
 BLI .F              4100:   Bottom log interval
 CS1 .IN            9.625:   Casing size
 CBD1.      9.625" @ 695':   Casing driller 1
 CBL1.F               696:   Casing logger 1
 BS1 .IN            7.875:   Bit size
 BSD1.F              4107:   Depth drilled with bit1
 DFT .            GEL-KCL:   Type fluid in hole
 DFD .                  9:   Density
 DFV .                 43:   Viscosity
 DFPH.                  9:   pH
 DFL .                 11:   Fluid loss
 MSS .           FLOWLINE:   Source of sample
 RMS .OHMM          0.313:   Rm
 MST .F                72:   Rm Meas. temp.
 RMF .OHMM          0.265:   Rmf
 MFST.F                68:   Rmf Meas. temp.
 RMC .OHMM          0.598:   Rmc
 MCST.F                68:   Rmc Meas. temp.
 MFSS.               MEAS:   Source Rmf.
 MCSS.               MEAS:   Source Rmc.
 RMB .OHMM          0.173:   Rm. at BHT
 BHT .F               130:   BHT.
 TCS .HRS               4:   Time Circ. stopped
 MRT .F               130:   Maximum recorded temp.
 LUN .               6774:   Logging unit number
 LUL .               GLTE:   Logging unit location
 ENGI.           FAHLEING:   Recorded By
 WITN.           JENNINGS:   Witnessed by
 ORIG.           5" PRINT:   Origin of data
 UWI .     49025109440000:   Unique Well ID
 DICO. A2D TECHNOLOGIES, INC.:   Digitizing Company
~OTHER INFORMATION
~A   DEPT       AC       TENS        ILD        ILM       RFOC       TENR        SPR         GRR      CALD       RHOB       CORR       TEND       NPHI   
# ...
 3157.5000    72.3760   -87.3700     9.0480     8.2160     8.5200   -42.0150   -55.1250    72.6220     7.8800     2.4970     0.0070   -51.4960     0.1710
 3158.0000    73.0150   -87.2560     9.0480     8.4430     9.6570   -42.3000   -54.8320    73.6390     7.8810     2.4940     0.0110   -45.9340     0.1670
 3158.5000    72.9160   -87.1420     9.0480     8.6440    10.9990   -42.3000   -54.5380    77.4660     7.8820     2.4910     0.0160   -40.3730     0.1670
 3159.0000    72.5920   -87.0290     9.0650     8.8050    11.7500   -42.3000   -54.2450    78.5990     7.8840     2.4960     0.0200   -34.8110     0.1660
 3159.5000    72.2670   -86.9150     9.1370     8.9450    10.5050   -42.3000   -53.9520    73.4170     7.8850     2.5160     0.0250   -29.2500     0.1650
 3160.0000    72.1780   -86.8010     9.2080     9.0480    10.9480   -42.3000   -53.6580    65.3210     7.8860     2.5420     0.0270   -23.6880     0.1640
 3160.5000    71.0800   -86.6880     8.6270     8.1920    15.3900   -42.3000   -53.3580    70.0800     7.8870     2.5990     0.0290   -22.6510     0.1800
 3161.0000    70.0000   -86.5740     7.9410     7.5120    17.0660   -42.3000   -52.9660    79.3380     7.8880     2.6030     0.0310   -23.5260     0.1960
 3161.5000    70.8200   -86.4600     7.2540     6.8320    14.2420   -42.3000   -52.5130    90.3610     7.8900     2.5890     0.0330   -24.4010     0.2120
 3162.0000    72.7060   -86.3470     6.5680     6.1520    10.3140   -42.3000   -52.0100   100.5780     7.8910     2.5650     0.0330   -25.2750     0.2280
 3162.5000    75.5890   -86.2330     5.8820     5.4720     6.7750   -42.3000   -51.7450   120.6530     7.8920     2.5400     0.0280   -26.1500     0.2440
 3163.0000    78.4710   -86.1190     5.1950     4.7920     5.7860   -42.3000   -51.5380   128.5430     7.8930     2.5200     0.0000   -27.0240     0.2600
 3163.5000    81.0890   -86.0060     4.5090     4.0550     5.1580   -46.8340   -51.5180   136.3700     7.8940     2.5080    -0.0190   -27.8990     0.2710
 3164.0000    83.7510   -85.8920     3.8890     3.9470     5.0670   -53.2170   -51.5610   141.1460     7.8960     2.4960    -0.0250   -28.7740     0.2700
 3164.5000    86.1890   -85.7790     3.7450     3.8300     5.0200   -59.6000   -51.6030   144.6100     7.8970     2.4840     0.0000   -29.6480     0.2600
 3165.0000    88.6280   -85.6650     3.5920     3.7290     4.9630   -62.3370   -51.6460   145.7600     7.8980     2.4840     0.0100   -30.5230     0.2580
 3165.5000    90.3150   -85.5510     3.6230     3.6940     4.7520   -61.9150   -51.6910   144.6380     7.8990     2.4870     0.0070   -31.3970     0.2520
 3166.0000    90.0180   -85.4380     3.6560     3.7710     4.8680   -61.4930   -51.5310   142.9160     7.9000     2.4940     0.0030   -32.2720     0.2420
 3166.5000    89.7220   -85.3240     3.6880     3.8370     5.1690   -61.0710   -51.2560   141.9190     7.9010     2.4980     0.0070   -33.1470     0.2320
 3167.0000    88.5870   -85.2100     3.7210     3.9040     5.1330   -60.6490   -50.9810   140.1180     7.9030     2.4960     0.0080   -34.0210     0.2310
 3167.5000    87.0300   -85.0970     3.7880     3.9710     5.0690   -60.2270   -50.7050   135.7740     7.9040     2.4870    -0.0030   -34.8960     0.2310
 3168.0000    86.8320   -84.9830     3.8650     4.0380     4.9790   -59.8050   -50.4290   131.1400     7.9050     2.4850    -0.0140   -35.7710     0.2330
 3168.5000    86.8320   -84.8690     3.9420     4.1040     5.0070   -59.3830   -50.1530   127.9910     7.9060     2.4870    -0.0120   -36.6450     0.2330
 3169.0000    86.5600   -84.7560     4.0180     4.1710     5.1300   -58.9610   -49.8790   125.5990     7.9070     2.4900     0.0360   -37.5200     0.2290
 3169.5000    85.5620   -84.6420     4.0950     4.2380     5.3300   -58.5390   -49.6670   123.4270     7.9090     2.4880     0.0280   -38.3940     0.2260
 3170.0000    84.2000   -84.5290     4.1720     4.3050     5.5690   -58.1170   -49.7350   121.9980     7.9100     2.4830     0.0160   -39.2690     0.2260
 3170.5000    82.8390   -84.4150     4.2490     4.3710     5.5690   -57.6950   -49.8080   123.6060     7.9110     2.4780     0.0030   -40.1440     0.2240
 3171.0000    82.2390   -84.3010     4.3250     4.4380     5.3930   -57.2730   -49.8810   125.0880     7.9120     2.4770    -0.0070   -41.0180     0.2210
 3171.5000    82.1740   -84.1880     4.4020     4.5050     5.2960   -56.8510   -49.9540   125.7950     7.9130     2.4780    -0.0110   -41.8930     0.2170
 3172.0000    82.1090   -84.0740     4.4790     4.5720     5.2170   -56.4290   -50.0260   124.2500     7.9150     2.4810    -0.0100   -44.7870     0.2130
 3172.5000    81.9870   -83.9600     4.5370     4.6290     5.4460   -56.0070   -50.0990   123.4110     7.9160     2.4820    -0.0080   -49.4380     0.2080
 3173.0000    81.8140   -83.8470     4.5390     4.6580     5.5180   -55.5850   -50.1720   124.3510     7.9170     2.4780    -0.0060   -54.0900     0.2060
 3173.5000    81.6410   -83.7330     4.5420     4.6870     5.5180   -55.1630   -50.2450   125.6660     7.9180     2.4740    -0.0130   -58.7410     0.2120
 3174.0000    81.4850   -83.6190     4.5450     4.7080     5.5180   -54.7410   -50.3180   122.6100     7.9190     2.4710    -0.0040   -61.9690     0.2200
 3174.5000    80.0400   -83.5060     4.5480     4.6940     5.7540   -54.3190   -50.3910   118.9610     7.9200     2.4670    -0.0020   -58.6320     0.2290
 3175.0000    78.8540   -83.3920     4.5510     4.6830     6.0010   -53.8970   -50.4640   115.7310     7.9220     2.4640    -0.0190   -55.2950     0.2280
 3175.5000    77.7230   -83.2780     4.5530     4.6720     6.0010   -53.4750   -50.5360   116.2340     7.9230     2.4630    -0.0300   -51.9580     0.2260
 3176.0000    78.0480   -83.1650     4.5560     4.6650     5.7810   -53.0530   -50.6090   119.1800     7.9240     2.4630    -0.0400   -48.6210     0.2190
 3176.5000    78.3170   -83.0510     4.5590     4.6720     5.3980   -52.6310   -50.6820   122.3650     7.9250     2.4650    -0.0380   -45.2840     0.2110
 3177.0000    81.6830   -82.9380     4.5620     4.6780     5.1690   -52.2090   -50.7550   124.6970     7.9260     2.4670    -0.0210   -41.9470     0.2040
 3177.5000    82.4040   -82.8240     4.5650     4.6840     5.1210   -43.7630   -50.8270   124.1850     7.9280     2.4710    -0.0040   -38.6110     0.2010
 3178.0000    83.0690   -82.7100     4.5680     4.6900     5.2060   -38.0900   -50.9240   120.6600     7.9290     2.4780     0.0130   -35.2740     0.2010
 3178.5000    82.3940   -82.5970     4.5700     4.6960     5.4610   -32.1680   -51.1840   117.0490     7.9290     2.4870     0.0240   -32.1680     0.2010
 3179.0000    81.7720   -82.4830     4.5730     4.7020     5.6780   -32.6730   -51.4450   116.7680     7.9290     2.4950     0.0190   -37.6390     0.2060
 3179.5000    81.1490   -82.3690     4.5760     4.7080     5.6980   -33.2020   -51.7060   120.3800     7.9290     2.4920     0.0120   -42.7560     0.2140
 3180.0000    80.7760   -82.2560     4.5780     4.6180     5.7280   -33.7300   -51.9660   125.0010     7.9290     2.4870     0.0050   -47.8720     0.2220
 3180.5000    81.0880   -82.1420     4.4690     4.5250     5.5740   -34.2580   -52.2270   127.6840     7.9290     2.4840    -0.0010   -52.6740     0.2280
 3181.0000    81.5750   -82.0280     4.3750     4.4320     5.2660   -34.7860   -52.4880   127.7040     7.9290     2.4800    -0.0050   -54.8980     0.2310
 3181.5000    82.3770   -81.9150     4.2820     4.3380     5.0860   -35.3150   -52.7480   127.5180     7.9290     2.4820    -0.0030   -57.1230     0.2360
 3182.0000    83.1780   -81.8010     4.1890     4.2450     4.8540   -35.8430   -53.0090   130.6540     7.9290     2.4870    -0.0010   -59.3480     0.2430
 3182.5000    83.9800   -81.6870     4.0960     4.1540     4.5800   -36.3710   -53.2700   132.7600     7.9290     2.4930     0.0000   -61.5720     0.2400
 3183.0000    84.6530   -81.5740     4.0030     4.0640     4.5870   -36.8990   -53.5300   132.6310     7.9290     2.4890    -0.0030   -63.7970     0.2330
