~VERSION INFORMATION
 VERS.                2.0:   CWLS LOG ASCII STANDARD - VERSION 2.0
 WRAP.                 NO:   ONE LINE PER DEPTH STEP
~WELL INFORMATION
#MNEM.UNIT      DATA TYPE    INFORMATION
#----------   ------------   ------------------------------
 STRT.F          640.0000:   START DEPTH
 STOP.F         2792.0000:   STOP DEPTH
 STEP.F            0.5000:   STEP LENGTH
 NULL.          -999.2500:   NO VALUE
 COMP.    FENIX & SCISSON:   COMPANY
 WELL.   FENIX SHX #41-11:   WELL
 FLD .        TEAPOT DOME:   FIELD
 LOC .      S11 T38N R78W:   LOCATION
 CNTY.            NATRONA:   COUNTY
 STAT.            WYOMING:   STATE
 CTRY. UNITED STATES OF AMERICA:   COUNTRY
 SRVC.           BIRDWELL:   SERVICE COMPANY
 DATE.        07-JUL-1979:   LOGDATE
 API .     49025107880000:   API NUMBER
~CURVE INFORMATION
#MNEM.UNIT       API CODE    CURVE DESCRIPTION
#----------   ------------   ------------------------------
 DEPT.F                  :   
 CALD.IN     45 280 60 00:   CALIPER FROM DENSITY LOG
 RHOB.G/C3   45 350 01 00:   BULK DENSITY
 CORR.G/C3   45 356 01 00:   DENSITY CORRECTION
 GRD .GAPI   45 310 01 00:   GAMMA RAY FROM DENSITY LOG
~PARAMETER INFORMATION
#MNEM.UNIT          VALUE    DESCRIPTION
#----------   ------------   ------------------------------
 EKB .F         5168.0000:   Kelly bushing
 EGL .F         5158.0000:   Ground level
 EDF .F            0.0000:   Drilling floor
 EPD .F            0.0000:   Permanent datum
 TD  .F         2801.0000:   Total depth
 DATE.        07-JUL-1979:   Date logged
 CLNT.            A2DTECH:   Client Code
 SL  . 95' FNL & 2414' FWL:   Surface Location
 PD  .                 GL:   Permanent Datum
 DAPD.F                10:   Feet Above Permanent Datum
 DD  .F              2801:   Depth driller
 DL  .F              2791:   Depth logger
 BLI .F              2790:   Bottom log interval
 TLI .F               640:   Top log interval
 CS1 .IN            9.625:   Casing size
 CBD1.      9.625" @ 909':   Casing driller 1
 CBL1.F               910:   Casing logger 1
 BS1 .IN             8.75:   Bit size
 BSD1.F              2801:   Depth drilled with bit1
 DFT .                AIR:   Type fluid in hole
 LUN .               2959:   Logging unit number
 LUL .             CASPER:   Logging unit location
 ENGI.         B. RULLINS:   Recorded By
 WITN.           GINSMORE:   Witnessed by
 ORIG.           5" PRINT:   Origin of data
 UWI .     49025107880000:   Unique Well ID
 DICO. A2D TECHNOLOGIES, INC.:   Digitizing Company
~OTHER INFORMATION
~A   DEPT     CALD       RHOB       CORR         GRD  
# ...
 2684.0000     8.8020     2.5410     0.0450   132.6480
 2684.5000     8.8090     2.5530     0.0360   129.2920
 2685.0000     8.8160     2.5510     0.0210   131.9890
 2685.5000     8.8230     2.5410     0.0050   137.9210
 2686.0000     8.8300     2.5340     0.0040   143.8320
 2686.5000     8.8370     2.5400     0.0080   149.4710
 2687.0000     8.8440     2.5450     0.0110   150.1840
 2687.5000     8.8510     2.5480     0.0120   147.1370
 2688.0000     8.8580     2.5420     0.0100   140.0890
 2688.5000     8.8650     2.5360     0.0090   133.0690
 2689.0000     8.8720     2.5350     0.0070   128.4400
 2689.5000     8.8790     2.5430     0.0060   126.1040
 2690.0000     8.8570     2.5510     0.0090   132.4920
 2690.5000     8.8320     2.5540     0.0120   132.4170
 2691.0000     8.8080     2.5560     0.0120   129.1970
 2691.5000     8.7830     2.5570     0.0070   126.5510
 2692.0000     8.7590     2.5490     0.0020   123.7050
 2692.5000     8.7390     2.5340    -0.0040   127.6590
 2693.0000     8.7390     2.5340    -0.0030   130.8290
 2693.5000     8.7390     2.5340     0.0020   131.5190
 2694.0000     8.7390     2.5450     0.0070   130.4680
 2694.5000     8.7390     2.5570     0.0110   130.3790
 2695.0000     8.7390     2.5610     0.0110   131.7330
 2695.5000     8.7390     2.5500     0.0060   128.9800
 2696.0000     8.7390     2.5410     0.0010   124.4140
 2696.5000     8.7390     2.5390    -0.0020   124.9360
 2697.0000     8.7390     2.5410    -0.0020   127.1330
 2697.5000     8.7390     2.5400     0.0000   125.3180
 2698.0000     8.7390     2.5360     0.0130   129.4950
 2698.5000     8.7400     2.5380     0.0250   131.8970
 2699.0000     8.7380     2.5480     0.0360   131.6350
 2699.5000     8.7360     2.5490     0.0320   126.1670
 2700.0000     8.7350     2.5360     0.0190   122.3880
 2700.5000     8.7330     2.5370     0.0100   119.6790
 2701.0000     8.7310     2.5490     0.0100   123.6500
 2701.5000     8.7290     2.5600     0.0090   127.0210
 2702.0000     8.7280     2.5580     0.0070   127.6380
 2702.5000     8.7260     2.5440     0.0050   128.4030
 2703.0000     8.7240     2.5370     0.0040   130.4060
 2703.5000     8.7230     2.5430     0.0040   132.4890
 2704.0000     8.7210     2.5530     0.0050   132.9010
 2704.5000     8.7190     2.5580     0.0060   128.4980
 2705.0000     8.7170     2.5530     0.0060   125.3240
 2705.5000     8.7160     2.5480     0.0050   125.4980
 2706.0000     8.7140     2.5480     0.0040   126.4210
 2706.5000     8.7120     2.5490     0.0020   127.7890
 2707.0000     8.7110     2.5500     0.0010   127.8810
 2707.5000     8.7090     2.5490     0.0000   123.2100
 2708.0000     8.7070     2.5430     0.0000   120.5770
 2708.5000     8.7050     2.5370     0.0010   121.0930
 2709.0000     8.7040     2.5370     0.0020   128.5300
 2709.5000     8.7020     2.5400     0.0040   136.4570
 2710.0000     8.7000     2.5430     0.0050   139.1240
 2710.5000     8.7000     2.5470     0.0060   137.8080
 2711.0000     8.7040     2.5480     0.0070   136.4170
 2711.5000     8.7080     2.5480     0.0080   135.0210
 2712.0000     8.7110     2.5460     0.0080   134.3790
 2712.5000     8.7150     2.5430     0.0070   132.7220
 2713.0000     8.7190     2.5400     0.0060   131.0780
 2713.5000     8.7230     2.5380     0.0060   129.4340
 2714.0000     8.7260     2.5410     0.0050   128.6230
 2714.5000     8.7300     2.5450     0.0050   128.7600
 2715.0000     8.7340     2.5370     0.0040   128.5600
 2715.5000     8.7370     2.5290     0.0040   127.9350
 2716.0000     8.7500     2.5160     0.0040   127.3080
 2716.5000     8.7780     2.4790     0.0100   126.8510
 2717.0000     8.8050     2.4440     0.0230   129.9400
 2717.5000     8.8320     2.4090     0.0360   132.5860
 2718.0000     8.8600     2.3930     0.0630   135.2660
 2718.5000     8.8880     2.4690     0.0920   138.1570
 2719.0000     8.9000     2.5160     0.1040   138.8660
 2719.5000     8.9000     2.5240     0.0280   134.7060
 2720.0000     8.8870     2.5300     0.0160   130.4630
 2720.5000     8.8670     2.5270     0.0140   130.2330
 2721.0000     8.8460     2.5160     0.0080   134.1440
 2721.5000     8.8260     2.5110     0.0000   138.6010
 2722.0000     8.8050     2.5100     0.0030   140.5360
 2722.5000     8.7840     2.5100     0.0060   139.2210
 2723.0000     8.7640     2.5100     0.0100   141.0650
 2723.5000     8.7430     2.5100     0.0120   142.1630
 2724.0000     8.7220     2.5100     0.0100   141.3650
 2724.5000     8.7210     2.5050     0.0070   142.1010
 2725.0000     8.7270     2.5010     0.0040   140.2620
 2725.5000     8.7330     2.5030     0.0040   137.0980
 2726.0000     8.7390     2.5050     0.0050   138.7740
 2726.5000     8.7450     2.5060     0.0060   142.2660
 2727.0000     8.7500     2.5040     0.0080   144.3840
 2727.5000     8.7560     2.5000     0.0080   142.6840
 2728.0000     8.7600     2.4970     0.0140   138.6370
 2728.5000     8.7550     2.4930     0.0240   134.6200
 2729.0000     8.7480     2.4920     0.0330   130.6370
 2729.5000     8.7410     2.4950     0.0280   127.9020
 2730.0000     8.7340     2.4990     0.0200   128.0430
 2730.5000     8.7270     2.5040     0.0130   130.3090
 2731.0000     8.7200     2.5080     0.0050   133.7810
 2731.5000     8.7130     2.5120     0.0020   137.2200
 2732.0000     8.7060     2.5120     0.0030   140.6860
 2732.5000     8.6990     2.5090     0.0050   142.3490
 2733.0000     8.7010     2.5060     0.0060   140.8220
 2733.5000     8.7040     2.5050     0.0040   136.6720
 2734.0000     8.7070     2.5070    -0.0010   132.5470
 2734.5000     8.7100     2.5130    -0.0060   128.3690
 2735.0000     8.7120     2.5200    -0.0050   127.3160
 2735.5000     8.7150     2.5270    -0.0010   132.4210
 2736.0000     8.7180     2.5310     0.0030   138.1050
 2736.5000     8.7220     2.5280     0.0040   143.7280
 2737.0000     8.7280     2.5250     0.0060   143.2070
 2737.5000     8.7350     2.5220     0.0040   142.3180
 2738.0000     8.7420     2.5180     0.0020   142.3460
 2738.5000     8.7490     2.5170     0.0000   143.7350
 2739.0000     8.7550     2.5180    -0.0020   143.4750
 2739.5000     8.7620     2.5240    -0.0020   141.3740
 2740.0000     8.7690     2.5310     0.0030   139.9600
 2740.5000     8.7750     2.5360     0.0090   141.3730
 2741.0000     8.7790     2.5320     0.0140   144.8430
 2741.5000     8.7790     2.5250     0.0110   148.2820
 2742.0000     8.7780     2.5180     0.0080   151.7200
 2742.5000     8.7770     2.5100     0.0050   154.1880
 2743.0000     8.7770     2.5090     0.0010   152.6600
 2743.5000     8.7760     2.5080    -0.0020   150.8860
 2744.0000     8.7750     2.5170    -0.0040   149.5540
 2744.5000     8.7750     2.5270     0.0010   150.8890
 2745.0000     8.7740     2.5330     0.0100   151.8190
 2745.5000     8.7730     2.5310     0.0190   151.3040
 2746.0000     8.7720     2.5290     0.0280   148.8460
 2746.5000     8.7720     2.5280     0.0360   146.4630
 2747.0000     8.7710     2.5300     0.0450   144.0640
 2747.5000     8.7700     2.5300     0.0490   143.2840
 2748.0000     8.7700     2.5130     0.0290   143.3760
 2748.5000     8.7690     2.4950     0.0110   142.0350
 2749.0000     8.7680     2.4850     0.0110   141.4780
 2749.5000     8.7680     2.4850     0.0190   141.4740
 2750.0000     8.7670     2.4850     0.0200   155.5720
 2750.5000     8.7660     2.4910     0.0090   164.8220
 2751.0000     8.7660     2.5020     0.0070   173.5160
 2751.5000     8.7650     2.5130     0.0150   179.4230
 2752.0000     8.7640     2.5240     0.0200   171.5420
 2752.5000     8.7630     2.5350     0.0160   157.8160
 2753.0000     8.7630     2.5460     0.0100   144.1320
 2753.5000     8.7620     2.5540     0.0040   130.3530
 2754.0000     8.7610     2.5520     0.0090   126.2400
 2754.5000     8.7600     2.5400     0.0100   130.0550
 2755.0000     8.7590     2.5260     0.0060   132.9460
 2755.5000     8.7390     2.5150     0.0020   134.3460
 2756.0000     8.7470     2.5200    -0.0020   132.9150
 2756.5000     8.7550     2.5210    -0.0020   130.5140
