~VERSION INFORMATION
 VERS.                2.0:   CWLS LOG ASCII STANDARD - VERSION 2.0
 WRAP.                 NO:   ONE LINE PER DEPTH STEP
~WELL INFORMATION
#MNEM.UNIT      DATA TYPE    INFORMATION
#----------   ------------   ------------------------------
 STRT.F          200.0000:   START DEPTH
 STOP.F         3060.0000:   STOP DEPTH
 STEP.F            0.5000:   STEP LENGTH
 NULL.          -999.2500:   NO VALUE
 COMP.    FENIX & SCISSON:   COMPANY
 WELL. FENIX & SCISSON NPR "AX" #81-10:   WELL
 FLD .                NPR:   FIELD
 LOC .      S10 T38N R78W:   LOCATION
 CNTY.            NATRONA:   COUNTY
 STAT.            WYOMING:   STATE
 CTRY. UNITED STATES OF AMERICA:   COUNTRY
 SRVC.              WELEX:   SERVICE COMPANY
 DATE.        28-NOV-1977:   LOGDATE
 API .     49025104400000:   API NUMBER
~CURVE INFORMATION
#MNEM.UNIT       API CODE    CURVE DESCRIPTION
#----------   ------------   ------------------------------
 DEPT.F                  :   
 CALD.IN     45 280 60 00:   CALIPER FROM DENSITY LOG
 GRD .GAPI   45 310 01 00:   GAMMA RAY FROM DENSITY LOG
 RHOB.G/C3   45 350 01 00:   BULK DENSITY
 CORR.G/C3   45 356 01 00:   DENSITY CORRECTION
 TEND.LBS    45 635 01 00:   TENSION FROM DENSITY LOG
 NPHI.DEC    42 890 03 00:   NEUTRON POROSITY SANDSTONE
 SPR .MV     07 010 01 00:   SPONTANEOUS POTENTIAL
 IL  .OHMM   07 120 00 00:   INDUCTION LOG RES.
 ASGR.OHMM   07 221 05 00:   AMPLIFIED SHALLOW GUARD
 SNP .DEC    41 890 00 00:   SIDEWALL NEUTRON POROSITY
~PARAMETER INFORMATION
#MNEM.UNIT          VALUE    DESCRIPTION
#----------   ------------   ------------------------------
 EKB .F         5147.0000:   Kelly bushing
 EGL .F         5137.0000:   Ground level
 EDF .F            0.0000:   Drilling floor
 TD  .F         3058.0000:   Total depth
 DATE.        28-NOV-1977:   Date logged
 CLNT.            A2DTECH:   Client Code
 PD  .                 GL:   Permanent Datum
 EPD .F              5137:   Elevation Permanent Datum
 LMF .                 KB:   Log Measured From
 DMF .                 KB:   Drilling Measured From
 DD  .F              3055:   Depth driller
 DL  .F              3058:   Depth logger
 BLI .F              3055:   Bottom log interval
 TLI .F               200:   Top log interval
 CS1 .IN            8.625:   Casing size
 CBD1.      8.625" @ 205':   Casing driller 1
 CBL1.F               215:   Casing logger 1
 BSD1.F              3055:   Depth drilled with bit1
 DFT .            KCL/MUD:   Type fluid in hole
 ENGI.            BENTSEN:   Recorded By
 WITN.         HARRINGTON:   Witnessed by
 ORIG.           5" PRINT:   Origin of data
 UWI .     49025104400000:   Unique Well ID
 DICO. A2D TECHNOLOGIES, INC.:   Digitizing Company
 DAPD.                 10:   Feet Above Permanent Datum
 BS1 .IN            7.875:   Bit size
 DFD .                8.9:   Density
 DFV .                 35:   Viscosity
 MSS .           FLOWLINE:   Source of sample
 RMS .OHMM            .17:   Rm
 MST .F                75:   Rm Meas. temp.
 RMF .OHMM            .12:   Rmf
 MFST.F                75:   Rmf Meas. temp.
 MFSS.               FANN:   Source Rmf.
 RMC .OHMM            .50:   Rmc
 MCST.F                75:   Rmc Meas. temp.
 MCSS.                KIT:   Source Rmc.
 RMB .OHMM           .113:   Rm. at BHT
 BHT .F               113:   BHT.
 TCS .HRS             2.5:   Time Circ. stopped
 MRT .F               113:   Maximum recorded temp.
 LUN .               9685:   Logging unit number
 LUL .             CASPER:   Logging unit location
 SL  . 601' FNL & 200' FEL:   Surface Location
~OTHER INFORMATION
~A   DEPT       CALD      GRD       RHOB       CORR        TEND        NPHI       SPR        IL       ASGR        SNP   
# ...
 1138.0000    10.3050    98.6140     2.5040     0.0010   985.2670     0.1040   -79.8830     7.7310     7.0270     0.1540
 1138.5000    10.3040    98.1340     2.5030     0.0010   985.2880     0.1070   -79.8500     7.8430     7.0550     0.1530
 1139.0000    10.3020    98.1940     2.5030     0.0010   985.3100     0.1100   -79.8180     7.9650     7.1180     0.1600
 1139.5000    10.3010    98.6840     2.5040     0.0010   985.3310     0.1130   -79.7850     7.6850     7.1010     0.1630
 1140.0000    10.3000    99.1280     2.5040     0.0000   985.3530     0.1150   -79.7530     7.2530     7.1390     0.1660
 1140.5000    10.2980    98.9900     2.5120    -0.0010   985.3740     0.1140   -79.7200     6.8210     7.2220     0.1660
 1141.0000    10.2970    98.8270     2.5200     0.0000   985.3960     0.1120   -79.6880     6.4630     7.1900     0.1650
 1141.5000    10.2960    98.6590     2.5270     0.0010   985.4170     0.1110   -79.6550     6.4250     7.1820     0.1640
 1142.0000    10.2940    98.3670     2.5350     0.0020   985.4390     0.1090   -79.6260     6.3780     7.2710     0.1640
 1142.5000    10.2930    98.4700     2.5420     0.0040   985.4610     0.1110   -79.7250     6.3300     7.2980     0.1650
 1143.0000    10.2920    99.1120     2.5500     0.0050   985.4820     0.1130   -79.8300     6.2850     7.2190     0.1680
 1143.5000    10.2900    99.7390     2.5570     0.0070   985.5040     0.1140   -79.9350     6.3590     7.1820     0.1700
 1144.0000    10.2890   100.3630     2.5650     0.0080   985.5250     0.1130   -80.0400     6.4420     7.2430     0.1660
 1144.5000    10.2880   100.9860     2.5720     0.0090   985.5470     0.1080   -80.1440     6.5240     7.3000     0.1560
 1145.0000    10.2860   101.1970     2.5760     0.0110   985.5680     0.1030   -80.2490     6.6060     7.2710     0.1500
 1145.5000    10.2850   101.3690     2.5770     0.0120   985.5900     0.0980   -80.3540     6.6870     7.2310     0.1450
 1146.0000    10.2840   101.5400     2.5780     0.0130   985.6110     0.0970   -80.4580     6.8020     7.2520     0.1400
 1146.5000    10.2820   101.7100     2.5780     0.0150   985.6330     0.0980   -80.5630     6.9150     7.2920     0.1410
 1147.0000    10.2810   101.8680     2.5750     0.0160   985.6540     0.0990   -80.6680     7.0260     7.2600     0.1420
 1147.5000    10.2800   102.2660     2.5710     0.0180   985.6760     0.1000   -80.7720     7.1390     7.1870     0.1440
 1148.0000    10.2780   102.7620     2.5670     0.0180   985.6970     0.1010   -80.8770     7.1300     7.1240     0.1460
 1148.5000    10.2770   102.8900     2.5630     0.0170   985.7190     0.1000   -80.9820     7.0370     7.1220     0.1470
 1149.0000    10.2760   102.9250     2.5580     0.0160   985.7400     0.0990   -81.0870     6.9450     7.0120     0.1490
 1149.5000    10.2740   102.9550     2.5480     0.0150   985.7620     0.1010   -81.1910     6.8510     7.0570     0.1510
 1150.0000    10.2730   102.9850     2.5380     0.0140   985.7830     0.1080   -81.2960     6.7580     7.0940     0.1580
 1150.5000    10.2720   103.0160     2.5280     0.0130   985.8050     0.1150   -81.4010     6.6640     6.8680     0.1650
 1151.0000    10.2700   103.0470     2.5180     0.0110   985.8260     0.1190   -81.5050     6.5700     6.7650     0.1720
 1151.5000    10.2690   103.0770     2.5080     0.0100   985.8480     0.1190   -81.6100     6.4900     6.7000     0.1800
 1152.0000    10.2680   103.1080     2.5090     0.0090   985.8690     0.1190   -81.7150     6.6470     6.5750     0.1800
 1152.5000    10.2660   103.1390     2.5110     0.0080   985.8910     0.1190   -81.8190     6.8050     6.4890     0.1790
 1153.0000    10.2650   103.1690     2.5130     0.0070   985.9120     0.1220   -81.9240     6.9620     6.4480     0.1850
 1153.5000    10.2560   103.2000     2.5150     0.0060   985.9340     0.1250   -82.0290     7.1200     6.4150     0.1890
 1154.0000    10.2370   103.2330     2.5170     0.0050   985.9550     0.1280   -82.1330     7.1470     6.4720     0.1920
 1154.5000    10.2180   103.2630     2.5200     0.0040   985.9770     0.1290   -82.2380     7.0830     6.3980     0.1960
 1155.0000    10.1980   103.5020     2.5220     0.0020   985.9980     0.1300   -82.3430     7.0190     6.3240     0.1990
 1155.5000    10.1790   103.8810     2.5240     0.0010   986.0200     0.1310   -82.4470     6.9540     6.3340     0.2020
 1156.0000    10.1600   104.2640     2.5230     0.0000   986.0420     0.1310   -82.5510     6.8870     6.3000     0.2050
 1156.5000    10.1410   104.6420     2.5210    -0.0010   986.0630     0.1300   -82.6040     6.8690     6.2620     0.2060
 1157.0000    10.1210   104.3810     2.5190    -0.0020   986.0850     0.1290   -82.6040     6.8520     6.2630     0.2060
 1157.5000    10.1020   104.0770     2.5180    -0.0030   986.1060     0.1290   -82.6040     6.8350     6.1450     0.2060
 1158.0000    10.0830   103.7750     2.5160    -0.0040   986.1280     0.1290   -82.6040     6.8180     6.2560     0.2040
 1158.5000    10.0640   103.4730     2.5150    -0.0050   986.1490     0.1260   -82.6040     6.8000     6.1730     0.1970
 1159.0000    10.0450   103.1720     2.5130    -0.0060   986.1710     0.1220   -82.6040     6.7880     6.1250     0.1900
 1159.5000    10.0410   102.8700     2.5120    -0.0080   986.1920     0.1180   -82.6080     6.9170     6.1750     0.1830
 1160.0000    10.0390   102.5670     2.5100    -0.0090   986.2140     0.1190   -82.6270     7.0510     6.5880     0.1830
 1160.5000    10.0370   102.2940     2.5090    -0.0100   986.2350     0.1220   -82.6460     7.1780     6.4740     0.1880
 1161.0000    10.0350   102.4340     2.5070    -0.0130   986.2570     0.1250   -82.6650     7.0550     6.2950     0.1910
 1161.5000    10.0330   102.5830     2.5060    -0.0150   986.2780     0.1260   -82.6830     6.9160     6.1100     0.1940
 1162.0000    10.0310   102.7300     2.5040    -0.0170   986.3000     0.1250   -82.7020     6.7800     6.0410     0.1910
 1162.5000    10.0290   102.8770     2.5030    -0.0200   986.3210     0.1240   -82.7210     6.6890     6.1320     0.1890
 1163.0000    10.0270   103.0240     2.5020    -0.0220   986.3430     0.1230   -82.7400     6.7190     6.1870     0.1880
 1163.5000    10.0250   103.1690     2.5000    -0.0250   986.3640     0.1220   -82.7590     6.7470     6.1360     0.1880
 1164.0000    10.0230   103.3150     2.4990    -0.0270   986.3860     0.1220   -82.7780     6.7740     6.0960     0.1960
 1164.5000    10.0210   103.5090     2.4970    -0.0270   986.4070     0.1280   -82.7960     6.8020     6.1710     0.2020
 1165.0000    10.0190   103.5480     2.4960    -0.0260   986.4290     0.1330   -82.8680     6.8290     6.2400     0.2100
 1165.5000    10.0170   103.4030     2.4970    -0.0210   986.4500     0.1340   -82.9690     6.8570     6.2560     0.2150
 1166.0000    10.0150   103.2830     2.5050    -0.0170   986.4720     0.1340   -83.0710     6.8840     6.2270     0.2160
 1166.5000    10.0130   104.1730     2.5120    -0.0130   986.4930     0.1310   -83.1730     6.9120     6.1700     0.2090
 1167.0000    10.0110   104.8320     2.5190    -0.0090   986.5150     0.1280   -83.2750     6.9390     6.1150     0.2030
 1167.5000    10.0090   104.2780     2.5270    -0.0050   986.5360     0.1240   -83.3770     6.9670     6.1690     0.1970
 1168.0000    10.0070   103.5030     2.5340    -0.0010   986.5580     0.1210   -83.4790     6.9840     6.4380     0.1900
 1168.5000    10.0050   102.7230     2.5410     0.0030   986.5800     0.1170   -83.5810     6.8960     6.3600     0.1830
 1169.0000    10.0030   102.2880     2.5460     0.0070   986.6010     0.1170   -83.6830     6.9870     6.2970     0.1800
 1169.5000    10.0010   102.4570     2.5390     0.0110   986.6230     0.1200   -83.7840     7.0810     6.4420     0.1830
 1170.0000     9.9990   102.8480     2.5330     0.0120   986.6440     0.1230   -83.7590     7.1730     6.5270     0.1870
 1170.5000     9.9970   103.2300     2.5270     0.0120   986.6660     0.1260   -83.7160     6.9930     6.1320     0.1910
 1171.0000     9.9950   103.6860     2.5210     0.0120   986.6870     0.1270   -83.6720     6.7670     6.1200     0.1950
