~VERSION INFORMATION
 VERS.                2.0:   CWLS LOG ASCII STANDARD - VERSION 2.0
 WRAP.                 NO:   ONE LINE PER DEPTH STEP
~WELL INFORMATION
#MNEM.UNIT      DATA TYPE    INFORMATION
#----------   ------------   ------------------------------
 STRT.F          176.0000:   START DEPTH
 STOP.F         3400.0000:   STOP DEPTH
 STEP.F            0.5000:   STEP LENGTH
 NULL.          -999.2500:   NO VALUE
 COMP.    PENIX & SCISSON:   COMPANY
 WELL. FENIX NPR 3 "AX" #64-4:   WELL
 FLD .                NPR:   FIELD
 LOC .       S4 T38N R78W:   LOCATION
 CNTY.            NATRONA:   COUNTY
 STAT.            WYOMING:   STATE
 CTRY. UNITED STATES OF AMERICA:   COUNTRY
 SRVC.       SCHLUMBERGER:   SERVICE COMPANY
 DATE.        25-JAN-1981:   LOGDATE
 API .     49025108640000:   API NUMBER
~CURVE INFORMATION
#MNEM.UNIT       API CODE    CURVE DESCRIPTION
#----------   ------------   ------------------------------
 DEPT.F                  :   
 SPR .MV     07 010 01 00:   SPONTANEOUS POTENTIAL
 RFOC.OHMM   07 220 01 00:   RESISTIVITY FOCUSED LOG RES.
 ILD .OHMM   07 120 46 00:   DEEP INDUCTION RESISTIVITY
 TENR.LBS    07 635 01 00:   TENSION
 ILM .OHMM   07 120 44 00:   INDUCTION LOG MEDIUM RESISTIVITY
 GRD .GAPI   45 310 01 00:   GAMMA RAY FROM DENSITY LOG
 CALD.IN     45 280 60 00:   CALIPER FROM DENSITY LOG
 RHOB.G/C3   45 350 01 00:   BULK DENSITY
 TEND.LBS    45 635 01 00:   TENSION FROM DENSITY LOG
 CORR.G/C3   45 356 01 00:   DENSITY CORRECTION
~PARAMETER INFORMATION
#MNEM.UNIT          VALUE    DESCRIPTION
#----------   ------------   ------------------------------
 EKB .F         5257.0000:   Kelly bushing
 EGL .F         5247.0000:   Ground level
 EDF .F            0.0000:   Drilling floor
 TD  .F         3388.0000:   Total depth
 DATE.        25-JAN-1981:   Date logged
 CLNT.            A2DTECH:   Client Code
 SL  . 2289' FNL & 1495' FEL:   Surface Location
 PD  .                 GL:   Permanent Datum
 EPD .F              5247:   Elevation Permanent Datum
 LMF .                 KB:   Log Measured From
 DMF .                 KB:   Drilling Measured From
 DAPD.F                10:   Feet Above Permanent Datum
 DD  .F              3388:   Depth driller
 DL  .F              3386:   Depth logger
 BLI .F              3380:   Bottom log interval
 TLI .F               192:   Top log interval
 CS1 .IN            8.625:   Casing size
 CBD1.      8.625" @ 191':   Casing driller 1
 CBL1.F               192:   Casing logger 1
 BS1 .IN            7.875:   Bit size
 BSD1.F              3388:   Depth drilled with bit1
 DFT .                FGM:   Type fluid in hole
 DFD .                8.7:   Density
 DFV .                 32:   Viscosity
 DFPH.                9.5:   pH
 DFL .                 18:   Fluid loss
 MSS .           FLOWLINE:   Source of sample
 RMS .OHMM           1.60:   Rm
 MST .F                60:   Rm Meas. temp.
 RMF .OHMM           1.33:   Rmf
 MFST.F                60:   Rmf Meas. temp.
 MFSS.               MEAS:   Source Rmf.
 RMB .OHMM            .83:   Rm. at BHT
 BHT .F               115:   BHT.
 TCS .HRS            1700:   Time Circ. stopped
 TLAB.HRS            2200:   Time logger at bottom
 MRT .F               115:   Maximum recorded temp.
 LUN .               8039:   Logging unit number
 LUL .               CSPR:   Logging unit location
 ENGI.           C. PFARR:   Recorded By
 WITN.           L. FIVAS:   Witnessed by
 ORIG.           5" PRINT:   Origin of data
 UWI .     49025108640000:   Unique Well ID
 DICO. A2D TECHNOLOGIES, INC.:   Digitizing Company
~OTHER INFORMATION
~A   DEPT      SPR       RFOC        ILD       TENR        ILM         GRD      CALD         RHOB      TEND      CORR   
# ...
 3358.5000   -43.6660    22.3490    10.4460  1104.4180    11.4980   160.5420     8.2290     2.5710  1374.5020     0.0540
 3359.0000   -44.6710    16.8640    10.2910  1104.4180    11.0780   161.6540     8.2210     2.5600  1374.5020     0.0710
 3359.5000   -45.6490    12.7510     9.8530  1104.4180    10.6580   164.2840     8.2120     2.4980  1374.5020     0.0810
 3360.0000   -46.6400    11.6190     9.4890  1104.4180    10.2380   166.6370     8.2030     2.4430  1374.5020     0.0700
 3360.5000   -47.6410    11.1020     9.1240  1104.4180     9.8180   168.9920     8.2020     2.4020  1374.5020     0.0590
 3361.0000   -48.4180    10.4830     8.7590  1104.4180     9.3980   171.3780     8.2020     2.3850  1374.5020     0.0500
 3361.5000   -48.6230    10.4830     8.3950  1104.4180     8.9780   173.8140     8.2020     2.3670  1374.5020     0.0440
 3362.0000   -48.8060    10.4830     8.0300  1104.4180     8.5580   176.3550     8.2020     2.3460  1374.5020     0.0390
 3362.5000   -48.9760    10.4830     7.6650  1104.4180     8.1380   182.4120     8.2020     2.3290  1374.5020     0.0320
 3363.0000   -49.1510    10.4830     7.5190  1104.4180     7.8020   188.7800     8.2020     2.3190  1374.5020     0.0270
 3363.5000   -49.3260    10.4830     7.5190  1104.4180     7.8020   193.9180     8.2020     2.3210  1374.5020     0.0200
 3364.0000   -49.5000    10.4830     7.5190  1104.4180     7.8020   185.9000     8.2020     2.3220  1374.5020     0.0170
 3364.5000   -49.6750    10.6550     7.5190  1104.4180     7.8020   178.5160     8.2020     2.3260  1374.5020     0.0190
 3365.0000   -49.8500    10.7980     7.5190  1104.4180     7.8020   170.4970     8.2020     2.3290  1374.5020     0.0200
 3365.5000   -50.0220    10.9420     7.5190  1104.4180     7.8020   162.9040     8.2020     2.3290  1374.5020     0.0200
 3366.0000   -50.1990    11.0850     7.5190  1104.4180     7.8020   154.7980     8.2020     2.3210  1374.5020     0.0210
 3366.5000   -50.3730    11.2860     7.5190  1104.4180     7.8020   150.8710     8.2020     2.3150  1374.5020     0.0220
 3367.0000   -50.5370    10.9870     7.5190  1104.4180     7.8020   150.7930     8.2020     2.3230  1374.5020     0.0320
 3367.5000   -50.7480    10.4900     7.5190  1104.4180     7.8020   150.2830     8.2020     2.3360  1374.5020     0.0420
 3368.0000   -50.5470     9.9180     7.5190  1104.4180     7.8020   149.8260     8.2020     2.3500  1374.5020     0.0520
 3368.5000   -50.0460     9.9450     7.5190  1104.4180     7.8020   149.4260     8.2020     2.3550  1374.5020     0.0610
 3369.0000   -49.5900    10.0120     7.5190  1104.4180     7.8020   148.9640     8.2020     2.3510  1372.8960     0.0510
 3369.5000   -49.1330    10.0790     7.5190  1104.4180     7.8020   148.6400     8.2020     2.3410  1371.2889     0.0410
 3370.0000   -48.6670    10.1460     7.5190  1104.4180     7.8020   148.8010     8.2020     2.3340  1369.6830     0.0300
 3370.5000   -48.2090    10.2140     7.5190  1104.4180     7.8020   148.9150     8.2020     2.3330  1368.0760     0.0210
 3371.0000   -47.7470    10.2810     7.5200  1104.4180     7.8020   149.1770     8.2020     2.3300  1366.4700     0.0230
 3371.5000   -47.2860    10.3480     7.5190  1104.4180     7.8020   148.3860     8.2020     2.3370  1364.8630     0.0250
 3372.0000   -46.8250    10.4150     7.5190  1104.4180     7.8020   146.6890     8.2020     2.3460  1363.2570     0.0290
 3372.5000   -46.3630    10.4830     7.5310  1104.4180     7.8020   145.2040     8.2020     2.3560  1361.6500     0.0300
 3373.0000   -45.9050    10.4350     7.5630  1104.4180     7.8930   143.7200     8.2020     2.3600  1360.0439     0.0320
 3373.5000   -45.4370    10.3870     7.5930  1104.4180     7.9850   143.5490     8.2020     2.3580  1358.4370     0.0340
 3374.0000   -45.1710    10.3390     7.6240  1104.4180     8.0760   144.4900     8.2020     2.3660  1356.8311     0.0350
 3374.5000   -45.0260    10.2910     7.6550  1104.4180     8.1680   146.9800     8.2020     2.3670  1355.2240     0.0280
 3375.0000   -44.8590    10.6190     7.6850  1104.4180     8.2590   149.3870     8.2020     2.3580  1353.6180     0.0230
 3375.5000   -44.0850    10.9480     7.7170  1104.4180     8.3500   151.7500     8.2020     2.3500  1352.0110     0.0160
 3376.0000   -43.0650    11.1360     7.7470  1104.4180     8.4420   154.0410     8.2040     2.3450  1350.4050     0.0220
 3376.5000   -41.8820    11.2310     7.7770  1104.4180     8.5330   154.1850     8.2080     2.3570  1348.7980     0.0340
 3377.0000   -40.4150    11.3260     7.8010  1104.4180     8.6240   154.4360     8.2110     2.3680  1347.1920     0.0470
 3377.5000   -38.8860    11.4200     7.7710  1104.4180     8.7160   154.6040     8.2150     2.3710  1345.5850     0.0500
 3378.0000   -36.7330    11.4960     7.7460  1104.4180     8.5560  -999.2500     8.2190     2.3630  1343.9790     0.0540
 3378.5000   -34.5670    10.5170     7.7210  1104.4180     8.3960  -999.2500     8.2220     2.3560  1342.3719     0.0460
 3379.0000   -32.2370     9.7010     7.6950  1104.4180     8.2360  -999.2500     8.2260     2.3620  1340.7660     0.0370
 3379.5000   -30.5510     9.0720     7.6690  1104.4180     8.0760  -999.2500     8.2300     2.3680  1339.1591     0.0270
 3380.0000   -29.6480     8.7240  -999.2500  1104.4180     7.9470  -999.2500     8.2330     2.3740  1337.5530     0.0170
 3380.5000   -28.6860     8.3750  -999.2500  1104.4180     7.9310  -999.2500     8.2360     2.3840  1335.9470     0.0120
 3381.0000   -27.5590     8.0960  -999.2500  1104.4180     7.9170  -999.2500     8.2430     2.3920  1334.6610     0.0210
 3381.5000   -27.5560     8.0960  -999.2500  1104.4180     7.9030  -999.2500     8.2220     2.4010  1334.6610     0.0290
 3382.0000   -27.6140     8.2100  -999.2500  1104.4180     7.8890  -999.2500     8.1830     2.4140  1334.6610     0.0390
 3382.5000   -27.7300     8.4000  -999.2500  1104.4180     7.8750  -999.2500     8.1480     2.4100  1334.6610     0.0420
 3383.0000   -27.8190  -999.2500  -999.2500  1104.4180     7.8610  -999.2500     8.1120     2.3910  1334.6610     0.0360
 3383.5000   -27.8020  -999.2500  -999.2500  1104.4180     7.8470  -999.2500     8.0770     2.3840  1334.6610     0.0300
 3384.0000   -27.6130  -999.2500  -999.2500  1104.4180     7.8330  -999.2500     8.0450     2.3870  1334.6610     0.0260
 3384.5000   -27.4310  -999.2500  -999.2500  1104.4180     7.8190  -999.2500  -999.2500     2.4000  1334.6610     0.0340
 3385.0000   -27.2580  -999.2500  -999.2500  1104.4180     7.8030  -999.2500  -999.2500     2.4120  1334.6610     0.0420
 3385.5000   -27.0910  -999.2500  -999.2500  1104.4180  -999.2500  -999.2500  -999.2500  -999.2500  1334.6610     0.0440
 3386.0000   -27.1880  -999.2500  -999.2500  1104.4180  -999.2500  -999.2500  -999.2500  -999.2500  1334.6610     0.0430
 3386.5000   -27.2910  -999.2500  -999.2500  1067.9080  -999.2500  -999.2500  -999.2500  -999.2500  1334.6610     0.0420
 3387.0000   -27.4110  -999.2500  -999.2500   976.6340  -999.2500  -999.2500  -999.2500  -999.2500  1334.6610  -999.2500
 3387.5000   -27.4970  -999.2500  -999.2500   885.3600  -999.2500  -999.2500  -999.2500  -999.2500  1334.6610  -999.2500
 3388.0000   -27.5510  -999.2500  -999.2500   794.0850  -999.2500  -999.2500  -999.2500  -999.2500  1334.6610  -999.2500
 3388.5000   -27.6100  -999.2500  -999.2500   702.8110  -999.2500  -999.2500  -999.2500  -999.2500  1351.7360  -999.2500
 3389.0000   -27.6680  -999.2500  -999.2500   704.7800  -999.2500  -999.2500  -999.2500  -999.2500  1394.4220  -999.2500
 3389.5000   -27.7260  -999.2500  -999.2500   706.7490  -999.2500  -999.2500  -999.2500  -999.2500  1437.1090  -999.2500
 3390.0000   -27.7840  -999.2500  -999.2500   708.7170  -999.2500  -999.2500  -999.2500  -999.2500  1466.1350  -999.2500
 3390.5000   -27.8420  -999.2500  -999.2500   710.6860  -999.2500  -999.2500  -999.2500  -999.2500  1486.0560  -999.2500
 3391.0000   -27.9000  -999.2500  -999.2500   712.6550  -999.2500  -999.2500  -999.2500  -999.2500  1446.2150  -999.2500
 3391.5000   -27.9590  -999.2500  -999.2500   714.6230  -999.2500  -999.2500  -999.2500  -999.2500  1366.5341  -999.2500
