~VERSION INFORMATION
 VERS.                2.0:   CWLS LOG ASCII STANDARD - VERSION 2.0
 WRAP.                 NO:   ONE LINE PER DEPTH STEP
~WELL INFORMATION
#MNEM.UNIT      DATA TYPE    INFORMATION
#----------   ------------   ------------------------------
 STRT.F            0.5000:   START DEPTH
 STOP.F         4256.0000:   STOP DEPTH
 STEP.F            0.5000:   STEP LENGTH
 NULL.          -999.2500:   NO VALUE
 COMP. LAWRENCE-ALLISON & ASSOC:   COMPANY
 WELL. LAWRENCE "X" #64-15:   WELL
 FLD .        N.P.R. NO.3:   FIELD
 LOC .      S15 T38N R78W:   LOCATION
 CNTY.            NATRONA:   COUNTY
 STAT.            WYOMING:   STATE
 CTRY. UNITED STATES OF AMERICA:   COUNTRY
 SRVC.      DRESSER ATLAS:   SERVICE COMPANY
 DATE.        13-SEP-1984:   LOGDATE
 API .     49025111610000:   API NUMBER
~CURVE INFORMATION
#MNEM.UNIT       API CODE    CURVE DESCRIPTION
#----------   ------------   ------------------------------
 DEPT.F                  :   
 TENR.LBS    07 635 01 00:   TENSION FROM RESISTIVITY
 GRR .GAPI   07 310 01 00:   GAMMA RAY FROM RESISTIVITY
 RFOC.OHMM   07 220 04 00:   RESISTIVITY FOCUSED LOG RES.
 RILD.OHMM   07 120 46 00:   DEEP INDUCTION RESISTIVITY
 RILM.OHMM   07 120 44 00:   INDUCTION LOG MEDIUM RESISTIVITY
 SPR .MV     07 010 01 00:   SPONTANEOUS POTENTIAL
 DT  .US/F   60 520 00 00:   DELTA TIME
 TENS.LBS    60 635 01 00:   TENSION FROM SONIC
 CALD.IN     45 280 60 00:   CALIPER FROM DENSITY LOG
 TEND.LBS    45 635 01 00:   TENSION FORM DENSITY LOG
 CORR.G/C3   45 356 01 00:   DENSITY CORRECTION
 DEN .G/C3   45 350 01 00:   BULK DENSITY
 CNC .DEC    42 890 03 00:   NEUTRON POROSITY SANDSTONE
~PARAMETER INFORMATION
#MNEM.UNIT          VALUE    DESCRIPTION
#----------   ------------   ------------------------------
 EKB .F         5294.0000:   Kelly bushing
 EGL .F         5282.0000:   Ground level
 TD  .F         4256.0000:   Total depth
 CLNT.            A2DTECH:   Client Code
 SL  . 2299' FNL & 1785' FEL:   Surface Location
 PD  .                 GL:   Permanent Datum
 EPD .F              5282:   Elevation Permanent Datum
 LMF .                 KB:   Log Measured From
 DMF .                 KB:   Drilling Measured From
 DAPD.F                12:   Feet Above Permanent Datum
 DATE.        13-SEP-1984:   Date Logged [DD-MMM-YYYY]
 DD  .F              4256:   Depth driller
 DL  .F              4248:   Depth logger
 BLI .F              4246:   Bottom log interval
 TLI .F                 0:   Top log interval
 CS1 .IN            8.625:   Casing size
 CBD1.      8.625" @ 817':   Casing driller 1
 CBL1.F               814:   Casing logger 1
 BS1 .IN            7.875:   Bit size
 BSD1.F              4256:   Depth drilled with bit1
 DFT .            KCL-GEL:   Type fluid in hole
 DFD .                  9:   Density
 DFV .                 40:   Viscosity
 DFPH.                8.6:   pH
 DFL .               11.8:   Fluid loss
 MSS .            MUDTANK:   Source of sample
 RMS .OHMM           0.38:   Rm
 MST .F                74:   Rm Meas. temp.
 RMF .OHMM           0.31:   Rmf
 MFST.F                72:   Rmf Meas. temp.
 MFSS.               MEAS:   Source Rmf.
 RMC .OHMM           0.48:   Rmc
 MCST.F                74:   Rmc Meas. temp.
 MCSS.               CALC:   Source Rmc.
 RMB .OHMM           0.22:   Rm. at BHT
 BHT .F               134:   BHT.
 TCS .HRS               4:   Time Circ. stopped
 MRT .F               134:   Maximum recorded temp.
 LUN .            HL-6274:   Logging unit number
 LUL .           GILLETTE:   Logging unit location
 ENGI.             RAUTIO:   Recorded By
 WITN.            JOHNSON:   Witnessed by
 ORIG.        2" 5" PRINT:   Origin of data
 UWI .     49025111610000:   Unique Well ID
 DICO. A2D TECHNOLOGIES, INC.:   Digitizing Company
~OTHER INFORMATION
~A    DEPT    TENR         GRR      RFOC       RILD       RILM        SPR         DT       TENS       CALD       TEND       CORR        DEN        CNC   
# ...
 3536.5000   -73.1469   145.1577     4.8243     4.3208     4.6980   -47.1309    90.6432   -35.8566     8.9042   -35.8566     0.1000     2.5237     0.2431
 3537.0000   -75.1959   146.6755     4.7595     4.4733     4.9841   -46.5123    90.8661   -35.8566     8.9034   -45.8167     0.0609     2.5418     0.2317
 3537.5000   -77.2449   147.5909     4.9293     4.6634     5.5480   -46.1949    90.1872   -35.8566     8.9027   -45.8167     0.0414     2.5570     0.2187
 3538.0000   -79.2939   141.8797     5.3582     4.9294     5.9061   -46.0281    89.2841   -35.8566     8.9019   -40.0683     0.0214     2.5676     0.2061
 3538.5000   -81.3429   137.0416     6.4175     5.2511     6.2005   -46.0119    88.1559   -35.8566     8.9011   -25.8964     0.0160     2.5782     0.1977
 3539.0000   -83.3918   133.6117     7.2719     5.5980     6.4199   -46.2969    88.4530   -35.8566     8.9003   -35.8566     0.0432     2.5843     0.1962
 3539.5000   -85.0000   126.2553     7.9047     5.9441     6.5554   -46.5819    94.6797   -35.8566     8.8995   -25.8964     0.0538     2.5859     0.1971
 3540.0000   -85.0000   120.5441     8.2428     6.1540     6.5559   -46.7163   100.0899   -35.8566     8.8987   -30.4338     0.0419     2.5825     0.2022
 3540.5000   -85.0000   117.2426     8.3606     6.2402     6.4212   -46.7001    97.4770   -35.8566     8.8980   -36.0837     0.0344     2.5709     0.2151
 3541.0000   -75.0000   118.4592     7.8581     6.0701     6.3772   -46.8345    87.2716   -35.8566     8.8972   -45.5513     0.0315     2.5574     0.2175
 3541.5000   -75.0000   124.1939     7.2762     6.0285     6.3777   -46.8178    78.8109   -35.8566     8.8964   -55.9686     0.0346     2.5559     0.2169
 3542.0000   -74.9788   130.8321     6.9336     6.0291     6.3782   -46.6475    78.3827   -35.8566     8.8956   -62.1182     0.0483     2.5605     0.2118
 3542.5000   -75.0312   134.1571     6.7084     6.0714     6.3786   -46.7819    80.1795   -35.8566     8.8948   -45.8167     0.0589     2.5666     0.2055
 3543.0000   -75.4265   135.6749     6.7107     6.0946     6.3791   -46.7657    80.8517   -35.8566     8.8940   -45.8167     0.0650     2.5682     0.2031
 3543.5000   -75.0000   135.3650     6.7596     6.1145     6.4239   -46.9041    81.1489   -35.8566     8.8932   -35.8566     0.0666     2.5705     0.2086
 3544.0000   -55.0000   134.1924     6.9039     6.1573     6.5142   -46.8839    81.2967   -35.8566     8.8925   -38.7672     0.0652     2.5789     0.2115
 3544.5000   -35.0000   136.9179     7.1495     6.2437     6.5600   -46.7171    80.6179   -35.8566     8.8917   -41.5449     0.0713     2.5850     0.2103
 3545.0000   -35.0000   139.3393     7.3528     6.2875     6.5604   -46.5503    77.3141   -35.8566     8.8909   -44.3227     0.0594     2.5866     0.2067
 3545.5000   -55.0000   140.8541     7.5619     6.3756     6.6530   -46.5341    73.2602   -35.8566     8.8901   -45.8167     0.0519     2.5791     0.2025
 3546.0000   -55.0000   133.6399     7.5644     6.4650     6.7460   -46.5179    67.4808   -35.8566     8.8900   -43.5923     0.0535     2.5791     0.2025
 3546.5000   -75.0000   132.4439     7.4629     6.5103     6.8409   -46.6578    63.7269   -35.8566     8.8900   -36.2101     0.0476     2.5792     0.2080
 3547.0000   -75.0000   136.0731     7.4139     6.5108     6.9370   -46.7867    62.1486   -35.8566     8.8893   -46.0815     0.0325     2.5747     0.2121
 3547.5000   -75.0000   137.8921     7.5205     6.5565     6.9858   -46.7664    66.2710   -35.8566     8.8883   -34.6916     0.0267     2.5703     0.2157
 3548.0000   -73.1033   136.3978     7.6280     6.5570     7.0839   -46.5996    71.2193   -35.8566     8.8873   -52.2108     0.0373     2.5628     0.2169
 3548.5000   -70.9491   132.1541     7.7363     6.6030     7.1337   -46.7340    77.8180   -35.8566     8.8863   -35.8566     0.0509     2.5583     0.2097
 3549.0000   -68.7948   128.1696     7.4246     6.6955     7.1839   -47.4708    79.6155   -35.8566     8.8853   -35.8566     0.0495     2.5569     0.2073
 3549.5000   -66.6406   125.2914     7.2236     6.8366     7.2848   -47.9105    79.3875   -35.8566     8.8843   -45.8167     0.0541     2.5577     0.2057
 3550.0000   -64.4864   126.2068     7.1762     6.7428     7.2568   -48.0449    79.3096   -35.8566     8.8833   -50.2988     0.0512     2.5592     0.2052
 3550.5000   -62.3322   131.6402     7.8013     6.8867     7.2586   -47.5728    79.2316   -39.7714     8.8822   -55.7769     0.0136     2.5593     0.2057
 3551.0000   -60.1780   132.0901     8.0554     6.9364     7.3105   -47.2554    78.2535   -44.1192     8.8812   -55.7769     0.0001     2.5488     0.2067
 3551.5000   -58.0238   132.5681     8.2137     7.0350     7.4654   -47.8609    75.1748   -48.4661     8.8802   -45.8167     0.0032     2.5458     0.2110
 3552.0000   -55.8696   132.5798     8.3046     7.0858     7.4669   -47.5469    65.4685   -52.8556     8.8792   -45.8167     0.0138     2.5466     0.2187
 3552.5000   -53.7154   132.5915     8.3134     7.0877     7.4172   -47.5366    50.8510   -55.7522     8.8782   -45.8167     0.0229     2.5490     0.2205
 3553.0000   -51.5611   132.9015     8.2495     7.0897     7.2663   -47.5264    40.0432   -55.7769     8.8772   -55.7769     0.0248     2.5528     0.2157
 3553.5000   -49.4069   132.3132     8.1937     7.0426     7.0206   -47.6672    43.9963   -55.7769     8.8762   -55.7769     0.0306     2.5581     0.2061
 3554.0000   -47.2527   132.3253     8.0266     6.8922     6.8303   -47.8072    62.0885   -55.7769     8.8752   -54.4622     0.0396     2.5597     0.2019
 3554.5000   -45.0199   132.8025     7.8626     6.6671     6.7375   -47.9475    85.4138   -55.7769     8.8742   -45.8167     0.0532     2.5476     0.2079
 3555.0000   -65.0805   142.2914     7.5960     6.5314     6.5552   -47.9347    87.5092   -55.7769     8.8732   -31.7729     0.0066     2.5424     0.2191
 3555.5000   -64.9860   147.1224     7.3385     6.3988     6.3775   -47.9245    84.3533   -55.6441     8.8721   -15.9363     0.0248     2.5442     0.2205
 3556.0000   -65.0000   140.8087     7.1886     6.3125     6.3348   -47.9142    81.0663   -54.7182     8.8715   -15.9363     0.0278     2.5561     0.2214
 3556.5000   -65.0000   137.8084     7.1397     6.2274     6.2924   -47.9040    79.6157   -53.7922     8.8715    -5.9761     0.0187     2.5614     0.2236
 3557.0000   -65.0000   136.3140     7.0916     6.1860     6.2506   -47.8938    79.8356   -52.8663     8.8506   -10.9876     0.0021     2.5630     0.2251
 3557.5000   -65.0000   135.1209     7.1419     6.1030     6.2519   -47.8835    81.3309   -51.9404     8.8516   -16.2508     0.0009     2.5616     0.2236
 3558.0000   -65.0000   136.3374     7.1429     6.0207     6.2097   -47.7227    83.4263   -51.0145     8.8531   -21.5139     0.0130     2.5563     0.2235
 3558.5000   -65.0000   139.9930     7.1438     5.9808     6.2113   -47.7063    86.8721   -50.0885     8.8548   -25.8964     0.0327     2.5541     0.2251
 3559.0000   -65.0000   140.8818     7.1450     5.9005     6.1694   -47.4006    88.5924   -49.1626     8.8564   -25.8964     0.0463     2.5572     0.2236
 3559.5000   -65.0000   141.1947     7.0964     5.9021     6.1709   -47.3882    89.4875   -48.2367     8.8581   -25.8964     0.0433     2.5641     0.2211
 3560.0000   -65.0000   143.6160     7.0486     5.9037     6.1296   -47.3780    88.9678   -47.3108     8.8598   -25.8964     0.0253     2.5618     0.2199
 3560.5000   -65.0000   147.2422     7.0495     5.9053     6.1309   -47.5209    80.9990   -46.3848     8.8614   -25.8964     0.0223     2.5543     0.2217
 3561.0000   -64.5857   148.7599     7.0339     5.9069     6.0898   -47.6613    82.3442   -42.8440     8.8631   -25.8964     0.0254     2.5483     0.2314
 3561.5000   -62.7893   147.5667     7.0028     5.9085     6.0913   -47.8016    84.6647   -35.1517     8.8648   -45.8167     0.0315     2.5476     0.2332
 3562.0000   -60.9929   146.3736     6.9554     5.9101     6.1349   -47.9398    84.9609   -27.4594     8.8664   -54.1501     0.0436     2.5560     0.2283
