~VERSION INFORMATION
 VERS.                2.0:   CWLS LOG ASCII STANDARD - VERSION 2.0
 WRAP.                 NO:   ONE LINE PER DEPTH STEP
~WELL INFORMATION
#MNEM.UNIT      DATA TYPE    INFORMATION
#----------   ------------   ------------------------------
 STRT.F          172.0000:   START DEPTH
 STOP.F         3376.0000:   STOP DEPTH
 STEP.F            0.5000:   STEP LENGTH
 NULL.          -999.2500:   NO VALUE
 COMP.    FENIX & SCISSON:   COMPANY
 WELL. FENIX NPR 3 "AX" #23-2:   WELL
 FLD .                NPR:   FIELD
 LOC .       S2 T38N R78W:   LOCATION
 CNTY.            NATRONA:   COUNTY
 STAT.            WYOMING:   STATE
 CTRY. UNITED STATES OF AMERICA:   COUNTRY
 SRVC.              WELEX:   SERVICE COMPANY
 DATE.        02-DEC-1980:   LOGDATE
 API .     49025108740000:   API NUMBER
~CURVE INFORMATION
#MNEM.UNIT       API CODE    CURVE DESCRIPTION
#----------   ------------   ------------------------------
 DEPT.F                  :   
 CALD.IN     45 280 60 00:   CALIPER FROM DENSITY LOG
 CORR.G/C3   45 356 01 00:   DENSITY CORRECTION
 GRD .GAPI   45 310 01 00:   GAMMA RAY FROM DENSITY LOG
 RHOB.G/C3   45 350 01 00:   BULK DENSITY
 TENR.LBS    07 635 01 00:   TENSION
 SPR .MV     07 010 01 00:   SPONTANEOUS POTENTIAL
 SGRD.OHMM   07 220 05 00:   SHALLOW GUARD
 ILD .OHMM   07 120 46 00:   INDUCTION LOG DEEP RESISTIVITY
 ILM .OHMM   07 120 44 00:   INDUCTION LOG MEDIUM RESISTIVITY
~PARAMETER INFORMATION
#MNEM.UNIT          VALUE    DESCRIPTION
#----------   ------------   ------------------------------
 EKB .F         5133.0000:   Kelly bushing
 EGL .F         5123.0000:   Ground level
 EDF .F            0.0000:   Drilling floor
 TD  .F         3375.0000:   Total depth
 DATE.        02-DEC-1980:   Date logged
 CLNT.            A2DTECH:   Client Code
 SL  . 3800' FSL & 827' FWL:   Surface Location
 PD  .                 GL:   Permanent Datum
 EPD .F              5123:   Elevation Permanent Datum
 LMF .                 KB:   Log Measured From
 DMF .                 KB:   Drilling Measured From
 DAPD.F                10:   Feet Above Permanent Datum
 DD  .F              3375:   Depth driller
 DL  .F              3373:   Depth logger
 BLI .F              3371:   Bottom log interval
 TLI .F               181:   Top log interval
 CS1 .IN            8.625:   Casing size
 CBD1.      8.625" @ 181':   Casing driller 1
 CBL1.F               181:   Casing logger 1
 BS1 .IN            7.875:   Bit size
 BSD1.F              3375:   Depth drilled with bit1
 DFT .           CHEM/GEL:   Type fluid in hole
 DFD .                8.8:   Density
 DFV .                 45:   Viscosity
 DFPH.                  9:   pH
 DFL .                 16:   Fluid loss
 MSS .           FLOWLINE:   Source of sample
 RMS .OHMM           1.25:   Rm
 MST .F                64:   Rm Meas. temp.
 RMF .OHMM           1.17:   Rmf
 MFST.F                64:   Rmf Meas. temp.
 RMC .OHMM            1.1:   Rmc
 MCST.F                64:   Rmc Meas. temp.
 MFSS.               MEAS:   Source Rmf.
 MCSS.               MEAS:   Source Rmc.
 RMB .OHMM            .67:   Rm. at BHT
 BHT .F               120:   BHT.
 TCS .HRS               2:   Time Circ. stopped
 MRT .F               120:   Maximum recorded temp.
 LUN .               1892:   Logging unit number
 LUL .             CASPER:   Logging unit location
 ENGI.  PFRIMMER/MONNAHAN:   Recorded By
 WITN.              FIVAS:   Witnessed by
 ORIG.           5" PRINT:   Origin of data
 UWI .     49025108740000:   Unique Well ID
 DICO. A2D TECHNOLOGIES, INC.:   Digitizing Company
~OTHER INFORMATION
~A   DEPT     CALD       CORR         GRD      RHOB       TENR        SPR       SGRD        ILD        ILM   
# ...
  792.5000    10.0630     0.0290   123.0010     2.5540   465.4770   -20.1260     9.3120     8.3550     8.9940
  793.0000    10.0680     0.0290   123.0130     2.5400   461.6310   -20.2790     9.3120     8.4920     9.1420
  793.5000    10.0740     0.0290   123.0330     2.5300   457.7850   -20.4310     9.3120     8.3370     8.9750
  794.0000    10.0790     0.0290   121.9010     2.5410   453.9390   -20.5840     9.3120     8.3330     8.9700
  794.5000    10.0840     0.0290   118.4640     2.5490   451.8070   -20.7360     9.3120     8.3290     8.9660
  795.0000    10.0890     0.0280   114.9630     2.5430   451.8070   -20.8900     9.3120     8.3250     8.9620
  795.5000    10.0940     0.0260   115.3540     2.5360   451.8070   -21.0430     9.3120     8.3210     8.9570
  796.0000    10.0990     0.0250   116.6090     2.5290   453.3270   -21.1890     9.3120     8.3180     8.9540
  796.5000    10.1040     0.0230   115.5040     2.5230   454.7930   -21.3580     9.3120     8.3130     8.9490
  797.0000    10.1090     0.0230   114.3750     2.5320   456.2600   -21.3020     9.3120     8.3090     8.9440
  797.5000    10.1140     0.0250   113.2590     2.5460   457.7270   -21.1070     9.3120     8.3050     8.9400
  798.0000    10.1190     0.0260   112.7130     2.5520   459.1930   -20.9340     9.3030     8.3010     8.9360
  798.5000    10.1240     0.0270   113.2290     2.5390   460.6600   -20.7640     9.2670     8.2970     8.9320
  799.0000    10.1260     0.0260   113.7000     2.5300   462.1260   -20.5810     9.2310     8.2930     8.9270
  799.5000    10.1280     0.0250   115.2360     2.5220   463.5930   -20.4170     9.1950     8.2890     8.9230
  800.0000    10.1300     0.0230   117.3980     2.5140   465.0590   -20.2180     9.1590     8.2850     8.9190
  800.5000    10.1320     0.0220   119.5580     2.5060   466.5260   -20.2570     9.1230     8.2810     8.9140
  801.0000    10.1340     0.0190   121.0160     2.4960   467.9930   -20.3250     9.0860     8.2770     8.9100
  801.5000    10.1350     0.0190   120.1220     2.5050   469.4590   -20.4000     9.0490     8.2730     8.9060
  802.0000    10.1370     0.0220   119.1180     2.5220   470.9260   -20.4680     9.0150     8.2690     8.9010
  802.5000    10.1390     0.0260   120.9310     2.5390   471.8880   -20.5400     8.9760     8.2650     8.8970
  803.0000    10.1410     0.0290   123.3350     2.5300   470.8910   -20.6110     8.9810     8.2610     8.8930
  803.5000    10.1430     0.0280   125.8570     2.5360   469.8300   -20.6810     8.9850     8.2570     8.8880
  804.0000    10.1450     0.0280   127.1890     2.5400   468.7690   -20.7530     8.9910     8.2530     8.8840
  804.5000    10.1330     0.0270   128.1230     2.5340   467.7080   -20.8230     8.9970     8.2490     8.8800
  805.0000    10.1200     0.0270   129.0240     2.5380   466.6470   -20.8930     9.0020     8.2450     8.8750
  805.5000    10.1070     0.0270   129.5620     2.5430   465.5860   -20.9690     9.0080     8.2410     8.8710
  806.0000    10.0940     0.0230   127.8300     2.5400   464.5250   -21.0010     9.0130     8.2370     8.8670
  806.5000    10.0840     0.0190   126.0820     2.5310   463.4650   -21.0000     9.0190     8.2330     8.8620
  807.0000    10.0920     0.0190   124.3500     2.5230   462.4040   -21.0010     9.0240     8.2290     8.8580
  807.5000    10.1000     0.0190   122.7180     2.5250   461.3430   -20.9910     9.0300     8.2250     8.8540
  808.0000    10.1070     0.0190   121.5880     2.5280   460.2820   -21.0250     9.0350     8.2210     8.8500
  808.5000    10.1150     0.0190   120.4400     2.5270   459.2210   -20.7300     9.0410     8.2170     8.8450
  809.0000    10.1220     0.0190   119.4080     2.5270   458.1600   -20.2270     9.0460     8.2130     8.8410
  809.5000    10.1290     0.0200   118.7750     2.5260   457.0990   -19.7770     9.0520     8.2090     8.8370
  810.0000    10.1370     0.0210   119.7430     2.5220   456.0380   -19.3330     9.0570     8.2050     8.8320
  810.5000    10.1440     0.0210   121.8570     2.5300   454.9770   -18.8190     9.0620     8.2010     8.8280
  811.0000    10.1520     0.0220   123.9810     2.5400   453.9160   -18.7770     9.0680     8.1970     8.8240
  811.5000    10.1590     0.0250   126.1170     2.5480   452.8550   -19.3210     9.0730     8.1920     8.8190
  812.0000    10.1670     0.0290   128.2660     2.5580   451.7940   -19.8040     9.0790     8.1890     8.8150
  812.5000    10.1740     0.0340   127.9470     2.5710   450.7330   -20.2920     9.0840     8.1870     8.8130
  813.0000    10.1810     0.0330   126.9340     2.5740   449.6720   -20.8110     9.0900     8.2130     8.8410
  813.5000    10.1850     0.0310   125.9100     2.5550   448.6120   -21.0030     9.0950     8.2370     8.8670
  814.0000    10.1850     0.0300   124.8880     2.5400   447.5510   -20.9600     9.1010     8.2630     8.8950
  814.5000    10.1850     0.0280   123.8560     2.5230   446.4900   -20.9410     9.1060     8.2880     8.9210
  815.0000    10.1850     0.0270   122.8250     2.5330   445.4290   -20.9200     9.1120     8.3130     8.9480
  815.5000    10.1850     0.0270   120.7850     2.5470   444.3680   -20.8950     9.1170     8.3380     8.9750
  816.0000    10.1860     0.0280   117.5680     2.5590   443.3070   -20.8740     9.1230     8.3630     9.0020
  816.5000    10.1760     0.0280   114.8990     2.5600   442.2460   -20.8510     9.1290     8.3880     9.0290
  817.0000    10.1640     0.0290   114.2690     2.5450   441.1850   -20.8290     9.1330     8.4130     9.0560
  817.5000    10.1530     0.0290   113.5510     2.5340   440.1240   -20.8060     9.1400     8.4380     9.0830
  818.0000    10.1410     0.0300   112.8310     2.5300   439.0630   -20.7840     9.1460     8.4630     9.1100
  818.5000    10.1300     0.0300   112.2770     2.5350   438.0020   -20.7610     9.1980     8.4880     9.1370
  819.0000    10.1180     0.0300   112.9080     2.5500   436.9410   -20.7390     9.2430     8.5130     9.1640
  819.5000    10.1070     0.0310   113.5560     2.5680   435.8800   -20.7160     9.2900     8.5380     9.1910
  820.0000    10.0950     0.0340   114.1990     2.5750   434.8190   -20.6940     9.3360     8.5630     9.2180
  820.5000    10.0830     0.0360   114.8420     2.5790   433.7590   -20.6710     9.3830     8.5880     9.2450
  821.0000    10.0570     0.0340   115.4870     2.5790   432.6980   -20.6480     9.4300     8.6130     9.2710
  821.5000    10.0290     0.0320   116.1220     2.5650   431.6370   -20.6270     9.4760     8.6380     9.2980
  822.0000    10.0030     0.0300   116.4810     2.5490   430.5760   -20.5990     9.5230     8.6630     9.3250
  822.5000     9.9760     0.0280   115.8970     2.5380   429.5150   -20.6320     9.5700     8.6880     9.3520
  823.0000     9.9480     0.0270   115.3360     2.5490   428.4540   -20.7110     9.6160     8.7130     9.3790
  823.5000     9.9440     0.0270   114.7650     2.5590   427.3930   -20.7870     9.6630     8.7380     9.4060
  824.0000     9.9470     0.0260   114.2560     2.5560   426.3320   -20.8610     9.7100     8.7630     9.4330
  824.5000     9.9510     0.0260   116.1570     2.5520   425.2710   -20.9410     9.7560     8.7880     9.4600
  825.0000     9.9540     0.0260   118.1410     2.5390   424.2100   -21.0090     9.8030     8.8130     9.4870
  825.5000     9.9580     0.0260   118.0280     2.5260   423.1490   -21.1280     9.8410     8.8380     9.5140
  826.0000     9.9610     0.0250   117.8270     2.5170   422.0880   -21.2290     9.8620     8.8630     9.5410
  826.5000     9.9650     0.0250   117.2880     2.5250   421.0270   -21.3340     9.8890     8.8880     9.5680
  827.0000     9.9690     0.0240   116.1610     2.5330   419.9660   -21.4390     9.9160     8.9130     9.5940
  827.5000     9.9720     0.0240   115.0430     2.5300   418.9060   -21.5430     9.9430     8.9380     9.6210
  828.0000     9.9760     0.0230   113.9150     2.5260   417.8450   -21.6440     9.9700     8.9630     9.6480
  828.5000     9.9790     0.0230   113.3150     2.5310   416.7840   -21.7630     9.9970     8.9900     9.6770
