~VERSION INFORMATION
 VERS.                2.0:   CWLS LOG ASCII STANDARD - VERSION 2.0
 WRAP.                 NO:   ONE LINE PER DEPTH STEP
~WELL INFORMATION
#MNEM.UNIT      DATA TYPE    INFORMATION
#----------   ------------   ------------------------------
 STRT.F          196.0000:   START DEPTH
 STOP.F         3430.0000:   STOP DEPTH
 STEP.F            0.5000:   STEP LENGTH
 NULL.          -999.2500:   NO VALUE
 COMP.    FENIX $ SCISSON:   COMPANY
 WELL.   FENIX "A" #23-10:   WELL
 FLD .              N P R:   FIELD
 LOC .      S10 T38N R78W:   LOCATION
 CNTY.            NATRONA:   COUNTY
 STAT.            WYOMING:   STATE
 CTRY. UNITED STATES OF AMERICA:   COUNTRY
 SRVC.              WELEX:   SERVICE COMPANY
 DATE.        23-JUL-1977:   LOGDATE
 API .     49025103990000:   API NUMBER
~CURVE INFORMATION
#MNEM.UNIT       API CODE    CURVE DESCRIPTION
#----------   ------------   ------------------------------
 DEPT.F                  :   
 SPR .MV     07 010 01 00:   SPONTANEOUS POTENTIAL
 GURD.OHMM   07 220 05 00:   GUARD LOG RESISTIVITY
 FORX.OHMM   07 220 00 00:   FORMATION FACTOR
 NPHI.DEC    42 890 03 00:   NEUTRON POROSITY SANDSTONE
 CALD.IN     45 280 60 00:   CALIPER FROM DENSITY LOG
 CORR.G/C3   45 356 01 00:   DENSITY CORRECTION
 GRD .GAPI   45 310 01 00:   GAMMA RAY FROM DENSITY LOG
 RHOB.G/C3   45 350 01 00:   BULK DENSITY
~PARAMETER INFORMATION
#MNEM.UNIT          VALUE    DESCRIPTION
#----------   ------------   ------------------------------
 EKB .F         5251.0000:   Kelly bushing
 EGL .F         5241.0000:   Ground level
 EDF .F            0.0000:   Drilling floor
 EPD .F         5241.0000:   Permanent datum
 TD  .F         3430.0000:   Total depth
 DATE.        23-JUL-1977:   Date logged
 CLNT.            A2DTECH:   Client Code
 SL  . 1650' FNL & 990' FWL:   Surface Location
 PD  .                 GL:   Permanent Datum
 DD  .F              3430:   Depth driller
 DL  .F              3430:   Depth logger
 BLI .F              3428:   Bottom log interval
 CS1 .IN            8.625:   Casing size
 CBD1.      8.625" @ 220':   Casing driller 1
 BS1 .IN            7.875:   Bit size
 DFT .            KCL MUD:   Type fluid in hole
 DFD .                8.9:   Density
 DFV .                 33:   Viscosity
 DFPH.                  8:   pH
 DFL .                  8:   Fluid loss
 MSS .           FLOWLINE:   Source of sample
 RMS .OHMM            .49:   Rm
 MST .F                94:   Rm Meas. temp.
 RMF .OHMM            .46:   Rmf
 MFST.F                90:   Rmf Meas. temp.
 RMC .OHMM            .40:   Rmc
 MCST.F                90:   Rmc Meas. temp.
 MFSS.               FANN:   Source Rmf.
 RMB .OHMM            .15:   Rm. at BHT
 BHT .F               122:   BHT.
 TCS .HRS               6:   Time Circ. stopped
 MRT .F               122:   Maximum recorded temp.
 LUN .               8611:   Logging unit number
 LUL .             CASPER:   Logging unit location
 ENGI.            C. DOAK:   Recorded By
 WITN.      B. HARRINGTON:   Witnessed by
 ORIG.           5" PRINT:   Origin of data
 UWI .     49025103990000:   Unique Well ID
 DICO. A2D TECHNOLOGIES, INC.:   Digitizing Company
 DAPD.                 10:   Feet Above Permanent Datum
 BSD1.               3430:   Depth drilled with bit1
 MCSS.                KIT:   Source Rmc.
 TLI .                200:   Top log interval
~OTHER INFORMATION
~A   DEPT      SPR         GURD     FORX       NPHI       CALD       CORR        GRD       RHOB   
# ...
 3193.0000   -53.4840     7.1770     8.3140     0.2000     9.3800     0.0390    65.2910     2.3480
 3193.5000   -53.6740     6.8400     8.4520     0.2010     9.3970     0.0390    65.3450     2.3520
 3194.0000   -53.8650     6.5250     8.2190     0.2030     9.3960     0.0390    65.4000     2.3530
 3194.5000   -54.0560     6.4630     8.0140     0.2050     9.3980     0.0390    65.4520     2.3440
 3195.0000   -54.2470     6.4280     8.1560     0.2070     9.4010     0.0400    65.5030     2.3390
 3195.5000   -54.4390     6.3930     8.3900     0.2040     9.4040     0.0400    65.1950     2.3470
 3196.0000   -54.6300     6.3680     7.8950     0.2010     9.4070     0.0400    64.4160     2.3570
 3196.5000   -54.8010     6.2370     7.3770     0.1970     9.4090     0.0400    63.6430     2.3640
 3197.0000   -54.7320     6.1300     7.3040     0.1960     9.4120     0.0400    62.8660     2.3590
 3197.5000   -54.6500     6.0240     7.2430     0.1990     9.4150     0.0400    62.0900     2.3550
 3198.0000   -54.5680     5.9170     7.5480     0.2070     9.4260     0.0400    61.3160     2.3520
 3198.5000   -54.4860     5.8090     8.1340     0.2140     9.4360     0.0400    60.7480     2.3550
 3199.0000   -54.4040     5.9540     8.5460     0.2190     9.4570     0.0410    61.7010     2.3610
 3199.5000   -54.3220     6.0860     7.7910     0.2230     9.4600     0.0410    62.7710     2.3660
 3200.0000   -54.2400     6.2180     7.1110     0.2230     9.4780     0.0410    63.8430     2.3750
 3200.5000   -54.1580     6.3100     8.7850     0.2220     9.4860     0.0410    64.9130     2.3720
 3201.0000   -54.0770     6.1040     8.8660     0.2210     9.4940     0.0410    65.9840     2.3730
 3201.5000   -54.0380     5.8090    11.4690     0.2190     9.5010     0.0410    67.0550     2.3750
 3202.0000   -54.2160     6.1950     9.1280     0.2160     9.5080     0.0420    68.1240     2.3630
 3202.5000   -54.3960     6.0320     8.0140     0.2130     9.5160     0.0450    69.1900     2.3510
 3203.0000   -54.5740     5.8030     8.4080     0.2090     9.5230     0.0480    69.9620     2.3570
 3203.5000   -54.7500     5.6310     9.1140     0.2060     9.5300     0.0500    68.8580     2.3590
 3204.0000   -55.1140     6.0610    10.6560     0.2020     9.5380     0.0530    67.4110     2.3560
 3204.5000   -55.5450     6.6070     9.7800     0.1990     9.5450     0.0510    65.9550     2.3670
 3205.0000   -55.9770     6.4700     8.7050     0.1960     9.5530     0.0490    64.5100     2.3760
 3205.5000   -56.4090     5.8290     9.3690     0.1960     9.5600     0.0460    63.7410     2.3630
 3206.0000   -56.8420     5.6510     8.9480     0.1970     9.5670     0.0440    65.2400     2.3480
 3206.5000   -57.2740     5.6440     9.0310     0.1990     9.5750     0.0420    66.7270     2.3480
 3207.0000   -57.7060     5.5870     9.1140     0.2000     9.5820     0.0390    68.2100     2.3590
 3207.5000   -58.1380     5.5480     8.3900     0.2030     9.5890     0.0400    69.6970     2.3590
 3208.0000   -58.5710     5.4970     9.4550     0.2060     9.5970     0.0400    71.1960     2.3600
 3208.5000   -59.0030     5.5610     9.3790     0.2080     9.6040     0.0400    72.4490     2.3720
 3209.0000   -59.4350     5.6810     9.0380     0.2070     9.6110     0.0400    71.3140     2.3780
 3209.5000   -59.8670     6.1380     7.8550     0.2050     9.6190     0.0400    69.8780     2.3690
 3210.0000   -60.2990     5.6520     7.2430     0.2040     9.6260     0.0400    69.4070     2.3610
 3210.5000   -60.7320     4.8880     9.0310     0.2040     9.6340     0.0400    71.3980     2.3550
 3211.0000   -61.1750     4.9570     7.5140     0.2040     9.6550     0.0410    73.3360     2.3470
 3211.5000   -61.2260     5.0270     7.6970     0.2050     9.6570     0.0410    75.2700     2.3500
 3212.0000   -61.1700     5.0960     7.0460     0.2090     9.6600     0.0410    77.2130     2.3660
 3212.5000   -61.1080     5.2020    10.1120     0.2120     9.6640     0.0410    79.1670     2.3820
 3213.0000   -61.3130     5.6630    15.9670     0.2100     9.6670     0.0410    80.7050     2.3910
 3213.5000   -61.7270     6.4270    11.7030     0.2060     9.6700     0.0390    79.3110     2.3820
 3214.0000   -62.1430     6.1130     9.1980     0.2010     9.6730     0.0370    77.9000     2.3920
 3214.5000   -62.5610     5.5470     9.0310     0.1980     9.6760     0.0360    79.6420     2.3870
 3215.0000   -62.9780     4.9810     6.1380     0.1960     9.6790     0.0340    81.4150     2.3750
 3215.5000   -63.3960     4.4140     6.8050     0.1990     9.6820     0.0320    83.3310     2.3630
 3216.0000   -63.8150     3.6020     8.3900     0.2060     9.6860     0.0300    81.2060     2.3500
 3216.5000   -64.2340     3.9120     7.7960     0.2190     9.6890     0.0290    78.4870     2.3370
 3217.0000   -64.7240     4.3690     8.5530     0.2320     9.6920     0.0270    77.8250     2.3340
 3217.5000   -65.2650     4.5480     9.8100     0.2400     9.6860     0.0250    80.3580     2.3410
 3218.0000   -65.8070     4.7020     8.3900     0.2400     9.6710     0.0230    82.2230     2.3500
 3218.5000   -66.3510     4.5450     8.8730     0.2370     9.6560     0.0240    85.0260     2.3570
 3219.0000   -66.8950     4.3830     9.4550     0.2350     9.6410     0.0210    87.7970     2.3560
 3219.5000   -67.4390     4.2500     9.1980     0.2340     9.6260     0.0140    90.5900     2.3540
 3220.0000   -67.9830     4.8780    10.1770     0.2330     9.6110     0.0130    93.3590     2.3520
 3220.5000   -68.5270     4.4910    12.3440     0.2330     9.5960     0.0160    95.4430     2.3690
 3221.0000   -69.0710     4.5490     9.9000     0.2330     9.5810     0.0200    94.6270     2.3900
 3221.5000   -69.6140     4.7020     9.5780     0.2350     9.5650     0.0240    93.8700     2.4080
 3222.0000   -70.1580     4.5010     9.4550     0.2370     9.5500     0.0270    93.1320     2.4130
 3222.5000   -70.6610     4.2970    10.0840     0.2360     9.5350     0.0310    93.9410     2.3950
 3223.0000   -71.0970     4.1340    10.3660     0.2310     9.5200     0.0350    95.8410     2.4000
 3223.5000   -71.5330     4.0960    12.1920     0.2230     9.5050     0.0350    97.7280     2.4090
 3224.0000   -71.9700     4.6680    15.1100     0.2140     9.4900     0.0340    99.6170     2.4330
 3224.5000   -72.4070     5.2430    12.4580     0.2080     9.4750     0.0330   100.2150     2.4410
 3225.0000   -72.8430     5.7030    17.3440     0.2070     9.4600     0.0320    99.5450     2.4400
 3225.5000   -73.2800     5.1550     8.8660     0.2090     9.4440     0.0310   100.3750     2.4400
 3226.0000   -73.7160     4.3600    13.5320     0.2130     9.4290     0.0300   105.6170     2.4460
 3226.5000   -74.1530     3.3370    11.7890     0.2180     9.4150     0.0290   110.6460     2.4520
 3227.0000   -74.5890     3.7160    15.2500     0.2250     9.4070     0.0280   113.8620     2.4460
 3227.5000   -75.0310     4.4760    11.0550     0.2320     9.3990     0.0280   111.3120     2.4410
 3228.0000   -75.3340     4.9230    12.5730     0.2380     9.3910     0.0290   107.5310     2.4660
 3228.5000   -75.6820     4.5330     8.7050     0.2450     9.3830     0.0340   109.0160     2.4870
 3229.0000   -76.0250     4.1210     9.3690     0.2440     9.3750     0.0390   112.0570     2.4890
 3229.5000   -76.3690     3.6220     7.3180     0.2400     9.3670     0.0400   115.0930     2.4870
 3230.0000   -76.7130     3.1230    10.2300     0.2360     9.3590     0.0420   117.7430     2.4860
 3230.5000   -77.0570     2.7340    16.4140     0.2360     9.3510     0.0450   117.8750     2.4930
 3231.0000   -77.4000     3.3350     8.3590     0.2380     9.3430     0.0480   117.9880     2.4920
 3231.5000   -77.7440     3.9120     8.0140     0.2430     9.3350     0.0490   118.1090     2.4880
 3232.0000   -78.0880     3.4770    14.1690     0.2490     9.3270     0.0480   118.2320     2.4980
 3232.5000   -78.4320     3.0810    10.5580     0.2480     9.3210     0.0470   118.3610     2.5020
 3233.0000   -78.7750     3.7370     8.9480     0.2400     9.3020     0.0460   118.4720     2.4960
