~VERSION INFORMATION
 VERS.                2.0:   CWLS LOG ASCII STANDARD - VERSION 2.0
 WRAP.                 NO:   ONE LINE PER DEPTH STEP
~WELL INFORMATION
#MNEM.UNIT      DATA TYPE    INFORMATION
#----------   ------------   ------------------------------
 STRT.F          620.0000:   START DEPTH
 STOP.F         3209.0000:   STOP DEPTH
 STEP.F            0.5000:   STEP LENGTH
 NULL.          -999.2500:   NO VALUE
 COMP. FENIX & SCISSON - US NAVY:   COMPANY
 WELL.   FENIX "A" #23-33:   WELL
 FLD .             NPR #3:   FIELD
 LOC .      S33 T39N R78W:   LOCATION
 CNTY.            NATRONA:   COUNTY
 STAT.            WYOMING:   STATE
 CTRY. UNITED STATES OF AMERICA:   COUNTRY
 SRVC.              WELEX:   SERVICE COMPANY
 DATE.        26-MAR-1977:   LOGDATE
 API .     49025103250000:   API NUMBER
~CURVE INFORMATION
#MNEM.UNIT       API CODE    CURVE DESCRIPTION
#----------   ------------   ------------------------------
 DEPT.F                  :   
 GRD .GAPI   45 310 01 00:   GAMMA RAY FROM DENSITY LOG
 CALD.IN     45 280 60 00:   CALIPER FROM DENSITY LOG
 CORR.G/C3   45 356 01 00:   DENSITY CORRECTION
 RHOB.G/C3   45 350 01 00:   BULK DENSITY
 SPR .MV     07 010 01 00:   SPONTANEOUS POTENTIAL
 ILD .OHMM   07 120 46 00:   DEEP INDUCTION RESISTIVITY
 ILM .OHMM   07 120 44 00:   INDUCTION LOG MEDIUM RESISTIVITY
 SGRD.OHMM   07 220 05 00:   SHALLOW SHORT GUARD RESISTIVITY
~PARAMETER INFORMATION
#MNEM.UNIT          VALUE    DESCRIPTION
#----------   ------------   ------------------------------
 EKB .F         5183.0000:   Kelly bushing
 EGL .F         5172.0000:   Ground level
 TD  .F         3213.0000:   Total depth
 CLNT.            A2DTECH:   Client Code
 SL  . 900' FWL & 1650' FNL:   Surface Location
 PD  .                 GL:   Permanent Datum
 EPD .F              5172:   Elevation Permanent Datum
 LMF .                 KB:   Log Measured From
 DMF .                 KB:   Drilling Measured From
 DAPD.F                11:   Feet Above Permanent Datum
 DATE.        26-MAR-1977:   Date Logged [DD-MMM-YYYY]
 DD  .F              3210:   Depth driller
 DL  .F              3213:   Depth logger
 BLI .F              3211:   Bottom log interval
 TLI .F               625:   Top log interval
 CS1 .IN            8.625:   Casing size
 CBD1.      8.625" @ 633':   Casing driller 1
 CBL1.F               635:   Casing logger 1
 BS1 .IN            7.875:   Bit size
 BSD1.F              3210:   Depth drilled with bit1
 DFT .            KCL MUD:   Type fluid in hole
 DFD .                9.5:   Density
 DFV .                 34:   Viscosity
 DFPH.                8.5:   pH
 DFL .                 14:   Fluid loss
 MSS .           FLOWLINE:   Source of sample
 RMS .OHMM           0.34:   Rm
 MST .F                86:   Rm Meas. temp.
 RMF .OHMM           0.25:   Rmf
 MFST.F                86:   Rmf Meas. temp.
 MFSS.            FANN KL:   Source Rmf.
 RMC .OHMM           0.55:   Rmc
 MCST.F                86:   Rmc Meas. temp.
 MCSS.            FANN KL:   Source Rmc.
 RMB .OHMM           0.31:   Rm. at BHT
 BHT .F                92:   BHT.
 TCS .HRS             2.5:   Time Circ. stopped
 MRT .F                92:   Maximum recorded temp.
 LUN .               8611:   Logging unit number
 LUL .             CASPER:   Logging unit location
 ENGI.            C. DOAK:   Recorded By
 WITN.            K. JAPP:   Witnessed by
 ORIG.           5" PRINT:   Origin of data
 UWI .     49025103250000:   Unique Well ID
 DICO. A2D TECHNOLOGIES, INC.:   Digitizing Company
~OTHER INFORMATION
~A   DEPT       GRD        CALD      CORR        RHOB      SPR        ILD        ILM       SGRD   
# ...
 3009.5000    86.3379     8.2425     0.0357     2.4910   -44.4957     4.6070     6.8403     8.1020
 3010.0000    85.6092     8.2434     0.0324     2.4843   -44.7791     4.8702     7.0349     8.2211
 3010.5000    85.4707     8.2442     0.0274     2.4784   -45.0626     4.9705     7.1855     8.2272
 3011.0000    86.6740     8.2451     0.0260     2.4754   -45.3460     5.0458     7.2391     8.0082
 3011.5000    88.0224     8.2460     0.0231     2.4755   -45.6121     5.1134     7.2439     7.7950
 3012.0000    89.3745     8.2469     0.0232     2.4800   -45.5941     5.1277     7.2471     7.4831
 3012.5000    90.8927     8.2479     0.0217     2.4868   -45.5796     5.1528     7.2594     7.3344
 3013.0000    92.2625     8.2338     0.0233     2.4928   -45.5652     5.1549     7.3287     7.3400
 3013.5000    93.5678     8.2198     0.0295     2.4981   -45.5508     5.1925     7.4109     7.4077
 3014.0000    94.0261     8.2209     0.0341     2.5004   -45.6872     5.1946     7.4661     7.7058
 3014.5000    93.8875     8.2067     0.0357     2.5018   -45.6692     5.2326     7.4702     7.8857
 3015.0000    93.7556     8.2050     0.0282     2.4862   -45.8027     5.2346     7.5778     8.0017
 3015.5000    93.3236     8.1938     0.0208     2.4810   -45.7879     5.2729     7.6869     7.9508
 3016.0000    92.4465     8.1947     0.0163     2.4908   -45.7732     5.2766     7.7122     7.6872
 3016.5000    90.0857     8.1955     0.0164     2.4975   -45.9060     5.3548     7.8018     7.4309
 3017.0000    87.7250     8.1965     0.0210     2.4975   -45.8910     5.4272     7.9142     7.2331
 3017.5000    88.6283     8.1973     0.0241     2.4983   -45.8772     5.4293     7.9184     7.3918
 3018.0000    90.1251     8.1834     0.0302     2.4999   -46.0100     5.3571     7.9228     7.8331
 3018.5000    89.9899     8.1843     0.0333     2.4999   -45.9920     5.2859     7.9272     8.6820
 3019.0000    89.1128     8.1853     0.0349     2.4999   -45.9776     5.2156     7.9324     9.0574
 3019.5000    90.2572     8.1861     0.0365     2.4992   -46.1140     5.1458     7.8812     8.5752
 3020.0000    91.3074     8.1840     0.0366     2.4813   -46.0972     5.0425     7.7244     7.9517
 3020.5000    91.0223     8.1729     0.0352     2.5158   -46.0816     5.0099     7.5718     7.5808
 3021.0000    89.9954     8.1740     0.0308     2.5225   -46.0671     4.9098     7.4750     7.4502
 3021.5000    88.5233     8.1748     0.0278     2.5091   -46.0527     4.8780     7.3615     7.3334
 3022.0000    87.4964     8.1458     0.0219     2.4790   -46.0383     4.8800     7.2479     7.3390
 3022.5000    86.4695     8.1469     0.0160     2.4763   -46.0236     4.8819     7.1372     7.3746
 3023.0000    85.7393     8.1181     0.0130     2.4861   -45.9842     4.9222     7.2998     7.5056
 3023.5000    85.1574     8.1190     0.0161     2.4943   -45.8441     5.0297     7.5478     7.6689
 3024.0000    84.2769     8.1199     0.0192     2.5011   -45.8297     5.2008     7.7082     7.9452
 3024.5000    83.5290     8.0911     0.0253     2.5048   -45.5207     5.3482     7.8919     8.3463
 3025.0000    82.8185     8.0883     0.0314     2.5063   -45.3590     5.5761     8.0952     8.7677
 3025.5000    82.9814     8.0729     0.0345     2.5034   -45.1973     5.7341     8.2462     9.1467
 3026.0000    84.1800     8.0641     0.0361     2.4975   -44.9141     5.9374     8.4428     9.5422
 3026.5000    85.5270     8.0353     0.0317     2.4863   -44.5794     6.1057     8.6230    10.0376
 3027.0000    86.7256     8.0362     0.0273     2.4766   -44.2704     6.2788     8.8739    10.4592
 3027.5000    87.9242     8.0221     0.0228     2.4677   -43.9614     6.4567     9.1183    10.5397
 3028.0000    88.9744     8.0082     0.0229     2.5073   -43.5052     6.6397     9.3764    10.6209
 3028.5000    90.3213     7.9944     0.0291     2.5111   -43.3308     6.7811     9.4449    10.6288
 3029.0000    91.3716     7.9802     0.0321     2.5080   -43.0339     6.7838     9.5796    10.5632
 3029.5000    92.5702     7.9813     0.0352     2.5067   -43.0164     6.6870     9.6493    10.2820
 3030.0000    93.3236     7.9822     0.0338     2.5226   -43.0044     6.6052     9.6535    10.2474
 3030.5000    92.7359     7.9832     0.0354     2.5284   -42.9897     6.5168     9.6573    11.5048
 3031.0000    90.5987     7.9691     0.0355     2.5217   -42.9732     6.4308     9.6612    11.6743
 3031.5000    87.7725     7.9552     0.0356     2.5128   -42.9587     6.3011     9.4587    11.5218
 3032.0000    85.5096     7.9562     0.0342     2.5009   -42.9443     6.2603     8.9038     9.9705
 3032.5000    84.3343     7.9421     0.0282     2.4950   -42.9299     6.1777     8.9689     8.2752
 3033.0000    83.8980     7.9280     0.0238     2.5010   -42.9154     6.1371     9.6114     8.9373
 3033.5000    84.3576     7.9291     0.0269     2.5047   -42.9010     6.1401     9.8157    10.2027
 3034.0000    84.6660     7.9300     0.0315     2.4996   -42.7393     6.1425     9.8196    10.7178
 3034.5000    84.3809     7.9309     0.0331     2.4952   -42.2705     6.2302     9.6894    10.5781
 3035.0000    82.4638     7.9169     0.0362     2.4990   -41.6789     6.3191     9.7602    10.1514
 3035.5000    78.6179     7.9029     0.0393     2.5027   -41.2197     6.5018    10.2590    10.0921
 3036.0000    75.0687     7.8744     0.0424     2.5072   -40.7634     6.6969    11.0923    10.5303
 3036.5000    70.3326     7.8453     0.0440     2.4953   -40.1599     7.1625    12.1792    11.2944
 3037.0000    65.3825     7.7871     0.0426     2.4804   -39.4091     7.6763    13.1417    12.1981
 3037.5000    59.7133     7.7581     0.0411     2.4580   -37.6274     8.3411    14.3768    13.4509
 3038.0000    54.6424     7.7147     0.0442     2.4603   -35.6984     9.1262    15.9458    16.6869
 3038.5000    48.2743     7.6710     0.0488     2.4924   -33.9166    10.0542    16.8546    22.0365
 3039.0000    45.0218     7.6274     0.0521     2.5380   -32.2822    11.2301    16.8613    27.3380
 3039.5000    43.8436     7.5837     0.0612     2.5605   -31.2368    12.3720    16.5236    28.9126
 3040.0000    46.6771     7.5547     0.0708     2.5549   -30.0442    14.3034    17.8460    21.4777
 3040.5000    48.7659     7.4965     0.0869     2.4926   -29.2808    16.8816    19.3733   133.9674
 3041.0000    49.8162     7.4677     0.0872     2.4598   -28.6646    18.5981    22.5476   268.1016
 3041.5000    48.7805     7.4537     0.0827     2.4270   -28.0827    19.9351    25.0082   240.1400
 3042.0000    47.5829     7.4546     0.0643     2.3882   -27.6265    20.9515    26.2524   123.5513
 3042.5000    46.5870     7.4407     0.0558     2.4659   -27.0229    21.5188    26.9956    48.8493
 3043.0000    47.9369     7.4565     0.0650     2.4846   -26.7140    21.3791    26.6374    32.7049
 3043.5000    49.4322     7.4573     0.0697     2.5062   -26.4050    21.3897    25.9249    36.0854
 3044.0000    50.9275     7.4551     0.0699     2.5092   -26.3906    21.5460    24.8867   173.9982
 3044.5000    52.7196     7.4441     0.0670     2.4511   -26.3761    22.0046    23.7125   254.9610
 3045.0000    54.2149     7.4452     0.0656     2.4332   -26.6562    22.3187    23.2534    91.5016
 3045.5000    54.3720     7.4609     0.0627     2.4288   -26.7894    22.1734    22.4763    33.2906
 3046.0000    54.2353     7.4617     0.0659     2.4206   -26.9219    19.3100    21.1355    23.3962
 3046.5000    55.7335     7.4627     0.0683     2.4094   -26.9072    18.1420    19.6032    21.1018
 3047.0000    57.5256     7.4635     0.0692     2.3953   -26.7452    17.3255    18.3075    19.5675
 3047.5000    59.7628     7.4714     0.0694     2.4065   -26.4332    16.7438    17.4539    18.9148
 3048.0000    63.1869     7.4801     0.0650     2.4425   -26.2715    16.2968    16.9868    20.2990
 3048.5000    60.1700     7.4810     0.0636     2.4484   -26.2571    16.1913    16.8773    21.2108
 3049.0000    57.9114     7.4819     0.0638     2.4327   -26.2427    16.0849    16.8843    22.3918
 3049.5000    54.9161     7.4978     0.0655     2.4186   -26.2282    16.0928    17.0092    28.7582
