~VERSION INFORMATION
 VERS.                2.0:   CWLS LOG ASCII STANDARD - VERSION 2.0
 WRAP.                 NO:   ONE LINE PER DEPTH STEP
~WELL INFORMATION
#MNEM.UNIT      DATA TYPE    INFORMATION
#----------   ------------   ------------------------------
 STRT.F          728.0000:   START DEPTH
 STOP.F         3296.0000:   STOP DEPTH
 STEP.F            0.5000:   STEP LENGTH
 NULL.          -999.2500:   NO VALUE
 COMP.    FENIX & SCISSON:   COMPANY
 WELL. FENIX TX "AX" #55-34:   WELL
 FLD . N. P. R. - WILDCAT:   FIELD
 LOC .      S34 T39N R78W:   LOCATION
 CNTY.            NATRONA:   COUNTY
 STAT.            WYOMING:   STATE
 CTRY. UNITED STATES OF AMERICA:   COUNTRY
 SRVC.       SCHLUMBERGER:   SERVICE COMPANY
 DATE.        22-JUL-1981:   LOGDATE
 API .     49025108770000:   API NUMBER
~CURVE INFORMATION
#MNEM.UNIT       API CODE    CURVE DESCRIPTION
#----------   ------------   ------------------------------
 DEPT.F                  :   
 TENS.LBS    60 635 01 00:   TENSION FROM SONIC LOG
 DT  .US/F   60 520 00 00:   DELTA TIME
 RHOB.G/C3   45 350 01 00:   BULK DENSITY
 TEND.LBS    45 635 01 00:   TENSION FROM DENSITY LOG
 CORR.G/C3   45 356 01 00:   DENSITY CORRECTION
 CALD.IN     45 280 60 00:   CALIPER FROM DENSITY LOG
 NPHI.DEC    42 890 03 00:   NEUTRON POROSITY SANDSTONE
 TENR.LBS    07 635 01 00:   TENSION FROM RESISTIVITY
 SPR .MV     07 010 01 00:   SPONTANEOUS POTENTIAL
 GRR .GAPI   07 310 01 00:   GAMMA RAY FROM RESISTIVITY
 SFL .OHMM   07 220 01 00:   SHALLOW FOCUSED LOG RESISTIVITY
 ILM .OHMM   07 120 44 00:   INDUCTION LOG MEDIUM RESISTIVITY
 ILD .OHMM   07 120 46 00:   DEEP INDUCTION RESISTIVITY
~PARAMETER INFORMATION
#MNEM.UNIT          VALUE    DESCRIPTION
#----------   ------------   ------------------------------
 EKB .F         5092.0000:   Kelly bushing
 EGL .F         5082.0000:   Ground level
 EDF .F            0.0000:   Drilling floor
 TD  .F         3170.0000:   Total depth
 DATE.        22-JUL-1981:   Date logged
 CLNT.            A2DTECH:   Client Code
 SL  . 2012' FSL & 2774' FWL:   Surface Location
 PD  .                 GL:   Permanent Datum
 EPD .F              5082:   Elevation Permanent Datum
 LMF .                 KB:   Log Measured From
 DMF .                 KB:   Drilling Measured From
 DAPD.F                10:   Feet Above Permanent Datum
 DD  .F              3170:   Depth driller
 DL  .F              3110:   Depth logger
 BLI .F              3104:   Bottom log interval
 TLI .F               753:   Top log interval
 CS1 .IN            9.625:   Casing size
 CBD1.      9.625" @ 751':   Casing driller 1
 CBL1.F               753:   Casing logger 1
 BS1 .IN            7.875:   Bit size
 BSD1.F              3170:   Depth drilled with bit1
 DFT .                FGM:   Type fluid in hole
 DFD .                  9:   Density
 DFV .                  9:   Viscosity
 DFPH.                9.8:   pH
 DFL .                8.6:   Fluid loss
 MSS .           MUD/TANK:   Source of sample
 RMS .OHMM           1.72:   Rm
 MST .F                72:   Rm Meas. temp.
 RMF .OHMM           1.17:   Rmf
 MFST.F                70:   Rmf Meas. temp.
 MFSS.               MEAS:   Source Rmf.
 RMB .OHMM           0.90:   Rm. at BHT
 BHT .F               144:   BHT.
 TCS .HRS            1215:   Time Circ. stopped
 TLAB.HRS            0400:   Time logger at bottom
 MRT .F               144:   Maximum recorded temp.
 LUN .               8035:   Logging unit number
 LUL .               CSPR:   Logging unit location
 ENGI.            PURPICH:   Recorded By
 WITN.           R. SCOTT:   Witnessed by
 ORIG.           5" PRINT:   Origin of data
 UWI .     49025108770000:   Unique Well ID
 DICO. A2D TECHNOLOGIES, INC.:   Digitizing Company
~OTHER INFORMATION
~A   DEPT     TENS         DT         RHOB      TEND      CORR       CALD         NPHI     TENR        SPR         GRR       SFL        ILM        ILD   
# ...
 2132.0000  1650.0680    91.2110     2.5060  1072.8740     0.0070     7.5860     0.3480   636.5980   -49.9980   154.7640    10.1000     7.6710     8.0270
 2132.5000  1547.4320    91.3250     2.5150  1072.8740     0.0100     7.5840     0.3580   636.6670   -49.9870   155.1370    10.1970     7.7650     8.0910
 2133.0000  1562.1801    91.4100     2.5240  1072.8740     0.0150     7.5830     0.3530   636.7360   -50.1420   155.5160    10.2930     7.8100     8.1770
 2133.5000  1656.5291    91.2750     2.5330  1072.8740     0.0200     7.5810     0.3470   636.8040   -49.7720   156.2040    10.4070     7.8820     8.2520
 2134.0000  1681.7720    90.9720     2.5300  1072.8740     0.0250     7.5790     0.3420   636.8730   -49.3970   157.4840    10.4750     7.8870     8.2520
 2134.5000  1626.1370    90.9060     2.5220  1072.8740     0.0210     7.5780     0.3400   636.9410   -49.0200   158.7750    10.3990     7.9010     8.2660
 2135.0000  1568.9830    90.9510     2.5150  1072.8740     0.0160     7.5760     0.3380   637.0100   -48.6430   157.4700    10.3330     7.9150     8.2810
 2135.5000  1540.7850    91.0070     2.5100  1072.8740     0.0110     7.5740     0.3460   637.0780   -48.2700   155.8990    10.2670     7.9300     8.2960
 2136.0000  1573.0840    90.9060     2.5070  1072.8740     0.0050     7.5730     0.3570   637.1470   -48.0460   155.0480    10.2010     7.9440     8.3110
 2136.5000  1630.9800    90.6760     2.5080  1072.8740     0.0050     7.5710     0.3670   637.2160   -48.2290   155.2650    10.1350     7.9580     8.3260
 2137.0000  1655.6700    90.4640     2.5100  1072.8740     0.0150     7.5690     0.3590   637.2840   -48.4910   154.4800    10.0450     7.9720     8.3410
 2137.5000  1634.4410    90.2010     2.5140  1072.8740     0.0230     7.5680     0.3340   637.3530   -48.7580   152.8200    10.0050     7.9860     8.3550
 2138.0000  1601.2080    90.2010     2.5170  1072.8740     0.0260     7.5660     0.3340   637.4210   -49.0240   152.0080    10.0050     8.0000     8.3700
 2138.5000  1601.2080    90.3930     2.5210  1072.8740     0.0240     7.5640     0.3380   637.4900   -49.2900   152.3770    10.0050     8.0150     8.3850
 2139.0000  1601.2080    90.6990     2.5180  1072.8740     0.0190     7.5630     0.3430   637.5580   -49.4140   152.0810    10.1220     8.0280     8.4000
 2139.5000  1601.2080    91.0050     2.5110  1072.8740     0.0160     7.5610     0.3470   637.6270   -49.4520   150.3680    10.1800     8.0280     8.4050
 2140.0000  1601.2080    91.3110     2.5090  1072.8740     0.0110     7.5600     0.3520   637.6960   -49.4900   148.6590    10.2370     8.0280     8.4050
 2140.5000  1601.2080    91.6170     2.5090  1072.8740     0.0110     7.5580     0.3540   637.7640   -49.5280   146.8380    10.2850     8.0280     8.4050
 2141.0000  1601.2080    91.5110     2.5090  1072.8740     0.0100     7.5560     0.3500   637.8330   -49.5660   147.8420    10.2850     8.0290     8.4050
 2141.5000  1601.2080    91.3790     2.5050  1072.8740     0.0090     7.5550     0.3380   637.9010   -49.6050   149.1540    10.2850     8.0280     8.4060
 2142.0000  1601.2080    91.2370     2.5000  1072.8740     0.0080     7.5530     0.3260   637.9700   -49.6110   150.4340    10.1930     7.9730     8.4050
 2142.5000  1601.2080    91.1080     2.4940  1072.8740     0.0080     7.5510     0.3260   638.0380   -49.5830   151.8570    10.1090     7.7970     8.2330
 2143.0000  1581.4301    90.9060     2.4930  1072.8740     0.0070     7.5500     0.3260   638.1070   -49.3450   158.3860    10.0250     7.6210     8.0490
 2143.5000  1584.0840    90.9420     2.5020  1072.8740     0.0150     7.5480     0.3230   638.1760   -49.1050   165.5330     9.9400     7.4460     7.8650
 2144.0000  1586.7371    91.1310     2.5090  1072.8740     0.0240     7.5460     0.3190   638.2440   -48.8650   172.1300     9.6010     7.3240     7.6680
 2144.5000  1589.3910    91.3210     2.5200  1072.8740     0.0330     7.5460     0.3250   638.3130   -48.6260   178.4060     8.9750     7.3240     7.6680
 2145.0000  1592.0439    91.4100     2.5150  1072.8740     0.0260     7.5460     0.3380   638.3810   -48.3870   172.6540     8.7190     7.4440     7.7390
 2145.5000  1594.6980    91.3430     2.5070  1072.8740     0.0190     7.5460     0.3350   638.4500   -48.2150   165.1180     9.3370     7.5720     7.8760
 2146.0000  1597.3510    91.0110     2.5000  1072.8740     0.0110     7.5460     0.3370   638.5180   -48.1420   160.0720     9.9440     7.7010     8.0110
 2146.5000  1600.0050    90.6790     2.4930  1072.8740     0.0040     7.5460     0.3400   638.5870   -48.0690   155.1630    10.5720     7.8300     8.1460
 2147.0000  1568.0620    90.3440     2.4950  1072.8740     0.0010     7.5460     0.3440   638.6560   -47.9950   153.7920    10.6690     7.9590     8.2810
 2147.5000  1520.6450    90.0000     2.5020  1072.8740     0.0030     7.5460     0.3380   638.7240   -47.9210   153.9420    10.4770     8.0870     8.4160
 2148.0000  1514.2800    89.9740     2.5100  1072.8740     0.0070     7.5460     0.3300   638.7930   -47.8630   154.0430    10.3790     8.2160     8.5500
 2148.5000  1535.5090    90.2520     2.5100  1072.8740     0.0120     7.5460     0.3200   638.8610   -48.0030   154.1570    10.3790     8.3280     8.6870
 2149.0000  1535.2610    90.5310     2.5080  1072.8740     0.0150     7.5460     0.3240   638.9300   -48.1410   153.2020    10.4850     8.4050     8.7990
 2149.5000  1504.9351    90.8090     2.5070  1072.8740     0.0120     7.5460     0.3320   638.9980   -48.2540   150.8880    10.6230     8.4050     8.7990
 2150.0000  1505.4630    91.0870     2.5050  1072.8740     0.0110     7.5460     0.3380   639.0670   -48.2830   147.6830    10.6690     8.4050     8.7990
 2150.5000  1558.3750    91.3650     2.5040  1072.8740     0.0170     7.5460     0.3330   639.1360   -48.3140   144.5270    10.4490     8.4050     8.7990
 2151.0000  1601.2080    91.6430     2.4990  1072.8740     0.0180     7.5460     0.3220   639.2040   -48.3440   142.6780    10.2610     8.3590     8.7840
 2151.5000  1628.3210    91.9210     2.4920  1072.8740     0.0130     7.5460     0.3150   639.2730   -48.3740   143.3010    10.0720     8.2780     8.6990
 2152.0000  1644.5890    91.9080     2.4870  1072.8740     0.0100     7.5460     0.3210   639.3410   -48.4050   143.8470     9.8840     8.1970     8.6150
 2152.5000  1660.8571    91.7500     2.4910  1072.8740     0.0070     7.5460     0.3290   639.4100   -48.4350   145.9330     9.6950     8.1160     8.5300
 2153.0000  1677.1240    91.7120     2.4940  1072.8740     0.0050     7.5460     0.3370   639.4780   -48.4660   148.5840     9.6450     8.0350     8.4450
 2153.5000  1693.3920    91.9330     2.4950  1072.8740     0.0060     7.5460     0.3390   639.5470   -48.4960   151.2730     9.7610     7.9550     8.3600
 2154.0000  1701.9130    92.2130     2.4950  1072.8740     0.0090     7.5460     0.3350   639.6160   -48.5260   153.9660     9.8080     7.8710     8.2740
 2154.5000  1627.4640    92.4920     2.4950  1072.8740     0.0150     7.5460     0.3300   639.6840   -48.5570   155.3500     9.8230     7.7880     8.1870
 2155.0000  1559.4880    92.7720     2.5030  1072.8740     0.0190     7.5460     0.3260   639.7530   -48.5870   152.1130     9.6290     7.7050     8.1000
 2155.5000  1520.6450    93.0520     2.5070  1072.8740     0.0220     7.5460     0.3280   639.8210   -48.6170   148.5880     9.4250     7.6220     8.0130
 2156.0000  1603.7260    93.3320     2.5070  1072.8740     0.0190     7.5460     0.3310   639.8900   -48.6280   145.8030     9.3830     7.5390     7.9260
 2156.5000  1648.4139    93.6250     2.5010  1072.8740     0.0150     7.5460     0.3330   639.9580   -48.5890   145.6640     9.9140     7.4560     7.8390
 2157.0000  1555.8910    93.8270     2.4890  1072.8740     0.0110     7.5460     0.3310   640.0270   -48.5500   149.4180     9.8030     7.3730     7.7520
 2157.5000  1543.3030    93.7260     2.4820  1072.8740     0.0070     7.5460     0.3280   640.0960   -48.5120   153.0650     9.6410     7.2900     7.6650
