~VERSION INFORMATION
 VERS.                2.0:   CWLS LOG ASCII STANDARD - VERSION 2.0
 WRAP.                 NO:   ONE LINE PER DEPTH STEP
~WELL INFORMATION
#MNEM.UNIT      DATA TYPE    INFORMATION
#----------   ------------   ------------------------------
 STRT.F          196.5000:   START DEPTH
 STOP.F         3219.0000:   STOP DEPTH
 STEP.F            0.5000:   STEP LENGTH
 NULL.          -999.2500:   NO VALUE
 COMP.    FENIX & SCISSON:   COMPANY
 WELL.  FENIX "AX" #73-15:   WELL
 FLD .              NPR 3:   FIELD
 LOC .      S15 T38N R78W:   LOCATION
 CNTY.            NATRONA:   COUNTY
 STAT.            WYOMING:   STATE
 CTRY. UNITED STATES OF AMERICA:   COUNTRY
 SRVC.       SCHLUMBERGER:   SERVICE COMPANY
 DATE.        30-AUG-1977:   LOGDATE
 API .     49025104270000:   API NUMBER
~CURVE INFORMATION
#MNEM.UNIT       API CODE    CURVE DESCRIPTION
#----------   ------------   ------------------------------
 DEPT.F                  :   
 NPHI.DEC    42 890 03 00:   NEUTRON POROSITY SANDSTONE
 CALD.IN     45 280 60 00:   CALIPER FROM DENSITY LOG
 GRD .GAPI   45 310 01 00:   GAMMA RAY FROM DENSITY LOG
 CORR.G/C3   45 356 01 00:   DENSITY CORRECTION
 RHOB.G/C3   45 350 01 00:   BULK DENSITY
 SPR .MV     07 010 01 00:   SPONTANEOUS POTENTIAL
 RILD.OHMM   07 120 46 00:   DEEP INDUCTION RESISTIVITY
 RILM.OHMM   07 120 44 00:   INDUCTION LOG MEDIUM RESISTIVITY
 LL8 .OHMM   07 220 08 00:   LATEROLOG-8 RES.
~PARAMETER INFORMATION
#MNEM.UNIT          VALUE    DESCRIPTION
#----------   ------------   ------------------------------
 EKB .F         5263.0000:   Kelly bushing
 EGL .F         5253.0000:   Ground level
 TD  .F         3220.0000:   Total depth
 CLNT.            A2DTECH:   Client Code
 SL  . 1650' FNL & 875' FEL:   Surface Location
 PD  .                 GL:   Permanent Datum
 EPD .F              5253:   Elevation Permanent Datum
 LMF .                 KB:   Log Measured From
 DMF .                 KB:   Drilling Measured From
 DAPD.F                10:   Feet Above Permanent Datum
 DATE.        30-AUG-1977:   Date Logged [DD-MMM-YYYY]
 DD  .F              3220:   Depth driller
 DL  .F              3219:   Depth logger
 BLI .F              3209:   Bottom log interval
 TLI .F               216:   Top log interval
 CS1 .IN            8.625:   Casing size
 CBL1.F               216:   Casing logger 1
 BS1 .IN            7.875:   Bit size
 BSD1.F              3220:   Depth drilled with bit1
 DFT .                FGM:   Type fluid in hole
 DFD .                8.9:   Density
 DFPH.                 11:   pH
 MSS .            MUDTANK:   Source of sample
 RMS .OHMM           0.40:   Rm
 MST .F                82:   Rm Meas. temp.
 RMF .OHMM           0.25:   Rmf
 MFST.F                72:   Rmf Meas. temp.
 MFSS.               MEAS:   Source Rmf.
 RMC .OHMM           0.60:   Rmc
 MCST.F                82:   Rmc Meas. temp.
 MCSS.               CALC:   Source Rmc.
 RMB .OHMM           0.27:   Rm. at BHT
 BHT .F               120:   BHT.
 MRT .F               120:   Maximum recorded temp.
 LUN .               5642:   Logging unit number
 LUL .               CSPR:   Logging unit location
 ENGI.                FIX:   Recorded By
 WITN.         RETTINGILL:   Witnessed by
 ORIG.           5" PRINT:   Origin of data
 UWI .     49025104270000:   Unique Well ID
 DICO. A2D TECHNOLOGIES, INC.:   Digitizing Company
 DFV .                 35:   Viscosity
 DFL .                8.4:   Fluid loss
 CBD1.      8.625" @ 216':   Casing driller 1
~OTHER INFORMATION
~A   DEPT       NPHI     CALD        GRD       CORR       RHOB        SPR       RILD       RILM        LL8   
# ...
 1583.5000     0.2960    10.8443    90.3384     0.0381     2.5606   -75.7770     7.6891     7.9407     8.6228
 1584.0000     0.3182    10.8461    90.8070     0.0285     2.5562   -75.9092     7.6403     7.8917     8.2753
 1584.5000     0.3268    10.8479    90.8291     0.0488     2.5525   -76.0408     7.6455     7.7878     7.9971
 1585.0000     0.3292    10.8496    91.0744     0.0376     2.5488   -76.0212     7.6497     7.7926     7.8361
 1585.5000     0.3229    10.8514    90.8733     0.0272     2.5286   -76.1530     7.6539     7.7434     8.0074
 1586.0000     0.3174    10.8680    89.1096     0.0168     2.5234   -76.1331     7.7112     7.7483     8.3005
 1586.5000     0.3093    10.8847    86.0067     0.0124     2.5182   -75.9622     7.7154     7.7531     8.5286
 1587.0000     0.2880    10.9014    82.4574     0.0419     2.5153   -75.9425     7.8273     7.8130     8.6528
 1587.5000     0.2991    10.9180    80.0242     0.0623     2.5319   -75.9190     7.8310     7.8203     8.7172
 1588.0000     0.3176    10.9039    81.3856     0.0711     2.5380   -75.9032     7.8358     7.8772     8.6600
 1588.5000     0.3254    10.8917    83.8630     0.0259     2.5058   -75.7336     7.8401     7.8813     8.5459
 1589.0000     0.3237    10.8939    86.3405     0.0473     2.5074   -75.8654     7.8989     7.8862     8.4312
 1589.5000     0.3184    10.8957    89.7108     0.0414     2.5233   -75.8411     7.9029     7.8911     8.3190
 1590.0000     0.3070    10.8975    94.1972     0.0587     2.5427   -75.7907     7.9075     7.9517     8.6777
 1590.5000     0.2946    10.8992    93.3264     0.0408     2.5324   -75.9262     7.8571     7.9566     8.8644
 1591.0000     0.2934    10.9010    90.4467     0.0416     2.5242   -75.7486     7.8074     7.9615     9.0551
 1591.5000     0.3059    10.9027    87.3438     0.0500     2.5319   -75.7275     7.7577     7.9112     9.1859
 1592.0000     0.3197    10.8892    83.7649     0.0163     2.5393   -75.7064     7.7084     7.8613     8.6943
 1592.5000     0.3239    10.9063    81.3317     0.0119     2.5197   -75.6853     7.6340     7.8115     8.2290
 1593.0000     0.3213    10.9080    82.3243     0.0165     2.5169   -75.6643     7.5584     7.7623     8.4060
 1593.5000     0.3072    10.9247    83.6712     0.0225     2.5096   -75.6432     7.5626     7.7134     8.7068
 1594.0000     0.2947    10.9264    83.3959     0.0106     2.4946   -75.6221     7.5668     7.7182     8.8941
 1594.5000     0.2898    10.9133    82.3425     0.0137     2.5052   -75.6010     7.5710     7.7769     8.9631
 1595.0000     0.2846    10.9001    83.2630     0.0228     2.5098   -75.5799     7.6286     7.8360     9.0962
 1595.5000     0.2805    10.8870    85.9637     0.0214     2.5016   -75.5585     7.6858     7.9505     9.2956
 1596.0000     0.2898    10.8888    87.5483     0.0155     2.5032   -75.5371     7.7972     8.0678     9.7531
 1596.5000     0.3021    10.9208    88.0168     0.0335     2.5235   -75.5114     7.8014     8.1290     9.8257
 1597.0000     0.3249    10.9225    86.9228     0.0313     2.5191   -75.3391     7.8599     8.1992     9.5614
 1597.5000     0.3215    10.9243    82.9271     0.0307     2.5169   -75.1667     7.8642     8.3104     9.2400
 1598.0000     0.3082    10.8664    81.1634     0.0426     2.5298   -75.1456     7.9231     8.3148     8.7454
 1598.5000     0.2968    10.8379    80.5104     0.0608     2.5406   -75.1245     7.9825     8.3787     8.2774
 1599.0000     0.2980    10.8099    84.1094     0.0490     2.5347   -75.1034     8.0423     8.6310     8.5143
 1599.5000     0.2967    10.8270    87.0333     0.0400     2.5303   -75.0824     8.1589     8.6964     8.7580
 1600.0000     0.3027    10.8283    89.0643     0.0596     2.5634   -75.0613     8.2200     8.7623     8.8846
 1600.5000     0.3195    10.8204    89.5329     0.0387     2.5538   -75.0402     8.2817     8.7677     8.7654
 1601.0000     0.3237    10.8170    90.4478     0.0311     2.5501   -75.0191     8.3437     8.7728     8.2390
 1601.5000     0.3221    10.8192    91.5860     0.0358     2.5517   -74.9980     8.4182     8.8395     8.5926
 1602.0000     0.3191    10.8210    91.3849     0.0412     2.5555   -74.9770     8.4500     8.8449     9.1497
 1602.5000     0.3178    10.8227    85.3802     0.0517     2.5841   -74.9559     8.4819     8.8504     9.5424
 1603.0000     0.2977    10.8245    81.6077     0.0496     2.6015   -74.9344     8.5137     8.8559     9.8149
 1603.5000     0.2929    10.8263    79.1744     0.0301     2.5723   -74.9130     8.5514     8.8170     9.6836
 1604.0000     0.2895    10.8281    79.6429     0.0085     2.5132   -74.8874     8.4982     8.8054     8.9760
 1604.5000     0.2934    10.8298    81.4568     0.0153     2.5117   -74.8663     8.5040     8.7499     8.9153
 1605.0000     0.3059    10.8316    83.1105     0.0184     2.5171   -74.8452     8.4496     8.6346     9.0459
 1605.5000     0.3223    10.8334    87.4180     0.0289     2.5277   -74.8241     8.3971     8.4633     8.9249
 1606.0000     0.3248    10.8352    90.7679     0.0153     2.5165   -74.8030     8.3448     8.2929     8.8056
 1606.5000     0.3257    10.8221    92.7009     0.0171     2.5272   -74.7820     8.1803     8.1836     9.1209
 1607.0000     0.3293    10.8238    91.8346     0.0195     2.5295   -74.7609     8.1292     8.0771     9.3165
 1607.5000     0.3400    10.8107    90.7407     0.0347     2.5386   -74.7398     8.0787     7.9707     9.3852
 1608.0000     0.3475    10.8125    91.4324     0.0246     2.5350   -74.7187     8.0285     7.9203     8.8209
 1608.5000     0.3544    10.8143    91.9009     0.0234     2.5238   -74.6976     8.0341     7.8705     8.7626
 1609.0000     0.3384    10.8161    88.1284     0.0302     2.5261   -74.6766     8.0397     7.9302     8.7671
 1609.5000     0.3234    10.8179    81.3001     0.0370     2.5405   -74.8071     8.0462     7.9904     8.8317
 1610.0000     0.3197    10.8349    76.7868     0.0446     2.5544   -74.7857     8.0517     8.0510     8.8968
 1610.5000     0.3212    10.8367    78.1482     0.0327     2.5512   -74.7542     8.0828     8.2264     8.9624
 1611.0000     0.3227    10.8534    79.5096     0.0275     2.5513   -74.5915     8.1186     8.4045     9.0913
 1611.5000     0.3235    10.8552    80.4245     0.0321     2.5551   -74.5659     8.1805     8.4673     9.2862
 1612.0000     0.3244    10.8569    77.5449     0.0157     2.5252   -74.7014     8.1861     8.5323     9.4854
 1612.5000     0.3256    10.8587    77.7902     0.0210     2.5423   -74.8316     8.2482     8.5970     9.6219
 1613.0000     0.3259    10.8754    80.5087     0.0301     2.5626   -74.8052     8.3112     8.6621     8.9618
 1613.5000     0.3237    10.8921    82.5402     0.0361     2.5705   -74.7841     8.3748     8.6767     8.7386
 1614.0000     0.3207    10.8939    83.2143     0.0407     2.5451   -74.9196     8.4193     8.7327     8.9269
 1614.5000     0.3203    10.8956    83.4955     0.0280     2.5347   -74.8932     8.4445     8.7382     8.9305
 1615.0000     0.3239    10.8974    85.0491     0.0261     2.5318   -74.8722     8.4504     8.6832     8.8715
 1615.5000     0.3287    10.8992    86.8569     0.0350     2.5311   -74.8511     8.4562     8.5690     9.0627
 1616.0000     0.3284    10.9010    90.0040     0.0230     2.5478   -74.8311     8.4630     8.5143     9.6503
 1616.5000     0.3229    10.9027    90.6957     0.0306     2.5508   -74.8089     8.4104     8.3399     9.2608
 1617.0000     0.3175    10.9043    91.8339     0.0261     2.5247   -74.7878     8.3566     8.2922     8.8870
 1617.5000     0.3075    10.9061    93.8649     0.0274     2.5203   -74.7668     8.3637     8.2976     8.7672
 1618.0000     0.2805    10.9081    94.5511     0.0383     2.5286   -74.7453     8.3689     8.3036     9.1444
 1618.5000     0.2868    10.9097    87.8823     0.0279     2.5055   -74.7239     8.3173     8.4240     9.4710
 1619.0000     0.2904    10.9116    89.6902     0.0400     2.5116   -74.6982     8.3229     8.5477     9.8774
 1619.5000     0.2964    10.9283    93.2837     0.0408     2.5147   -74.6772     8.3286     8.6125     9.8089
