~VERSION INFORMATION
 VERS.                2.0:   CWLS LOG ASCII STANDARD - VERSION 2.0
 WRAP.                 NO:   ONE LINE PER DEPTH STEP
~WELL INFORMATION
#MNEM.UNIT      DATA TYPE    INFORMATION
#----------   ------------   ------------------------------
 STRT.F          634.0000:   START DEPTH
 STOP.F         3464.0000:   STOP DEPTH
 STEP.F            0.5000:   STEP LENGTH
 NULL.          -999.2500:   NO VALUE
 COMP. LAWRENCE-ALLISON & ASSOCIATES W:   COMPANY
 WELL. LAWRENCE "TX" #44-27:   WELL
 FLD .   NAVAL RESERVE #3:   FIELD
 LOC .      S27 T39N R78W:   LOCATION
 CNTY.            NATRONA:   COUNTY
 STAT.            WYOMING:   STATE
 CTRY. UNITED STATES OF AMERICA:   COUNTRY
 SRVC.       SCHLUMBERGER:   SERVICE COMPANY
 DATE.        13-MAR-1982:   LOGDATE
 API .     49025108870000:   API NUMBER
~CURVE INFORMATION
#MNEM.UNIT       API CODE    CURVE DESCRIPTION
#----------   ------------   ------------------------------
 DEPT.F                  :   
 TENR.LBS    07 635 01 00:   TENSION FROM RESISTIVITY
 ILD .OHMM   07 120 46 00:   DEEP INDUCTION RESISTIVITY
 ILM .OHMM   07 120 44 00:   INDUCTION LOG MEDIUM RESISTIVITY
 SFLU.OHMM   07 220 01 00:   SPHERICALLY FOCUSED LOG UNAVERAGED RESISTIVITY
 SPR .MV     07 010 01 00:   SPONTANEOUS POTENTIAL
 TENN.LBS    42 635 01 00:   TENSION FROM COMPENSATE NEUTRON
 CALD.IN     45 280 60 00:   CALIPER FROM DENSITY LOG
 GRD .GAPI   45 310 01 00:   GAMMA RAY FROM DENSITY LOG
 RHOB.G/C3   45 350 01 00:   BULK DENSITY
 DRHO.G/C3   45 356 01 00:   DENSITY CORRECTION
 NPHI.DEC    42 890 03 00:   NEUTRON POROSITY SANDSTONE
~PARAMETER INFORMATION
#MNEM.UNIT          VALUE    DESCRIPTION
#----------   ------------   ------------------------------
 EKB .F         5049.0000:   Kelly bushing
 EGL .F         5039.0000:   Ground level
 EDF .F            0.0000:   Drilling floor
 EPD .F            0.0000:   Permanent datum
 TD  .F         3440.0000:   Total depth
 DATE.        13-MAR-1982:   Date logged
 CLNT.            A2DTECH:   Client Code
 PD  .                 GL:   Permanent Datum
 DD  .F              3440:   Depth driller
 DL  .F              3439:   Depth logger
 BLI .F              3433:   Bottom log interval
 CS1 .IN            9.625:   Casing size
 CBD1.      9.625" @ 650':   Casing driller 1
 CBL1.F               647:   Casing logger 1
 BS1 .IN            7.875:   Bit size
 DFT .                GEL:   Type fluid in hole
 DFD .                9.3:   Density
 DFV .                 48:   Viscosity
 DFPH.                 10:   pH
 DFL .                  8:   Fluid loss
 MSS .                PIT:   Source of sample
 RMS .OHMM           1.82:   Rm
 MST .F                67:   Rm Meas. temp.
 RMF .OHMM           1.32:   Rmf
 MFST.F                67:   Rmf Meas. temp.
 MFSS.               MEAS:   Source Rmf.
 RMB .OHMM           1.09:   Rm. at BHT
 BHT .F               112:   BHT.
 TCS .HRS            1300:   Time Circ. stopped
 MRT .F               112:   Maximum recorded temp.
 LUN .               8039:   Logging unit number
 LUL .               CSPR:   Logging unit location
 ENGI.   WAGNER/CONOSENTI:   Recorded By
 WITN.           JENNINGS:   Witnessed by
 ORIG.           5" PRINT:   Origin of data
 UWI .     49025108870000:   Unique Well ID
 DICO. A2D TECHNOLOGIES, INC.:   Digitizing Company
 DAPD.                 10:   Feet Above Permanent Datum
 BSD1.F              3440:   Depth drilled with bit1
 TLI .F               647:   Top log interval
 TLAB.HRS            1800:   Time logger at bottom
~OTHER INFORMATION
~A   DEPT     TENR        ILD        ILM       SFLU        SPR       TENN       CALD         GRD      RHOB       DRHO       NPHI   
  634.0000  -999.2500  -999.2500  -999.2500  -999.2500  -999.2500  -999.2500  -999.2500    61.5960  -999.2500  -999.2500  -999.2500
  634.5000  -999.2500  -999.2500  -999.2500  -999.2500  -999.2500  -999.2500  -999.2500    60.3770  -999.2500  -999.2500  -999.2500
  635.0000  -999.2500  -999.2500  -999.2500  -999.2500  -999.2500  -999.2500  -999.2500    59.0880  -999.2500  -999.2500  -999.2500
  635.5000  -999.2500  -999.2500  -999.2500  -999.2500  -999.2500  -999.2500  -999.2500    57.6810  -999.2500  -999.2500  -999.2500
  636.0000  -999.2500  -999.2500  -999.2500  -999.2500  -999.2500  -999.2500  -999.2500    58.4310  -999.2500  -999.2500  -999.2500
  636.5000  -999.2500  -999.2500  -999.2500  -999.2500  -999.2500  -999.2500  -999.2500    60.0640  -999.2500  -999.2500  -999.2500
  637.0000  -999.2500  -999.2500  -999.2500  -999.2500  -999.2500  -999.2500  -999.2500    61.6920  -999.2500  -999.2500  -999.2500
  637.5000  -999.2500  -999.2500  -999.2500  -999.2500  -999.2500  -999.2500  -999.2500    63.3170  -999.2500  -999.2500  -999.2500
  638.0000  -999.2500  -999.2500  -999.2500  -999.2500  -999.2500  -999.2500  -999.2500    64.2690  -999.2500  -999.2500  -999.2500
  638.5000  -999.2500  -999.2500  -999.2500  -999.2500  -999.2500  -999.2500  -999.2500    63.1630  -999.2500  -999.2500  -999.2500
  639.0000  -999.2500  -999.2500  -999.2500  -999.2500  -999.2500  -999.2500  -999.2500    62.0260  -999.2500  -999.2500  -999.2500
  639.5000  -999.2500  -999.2500  -999.2500  -999.2500  -999.2500  -999.2500  -999.2500    61.2430  -999.2500  -999.2500  -999.2500
  640.0000   608.7820  -999.2500  -999.2500  -999.2500   -42.2880  -999.2500  -999.2500    61.1340     2.2480    -0.2400  -999.2500
  640.5000   608.7820  -999.2500  -999.2500  -999.2500   -42.2880  -999.2500  -999.2500    61.0140     2.2530    -0.2400  -999.2500
  641.0000   608.7820  -999.2500  -999.2500  -999.2500   -42.2880  -999.2500  -999.2500    60.8960     2.2800    -0.2400  -999.2500
  641.5000   608.7820  -999.2500  -999.2500  -999.2500   -42.2880  -999.2500  -999.2500    60.7820     2.3130    -0.2400  -999.2500
  642.0000   568.8620  -999.2500  -999.2500  -999.2500   -42.2880  1081.3490     9.4650    60.6490     2.3380    -0.2400  -999.2500
  642.5000   597.6510  -999.2500  -999.2500  -999.2500   -42.2880  1081.3490     9.4670    59.8040     2.3380    -0.2400  -999.2500
  643.0000   634.8840  -999.2500  -999.2500  -999.2500   -42.2880  1081.3490     9.4690    59.1940     2.3330    -0.2390  -999.2500
  643.5000   668.6630  -999.2500  -999.2500  -999.2500   -42.2880  1081.3490     9.4810    60.9900     2.3410    -0.2400     0.3850
  644.0000   668.6630  -999.2500  -999.2500  -999.2500   -42.2880  1081.3490     9.4720    64.8290     2.3600    -0.2320     0.3710
  644.5000   628.7430  -999.2500  -999.2500  -999.2500   -42.2880  1081.3490     9.4740    66.6320     2.3550    -0.2230     0.3620
  645.0000   588.8220  -999.2500  -999.2500  -999.2500  -999.2500  -999.2500     9.4760    65.8260     2.3440    -0.2320     0.3600
  645.5000   568.8620  -999.2500  -999.2500  -999.2500  -999.2500  -999.2500     9.4780    63.6570     2.3330    -0.2520     0.3610
  646.0000   579.0420  -999.2500  -999.2500  -999.2500   -42.2760  1081.3490     9.4800    60.7020     2.3250    -0.2310     0.3600
  646.5000   608.0840  -999.2500  -999.2500  -999.2500   -40.6730  1085.4590     9.4810    57.7210     2.4650    -0.1690     0.3560
  647.0000   629.4470  -999.2500  -999.2500  -999.2500   -38.8660  1091.3950     9.4890    55.6740     2.5870    -0.0590     0.3700
  647.5000   631.8870  -999.2500  -999.2500  -999.2500   -37.0520  1097.3311     9.7270    64.0920     2.6590     0.0510     0.3860
  648.0000   634.3260  -999.2500  -999.2500  -999.2500   -35.2260  1103.2679     9.9780    74.1870     2.6140     0.1360     0.3860
  648.5000   636.7660     1.7420  -999.2500  -999.2500   -34.5540  1109.2040    10.2280    82.9910     2.5320     0.0810     0.3340
  649.0000   639.2060     6.0770     4.4500     9.8100   -34.1030  1115.1400    10.4840    84.4310     2.4440     0.0320     0.2970
  649.5000   641.6460   614.4410   353.5480    62.0780   -33.6610  1121.0760    10.6090    84.1300     2.4480     0.0240     0.2860
  650.0000   644.0850   539.8740   875.8500   502.1850   -33.5700  1127.0129    10.6960    82.9560     2.4570     0.0200     0.2730
  650.5000   646.5250   916.1210  1065.5580   494.1200   -33.7900  1132.9490    10.7800    82.6510     2.4650     0.0290     0.2670
  651.0000   648.7030   911.4080   717.6620   954.2730   -34.0130  1138.8850    10.8080    84.9290     2.4740     0.0380     0.2610
  651.5000   648.7030   648.0920   397.2360   783.9720   -34.2600  1144.8210    10.8290    86.8570     2.4740     0.0470     0.2610
  652.0000   648.7030   270.7390     5.8850   264.0490   -33.5550  1150.7570    10.8500    86.3020     2.4620     0.0420     0.2680
  652.5000   648.7030     8.9480     7.0870    12.4960   -32.5950  1156.6940    10.8700    85.7330     2.4490     0.0360     0.2750
  653.0000   648.7030     9.1060     9.3470    10.7350   -31.6290  1160.5090    10.8950    85.1770     2.4550     0.0360     0.2810
  653.5000   648.7030     9.4070    11.6070     8.9480   -30.6690  1158.8490    10.9180    84.6200     2.4670     0.0470     0.2840
  654.0000   648.7030     9.7090    13.8670     9.8560   -30.0220  1157.1890    10.9410    84.0360     2.4730     0.0600     0.2860
  654.5000   648.7030    10.0110    15.5620    11.5690   -30.0350  1155.5291    10.9650    83.6490     2.4520     0.0600     0.2850
  655.0000   648.7030    10.2510    13.3670    12.8540   -30.0690  1153.8690    10.9880    83.1840     2.4350     0.0380     0.2790
  655.5000   648.7030    10.1120    11.2070    10.9140   -30.1060  1152.2090    11.0110    81.0030     2.4350     0.0200     0.2710
  656.0000   648.2540     9.9720     8.8660     8.9480   -30.1440  1150.5490    11.0350    78.7870     2.4430     0.0080     0.2640
  656.5000   647.4330     9.8320     8.9330     9.7920   -30.1840  1148.8890    11.0580    78.4310     2.4520     0.0160     0.2600
  657.0000   646.6120     9.6930     9.0220    10.3510   -30.2220  1147.2290    11.0720    80.6440     2.4600     0.0240     0.2630
  657.5000   645.7900     9.4970     9.1140    10.1730   -30.5570  1145.5690    11.0760    83.1290     2.4650     0.0320     0.2630
  658.0000   644.9690     9.3700     8.9980    10.0300   -31.0910  1143.9091    11.0810    83.9100     2.4690     0.0390     0.2590
  658.5000   644.1480     9.2440     8.8770     9.8880   -31.6300  1142.2490    11.0850    82.7070     2.4730     0.0370     0.2590
  659.0000   643.3260     9.1170     8.7560     9.7450   -31.9270  1140.8730    11.0890    81.4960     2.4700     0.0340     0.2640
  659.5000   642.5050     8.9900     8.6350     9.6030   -32.0730  1140.0360    11.0930    81.0700     2.4680     0.0290     0.2700
  660.0000   641.6840     8.8630     8.5130     9.5190   -32.2170  1138.9540    11.0970    85.8150     2.4680     0.0210     0.2710
  660.5000   640.8630     8.7850     8.3900     9.3860   -32.3610  1137.8710    11.1010    89.7800     2.4620     0.0130     0.2640
  661.0000   640.0410     8.7070     8.3310     9.2530   -32.5030  1136.7880    11.1050    88.3050     2.4550     0.0060     0.2560
  661.5000   639.2200     8.6070     8.2700     9.1870   -32.7880  1135.7061    11.1140    86.4400     2.4480     0.0060     0.2480
  662.0000   638.3990     8.5080     8.2090     9.1680   -33.0710  1134.6230    11.1180    84.6110     2.4410     0.0100     0.2460
  662.5000   637.5770     8.4590     8.1480     9.1490   -33.3640  1133.5400    11.1020    83.5950     2.4450     0.0150     0.2470
  663.0000   636.7560     8.4160     8.0880     9.1290   -33.4430  1132.4580    11.0850    83.8420     2.4530     0.0210     0.2530
  663.5000   635.9350     8.3730     8.0660     9.0770   -33.3080  1131.3750    11.0670    84.3970     2.4590     0.0200     0.2570
  664.0000   635.1130     8.3300     8.0440     8.8980   -32.6960  1130.2920    11.0500    84.9730     2.4510     0.0140     0.2580
