~VERSION INFORMATION
 VERS.                2.0:   CWLS LOG ASCII STANDARD - VERSION 2.0
 WRAP.                 NO:   ONE LINE PER DEPTH STEP
~WELL INFORMATION
#MNEM.UNIT      DATA TYPE    INFORMATION
#----------   ------------   ------------------------------
 STRT.F            3.5000:   START DEPTH
 STOP.F         5648.0000:   STOP DEPTH
 STEP.F            0.5000:   STEP LENGTH
 NULL.          -999.2500:   NO VALUE
 COMP.       FLUOR DANIEL:   COMPANY
 WELL.   FLUOR "X" #46-10:   WELL
 FLD .          N.P.R. #3:   FIELD
 LOC .      S10 T38N R78W:   LOCATION
 CNTY.            NATRONA:   COUNTY
 STAT.            WYOMING:   STATE
 CTRY. UNITED STATES OF AMERICA:   COUNTRY
 SRVC.      WESTERN ATLAS:   SERVICE COMPANY
 DATE.        25-MAR-1996:   LOGDATE
 API .     49025227700000:   API NUMBER
~CURVE INFORMATION
#MNEM.UNIT       API CODE    CURVE DESCRIPTION
#----------   ------------   ------------------------------
 DEPT.F                  :   
 CALD.IN     45 280 60 00:   CALIPER FROM DENSITY LOG
 ZDEN.G/C3   45 350 01 00:   BULK DENSITY
 ZCOR.G/C3   45 356 01 00:   DENSITY CORRECTION
 TEND.LBS    45 635 01 00:   TENSION FORM DENSITY LOG
 GRD .GAPI   45 310 01 00:   GAMMA RAY FROM DENSITY LOG
 CNC .DEC    42 890 01 00:   NEUTRON POROSITY LIMESTONE
 SPR .MV     07 010 01 00:   SPONTANEOUS POTENTIAL
 RD  .OHMM   07 220 10 00:   RESISTIVITY DEEP
 RS  .OHMM   07 220 09 00:   RESISTIVITY SHALLOW
~PARAMETER INFORMATION
#MNEM.UNIT          VALUE    DESCRIPTION
#----------   ------------   ------------------------------
 EKB .F         5216.0000:   Kelly bushing
 EGL .F         5206.0000:   Ground level
 EDF .F         5215.0000:   Drilling floor
 TD  .F         5650.0000:   Total depth
 CLNT.            A2DTECH:   Client Code
 SL  . 1493' FSL & 2330' FWL:   Surface Location
 PD  .                 GL:   Permanent Datum
 EPD .F              5206:   Elevation Permanent Datum
 LMF .                 KB:   Log Measured From
 DMF .                 KB:   Drilling Measured From
 DAPD.F                10:   Feet Above Permanent Datum
 DATE.        25-MAR-1996:   Date Logged [DD-MMM-YYYY]
 DD  .F              5650:   Depth driller
 DL  .F              5648:   Depth logger
 BLI .F              5636:   Bottom log interval
 TLI .F                 0:   Top log interval
 CS1 .IN            9.625:   Casing size
 CBD1.      9.625" @ 498':   Casing driller 1
 CBL1.F               496:   Casing logger 1
 BS1 .IN             8.75:   Bit size
 BSD1.F              5650:   Depth drilled with bit1
 DFT .           CHEM GEL:   Type fluid in hole
 DFD .                9.6:   Density
 DFV .                 54:   Viscosity
 DFPH.                9.5:   pH
 DFL .                8.4:   Fluid loss
 MSS .           FLOWLINE:   Source of sample
 RMS .OHMM          0.635:   Rm
 MST .F                68:   Rm Meas. temp.
 RMF .OHMM          0.483:   Rmf
 MFST.F                68:   Rmf Meas. temp.
 MFSS.               MEAS:   Source Rmf.
 RMC .OHMM          0.789:   Rmc
 MCST.F                68:   Rmc Meas. temp.
 MCSS.               MEAS:   Source Rmc.
 RMB .OHMM           0.26:   Rm. at BHT
 BHT .F               166:   BHT.
 TCS .HRS               6:   Time Circ. stopped
 MRT .F               166:   Maximum recorded temp.
 LUN .            HL-6530:   Logging unit number
 LUL .             CASPER:   Logging unit location
 ENGI.        VERN RAUTIO:   Recorded By
 WITN. LORRAINE LAFRENIERE:   Witnessed by
 ORIG.           5" PRINT:   Origin of data
 UWI .     49025227700000:   Unique Well ID
 DICO. A2D TECHNOLOGIES, INC.:   Digitizing Company
~OTHER INFORMATION
~A  DEPTH     CALD       ZDEN       ZCOR       TEND        GRD        CNC        SPR         RD         RS
# ...
 2193.5000     9.1228     2.4653     0.0135   -23.1419   110.5986     0.3364   -83.3571    14.0168    12.4887
 2194.0000     9.1236     2.4871     0.0136   -30.8163   112.4089     0.3304   -83.1975    14.4092    12.3170
 2194.5000     9.1394     2.4879     0.0136   -30.9595   110.3108     0.3241   -82.8870    14.0147    11.8978
 2195.0000     9.1401     2.4879     0.0136   -31.1368   109.4129     0.3258   -82.7291    13.6313    11.5727
 2195.5000     9.1408     2.4924     0.0152   -16.2867   111.8261     0.3282   -82.2696    13.5364    11.6532
 2196.0000     9.1265     2.4977     0.0182    -8.8973   115.4408     0.3291   -82.5642    13.6295    12.0637
 2196.5000     9.1274     2.4999     0.0199    -9.0753   118.7709     0.3227   -82.8588    13.8186    12.2320
 2197.0000     9.1281     2.5015     0.0213    -1.7215   119.0613     0.3194   -83.1535    13.6275    11.8978
 2197.5000     9.1288     2.5007     0.0228    -1.8996   116.6625     0.3224   -83.2956    13.2423    11.5727
 2198.0000     9.1295     2.4955     0.0198    -2.0421   114.5630     0.3254   -83.1358    12.5398    11.1685
 2198.5000     9.1304     2.4895     0.0048    -9.6807   112.7642     0.3256   -82.9780    12.0291    10.6499
 2199.0000     9.1311     2.4827     0.0033   -17.3194   110.6647     0.3241   -82.8201    11.6999    10.3589
 2199.5000     9.1318     2.4812     0.0079   -17.4662   109.1232     0.3229   -82.6621    11.5384    10.2165
 2200.0000     9.1373     2.4827     0.0169   -25.1362   111.8807     0.3247   -82.6534    12.0266    10.9490
 2200.5000     9.1378     2.4887     0.0260   -32.7749   115.4954     0.3234   -82.6464    12.5356    10.9490
 2201.0000     9.1230     2.4978     0.0305   -32.9173   117.6064     0.3192   -82.6393    12.6218    10.9258
 2201.5000     9.1235     2.5046     0.0260   -33.0598   117.9448     0.3107   -82.7831    12.2763    10.8735
 2202.0000     9.1391     2.5128     0.0231   -25.7060   110.3280     0.3038   -83.2286    11.5585    10.2875
 2202.5000     9.1396     2.5204     0.0216   -18.3521   106.7980     0.3042   -83.2198    10.4647    10.0064
 2203.0000     9.1400     2.5219     0.0216   -18.5302   105.3000     0.3045   -83.3636    10.3196     9.8688
 2203.5000     9.1404     2.5219     0.0232   -18.6726   103.2005     0.3006   -83.3548     9.9673     9.8636
 2204.0000     9.1410     2.5144     0.0157   -18.8156   100.4755     0.2952   -83.3477     9.4945     9.4671
 2204.5000     9.1565     2.5069     0.0052   -26.4894    98.3731     0.2937   -83.3407     9.0444     9.0818
 2205.0000     9.1569     2.5009     0.0007   -34.1281    97.1629     0.2964   -83.3319     8.4972     8.4742
 2205.5000     9.1724     2.5002     0.0039   -34.2705    97.4772     0.3006   -83.3248     7.1958     7.3272
 2206.0000     9.1579     2.5017     0.0158   -26.9168    99.5853     0.3056   -83.1669     6.8549     6.8845
 2206.5000     9.1432     2.5040     0.0279   -35.5323   100.7911     0.3138   -83.1599     7.3449     6.7429
 2207.0000     9.1284     2.5055     0.0414   -35.7963    98.6198     0.3162   -83.0003     8.0350     7.5330
 2207.5000     9.1272     2.5070     0.0475   -36.0075    95.0831     0.3117   -82.8424     8.4912     8.2999
 2208.0000     9.1294     2.5153     0.0415   -28.6698    91.7777     0.3075   -83.1370     8.8501     8.4742
 2208.5000     9.1299     2.5273     0.0325   -28.9356    92.3820     0.3069   -83.4299     9.3666     8.4742
 2209.0000     9.1304     2.5326     0.0250   -21.6491    93.2878     0.3057   -83.7263    10.0907     8.7122
 2209.5000     9.1308     2.5311     0.0205   -21.9132    93.5914     0.3030   -83.8700    10.8123     9.8688
 2210.0000     9.1312     2.5163     0.0205   -22.1245    90.8874     0.3000   -83.8612    11.5161    10.6499
 2210.5000     9.1317     2.5056     0.0209   -22.3388    86.3739     0.2934   -84.1559    12.4998    10.8735
 2211.0000     9.1170     2.5071     0.0224   -22.6000    80.3674     0.2880   -83.9962    13.1185    10.8735
 2211.5000     9.1175     2.5101     0.0225   -22.8113    78.2643     0.2844   -83.8383    12.0604    10.7984
 2212.0000     9.1179     2.5155     0.0210   -30.5189    80.0723     0.2889   -83.3587    10.8047    10.2292
 2212.5000     9.1185     2.5199     0.0226   -31.3580    81.6040     0.2904   -82.6159     9.9425     8.4742
 2213.0000     9.1189     2.5229     0.0226   -45.9869    82.7854     0.2879   -82.6088    10.1497     8.2999
 2213.5000     9.1193     2.5237     0.0227   -53.6945    81.8860     0.2832   -82.9034    11.3362     9.2752
 2214.0000     9.1198     2.5131     0.0212   -53.9058    80.6858     0.2838   -82.8946    12.2313    10.5764
 2214.5000     9.1203     2.4937     0.0213   -54.1229    80.3879     0.2880   -82.4351    13.5673    11.8157
 2215.0000     9.1207     2.4711     0.0213   -54.3813    80.6914     0.2922   -82.1264    13.9463    12.1475
 2215.5000     9.1212     2.4674     0.0213   -39.6001    77.3867     0.2928   -82.1368    12.8330    10.8735
 2216.0000     9.1065     2.4757     0.0184   -39.8115    75.8857     0.2850   -82.5648    11.8089    10.1460
 2216.5000     9.1069     2.4900     0.0169   -32.5265    77.6938     0.2753   -82.1035    11.6447    10.4309
 2217.0000     9.1075     2.4983     0.0140   -32.7907    80.4034     0.2705   -81.7948    11.6432    10.4309
 2217.5000     9.1078     2.4968     0.0125   -25.4529    80.7069     0.2738   -82.5402    11.4817     9.7330
 2218.0000     9.1234     2.4870     0.0125   -25.7171    80.1082     0.2777   -83.4381    10.6385     8.8337
 2218.5000     9.1238     2.4788     0.0203   -25.9812    83.4200     0.2808   -83.4310     9.4566     7.9072
 2219.0000     9.1244     2.4780     0.0292   -26.1926    88.8364     0.2823   -83.1222     8.7623     7.5854
 2219.5000     9.1248     2.4803     0.0202   -18.8548    93.6512     0.2832   -82.8119     8.5812     7.7984
 2220.0000     9.1252     2.4833     0.0187   -19.1190    94.5564     0.2832   -82.8048     9.7179     8.7122
 2220.5000     9.1256     2.4886     0.0173   -19.3831    93.6576     0.2832   -83.0996    10.3411     9.5329
 2221.0000     9.1262     2.4901     0.0158   -27.0907    90.9536     0.2832   -82.6382    10.1751     9.7330
 2221.5000     9.1114     2.4901     0.0159   -34.7983    87.6482     0.2862   -82.4803     9.1908     9.3369
 2222.0000     9.1119     2.4894     0.0219   -35.0097    91.8622     0.2982   -83.3782     8.2264     8.4554
 2222.5000     9.0973     2.4834     0.0296   -42.7700    95.7748     0.3063   -83.2202     7.2553     7.0779
 2223.0000     9.0827     2.4720     0.0371   -50.4776   100.5896     0.3202   -82.9099     6.7755     6.3795
 2223.5000     9.0832     2.4488     0.0401   -50.6889   106.9428     0.3379   -82.4504     6.2781     5.9116
 2224.0000     9.0534     2.4278     0.0402   -50.9003   113.2276     0.3523   -81.9908     5.8982     5.5161
 2224.5000     9.0237     2.4225     0.0341   -51.1644   115.3356     0.3526   -81.5962     5.9795     5.7501
 2225.0000     9.0242     2.4301     0.0327   -43.8267   115.6385     0.3397   -81.5990     6.6326     6.5135
 2225.5000     9.0246     2.4346     0.0268   -44.0908   111.8764     0.3292   -81.6018     7.6690     7.9809
 2226.0000     9.0251     2.4241     0.0118   -36.8059   107.2245     0.3208   -81.9069    10.6887    10.7239
 2226.5000     9.0406     2.4113     0.0058   -29.5210   107.5281     0.3256   -82.2114    12.6181    11.6532
 2227.0000     9.0712     2.4083     0.0224   -14.7927   109.0346     0.3307   -82.5159    12.7970    11.3348
 2227.5000     9.0868     2.4129     0.0375   -15.0039   112.6472     0.3307   -82.8210    11.4497    10.8735
 2228.0000     9.1928     2.4234     0.0541   -23.0098   116.5598     0.3256   -82.8238     9.9686     9.8688
 2228.5000     9.2686     2.4332     0.0722   -30.4719   121.0739     0.3102   -82.5249     8.8000     8.7122
 2229.0000     9.3463     2.4415     0.0602   -30.6833   126.4902     0.3050   -81.9245     7.9862     7.4810
 2229.5000     9.4355     2.4483     0.0467   -23.3455   135.2156     0.3009   -81.6256     7.7675     7.3272
