~VERSION INFORMATION
 VERS.                2.0:   CWLS LOG ASCII STANDARD - VERSION 2.0
 WRAP.                 NO:   ONE LINE PER DEPTH STEP
~WELL INFORMATION
#MNEM.UNIT      DATA TYPE    INFORMATION
#----------   ------------   ------------------------------
 STRT.F           89.5000:   START DEPTH
 STOP.F         1300.5000:   STOP DEPTH
 STEP.F            0.5000:   STEP LENGTH
 NULL.          -999.2500:   NO VALUE
 COMP.            US NAVY:   COMPANY
 WELL. US NPR 3 "S" #62-11:   WELL
 FLD .             TEAPOT:   FIELD
 LOC .      S11 T38N R78W:   LOCATION
 CNTY.            NATRONA:   COUNTY
 STAT.            WYOMING:   STATE
 CTRY. UNITED STATES OF AMERICA:   COUNTRY
 SRVC.       SCHLUMBERGER:   SERVICE COMPANY
 DATE.        20-JUL-1964:   LOGDATE
 API .     49025063660000:   API NUMBER
~CURVE INFORMATION
#MNEM.UNIT       API CODE    CURVE DESCRIPTION
#----------   ------------   ------------------------------
 DEPT.F                  :   
 CALS.IN     60 280 50 00:   CALIPER FROM SONIC LOG
 DT  .US/F   60 520 33 00:   DELTA TIME
 SPR .MV     05 010 01 00:   SPONTANEOUS POTENTIAL FROM RES.
 ASN .OHMM   05 041 16 00:   AMPLIFIED SHORT NORMAL 16"
 ILD .OHMM   05 120 46 00:   INDUCTION LOG DEEP
~PARAMETER INFORMATION
#MNEM.UNIT          VALUE    DESCRIPTION
#----------   ------------   ------------------------------
 EKB .F         5223.0000:   Kelly bushing
 EGL .F         5215.0000:   Ground level
 EDF .F            0.0000:   Drilling floor
 TD  .F         1303.0000:   Total depth
 DATE.        20-JUL-1964:   Date logged
 CLNT.            A2DTECH:   Client Code
 PD  .                 GL:   Permanent Datum
 EPD .F              5215:   Elevation Permanent Datum
 LMF .                 KB:   Log Measured From
 DMF .                 KB:   Drilling Measured From
 DAPD.F                 8:   Feet Above Permanent Datum
 DD  .F              1303:   Depth driller
 DL  .F              1300:   Depth logger
 BLI .F              1299:   Bottom log interval
 TLI .F                94:   Top log interval
 CS1 .IN            12.25:   Casing size
 CBD1.       12.25" @ 10':   Casing driller 1
 BS1 .IN               11:   Bit size
 BSD1.F              1303:   Depth drilled with bit1
 DFT .            GEL/OIL:   Type fluid in hole
 DFD .                9.8:   Density
 DFV .                 60:   Viscosity
 DFL .                 10:   Fluid loss
 MSS .           FLOWLINE:   Source of sample
 RMS .OHMM           3.13:   Rm
 MST .F                86:   Rm Meas. temp.
 RMF .OHMM           1.81:   Rmf
 MFST.F                86:   Rmf Meas. temp.
 RMC .OHMM           3.39:   Rmc
 MCST.F                86:   Rmc Meas. temp.
 MFSS.                 FP:   Source Rmf.
 MCSS.                 FP:   Source Rmc.
 TCS .HRS             2.5:   Time Circ. stopped
 LUN .               4507:   Logging unit number
 LUL .               CSPR:   Logging unit location
 ENGI.             DANNER:   Recorded By
 WITN.         JORGENESEN:   Witnessed by
 ORIG.       2", 5" PRINT:   Origin of data
 UWI .     49025063660000:   Unique Well ID
 DICO. A2D TECHNOLOGIES, INC.:   Digitizing Company
~OTHER INFORMATION
~A   DEPT     CALS         DT        SPR        ASN          ILD 
# ...
  760.5000    11.3620    97.4170   -36.7190     7.9870     7.2270
  761.0000    11.3610    97.0670   -36.6860     8.0130     7.2420
  761.5000    11.3590    96.7160   -36.6540     8.0390     7.2560
  762.0000    11.3580    96.3660   -36.6180     8.0710     7.2710
  762.5000    11.3560    96.0150   -36.5920     8.0950     7.2860
  763.0000    11.3560    95.7960   -36.5490     8.0960     7.2940
  763.5000    11.3660    96.5370   -36.5270     8.0690     7.2950
  764.0000    11.3770    96.9580   -36.6000     8.0160     7.2670
  764.5000    11.3880    96.6720   -36.7050     7.9600     7.2070
  765.0000    11.3930    96.3850   -36.7890     7.9130     7.1520
  765.5000    11.3910    96.0990   -36.8860     7.8800     7.0900
  766.0000    11.3880    95.7960   -36.9800     7.8260     7.0320
  766.5000    11.3860    96.7970   -37.0680     7.6880     6.9810
  767.0000    11.3830    97.9980   -37.1680     7.5010     6.9060
  767.5000    11.3800    98.7170   -37.2530     7.3420     6.8740
  768.0000    11.3780    99.2920   -37.3520     7.1510     6.7800
  768.5000    11.3750    99.8670   -37.4410     6.9960     6.4630
  769.0000    11.3730   100.4420   -37.3650     6.8470     6.0710
  769.5000    11.3700   101.0170   -37.1350     6.4850     5.6540
  770.0000    11.3680   101.9020   -36.9010     6.1610     5.1110
  770.5000    11.3650   102.9330   -36.6740     5.8770     4.5680
  771.0000    11.3620   103.7300   -36.4380     5.5150     4.0690
  771.5000    11.3600   104.4440   -36.2110     5.1610     3.4800
  772.0000    11.3580   105.3700   -35.9750     4.6630     2.9610
  772.5000    11.3710   107.0790   -35.7480     4.0780     2.6290
  773.0000    11.3890   108.7890   -35.5130     3.8090     2.3630
  773.5000    11.4060   110.4980   -35.2840     3.5350     2.2060
  774.0000    11.4230   112.6450   -35.1920     3.2080     2.1300
  774.5000    11.4410   115.1880   -35.2370     3.1210     2.0260
  775.0000    11.4590   117.7310   -35.2840     3.0360     2.0170
  775.5000    11.4770   118.9710   -35.3270     2.9210     2.2770
  776.0000    11.4940   119.1190   -35.3770     2.9550     2.7060
  776.5000    11.4980   117.3010   -35.4160     3.2770     3.0650
  777.0000    11.4210   115.2800   -35.4720     3.7300     3.3750
  777.5000    11.3750   112.5880   -35.5050     4.0370     3.7240
  778.0000    11.3750   109.8950   -35.5620     4.2830     4.0570
  778.5000    11.3750   107.2030   -35.7310     4.6310     4.3830
  779.0000    11.3750   104.5110   -35.9100     5.1120     4.7330
  779.5000    11.3750   102.0020   -36.0860     5.4980     5.0550
  780.0000    11.3750   101.4240   -36.2550     5.6000     5.3080
  780.5000    11.3750   101.3010   -36.2410     5.6260     5.4230
  781.0000    11.3750   100.0200   -36.0810     5.6830     5.3850
  781.5000    11.3760    98.6450   -35.9300     5.7100     5.3820
  782.0000    11.3900    96.8130   -35.7760     5.7640     5.2740
  782.5000    11.3950    94.4940   -35.6190     5.7960     4.8680
  783.0000    11.3940    95.6130   -35.4690     5.7440     4.4280
  783.5000    11.3940    98.0130   -35.3090     5.5860     4.0190
  784.0000    11.3940   100.4140   -35.1610     5.1550     3.7270
  784.5000    11.3960   102.8140   -35.0010     4.7000     3.6840
  785.0000    11.3970   105.2150   -34.8530     4.5880     3.6780
  785.5000    11.3990   107.6150   -34.8470     4.5670     3.6540
  786.0000    11.4010   110.2100   -34.9600     4.3800     3.5990
  786.5000    11.4030   108.4610   -35.0720     4.4120     3.6450
  787.0000    11.4050   106.5130   -35.1800     4.7990     3.9680
  787.5000    11.4070   105.0300   -35.2960     5.0740     4.3050
  788.0000    11.4080   103.9520   -35.4030     5.2200     4.5620
  788.5000    11.4100   102.8740   -35.5160     5.4340     4.8550
  789.0000    11.4130   101.7960   -35.6300     5.7320     5.1620
  789.5000    11.4220   101.0860   -35.7340     5.9930     5.4830
  790.0000    11.1200   101.6020   -35.8580     6.1900     5.7550
  790.5000    10.8830   102.6330   -35.9350     6.5760     5.9960
  791.0000    11.1350   103.1030   -35.8980     6.9860     6.3420
  791.5000    11.3560   102.3200   -35.8410     7.1120     6.6800
  792.0000    11.3930   101.7400   -35.8050     7.2420     6.8140
  792.5000    11.3860   101.1610   -35.7570     7.4050     6.9200
  793.0000    11.3810   100.5810   -35.7130     7.4020     7.1100
  793.5000    11.3750   100.5130   -35.6700     7.3730     7.0890
  794.0000    11.3770   100.8880   -35.6230     7.3720     6.8350
  794.5000    11.3780   101.2680   -35.5800     7.3440     6.6040
  795.0000    11.3800   101.6730   -35.5430     7.2690     6.4030
  795.5000    11.3820   102.0780   -35.5140     7.1800     6.2190
  796.0000    11.3840   102.2100   -35.4860     7.0830     6.0980
  796.5000    11.3850   102.0040   -35.4560     7.0060     5.9870
  797.0000    11.3870   101.6180   -35.4280     6.9280     5.8590
  797.5000    11.3890   101.0560   -35.3990     6.7490     5.6610
  798.0000    11.3910   100.4930   -35.3700     6.6000     5.3730
  798.5000    11.3920    99.9310   -35.3410     6.4730     5.0860
  799.0000    11.3940    99.4990   -35.3120     6.2340     4.8020
  799.5000    11.4130    99.4990   -35.2840     5.9920     4.5120
  800.0000    11.4320   101.1540   -35.2550     5.8080     4.3170
  800.5000    11.4320   102.6930   -35.2260     5.5590     4.3000
  801.0000    11.4280   104.2040   -35.1970     5.3630     4.4000
  801.5000    11.4230   104.3040   -35.1690     5.3950     4.4420
  802.0000    11.4190   103.5910   -35.1400     5.4530     4.5310
  802.5000    11.4140   102.6990   -35.1120     5.6270     4.8460
  803.0000    11.4000   101.5900   -35.0820     6.0200     5.2310
  803.5000    11.3850   100.4810   -35.0540     6.3440     5.5840
  804.0000    11.3690    99.3720   -35.0250     6.6620     5.9320
  804.5000    11.3540    98.7330   -34.9950     6.9300     6.3170
  805.0000    11.3390    98.8390   -35.0020     7.0240     6.6810
  805.5000    11.3430    99.0110   -35.0650     7.0740     6.8170
  806.0000    11.3530    99.1990   -35.1340     7.1620     6.8130
  806.5000    11.3630    99.1370   -35.1980     7.2690     6.8410
  807.0000    11.3730    98.8560   -35.2650     7.3950     6.8560
  807.5000    11.3750    98.4210   -35.3310     7.4820     6.8710
  808.0000    11.3760    97.9850   -35.3970     7.5340     6.8920
  808.5000    11.3780    97.5490   -35.4630     7.5990     6.8630
  809.0000    11.3810    97.2610   -35.5300     7.6480     6.8060
  809.5000    11.3830    96.9850   -35.5950     7.6590     6.7450
  810.0000    11.3850    96.7090   -35.6600     7.6650     6.6860
  810.5000    11.3880    96.5970   -35.7300     7.6670     6.6270
  811.0000    11.3900    96.5970   -35.7880     7.6620     6.5660
  811.5000    11.3930    96.9380   -35.8660     7.6310     6.5090
  812.0000    11.3940    97.2780   -35.9360     7.5780     6.4450
  812.5000    11.3920    97.4410   -35.9120     7.5610     6.4020
  813.0000    11.3900    97.6040   -35.8480     7.5630     6.4520
  813.5000    11.3890    97.7660   -35.8040     7.5540     6.5310
  814.0000    11.3870    97.9290   -35.7480     7.5500     6.5860
  814.5000    11.3850    98.0920   -35.6960     7.5430     6.6770
  815.0000    11.3840    98.2540   -35.6470     7.5420     6.6850
  815.5000    11.3820    98.4950   -35.5900     7.5290     6.5250
  816.0000    11.3800    98.7640   -35.5790     7.4770     6.3180
  816.5000    11.3790    99.0330   -35.6300     7.3690     6.1230
  817.0000    11.3770    99.3020   -35.6900     7.2310     5.9470
  817.5000    11.3750    99.5710   -35.7460     7.1040     5.7230
  818.0000    11.3730   100.4530   -35.8000     6.8430     5.5200
  818.5000    11.3920   101.4090   -35.8600     6.5470     5.4810
  819.0000    11.3800   102.3590   -35.9140     6.4450     5.4420
  819.5000    11.3200   103.3000   -35.8760     6.3270     5.4130
  820.0000    11.1060   104.2410   -35.7480     6.2490     5.3940
  820.5000    10.9030   105.1820   -35.6090     6.4260     5.1980
  821.0000    10.9270   106.0380   -35.4830     6.5470     5.0100
