~VERSION INFORMATION
 VERS.                2.0:   CWLS LOG ASCII STANDARD - VERSION 2.0
 WRAP.                 NO:   ONE LINE PER DEPTH STEP
~WELL INFORMATION
#MNEM.UNIT      DATA TYPE    INFORMATION
#----------   ------------   ------------------------------
 STRT.F            5.5000:   START DEPTH
 STOP.F         3006.0000:   STOP DEPTH
 STEP.F            0.5000:   STEP LENGTH
 NULL.          -999.2500:   NO VALUE
 COMP.    FENIX & SCISSON:   COMPANY
 WELL.  FENIX "AX" #28-28:   WELL
 FLD .  TEAPOT DOME NPR-3:   FIELD
 LOC .      S28 T39N R78W:   LOCATION
 CNTY.            NATRONA:   COUNTY
 STAT.            WYOMING:   STATE
 CTRY. UNITED STATES OF AMERICA:   COUNTRY
 SRVC.           BIRDWELL:   SERVICE COMPANY
 DATE.        23-JAN-1980:   LOGDATE
 API .     49025107960000:   API NUMBER
~CURVE INFORMATION
#MNEM.UNIT       API CODE    CURVE DESCRIPTION
#----------   ------------   ------------------------------
 DEPT.F                  :   
 GRD .GAPI   45 310 01 00:   GAMMA RAY FROM DENSITY LOG
 CALD.IN     45 280 60 00:   CALIPER FROM DENSITY LOG
 DPHI.DEC    45 890 12 00:   DENSITY POROSITY SANDSTONE
 NPHI.DEC    42 890 03 00:   NEUTRON POROSITY SANDSTONE
 CORR.G/C3   45 356 01 00:   DENSITY CORRECTION
 SPR .MV     05 010 01 00:   SPONTANEOUS POTENTIAL FROM RES.
 ILD .OHMM   05 120 40 00:   INDUCTION LOG DEEP RESISTIVITY
 SN  .OHMM   05 040 16 00:   SHORT NORMAL 16"
~PARAMETER INFORMATION
#MNEM.UNIT          VALUE    DESCRIPTION
#----------   ------------   ------------------------------
 EKB .F         5120.0000:   Kelly bushing
 EGL .F         5110.0000:   Ground level
 EDF .F         5119.0000:   Drilling floor
 EPD .F         5110.0000:   Permanent datum
 TD  .F         3006.0000:   Total depth
 CLNT.            A2DTECH:   Client Code
 SL  . 600' FSL & 1300' FWL:   Surface Location
 PD  .                 GL:   Permanent Datum
 DAPD.F                 9:   Feet Above Permanent Datum
 DATE.        23-JAN-1980:   Date Logged [DD-MMM-YYYY]
 DD  .F              3006:   Depth driller
 DL  .F              3006:   Depth logger
 BLI .F              3006:   Bottom log interval
 TLI .F                10:   Top log interval
 CS1 .IN            8.625:   Casing size
 CBD1.      8.625" @ 440':   Casing driller 1
 CBL1.F               460:   Casing logger 1
 BS1 .IN            7.875:   Bit size
 BSD1.F              3006:   Depth drilled with bit1
 DFT .       GEL MUD FULL:   Type fluid in hole
 DFD .                  9:   Density
 DFV .                 46:   Viscosity
 DFPH.                 11:   pH
 DFL .               17.2:   Fluid loss
 MSS .           MUD TANK:   Source of sample
 RMS .OHMM            1.9:   Rm
 MST .F                60:   Rm Meas. temp.
 RMF .OHMM            .73:   Rmf
 MFST.F                62:   Rmf Meas. temp.
 MFSS.               MEAS:   Source Rmf.
 RMC .OHMM            .95:   Rmc
 MCST.F                62:   Rmc Meas. temp.
 TCS .HRS               5:   Time Circ. stopped
 MRT .F               110:   Maximum recorded temp.
 LUN .               3029:   Logging unit number
 LUL .             CASPER:   Logging unit location
 ENGI.           T. WOLFF:   Recorded By
 WITN.           DINSMORE:   Witnessed by
 ORIG.           5" PRINT:   Origin of data
 UWI .     49025107960000:   Unique Well ID
 DICO. A2D TECHNOLOGIES, INC.:   Digitizing Company
~OTHER INFORMATION
~A    DEPT      GRD      CALD       DPHI         NPHI     CORR        SPR        ILD         SN   
# ...
  937.0000    90.1219     9.4358     0.2118     0.0820     0.0023   -33.3109    14.3452    12.7979
  937.5000    88.0770     9.4384     0.2163     0.0838     0.0025   -33.4719    14.3534    12.7140
  938.0000    89.4337     9.4266     0.2369     0.0851     0.0058   -32.9890    14.2610    12.6307
  938.5000    87.6793     9.4136     0.2429     0.0812     0.0060   -33.0589    14.2689    12.4588
  939.0000    86.8079     9.4167     0.2404     0.0797     0.0032   -33.2840    14.1734    12.3772
  939.5000    87.1334     9.4192     0.2392     0.0784     0.0005   -34.7031    13.9823    12.2978
  940.0000    86.5641     9.4217     0.2505     0.0793     0.0007   -33.4898    13.8887    12.2155
  940.5000    86.2904     9.4242     0.2556     0.0843    -0.0036   -32.7717    13.7977    12.2241
  941.0000    87.7960     9.4267     0.2531     0.0870    -0.0079   -32.7102    13.7089    12.2310
  941.5000    90.6342     9.4292     0.2474     0.0873    -0.0076   -32.8805    13.7168    12.1429
  942.0000    92.2874     9.4168     0.2264     0.0812    -0.0074   -33.2123    13.6205    12.0955
  942.5000    92.3408     9.4341     0.2152     0.0782    -0.0071   -33.3026    13.5375    12.0481
  943.0000    97.6090     9.4366     0.2175     0.0854    -0.0038   -32.9221    13.3532    12.0007
  943.5000    99.4683     9.4391     0.2367     0.0844     0.0009   -33.3086    13.2675    11.9533
  944.0000    97.1272     9.4416     0.2475     0.0712     0.0072   -32.8727    13.2749    11.9059
  944.5000    93.0024     9.4441     0.2504     0.0676     0.0120   -31.9964    13.1878    11.8585
  945.0000    84.5813     9.4466     0.2492     0.0699     0.0167   -31.6967    13.1952    11.8111
  945.5000    83.7099     9.4491     0.2503     0.0735     0.0154   -32.1222    13.2025    11.7778
  946.0000    87.4428     9.4367     0.2491     0.0789     0.0097   -32.1624    13.2099    11.7846
  946.5000    95.4662     9.4398     0.2424     0.0848     0.0038   -32.3283    13.2172    11.7927
  947.0000   100.2302     9.4423     0.2199     0.0860     0.0010   -32.1729    13.2247    11.6305
  947.5000   102.0314     9.4448     0.2172     0.0847    -0.0002   -32.6918    13.2323    11.6387
  948.0000   100.7214     9.4472     0.2270     0.0797     0.0031   -32.7299    13.2412    11.6452
  948.5000    95.2633     9.4497     0.2576     0.0748     0.0018   -33.1017    13.2485    11.5673
  949.0000    95.0845     9.4522     0.2650     0.0726     0.0020   -33.6978    13.2559    11.5754
  949.5000    97.0878     9.4547     0.2650     0.0717     0.0083   -33.6915    13.2633    11.5819
  950.0000    95.9259     9.4571     0.2616     0.0732     0.0086   -33.5697    13.2688    11.5868
  950.5000    90.9122     9.4592     0.2550     0.0872    -0.0002   -33.5494    13.2598    11.5827
  951.0000    95.9261     9.4612     0.2459     0.0944    -0.0076   -33.6468    13.2520    11.5792
  951.5000    96.5884     9.4484     0.2351     0.0952    -0.0058   -33.6661    13.2442    11.5756
  952.0000    93.3583     9.4505     0.2320     0.0910    -0.0025   -33.7222    13.2365    11.5721
  952.5000    91.6038     9.4525     0.2247     0.0897    -0.0053   -33.1476    13.2287    11.5686
  953.0000    88.8064     9.4545     0.2188     0.0897    -0.0096   -33.5301    13.2329    11.5651
  953.5000    89.7244     9.4121     0.2207     0.0890    -0.0094   -32.7707    13.2421    11.5620
  954.0000    93.7477     9.4295     0.2229     0.0827    -0.0046   -32.2813    13.2513    11.5720
  954.5000    94.0615     9.4463     0.2180     0.0808     0.0017   -31.5391    13.1662    11.5800
  955.0000    91.1218     9.4632     0.2114     0.0798     0.0019   -32.7433    13.1776    11.5055
  955.5000    91.7436     9.4207     0.2089     0.0787    -0.0039   -33.4840    13.1867    11.5137
  956.0000    93.2483     9.4079     0.2161     0.0852    -0.0067   -32.4190    13.0998    11.4397
  956.5000    98.9013     9.4248     0.2253     0.0851    -0.0064   -33.9543    12.9254    11.4496
  957.0000   100.7023     9.4417     0.2370     0.0821    -0.0061   -33.9638    12.8424    11.3741
  957.5000   100.4293     9.4437     0.2429     0.0770    -0.0029   -32.8242    12.7599    11.3839
  958.0000    99.6948     9.4458     0.2474     0.0706     0.0034   -34.0884    12.6778    11.3088
  958.5000    98.7040     9.4330     0.2545     0.0697     0.0066   -34.3322    12.5070    11.0789
  959.0000    96.9495     9.4499     0.2551     0.0795    -0.0037   -33.9153    12.5157    11.0077
  959.5000    97.5654     9.4519     0.2474     0.0837    -0.0080   -33.1213    12.3352    10.8538
  960.0000    97.8850     9.4540     0.2379     0.0788    -0.0077   -32.3201    12.1804    10.7129
  960.5000    95.6861     9.4411     0.2300     0.0746    -0.0060   -32.7806    12.1461    10.8763
  961.0000    96.1538     9.4437     0.2282     0.0671    -0.0027   -34.2136    12.0245    10.8838
  961.5000    98.9919     9.4457     0.2299     0.0583     0.0023   -34.2347    11.9473    10.8913
  962.0000   100.3485     9.4478     0.2305     0.0588     0.0083   -34.5934    11.8724    10.8988
  962.5000   100.6623     9.4345     0.2250     0.0663     0.0041   -35.0430    11.8809    10.8285
  963.0000   100.3941     9.4370     0.2262     0.0749    -0.0003   -36.0835    11.7948    10.7592
  963.5000   100.4184     9.4391     0.2327     0.0737     0.0000   -34.8600    11.6474    10.6902
  964.0000   101.4788     9.4411     0.2387     0.0628     0.0033   -33.9607    11.5706    10.6234
  964.5000   100.7482     9.4580     0.2374     0.0589     0.0080   -33.7945    11.5807    10.6307
  965.0000    98.9186     9.4451     0.2350     0.0598     0.0098   -32.9407    11.5887    10.6381
  965.5000    95.7215     9.4472     0.2340     0.0678     0.0040   -32.4833    11.5123    10.6455
  966.0000    95.4979     9.4493     0.2331     0.0752    -0.0034   -34.2060    11.6044    10.6528
  966.5000   100.8603     9.4352     0.2229     0.0740    -0.0046   -34.3698    11.6128    10.7365
  967.0000    99.4021     9.4237     0.2261     0.0687    -0.0013   -33.3318    11.6277    10.8209
  967.5000    98.3826     9.4262     0.2323     0.0619     0.0019   -33.1710    11.7142    10.8285
  968.0000    97.3746     9.4282     0.2308     0.0625    -0.0025   -32.8985    11.7344    10.8377
  968.5000    89.9905     9.4303     0.2326     0.0642    -0.0036   -33.4734    11.8144    10.8452
  969.0000    91.3472     9.4323     0.2262     0.0615     0.0012   -34.1507    11.9072    10.8527
  969.5000    93.0001     9.4344     0.2292     0.0569     0.0059   -34.3693    12.0008    10.8602
  970.0000    94.5049     9.4364     0.2342     0.0605     0.0062   -35.0341    12.0091    10.9455
  970.5000    95.4171     9.4384     0.2321     0.0730     0.0033   -33.6785    12.0174    10.9531
  971.0000    96.0329     9.4405     0.2326     0.0832    -0.0009   -33.7164    12.0259    10.9607
  971.5000    96.6504     9.4574     0.2356     0.0873    -0.0007   -35.7854    12.0344    10.9685
  972.0000    98.0415     9.4594     0.2397     0.0855    -0.0020   -34.8509    11.9589    10.8978
  972.5000   100.3185     9.4614     0.2262     0.0790     0.0028   -34.5041    11.8801    10.9073
  973.0000    99.9838     9.4635     0.2228     0.0788     0.0016   -34.6296    11.8038    10.9148
  973.5000    98.5256     9.4507     0.2249     0.0895    -0.0042   -34.5475    11.7300    10.9224
  974.0000    90.2526     9.4532     0.2287     0.0871    -0.0100   -34.5115    11.7381    10.9299
  974.5000    90.8685     9.4553     0.2353     0.0690     0.0145   -34.5159    11.7463    10.8597
  975.0000    93.2622     9.4573     0.2346     0.0699     0.0080   -34.1801    11.7544    10.8672
  975.5000    95.3537     9.4594     0.2292     0.0749     0.0027   -33.8986    11.7628    10.7974
  976.0000    91.5310     9.4614     0.2225     0.0743     0.0091   -30.9155    11.7728    10.8068
  976.5000    90.2209     9.4634     0.2261     0.0778     0.0033   -33.3158    11.7809    10.7355
  977.0000    89.4977     9.4655     0.2344     0.0784     0.0004   -36.7069    11.7891    10.6666
