~VERSION INFORMATION
 VERS.                2.0:   CWLS LOG ASCII STANDARD - VERSION 2.0
 WRAP.                 NO:   ONE LINE PER DEPTH STEP
~WELL INFORMATION
#MNEM.UNIT      DATA TYPE    INFORMATION
#----------   ------------   ------------------------------
 STRT.F         2185.0000:   START DEPTH
 STOP.F         5688.0000:   STOP DEPTH
 STEP.F            0.5000:   STEP LENGTH
 NULL.          -999.2500:   NO VALUE
 COMP.       FLUOR DANIEL:   COMPANY
 WELL.   FLUOR "X" #53-10:   WELL
 FLD .           N.P.R #3:   FIELD
 LOC .      S10 T38N R78W:   LOCATION
 CNTY.            NATRONA:   COUNTY
 STAT.            WYOMING:   STATE
 CTRY. UNITED STATES OF AMERICA:   COUNTRY
 SRVC.      WESTERN ATLAS:   SERVICE COMPANY
 DATE.        23-MAR-1997:   LOGDATE
 API .     49025228470000:   API NUMBER
~CURVE INFORMATION
#MNEM.UNIT       API CODE    CURVE DESCRIPTION
#----------   ------------   ------------------------------
 DEPT.F                  :   
 CNC .DEC    42 890 03 00:   NEUTRON POROSITY SANDSTONE
 TEND.LBS    45 635 01 00:   TENSION FORM DENSITY LOG
 GRD .GAPI   45 310 01 00:   GAMMA RAY FROM DENSITY LOG
 CALD.IN     45 280 60 00:   CALIPER FROM DENSITY LOG
 ZDEN.G/C3   45 350 01 00:   BULK DENSITY
 ZCOR.G/C3   45 356 01 00:   DENSITY CORRECTION
 PE  .B/E    45 358 01 00:   PHOTOELECTRIC FACTOR
 R4SL.OHMM   07 000 00 00:   RESISTIVITY DEL 4
 R2SL.OHMM   07 000 00 00:   RESISTIVITY DEL 2
~PARAMETER INFORMATION
#MNEM.UNIT          VALUE    DESCRIPTION
#----------   ------------   ------------------------------
 EKB .F         5182.0000:   Kelly bushing
 EGL .F         5172.0000:   Ground level
 EDF .F         5181.0000:   Drilling floor
 EPD .F         5172.0000:   Permanent datum
 TD  .F         5690.0000:   Total depth
 CLNT.            A2DTECH:   Client Code
 SL  . 1183' FNL & 2118' FEL:   Surface Location
 PD  .                 GL:   Permanent Datum
 LMF .                 KB:   Log Measured From
 DMF .                 KB:   Drilling Measured From
 DAPD.F                10:   Feet Above Permanent Datum
 DATE.        23-MAR-1997:   Date Logged [DD-MMM-YYYY]
 DD  .F              5690:   Depth driller
 DL  .F              5688:   Depth logger
 BLI .F              5648:   Bottom log interval
 TLI .F              2200:   Top log interval
 CS1 .IN            9.625:   Casing size
 CBD1.      9.625" @ 446':   Casing driller 1
 CBL1.F               452:   Casing logger 1
 BS1 .IN             8.75:   Bit size
 BSD1.F              5690:   Depth drilled with bit1
 DFT .           GEL CHEM:   Type fluid in hole
 DFD .                9.8:   Density
 DFV .                 66:   Viscosity
 DFPH.                8.5:   pH
 DFL .                8.4:   Fluid loss
 MSS .              CIRC.:   Source of sample
 RMS .OHMM            1.1:   Rm
 MST .F                73:   Rm Meas. temp.
 RMF .OHMM           0.87:   Rmf
 MFST.F                73:   Rmf Meas. temp.
 MFSS.               CALC:   Source Rmf.
 RMC .OHMM           1.35:   Rmc
 MCST.F                73:   Rmc Meas. temp.
 MCSS.               CALC:   Source Rmc.
 RMB .OHMM           0.46:   Rm. at BHT
 BHT .F               174:   BHT.
 TCS .HRS               5:   Time Circ. stopped
 MRT .F               174:   Maximum recorded temp.
 LUN .            HL 6530:   Logging unit number
 LUL .          CASPER WY:   Logging unit location
 ENGI.           BROWNLOW:   Recorded By
 WITN.              HARDY:   Witnessed by
 ORIG.     2.5", 5" PRINT:   Origin of data
 UWI .     49025228470000:   Unique Well ID
 DICO. A2D TECHNOLOGIES, INC.:   Digitizing Company
~OTHER INFORMATION
~A  DEPTH      CNC       TEND        GRD       CALD       ZDEN       ZCOR         PE       R4SL       R2SL
# ...
 3316.5000     0.3309    -3.4613   147.2148     8.9717     2.4758     0.0432     2.8836  -999.2500  -999.2500
 3317.0000     0.3315   -10.7144   148.0964     8.9723     2.4943     0.0552     2.8684  -999.2500  -999.2500
 3317.5000     0.3300   -25.3862   146.8988     8.9880     2.5480     0.0852     2.9880  -999.2500  -999.2500
 3318.0000     0.3184   -25.1655   136.0614     9.0036     2.6556     0.0642     3.9472  -999.2500  -999.2500
 3318.5000     0.3101   -24.9447   111.0673     9.0193     2.7520    -0.0100     5.6411  -999.2500  -999.2500
 3319.0000     0.3092   -24.7241    93.9046     9.0349     2.7332    -0.0574     6.1545  -999.2500  -999.2500
 3319.5000     0.3116   -24.5034    95.4165     9.0355     2.5865    -0.0289     4.9808  -999.2500  -999.2500
 3320.0000     0.3447   -24.2827   114.0972     9.0361     2.4810     0.0340     3.8261  -999.2500  -999.2500
 3320.5000     0.3465   -24.0619   136.9947     9.0367     2.4578     0.0520     2.8952  -999.2500  -999.2500
 3321.0000     0.3356   -23.8412   146.0368     9.0223     2.4570     0.0475     2.8510  -999.2500  -999.2500
 3321.5000     0.3278   -23.6173   149.9584     9.0230     2.4578     0.0549     2.8956  -999.2500  -999.2500
 3322.0000     0.3272   -15.9192   149.0607     9.0385     2.4548     0.0594     2.9703  -999.2500  -999.2500
 3322.5000     0.3278    -6.8421   148.1616     9.0392     2.4510     0.0624     3.0299  -999.2500  -999.2500
 3323.0000     0.3284    -0.4816   149.9762     9.0398     2.4547     0.0593     3.0447  -999.2500  -999.2500
 3323.5000     0.3305    -0.2609   152.6930     9.0404     2.4622     0.0518     3.0294  -999.2500  -999.2500
 3324.0000     0.3416   -14.9878   153.6026     9.0561     2.4682     0.0428     3.0290  -999.2500  -999.2500
 3324.5000     0.3494   -14.7671   153.3073     9.0567     2.4645     0.0368     2.9987  -999.2500  -999.2500
 3325.0000     0.3509   -14.5464   153.6145     9.0723     2.4600     0.0427     2.9685  -999.2500  -999.2500
 3325.5000     0.3506   -14.3257   154.2228     9.0729     2.4570     0.0457     2.9832  -999.2500  -999.2500
 3326.0000     0.3461   -14.1049   152.6585     9.0583     2.4571     0.0427     3.0129  -999.2500  -999.2500
 3326.5000     0.3386   -13.8842   150.2227     9.0591     2.4647     0.0321     3.0575  -999.2500  -999.2500
 3327.0000     0.3346   -13.6635   149.1202     9.0597     2.4719     0.0276     3.0873  -999.2500  -999.2500
 3327.5000     0.3326   -13.4428   150.3324     9.0753     2.4756     0.0276     3.0569  -999.2500  -999.2500
 3328.0000     0.3332   -13.2220   153.6516     9.0608     2.4779     0.0307     3.0417  -999.2500  -999.2500
 3328.5000     0.3356   -13.0013   155.7660     9.0614     2.4689     0.0339     3.0264  -999.2500  -999.2500
 3329.0000     0.3404   -20.2544   153.3623     9.0620     2.4606     0.0500     3.0411  -999.2500  -999.2500
 3329.5000     0.3416   -20.0299   147.0429     9.0627     2.4539     0.0604     3.0558  -999.2500  -999.2500
 3330.0000     0.3347   -19.8056   144.3380     9.0634     2.4509     0.0649     3.0855  -999.2500  -999.2500
 3330.5000     0.3314   -19.5372   144.0413     9.0640     2.4569     0.0499     3.1151  -999.2500  -999.2500
 3331.0000     0.3302   -19.3165   143.8555     9.0646     2.4606     0.0394     3.1468  -999.2500  -999.2500
 3331.5000     0.3283   -26.6248   142.8499     9.0499     2.4636     0.0288     3.1595  -999.2500  -999.2500
 3332.0000     0.3246   -26.3488   141.9507     9.0355     2.4643     0.0228     3.0392  -999.2500  -999.2500
 3332.5000     0.3223   -26.1281   141.0530     9.0212     2.4718     0.0258     2.9190  -999.2500  -999.2500
 3333.0000     0.3238   -33.4364   140.7593     9.0368     2.4808     0.0318     2.7988  -999.2500  -999.2500
 3333.5000     0.3235   -40.6895   141.0664     9.0525     2.4868     0.0377     2.7385  -999.2500  -999.2500
 3334.0000     0.3181   -40.4136   142.2772     9.0681     2.4898     0.0392     2.7082  -999.2500  -999.2500
 3334.5000     0.3163   -40.1929   142.5843     9.0687     2.4873     0.0377     2.6930  -999.2500  -999.2500
 3335.0000     0.3172   -39.9722   143.2322     9.0693     2.4778     0.0331     2.7227  -999.2500  -999.2500
 3335.5000     0.3229   -39.7514   147.5609     9.0699     2.4695     0.0271     2.7374  -999.2500  -999.2500
 3336.0000     0.3326   -39.5307   151.3897     9.0705     2.4635     0.0256     2.7970  -999.2500  -999.2500
 3336.5000     0.3405   -31.8362   149.8385     9.0711     2.4598     0.0360     2.8567  -999.2500  -999.2500
 3337.0000     0.3422   -24.1405   148.3369     9.0566     2.4568     0.0405     2.9163  -999.2500  -999.2500
 3337.5000     0.3397   -23.9163   148.0417     9.0422     2.4530     0.0402     2.9160  -999.2500  -999.2500
 3338.0000     0.3379   -16.2182   145.6395     9.0269     2.4515     0.0354     2.9007  -999.2500  -999.2500
 3338.5000     0.3379   -15.9504   140.8261     9.0132     2.4575     0.0269     2.8855  -999.2500  -999.2500
 3339.0000     0.3385   -15.7297   137.2176     9.0440     2.4650     0.0209     2.8701  -999.2500  -999.2500
 3339.5000     0.3406    -8.0351   136.0187     9.0598     2.4687     0.0164     2.8698  -999.2500  -999.2500
 3340.0000     0.3439    -0.3958   137.2295     9.0603     2.4597     0.0193     2.8695  -999.2500  -999.2500
 3340.5000     0.3466   -15.1228   139.0427     9.0609     2.4522     0.0238     2.8692  -999.2500  -999.2500
 3341.0000     0.3530   -22.3759   140.2534     9.0463     2.4477     0.0274     2.8539  -999.2500  -999.2500
 3341.5000     0.3547    -7.1523   141.1630     9.0320     2.4455     0.0312     2.8386  -999.2500  -999.2500
 3342.0000     0.3505    15.4900   143.8798     9.0326     2.4507     0.0357     2.8084  -999.2500  -999.2500
 3342.5000     0.3424    15.7107   145.6930     9.0483     2.4537     0.0334     2.7781  -999.2500  -999.2500
 3343.0000     0.3367     8.4024   145.3976     9.0639     2.4522     0.0312     2.7778  -999.2500  -999.2500
 3343.5000     0.3367    -6.2780   144.8013     9.0645     2.4507     0.0311     2.8075  -999.2500  -999.2500
 3344.0000     0.3367   -20.9964   146.9323     9.0651     2.4514     0.0326     2.9721  -999.2500  -999.2500
 3344.5000     0.3355   -20.7756   148.7533     9.0505     2.4522     0.0326     3.1367  -999.2500  -999.2500
 3345.0000     0.3313   -13.0792   149.6384     9.0362     2.4484     0.0355     3.1514  -999.2500  -999.2500
 3345.5000     0.3262   -13.5816   146.1617     9.0368     2.4431     0.0475     3.0912  -999.2500  -999.2500
 3346.0000     0.3271   -20.1135   144.5298     9.0072     2.4394     0.0505     3.0589  -999.2500  -999.2500
 3346.5000     0.3310   -27.3666   146.9468     9.0078     2.4417     0.0369     3.0305  -999.2500  -999.2500
 3347.0000     0.3346   -34.5645   146.9528     9.0235     2.4447     0.0264     3.0152  -999.2500  -999.2500
 3347.5000     0.3361   -26.8699   146.0551     9.0241     2.4461     0.0234     3.0300  -999.2500  -999.2500
 3348.0000     0.3388   -26.6492   145.0055     9.0247     2.4491     0.0368     3.0447  -999.2500  -999.2500
 3348.5000     0.3475   -11.4808   145.3308     9.0554     2.4506     0.0428     3.0744  -999.2500  -999.2500
 3349.0000     0.3508   -11.2601   147.1644     9.0561     2.4484     0.0458     3.0891  -999.2500  -999.2500
 3349.5000     0.3535    -3.5655   148.6963     9.0718     2.4469     0.0413     3.0288  -999.2500  -999.2500
 3350.0000     0.3640    -3.3448   148.1166     9.0572     2.4431     0.0382     2.9085  -999.2500  -999.2500
 3350.5000     0.3766   -10.6532   146.9277     9.0579     2.4379     0.0397     2.7883  -999.2500  -999.2500
 3351.0000     0.3727   -10.3773   148.4655     9.0585     2.4341     0.0398     2.7580  -999.2500  -999.2500
 3351.5000     0.3681   -17.6304   150.6007     9.0591     2.4312     0.0413     2.7277  -999.2500  -999.2500
 3352.0000     0.3629   -24.8835   150.9261     9.0597     2.4334     0.0413     2.7274  -999.2500  -999.2500
 3352.5000     0.3584   -32.1366   150.9502     9.0603     2.4342     0.0412     2.7271  -999.2500  -999.2500
