~VERSION INFORMATION
 VERS.                2.0:   CWLS LOG ASCII STANDARD - VERSION 2.0
 WRAP.                 NO:   ONE LINE PER DEPTH STEP
~WELL INFORMATION
#MNEM.UNIT      DATA TYPE    INFORMATION
#----------   ------------   ------------------------------
 STRT.F           16.0000:   START DEPTH
 STOP.F         4208.0000:   STOP DEPTH
 STEP.F            0.5000:   STEP LENGTH
 NULL.          -999.2500:   NO VALUE
 COMP.    FENIX & SCISSON:   COMPANY
 WELL. FENIX NPR 3 "MX" #41-10:   WELL
 FLD .                NPR:   FIELD
 LOC .      S10 T38N R78W:   LOCATION
 CNTY.            NATRONA:   COUNTY
 STAT.            WYOMING:   STATE
 CTRY. UNITED STATES OF AMERICA:   COUNTRY
 SRVC.       SCHLUMBERGER:   SERVICE COMPANY
 DATE.        04-NOV-1978:   LOGDATE
 API .     49025107260000:   API NUMBER
~CURVE INFORMATION
#MNEM.UNIT       API CODE    CURVE DESCRIPTION
#----------   ------------   ------------------------------
 DEPT.F                  :   
 TENR.LBS    07 635 01 00:   TENSION FROM RESISTIVITY
 SPR .MV     07 010 01 00:   SPONTANEOUS POTENTIAL
 SFL .OHMM   07 220 01 00:   SHALLOW FOCUSED LOG RESISTIVITY
 ILD .OHMM   07 120 46 00:   DEEP INDUCTION RESISTIVITY
 ILM .OHMM   07 120 44 00:   INDUCTION LOG MEDIUM RESISTIVITY
 CALD.IN     45 280 60 00:   CALIPER FROM DENSITY LOG
 GRD .GAPI   45 310 01 00:   GAMMA RAY FROM DENSITY LOG
 TEND.LBS    45 635 01 00:   TENSION FROM DENSITY LOG
 RHOB.G/C3   45 350 01 00:   BULK DENSITY
 CORR.G/C3   45 356 01 00:   DENSITY CORRECTION
 NPHI.DEC    42 890 03 00:   NEUTRON POROSITY SANDSTONE
~PARAMETER INFORMATION
#MNEM.UNIT          VALUE    DESCRIPTION
#----------   ------------   ------------------------------
 EKB .F         5237.0000:   Kelly bushing
 EGL .F         5227.0000:   Ground level
 EDF .F            0.0000:   Drilling floor
 TD  .F         4200.0000:   Total depth
 DATE.        04-NOV-1978:   Date logged
 CLNT.            A2DTECH:   Client Code
 SL  . 70' FNL & 2370' FWL:   Surface Location
 PD  .                 GL:   Permanent Datum
 EPD .F              5227:   Elevation Permanent Datum
 LMF .                 KB:   Log Measured From
 DMF .                 KB:   Drilling Measured From
 DAPD.F                10:   Feet Above Permanent Datum
 DD  .F              4200:   Depth driller
 DL  .F              4191:   Depth logger
 BLI .F              4185:   Bottom log interval
 TLI .F               506:   Top log interval
 CS1 .IN            9.625:   Casing size
 CBD1.      9.625" @ 500':   Casing driller 1
 CBL1.F               506:   Casing logger 1
 BS1 .IN             8.75:   Bit size
 BSD1.F              4200:   Depth drilled with bit1
 DFT .                FGM:   Type fluid in hole
 DFD .                9.3:   Density
 DFV .                 42:   Viscosity
 DFPH.               11.5:   pH
 DFL .                6.4:   Fluid loss
 MSS .               TANK:   Source of sample
 RMS .OHMM           1.08:   Rm
 MST .F                67:   Rm Meas. temp.
 RMF .OHMM           0.83:   Rmf
 MFST.F                67:   Rmf Meas. temp.
 MFSS.               MEAS:   Source Rmf.
 RMB .OHMM           0.58:   Rm. at BHT
 BHT .F               125:   BHT.
 TCS .HRS            0430:   Time Circ. stopped
 TLAB.HRS            0830:   Time logger at bottom
 MRT .F               125:   Maximum recorded temp.
 LUN .               8039:   Logging unit number
 LUL .               CSPR:   Logging unit location
 ENGI.          STADULLIS:   Recorded By
 WITN.              AMEND:   Witnessed by
 ORIG.           5" PRINT:   Origin of data
 UWI .     49025107260000:   Unique Well ID
 DICO. A2D TECHNOLOGIES, INC.:   Digitizing Company
~OTHER INFORMATION
~A   DEPT     TENR        SPR        SFL        ILD        ILM       CALD         GRD      TEND       RHOB       CORR       NPHI   
# ...
 2212.0000   963.8950   -16.3680     7.6720     5.7220     5.4300    10.4340   127.4600  1227.8630     2.4520     0.0120     0.3160
 2212.5000   963.7740   -16.3700     7.8970     5.9020     5.6690    10.4330   126.9740  1228.2080     2.4550     0.0070     0.3100
 2213.0000   963.6530   -16.3670     7.9920     6.0810     5.8740    10.4330   125.5460  1228.5540     2.4590     0.0070     0.3090
 2213.5000   963.5330   -16.3680     8.0880     6.1800     6.0670    10.4310   123.0290  1228.9000     2.4630     0.0060     0.3130
 2214.0000   963.4120   -16.3770     8.1560     6.1800     5.9850    10.4250   121.1290  1229.2460     2.4660     0.0060     0.3230
 2214.5000   963.2920   -16.3490     7.7520     6.1800     5.9080    10.4190   121.6770  1229.5909     2.4640     0.0060     0.3360
 2215.0000   963.1710   -16.5300     7.3030     6.1800     5.8320    10.4130   122.4190  1229.9370     2.4690     0.0190     0.3370
 2215.5000   963.0510   -16.5680     6.8540     6.1800     5.7390    10.4070   123.5500  1230.2830     2.4940     0.0330     0.3410
 2216.0000   962.9300   -16.5740     6.4050     6.1800     5.7850    10.4000   124.6690  1230.6290     2.5230     0.0620     0.3480
 2216.5000   962.8100   -16.5570     6.0670     6.1800     5.8950    10.3940   124.8670  1230.9740     2.5390     0.0940     0.3730
 2217.0000   962.6890   -16.5890     6.8600     6.3700     6.0050    10.3510   124.3600  1231.3199     2.5150     0.0830     0.3690
 2217.5000   962.5690   -16.4060     7.7820     6.5910     6.1160    10.2920   124.4110  1231.6660     2.4950     0.0590     0.3550
 2218.0000   962.4480   -16.3770     8.7040     6.7790     6.2260    10.2340   126.0530  1232.0120     2.4880     0.0360     0.3290
 2218.5000   962.3280   -16.3770     9.2830     6.5150     6.4130    10.1910   127.7020  1232.3571     2.4900     0.0380     0.3140
 2219.0000   962.2070   -16.3920     8.9210     6.2860     6.2390    10.2150   126.7100  1232.7030     2.4910     0.0420     0.3200
 2219.5000   962.0870   -16.3950     8.3150     6.0670     5.9480    10.2430   122.2190  1233.0490     2.4940     0.0460     0.3260
 2220.0000   961.9660   -16.4020     7.7090     5.7150     5.6570    10.2720   118.5830  1233.3940     2.5010     0.0490     0.3240
 2220.5000   961.8460   -16.4100     7.1030     5.3790     5.3660    10.3010   116.9000  1233.7400     2.5070     0.0530     0.3180
 2221.0000   961.7250   -16.4160     6.4960     5.0440     5.0750    10.3300   117.0620  1234.0861     2.5060     0.0530     0.3130
 2221.5000   961.6040   -16.4230     5.8900     4.7080     4.7840    10.3590   120.3800  1234.4320     2.4840     0.0440     0.3250
 2222.0000   961.4840   -16.4300     5.2840     4.3720     4.4930    10.3910   123.2540  1234.7770     2.4550     0.0420     0.3480
 2222.5000   961.3630   -16.4370     4.6780     4.1140     4.3280    10.4090   123.2040  1235.1230     2.4280     0.0550     0.3840
 2223.0000   961.2430   -16.4440     4.2690     4.5880     4.5780    10.4330   116.4940  1235.4690     2.3970     0.0730     0.4160
 2223.5000   961.1220   -16.4500     5.4100     5.1480     4.8290    10.4130   115.2190  1235.8149     2.3840     0.0550     0.3990
 2224.0000   961.0020   -16.4570     7.0830     5.6340     5.0420    10.3660   113.6710  1236.1600     2.3970     0.0310     0.3730
 2224.5000   960.8810   -16.4640     9.4560     5.4870     4.8350    10.3140   112.4880  1236.5060     2.4550     0.0200     0.3470
 2225.0000   960.7610   -16.4710     9.2850     5.0730     4.5560    10.2670   111.2860  1236.8521     2.5250     0.0250     0.3210
 2225.5000   960.6400   -16.4780     8.0450     4.6590     4.2760    10.2720   109.8370  1237.1980     2.5190     0.0330     0.3050
 2226.0000   960.5200   -16.4850     6.7190     4.1910     3.9970    10.2780   111.1250  1237.5430     2.5020     0.0400     0.3070
 2226.5000   960.3990   -16.4910     5.3940     4.0470     3.7180    10.2970   113.0080  1237.8890     2.4830     0.0500     0.3170
 2227.0000   960.2790   -16.4980     4.0690     3.8810     3.4190    10.3070   112.9240  1238.2350     2.4700     0.0680     0.3360
 2227.5000   960.1580   -16.5050     2.9490     3.7150     3.3850    10.3440   110.5290  1238.5811     2.4640     0.0890     0.3550
 2228.0000   960.0380   -16.5120     2.8950     3.5490     3.3490    10.3520   108.6130  1238.9260     2.4470     0.1140     0.3780
 2228.5000   959.9170   -16.5190     3.7670     3.4550     3.3120    10.3460   105.9900  1239.2720     2.4290     0.1040     0.3650
 2229.0000   959.7970   -16.5260     4.5970     3.4090     3.2760    10.3250   108.0150  1239.6180     2.4240     0.0680     0.3420
 2229.5000   959.6760   -16.5330     4.5280     3.3570     3.2350    10.3010   110.2060  1239.9630     2.4360     0.0500     0.3200
 2230.0000   959.5550   -16.5390     4.2820     3.3190     3.1760    10.4160   112.6700  1240.3090     2.4470     0.0550     0.3050
 2230.5000   959.4350   -16.5460     4.0360     3.2760     3.1060    10.5790   114.3650  1240.6550     2.4470     0.0720     0.3040
 2231.0000   959.3140   -16.5540     3.7900     3.2340     3.0890    10.7180   115.4990  1241.0010     2.4330     0.0900     0.3100
 2231.5000   959.1940   -16.5590     3.5440     3.1760     3.0650    10.8240   116.6090  1241.3459     2.4190     0.1160     0.3380
 2232.0000   959.0730   -16.5660     3.2950     3.2580     3.0920    10.6790   117.7410  1241.6920     2.3710     0.1240     0.3680
 2232.5000   958.9530   -16.5240     3.4560     3.3890     3.2220    10.5470   117.4970  1242.0380     2.3410     0.0960     0.3620
 2233.0000   958.8320   -16.4720     3.8010     3.5200     3.3520    10.4570   116.9610  1242.3840     2.3530     0.0180     0.3520
 2233.5000   958.7120   -16.4230     3.9650     3.6510     3.4820    10.4410   118.7610  1242.7290     2.4040     0.0330     0.3510
 2234.0000   958.5910   -16.3700     4.0530     3.7820     3.6150    10.4190   121.9390  1243.0750     2.4520     0.0450     0.3570
 2234.5000   958.4710   -16.3690     4.2850     3.9130     3.9300    10.3930   125.0070  1243.4210     2.4720     0.0540     0.3450
 2235.0000   958.3500   -16.3760     5.1340     4.0390     4.2520    10.3970   127.0160  1243.7670     2.4650     0.0290     0.3160
 2235.5000   958.2300   -16.3480     5.4300     4.3890     4.5740    10.3990   129.2200  1244.1121     2.4680     0.0130     0.3150
 2236.0000   958.1090   -16.5310     5.5220     4.7270     4.8970    10.4040   130.2070  1244.4580     2.4780     0.0070     0.3230
 2236.5000   957.9890   -16.5650     5.6340     5.0640     5.2190    10.4080   127.9690  1244.8040     2.4850     0.0090     0.3340
 2237.0000   957.8680   -16.5730     6.2640     5.4020     5.5420    10.4120   125.7750  1245.1500     2.4930     0.0120     0.3470
 2237.5000   957.7480   -16.5640     6.9350     5.7390     5.7390    10.4160   123.2000  1245.4950     2.5010     0.0150     0.3440
 2238.0000   957.6270   -16.5680     7.7160     5.7170     5.7390    10.4200   121.7490  1245.8409     2.5100     0.0090     0.3380
 2238.5000   957.5070   -16.5680     7.7160     5.6940     5.7390    10.4230   122.1170  1246.1870     2.5140     0.0100     0.3140
 2239.0000   957.3860   -16.5670     7.1750     5.6710     5.7390    10.4270   125.0170  1246.5320     2.5160     0.0220     0.3190
 2239.5000   957.2650   -16.5680     6.6670     5.6490     5.7390    10.4320   127.5710  1246.8781     2.5270     0.0330     0.3300
 2240.0000   957.1450   -16.5670     6.3090     5.6340     5.7390    10.4210   130.3560  1247.2240     2.5250     0.0430     0.3400
 2240.5000   957.0240   -16.5670     6.1800     5.7870     6.0140    10.3880   132.9190  1247.5699     2.5050     0.0370     0.3520
 2241.0000   956.9040   -16.5670     6.1800     5.9470     6.3000    10.3560   135.6320  1247.9150     2.4980     0.0260     0.3470
 2241.5000   956.7830   -16.5670     6.8170     6.1380     6.5860    10.3250   135.3570  1248.2610     2.5040     0.0140     0.3370
 2242.0000   956.6630   -16.5670     7.4390     6.4280     6.8720    10.2930   134.1880  1248.6071     2.5070     0.0110     0.3260
